timestamp,TimeUS,I,Status,GMS,GWk,NSats,HDop,Lat,Lng,Alt,Spd,GCrs,VZ,Yaw,U
1682374384.59999990,10867170,0,3,166402600,2259,16,1.24,42.689985799999995,-84.4887732,262.29,0.002828427357599139,225.0,0.01100000087171793,0.0,1
1682374384.80001187,11067182,0,3,166402800,2259,16,1.24,42.689986,-84.488773,262.33,0.01984943449497223,229.0856170654297,0.020000001415610313,0.0,1
1682374385.00013089,11267301,0,3,166403000,2259,16,1.24,42.6899861,-84.48877279999999,262.38,0.02402082458138466,267.61407470703125,0.0990000069141388,0.0,1
1682374385.20013189,11467302,0,3,166403200,2259,16,1.24,42.6899862,-84.48877259999999,262.41,0.014212671667337418,39.289405822753906,-0.030000001192092896,0.0,1
1682374385.40001488,11667185,0,3,166403400,2259,16,0.66,42.689986399999995,-84.4887725,262.46,0.027018513530492783,321.0090026855469,-0.039000000804662704,0.0,1
1682374385.60014772,11867318,0,3,166403600,2259,16,0.66,42.689986399999995,-84.4887723,262.5,0.014764823950827122,208.30076599121094,0.03100000135600567,0.0,1
1682374385.80019379,12067364,0,3,166403800,2259,16,0.66,42.689986499999996,-84.4887722,262.54,0.012000000104308128,270.0,0.05100000277161598,0.0,1
1682374386.02022886,12287399,0,3,166404000,2259,16,0.66,42.6899866,-84.488772,262.58,0.007810249924659729,230.19442749023438,0.024000000208616257,0.0,1
1682374386.20024276,12467413,0,3,166404200,2259,16,0.66,42.6899866,-84.4887719,262.61,0.03471311181783676,258.3663635253906,0.02800000086426735,0.0,1
1682374386.40012789,12667298,0,3,166404400,2259,16,0.66,42.6899866,-84.4887718,262.64,0.019235385581851006,261.0273742675781,-0.021000001579523087,0.0,1
1682374386.60060191,12867772,0,3,166404600,2259,16,0.66,42.6899866,-84.4887717,262.67,0.004472136031836271,116.5650405883789,0.013000000268220901,0.0,1
1682374386.80069375,13067864,0,3,166404800,2259,16,0.66,42.6899866,-84.4887715,262.71,0.005656854715198278,135.0,-0.013000000268220901,0.0,1
1682374387.00078487,13267955,0,3,166405000,2259,16,0.66,42.6899867,-84.48877139999999,262.75,0.01910497434437275,263.9909973144531,0.06000000238418579,0.0,1
1682374387.20080185,13467972,0,3,166405200,2259,16,0.66,42.6899867,-84.4887712,262.8,0.02024845778942108,339.775146484375,-0.0560000017285347,0.0,1
1682374387.40080786,13667978,0,3,166405400,2259,16,0.66,42.6899867,-84.488771,262.84000000000003,0.015811389312148094,108.43494415283203,0.0010000000474974513,0.0,1
1682374387.60073972,13867910,0,3,166405600,2259,16,0.66,42.6899867,-84.48877089999999,262.87,0.005099019967019558,11.309930801391602,-0.020000001415610313,0.0,1
1682374387.80055785,14067728,0,3,166405800,2259,16,0.66,42.6899868,-84.48877069999999,262.9,0.03584690019488335,329.8586120605469,0.02500000037252903,0.0,1
1682374388.02015185,14287322,0,3,166406000,2259,16,0.66,42.6899868,-84.4887706,262.93,0.013000000268220901,337.380126953125,-0.05900000408291817,0.0,1
1682374388.20042872,14467599,0,3,166406200,2259,16,0.66,42.6899868,-84.4887705,262.95,0.018027756363153458,250.55996704101562,-0.024000000208616257,0.0,1
1682374388.40043592,14667606,0,3,166406400,2259,16,0.66,42.6899869,-84.48877039999999,262.98,0.018027756363153458,236.3099365234375,0.11300000548362732,0.0,1
1682374388.62037182,14887542,0,3,166406600,2259,16,0.66,42.6899869,-84.4887703,262.98,0.00984885822981596,156.03750610351562,-0.0020000000949949026,0.0,1
1682374388.80057788,15067748,0,3,166406800,2259,16,0.66,42.6899868,-84.48877019999999,262.99,0.0402616448700428,165.61859130859375,-0.01100000087171793,0.0,1
1682374389.00050282,15267673,0,3,166407000,2259,16,0.66,42.6899868,-84.4887701,263.02,0.04753946140408516,202.2490234375,0.15000000596046448,0.0,1
1682374389.20044589,15467616,0,3,166407200,2259,16,0.66,42.6899868,-84.4887701,263.02,0.002828427357599139,135.0,0.026000000536441803,0.0,1
1682374389.40045881,15667629,0,3,166407400,2259,16,0.66,42.6899868,-84.48877,263.03000000000003,0.006000000052154064,180.0,0.03700000047683716,0.0,1
1682374389.60055590,15867726,0,3,166407600,2259,16,0.66,42.6899869,-84.4887699,263.04,0.0036055513191968203,56.309932708740234,-0.018000001087784767,0.0,1
1682374389.80055690,16067727,0,3,166407800,2259,16,0.66,42.6899869,-84.4887698,263.06,0.005656854715198278,225.0,0.06400000303983688,0.0,1
1682374390.00043678,16267607,0,3,166408000,2259,16,0.66,42.6899869,-84.48876969999999,263.07,0.010630146600306034,221.18592834472656,0.08000000566244125,0.0,1
1682374390.20042586,16467596,0,3,166408200,2259,16,0.66,42.689986999999995,-84.4887696,263.08,0.020518286153674126,313.02508544921875,0.02500000037252903,0.0,1
1682374390.40058684,16667757,0,3,166408400,2259,16,0.66,42.689987099999996,-84.4887696,263.07,0.007000000216066837,0.0,0.05000000074505806,0.0,1
1682374390.60057473,16867745,0,3,166408600,2259,16,0.66,42.689987099999996,-84.48876949999999,263.07,0.022472206503152847,327.724365234375,0.03500000014901161,0.0,1
1682374390.80051970,17067690,0,3,166408800,2259,16,0.66,42.6899872,-84.48876949999999,263.07,0.019235385581851006,188.97262573242188,-0.0020000000949949026,0.0,1
1682374391.00042892,17267599,0,3,166409000,2259,16,0.66,42.6899872,-84.4887694,263.09000000000003,0.010295630432665348,209.05459594726562,0.0560000017285347,0.0,1
1682374391.20047688,17467647,0,3,166409200,2259,16,0.66,42.6899872,-84.4887693,263.09000000000003,0.01345362514257431,228.01278686523438,0.04100000113248825,0.0,1
1682374391.40057373,17667744,0,3,166409400,2259,16,0.66,42.6899872,-84.4887693,263.08,0.015000000596046448,216.86990356445312,0.026000000536441803,0.0,1
1682374391.60054970,17867720,0,3,166409600,2259,16,0.66,42.6899872,-84.4887693,263.07,0.011661904864013195,300.9637451171875,0.0560000017285347,0.0,1
1682374391.80022287,18067393,0,3,166409800,2259,16,0.66,42.6899873,-84.4887692,263.06,0.010630146600306034,131.1859130859375,0.005000000353902578,0.0,1
1682374392.02030277,18287473,0,3,166410000,2259,16,0.66,42.6899873,-84.4887692,263.06,0.013892444781959057,300.2564392089844,0.00800000037997961,0.0,1
1682374392.20029879,18467469,0,3,166410200,2259,16,0.66,42.6899873,-84.4887692,263.05,0.005656854715198278,225.0,0.05900000408291817,0.0,1
1682374392.40035987,18667530,0,3,166410400,2259,16,0.66,42.6899873,-84.4887691,263.03000000000003,0.01303840521723032,94.39869689941406,0.004000000189989805,0.0,1
1682374392.60022092,18867391,0,3,166410600,2259,16,0.66,42.6899873,-84.48876899999999,263.03000000000003,0.02402082458138466,177.61404418945312,0.08700000494718552,0.0,1
1682374392.80016375,19067334,0,3,166410800,2259,16,0.66,42.6899873,-84.48876899999999,263.0,0.0072111026383936405,213.69007873535156,0.024000000208616257,0.0,1
1682374393.00018573,19267356,0,3,166411000,2259,16,0.66,42.6899873,-84.4887689,263.0,0.0305941179394722,191.3099365234375,0.16200000047683716,0.0,1
1682374393.20033193,19467502,0,3,166411200,2259,16,0.66,42.6899873,-84.4887688,262.99,0.01303840521723032,265.601318359375,0.024000000208616257,0.0,1
1682374393.40026975,19667440,0,3,166411400,2259,16,0.66,42.6899873,-84.4887688,262.99,0.0187882948666811,25.201122283935547,-0.05100000277161598,0.0,1
1682374393.60014892,19867319,0,3,166411600,2259,16,0.66,42.6899874,-84.4887687,263.0,0.031906113028526306,302.19573974609375,0.032999999821186066,0.0,1
1682374393.80017376,20067344,0,3,166411800,2259,16,0.66,42.6899875,-84.4887687,263.01,0.030083218589425087,344.5778503417969,0.04100000113248825,0.0,1
1682374394.02059984,20287770,0,3,166412000,2259,16,0.66,42.6899875,-84.4887686,263.0,0.03448187932372093,150.46121215820312,0.055000003427267075,0.0,1
1682374394.22049785,20487668,0,3,166412200,2259,16,0.66,42.6899875,-84.48876849999999,262.99,0.02325940877199173,25.463342666625977,-0.046000003814697266,0.0,1
1682374394.40019488,20667365,0,3,166412400,2259,16,0.66,42.689987599999995,-84.48876849999999,263.0,0.007810249924659729,39.805572509765625,0.003000000026077032,0.0,1
1682374394.60018992,20867360,0,3,166412600,2259,16,0.66,42.689987599999995,-84.4887684,263.0,0.0360138900578022,178.40884399414062,0.06599999964237213,0.0,1
1682374394.80021071,21067381,0,3,166412800,2259,16,0.66,42.689987599999995,-84.4887684,262.99,0.013000000268220901,337.380126953125,0.023000001907348633,0.0,1
1682374395.00033283,21267503,0,3,166413000,2259,16,0.66,42.689987699999996,-84.48876829999999,262.99,0.02280350960791111,195.255126953125,0.07000000029802322,0.0,1
1682374395.20032692,21467497,0,3,166413200,2259,16,0.66,42.689987699999996,-84.48876829999999,262.99,0.00824621133506298,284.0362548828125,0.014000000432133675,0.0,1
1682374395.42032981,21687500,0,3,166413400,2259,16,0.66,42.6899878,-84.4887682,263.0,0.021954499185085297,300.0685729980469,0.07000000029802322,0.0,1
1682374395.60015178,21867322,0,3,166413600,2259,16,0.66,42.6899879,-84.4887682,262.99,0.01612451672554016,82.8749771118164,0.0020000000949949026,0.0,1
1682374395.80031276,22067483,0,3,166413800,2259,16,0.66,42.6899879,-84.4887682,262.98,0.012000000104308128,180.0,0.014000000432133675,0.0,1
1682374396.04017878,22307349,0,3,166414000,2259,16,0.66,42.689988,-84.4887681,262.98,0.009486833587288857,71.56504821777344,0.03200000151991844,0.0,1
1682374396.20054579,22467716,0,3,166414200,2259,16,0.66,42.6899881,-84.4887681,262.98,0.029154760763049126,185.90615844726562,0.07000000029802322,0.0,1
1682374396.40044570,22667616,0,3,166414400,2259,16,0.66,42.6899881,-84.4887681,262.97,0.010440307669341564,253.30076599121094,0.03500000014901161,0.0,1
1682374396.60046482,22867635,0,3,166414600,2259,16,0.66,42.689988199999995,-84.4887681,262.97,0.02024845778942108,327.0947570800781,0.03100000135600567,0.0,1
1682374396.80056787,23067738,0,3,166414800,2259,16,0.66,42.6899884,-84.4887681,262.96,0.01726267673075199,349.9920349121094,0.10900000482797623,0.0,1
1682374397.00053883,23267709,0,3,166415000,2259,16,0.66,42.6899884,-84.4887681,262.94,0.008544004522264004,290.5560607910156,0.005000000353902578,0.0,1
1682374397.20043683,23467607,0,3,166415200,2259,16,0.66,42.6899885,-84.4887681,262.95,0.016401220113039017,322.431396484375,0.00800000037997961,0.0,1
1682374397.40037084,23667541,0,3,166415400,2259,16,0.66,42.6899886,-84.4887681,262.95,0.005385165102779865,248.1986083984375,0.01600000075995922,0.0,1
1682374397.60051680,23867687,0,3,166415600,2259,16,0.66,42.6899887,-84.4887681,262.94,0.01708800718188286,159.44393920898438,0.039000000804662704,0.0,1
1682374397.80036187,24067532,0,3,166415800,2259,16,0.66,42.689988799999995,-84.4887681,262.94,0.03178049996495247,282.724365234375,0.055000003427267075,0.0,1
1682374398.04025984,24307430,0,3,166416000,2259,16,0.66,42.689988799999995,-84.4887682,262.94,0.030870698392391205,245.09524536132812,0.07400000095367432,0.0,1
1682374398.22066784,24487838,0,3,166416200,2259,16,0.66,42.689988899999996,-84.48876829999999,262.92,0.017492856830358505,59.03623962402344,0.03800000250339508,0.0,1
1682374398.40023685,24667407,0,3,166416400,2259,16,0.66,42.689989,-84.4887682,262.93,0.015811389312148094,18.434947967529297,0.04500000178813934,0.0,1
1682374398.60031390,24867484,0,3,166416600,2259,16,0.66,42.6899891,-84.4887682,262.93,0.02500000037252903,180.0,0.006000000052154064,0.0,1
1682374398.80032873,25067499,0,3,166416800,2259,16,0.66,42.6899892,-84.48876829999999,262.92,0.009999999776482582,216.86990356445312,0.0020000000949949026,0.0,1
1682374399.00014973,25267320,0,3,166417000,2259,16,0.66,42.6899893,-84.48876829999999,262.92,0.010295630432665348,240.94540405273438,-0.003000000026077032,0.0,1
1682374399.20015383,25467324,0,3,166417200,2259,16,0.66,42.6899893,-84.48876829999999,262.91,0.015524175018072128,14.931417465209961,0.010000000707805157,0.0,1
1682374399.40028572,25667456,0,3,166417400,2259,16,0.66,42.689989399999995,-84.4887684,262.91,0.022561030462384224,167.1957244873047,-0.003000000026077032,0.0,1
1682374399.60035586,25867526,0,3,166417600,2259,16,0.66,42.689989499999996,-84.4887684,262.89,0.01969771645963192,336.0375061035156,0.029000001028180122,0.0,1
1682374399.80018878,26067359,0,3,166417800,2259,16,0.66,42.6899896,-84.4887684,262.89,0.009219544939696789,282.52880859375,0.039000000804662704,0.0,1
1682374400.00017881,26267349,0,3,166418000,2259,16,0.66,42.6899897,-84.4887684,262.88,0.029546573758125305,156.03750610351562,0.06700000166893005,0.0,1
1682374400.20024872,26467419,0,3,166418200,2259,16,0.66,42.6899898,-84.48876849999999,262.88,0.08316850662231445,288.21710205078125,0.10700000822544098,0.0,1
