timestamp,TimeUS,Lat,Lng,Alt,RelHomeAlt,RelOriginAlt
1666656879.58043790,146882273,42.7307852,-84.49039979999999,270.80999755859375,-0.0003406330943107605,-0.12034063041210175
1666656879.59686303,146898698,42.7307852,-84.49039979999999,270.80999755859375,-0.0005618110299110413,-0.12056180834770203
1666656879.63688993,146938725,42.7307851,-84.4903997,270.80999755859375,-0.0029004812240600586,-0.12290047854185104
1666656879.67685199,146978687,42.730785,-84.4903997,270.80999755859375,-0.005751363933086395,-0.12575136125087738
1666656879.67987394,146981709,42.730785,-84.4903997,270.80999755859375,-0.006767861545085907,-0.1267678588628769
1666656879.71725082,147019086,42.730784899999996,-84.49039959999999,270.80999755859375,-0.009307973086833954,-0.12930797040462494
1666656879.75735784,147059193,42.730784799999995,-84.49039959999999,270.79998779296875,-0.011458389461040497,-0.13145838677883148
1666656879.77990294,147081738,42.730784799999995,-84.4903995,270.79998779296875,-0.012799553573131561,-0.13279955089092255
1666656879.79691005,147098745,42.730784799999995,-84.4903995,270.79998779296875,-0.013398699462413788,-0.13339869678020477
1666656879.83690786,147138743,42.7307847,-84.4903994,270.79998779296875,-0.018815644085407257,-0.13881564140319824
1666656879.87688804,147178723,42.7307846,-84.4903994,270.7900085449219,-0.02365346997976303,-0.14365346729755402
1666656879.87986183,147181697,42.7307846,-84.49039929999999,270.7900085449219,-0.025184325873851776,-0.14518432319164276
1666656879.91736102,147219196,42.7307846,-84.49039929999999,270.7900085449219,-0.02936626225709915,-0.14936625957489014
1666656879.95721102,147259046,42.7307845,-84.4903992,270.7799987792969,-0.03306017071008682,-0.1530601680278778
1666656879.97981095,147281646,42.7307845,-84.4903992,270.7799987792969,-0.03534124046564102,-0.155341237783432
1666656879.99689198,147298727,42.7307845,-84.4903992,270.7799987792969,-0.03645563870668411,-0.1564556360244751
1666656880.03693390,147338769,42.7307844,-84.49039909999999,270.7699890136719,-0.04495929926633835,-0.16495929658412933
1666656880.07694292,147378778,42.730784299999996,-84.490399,270.7599792480469,-0.05257181078195572,-0.1725718080997467
1666656880.07988095,147381716,42.730784299999996,-84.490399,270.7599792480469,-0.054832108318805695,-0.17483210563659668
1666656880.11727095,147419106,42.730784199999995,-84.490399,270.75,-0.0614238902926445,-0.18142388761043549
1666656880.15707684,147458912,42.730784199999995,-84.4903989,270.75,-0.06731567531824112,-0.1873156726360321
1666656880.17985296,147481688,42.7307841,-84.4903989,270.739990234375,-0.07089664787054062,-0.1908966451883316
1666656880.19683003,147498665,42.7307841,-84.4903989,270.739990234375,-0.07274641841650009,-0.19274641573429108
1666656880.23694897,147538784,42.730784,-84.4903988,270.72998046875,-0.08209656924009323,-0.20209656655788422
1666656880.27705503,147578890,42.730784,-84.4903988,270.7200012207031,-0.09044792503118515,-0.21044792234897614
1666656880.27986383,147581699,42.7307839,-84.4903988,270.7200012207031,-0.0927811935544014,-0.21278119087219238
1666656880.31736588,147619201,42.7307839,-84.4903988,270.7099914550781,-0.10003384202718735,-0.22003383934497833
1666656880.35723805,147659073,42.7307838,-84.4903987,270.7099914550781,-0.10660973936319351,-0.2266097366809845
1666656880.37988591,147681721,42.7307838,-84.4903987,270.6999816894531,-0.11058846861124039,-0.23058846592903137
1666656880.39688802,147698723,42.730783699999996,-84.4903987,270.6999816894531,-0.11272434145212173,-0.23272433876991272
1666656880.43688703,147738722,42.730783699999996,-84.4903987,270.69000244140625,-0.12254825979471207,-0.24254825711250305
1666656880.47689795,147778733,42.730783599999995,-84.49039859999999,270.67999267578125,-0.13141688704490662,-0.2514168918132782
1666656880.47995901,147781794,42.730783599999995,-84.49039859999999,270.67999267578125,-0.13372156023979187,-0.25372156500816345
1666656880.51740098,147819236,42.7307835,-84.49039859999999,270.66998291015625,-0.141404390335083,-0.2614043951034546
1666656880.55731392,147859149,42.7307834,-84.49039859999999,270.66998291015625,-0.14827010035514832,-0.2682701051235199
1666656880.57989693,147881732,42.7307834,-84.49039859999999,270.6600036621094,-0.15239986777305603,-0.2723998725414276
1666656880.59695101,147898786,42.7307834,-84.49039859999999,270.6600036621094,-0.1547110676765442,-0.27471107244491577
1666656880.63688087,147938716,42.7307833,-84.4903985,270.6499938964844,-0.16608700156211853,-0.2860870063304901
1666656880.67686892,147978704,42.7307832,-84.4903985,270.6399841308594,-0.17641887068748474,-0.2964188754558563
1666656880.67988586,147981721,42.7307832,-84.4903985,270.6399841308594,-0.1790018379688263,-0.2990018427371979
1666656880.71724296,148019078,42.7307831,-84.4903985,270.6300048828125,-0.18789353966712952,-0.3078935444355011
1666656880.75725794,148059093,42.7307831,-84.4903985,270.6199951171875,-0.19573432207107544,-0.315734326839447
1666656880.77991390,148081749,42.7307831,-84.49039839999999,270.6099853515625,-0.2004280984401703,-0.32042810320854187
1666656880.79689002,148098725,42.730782999999995,-84.49039839999999,270.6099853515625,-0.20308774709701538,-0.32308775186538696
1666656880.83682585,148138661,42.7307829,-84.49039839999999,270.6000061035156,-0.21183210611343384,-0.3318321108818054
1666656880.87680888,148178644,42.7307829,-84.49039839999999,270.6000061035156,-0.2199101448059082,-0.3399101495742798
1666656880.87992501,148181760,42.7307828,-84.49039839999999,270.5899963378906,-0.221635103225708,-0.3416351079940796
1666656880.91730499,148219140,42.7307828,-84.4903983,270.5899963378906,-0.2286432981491089,-0.34864330291748047
1666656880.95719886,148259034,42.7307827,-84.4903983,270.5799865722656,-0.23509764671325684,-0.3550976514816284
1666656880.97990203,148281737,42.7307827,-84.4903983,270.5799865722656,-0.23889422416687012,-0.3588942289352417
1666656880.99695897,148298794,42.7307827,-84.4903983,270.57000732421875,-0.24119937419891357,-0.36119937896728516
1666656881.03686500,148338700,42.7307826,-84.4903983,270.57000732421875,-0.24682575464248657,-0.36682575941085815
1666656881.07688093,148378716,42.7307825,-84.4903983,270.55999755859375,-0.2519000470638275,-0.3719000518321991
1666656881.07992101,148381756,42.7307825,-84.4903983,270.55999755859375,-0.252702534198761,-0.37270253896713257
1666656881.11727595,148419111,42.730782399999995,-84.4903983,270.55999755859375,-0.25701847672462463,-0.3770184814929962
1666656881.15721297,148459048,42.7307823,-84.4903983,270.54998779296875,-0.26078367233276367,-0.38078367710113525
1666656881.17988992,148481725,42.7307823,-84.4903983,270.54998779296875,-0.26292160153388977,-0.38292160630226135
1666656881.19689488,148498730,42.7307823,-84.4903983,270.54998779296875,-0.26447823643684387,-0.38447824120521545
1666656881.23689985,148538735,42.7307822,-84.4903983,270.54998779296875,-0.26926034688949585,-0.38926035165786743
1666656881.27694082,148578776,42.7307821,-84.4903983,270.5400085449219,-0.2736760675907135,-0.3936760723590851
1666656881.28005600,148581891,42.7307821,-84.4903983,270.5400085449219,-0.27420854568481445,-0.39420855045318604
1666656881.31729698,148619132,42.730782,-84.4903983,270.5400085449219,-0.2781216502189636,-0.3981216549873352
1666656881.35728192,148659117,42.7307819,-84.4903983,270.5299987792969,-0.28186824917793274,-0.4018682539463043
1666656881.38003302,148681868,42.7307819,-84.4903983,270.5299987792969,-0.28401216864585876,-0.40401217341423035
1666656881.39694786,148698783,42.7307819,-84.4903983,270.5299987792969,-0.2856554090976715,-0.4056554138660431
1666656881.43697000,148738805,42.730781799999995,-84.4903983,270.5199890136719,-0.290628045797348,-0.4106280505657196
1666656881.47689199,148778727,42.7307817,-84.4903983,270.5199890136719,-0.29520463943481445,-0.41520464420318604
1666656881.47985101,148781686,42.7307817,-84.4903983,270.5199890136719,-0.29574838280677795,-0.41574838757514954
1666656881.51731300,148819148,42.7307816,-84.49039839999999,270.5199890136719,-0.2996430993080139,-0.4196431040763855
1666656881.55714297,148858978,42.7307816,-84.49039839999999,270.5099792480469,-0.3031753599643707,-0.4231753647327423
1666656881.57984996,148881685,42.7307816,-84.49039839999999,270.5099792480469,-0.3051508069038391,-0.4251508116722107
1666656881.59686804,148898703,42.7307815,-84.49039839999999,270.5099792480469,-0.30675166845321655,-0.42675167322158813
1666656881.63693786,148938773,42.7307814,-84.49039839999999,270.5,-0.31140512228012085,-0.43140512704849243
1666656881.67691183,148978747,42.7307814,-84.49039839999999,270.5,-0.3156853914260864,-0.435685396194458
1666656881.67981601,148981651,42.7307813,-84.4903985,270.5,-0.3160417675971985,-0.43604177236557007
1666656881.71770692,149019542,42.7307813,-84.4903985,270.5,-0.3197907507419586,-0.4397907555103302
1666656881.75720096,149059036,42.730781199999996,-84.4903985,270.489990234375,-0.3234034478664398,-0.4434034526348114
1666656881.77987695,149081712,42.730781199999996,-84.4903985,270.489990234375,-0.32542508840560913,-0.4454250931739807
1666656881.79682398,149098659,42.730781199999996,-84.4903985,270.489990234375,-0.3271370232105255,-0.4471370279788971
1666656881.83690095,149138736,42.7307811,-84.49039859999999,270.47998046875,-0.3321242928504944,-0.45212429761886597
1666656881.87693596,149178771,42.730781,-84.49039859999999,270.47998046875,-0.33677375316619873,-0.4567737579345703
1666656881.87985802,149181693,42.730781,-84.49039859999999,270.47998046875,-0.33712267875671387,-0.45712268352508545
1666656881.91734290,149219178,42.730781,-84.49039859999999,270.4700012207031,-0.34111273288726807,-0.46111273765563965
1666656881.95717597,149259011,42.7307809,-84.49039859999999,270.4700012207031,-0.3447380065917969,-0.46473801136016846
1666656881.97984886,149281684,42.7307809,-84.49039859999999,270.4700012207031,-0.34676313400268555,-0.46676313877105713
1666656881.99692488,149298760,42.7307809,-84.49039859999999,270.4700012207031,-0.3484080135822296,-0.4684080183506012
1666656882.03691101,149338746,42.7307809,-84.49039859999999,270.4599914550781,-0.35397452116012573,-0.4739745259284973
1666656882.07698989,149378825,42.7307808,-84.49039859999999,270.4599914550781,-0.3590298295021057,-0.4790298342704773
1666656882.07998490,149381820,42.7307808,-84.49039859999999,270.4599914550781,-0.35945001244544983,-0.4794500172138214
1666656882.11737394,149419209,42.7307808,-84.49039859999999,270.4499816894531,-0.36374321579933167,-0.48374322056770325
1666656882.15722203,149459057,42.7307808,-84.49039859999999,270.4499816894531,-0.36748769879341125,-0.48748770356178284
1666656882.17989898,149481734,42.7307808,-84.49039859999999,270.4499816894531,-0.36961424350738525,-0.48961424827575684
1666656882.19687200,149498707,42.7307807,-84.49039859999999,270.44000244140625,-0.37140461802482605,-0.49140462279319763
1666656882.23687506,149538710,42.7307807,-84.49039859999999,270.44000244140625,-0.3763112723827362,-0.4963112771511078
1666656882.27704406,149578879,42.730780599999996,-84.4903987,270.42999267578125,-0.3808671832084656,-0.5008671879768372
1666656882.27997899,149581814,42.730780599999996,-84.4903987,270.42999267578125,-0.3811357617378235,-0.5011357665061951
1666656882.31731796,149619153,42.730780599999996,-84.4903987,270.42999267578125,-0.38510942459106445,-0.505109429359436
1666656882.35724497,149659080,42.7307805,-84.4903987,270.42999267578125,-0.3888230323791504,-0.508823037147522
1666656882.38000083,149681836,42.7307805,-84.4903987,270.41998291015625,-0.39088499546051025,-0.5108850002288818
1666656882.39694285,149698778,42.7307805,-84.4903987,270.41998291015625,-0.39262157678604126,-0.5126215815544128
1666656882.43692183,149738757,42.7307804,-84.4903987,270.41998291015625,-0.3960469961166382,-0.5160470008850098
1666656882.47682691,149778662,42.7307803,-84.4903987,270.41998291015625,-0.3993220329284668,-0.5193220376968384
1666656882.47992897,149781764,42.7307803,-84.4903987,270.41998291015625,-0.39915037155151367,-0.5191503763198853
1666656882.51730800,149819143,42.7307803,-84.4903987,270.4100036621094,-0.4019763469696045,-0.5219763517379761
1666656882.55721998,149859055,42.7307802,-84.4903987,270.4100036621094,-0.40456855297088623,-0.5245685577392578
1666656882.57992196,149881757,42.7307802,-84.4903987,270.4100036621094,-0.40587931871414185,-0.5258793234825134
1666656882.59689784,149898733,42.7307802,-84.4903987,270.4100036621094,-0.4073687791824341,-0.5273687839508057
1666656882.63687301,149938708,42.7307801,-84.4903987,270.3999938964844,-0.4101106524467468,-0.5301106572151184
1666656882.67683697,149978672,42.7307801,-84.4903987,270.3999938964844,-0.41281914710998535,-0.5328191518783569
1666656882.67992401,149981759,42.7307801,-84.4903987,270.3999938964844,-0.4125141501426697,-0.5325141549110413
1666656882.71730399,150019139,42.730779999999996,-84.4903987,270.3999938964844,-0.41480594873428345,-0.534805953502655
1666656882.75723886,150059074,42.730779999999996,-84.4903987,270.3999938964844,-0.4167882800102234,-0.536788284778595
1666656882.77992702,150081762,42.730779899999995,-84.4903987,270.3999938964844,-0.4178311228752136,-0.5378311276435852
1666656882.79700804,150098843,42.730779899999995,-84.4903987,270.3999938964844,-0.4191740155220032,-0.5391740202903748
1666656882.83688092,150138716,42.730779899999995,-84.4903988,270.3899841308594,-0.42015576362609863,-0.5401557683944702
1666656882.87686992,150178705,42.7307798,-84.4903988,270.3899841308594,-0.4212334156036377,-0.5412334203720093
1666656882.87982583,150181661,42.7307798,-84.4903988,270.3899841308594,-0.4203561544418335,-0.5403561592102051
1666656882.91732788,150219163,42.7307798,-84.4903988,270.3899841308594,-0.4213111400604248,-0.5413111448287964
1666656882.95722389,150259059,42.7307797,-84.4903989,270.3899841308594,-0.42252087593078613,-0.5425208806991577
1666656882.97983003,150281665,42.7307797,-84.4903989,270.3899841308594,-0.423020601272583,-0.5430206060409546
1666656882.99690604,150298741,42.7307797,-84.4903989,270.3899841308594,-0.42410582304000854,-0.5441058278083801
1666656883.03690600,150338741,42.7307797,-84.4903989,270.3899841308594,-0.4244624376296997,-0.5444624423980713
1666656883.07694101,150378776,42.7307796,-84.490399,270.3899841308594,-0.424990177154541,-0.5449901819229126
1666656883.07984185,150381677,42.7307796,-84.490399,270.3899841308594,-0.42397046089172363,-0.5439704656600952
1666656883.11743593,150419271,42.7307796,-84.490399,270.3899841308594,-0.42427998781204224,-0.5442799925804138
1666656883.15727901,150459114,42.7307795,-84.490399,270.3899841308594,-0.424435019493103,-0.5444350242614746
1666656883.17988586,150481721,42.7307795,-84.49039909999999,270.3899841308594,-0.42438584566116333,-0.5443858504295349
1666656883.19688582,150498721,42.7307795,-84.49039909999999,270.3899841308594,-0.425140380859375,-0.5451403856277466
1666656883.23690796,150538743,42.7307795,-84.49039909999999,270.3899841308594,-0.4254670739173889,-0.5454670786857605
1666656883.27698803,150578823,42.730779399999996,-84.4903992,270.3899841308594,-0.42625004053115845,-0.54625004529953
1666656883.27989292,150581728,42.730779399999996,-84.4903992,270.3899841308594,-0.42522794008255005,-0.5452279448509216
1666656883.31740189,150619237,42.730779399999996,-84.49039929999999,270.3899841308594,-0.4257804751396179,-0.5457804799079895
1666656883.35723305,150659068,42.730779399999996,-84.49039929999999,270.3899841308594,-0.4260258674621582,-0.5460258722305298
1666656883.38010502,150681940,42.730779299999995,-84.49039929999999,270.3899841308594,-0.4260105490684509,-0.5460105538368225
1666656883.39682984,150698665,42.730779299999995,-84.49039929999999,270.3899841308594,-0.42690956592559814,-0.5469095706939697
1666656883.43686986,150738705,42.730779299999995,-84.4903994,270.3899841308594,-0.42570990324020386,-0.5457099080085754
1666656883.47693896,150778774,42.730779299999995,-84.4903994,270.3899841308594,-0.42478662729263306,-0.5447866320610046
1666656883.47986388,150781699,42.730779299999995,-84.4903994,270.3899841308594,-0.4232593774795532,-0.5432593822479248
1666656883.51740003,150819235,42.7307792,-84.4903994,270.3899841308594,-0.4222705364227295,-0.5422705411911011
1666656883.55723906,150859074,42.7307792,-84.4903995,270.3899841308594,-0.4210054874420166,-0.5410054922103882
1666656883.57985997,150881695,42.7307792,-84.4903995,270.3899841308594,-0.4201059937477112,-0.5401059985160828
1666656883.59674597,150898581,42.7307792,-84.4903995,270.3899841308594,-0.42056554555892944,-0.540565550327301
1666656883.63692999,150938765,42.7307791,-84.49039959999999,270.3999938964844,-0.4193371534347534,-0.539337158203125
1666656883.67689490,150978730,42.7307791,-84.49039959999999,270.3999938964844,-0.4184817671775818,-0.5384817719459534
1666656883.67990398,150981739,42.7307791,-84.4903997,270.3999938964844,-0.41700446605682373,-0.5370044708251953
1666656883.71731400,151019149,42.7307791,-84.4903997,270.3999938964844,-0.41635000705718994,-0.5363500118255615
1666656883.75723791,151059073,42.730779,-84.49039979999999,270.3999938964844,-0.41570812463760376,-0.5357081294059753
1666656883.77995896,151081794,42.730779,-84.49039979999999,270.3999938964844,-0.4151853322982788,-0.5351853370666504
1666656883.79688692,151098722,42.730779,-84.49039979999999,270.3999938964844,-0.41574496030807495,-0.5357449650764465
1666656883.83690786,151138743,42.7307789,-84.4903999,270.3999938964844,-0.4166157841682434,-0.536615788936615
1666656883.87692690,151178762,42.7307789,-84.4903999,270.3999938964844,-0.41767871379852295,-0.5376787185668945
1666656883.87988806,151181723,42.7307789,-84.4903999,270.3999938964844,-0.4167857766151428,-0.5367857813835144
1666656883.91728401,151219119,42.730778799999996,-84.4904,270.3999938964844,-0.4177221655845642,-0.5377221703529358
1666656883.95730686,151259142,42.730778799999996,-84.4904,270.3999938964844,-0.41849374771118164,-0.5384937524795532
1666656883.97988892,151281724,42.730778799999996,-84.4904,270.3999938964844,-0.41884028911590576,-0.5388402938842773
1666656883.99693394,151298769,42.730778699999995,-84.4904001,270.3999938964844,-0.4197618365287781,-0.5397618412971497
1666656884.03685498,151338690,42.730778699999995,-84.4904001,270.3899841308594,-0.4203512668609619,-0.5403512716293335
1666656884.07683396,151378669,42.7307786,-84.4904002,270.3899841308594,-0.42117124795913696,-0.5411712527275085
1666656884.07999086,151381826,42.7307786,-84.4904002,270.3899841308594,-0.42025619745254517,-0.5402562022209167
1666656884.11729097,151419126,42.7307785,-84.49040029999999,270.3899841308594,-0.4209389090538025,-0.5409389138221741
1666656884.15719604,151459031,42.7307784,-84.49040029999999,270.3899841308594,-0.42179661989212036,-0.5417966246604919
1666656884.17984700,151481682,42.7307784,-84.4904004,270.3899841308594,-0.4221452474594116,-0.5421452522277832
1666656884.19691396,151498749,42.7307784,-84.4904004,270.3899841308594,-0.423128604888916,-0.5431286096572876
1666656884.23696899,151538804,42.7307783,-84.49040049999999,270.3899841308594,-0.4215896725654602,-0.5415896773338318
1666656884.27690005,151578735,42.730778199999996,-84.4904006,270.3899841308594,-0.42033106088638306,-0.5403310656547546
1666656884.27992487,151581760,42.730778199999996,-84.4904006,270.3999938964844,-0.4188217520713806,-0.5388217568397522
1666656884.31726885,151619104,42.730778199999996,-84.4904006,270.3999938964844,-0.4178045988082886,-0.5378046035766602
1666656884.35727191,151659107,42.730778099999995,-84.4904006,270.3999938964844,-0.41698551177978516,-0.5369855165481567
1666656884.37994599,151681781,42.730778099999995,-84.4904007,270.3999938964844,-0.4163089394569397,-0.5363089442253113
1666656884.39694500,151698780,42.730778,-84.4904007,270.3999938964844,-0.416790246963501,-0.5367902517318726
1666656884.43693686,151738772,42.730778,-84.49040079999999,270.3999938964844,-0.4154577851295471,-0.5354577898979187
1666656884.47688890,151778724,42.7307779,-84.49040079999999,270.3999938964844,-0.41435331106185913,-0.5343533158302307
1666656884.47991085,151781746,42.7307779,-84.49040079999999,270.3999938964844,-0.41293519735336304,-0.5329352021217346
1666656884.51731491,151819150,42.7307778,-84.4904009,270.3999938964844,-0.41206490993499756,-0.5320649147033691
1666656884.55723500,151859070,42.7307777,-84.4904009,270.3999938964844,-0.41109704971313477,-0.5310970544815063
1666656884.57984900,151881684,42.7307777,-84.49040099999999,270.3999938964844,-0.410400390625,-0.5304003953933716
1666656884.59702086,151898856,42.7307777,-84.49040099999999,270.3999938964844,-0.41084355115890503,-0.5308435559272766
1666656884.63691783,151938753,42.730777599999996,-84.4904011,270.4100036621094,-0.40983712673187256,-0.5298371315002441
1666656884.67688298,151978718,42.730777499999995,-84.4904011,270.4100036621094,-0.40904515981674194,-0.5290451645851135
1666656884.67985797,151981693,42.730777499999995,-84.4904012,270.4100036621094,-0.4078017473220825,-0.5278017520904541
1666656884.71732688,152019162,42.7307774,-84.4904012,270.4100036621094,-0.40712404251098633,-0.5271240472793579
1666656884.75727892,152059114,42.7307773,-84.4904013,270.4100036621094,-0.4064981937408447,-0.5264981985092163
1666656884.77987504,152081710,42.7307773,-84.4904013,270.4100036621094,-0.40607208013534546,-0.526072084903717
1666656884.79701805,152098853,42.7307773,-84.4904014,270.4100036621094,-0.4065552353858948,-0.5265552401542664
1666656884.83697701,152138812,42.7307772,-84.4904014,270.4100036621094,-0.4075254201889038,-0.5275254249572754
1666656884.87690401,152178739,42.7307771,-84.49040149999999,270.4100036621094,-0.408341646194458,-0.5283416509628296
1666656884.87984490,152181680,42.7307771,-84.49040149999999,270.4100036621094,-0.40753161907196045,-0.527531623840332
1666656884.91737890,152219214,42.730776999999996,-84.49040149999999,270.4100036621094,-0.40820521116256714,-0.5282052159309387
1666656884.95730400,152259139,42.730776999999996,-84.4904016,270.4100036621094,-0.4085313081741333,-0.5285313129425049
1666656884.97993898,152281774,42.730776999999996,-84.4904016,270.4100036621094,-0.40868812799453735,-0.5286881327629089
1666656884.99683499,152298670,42.730776899999995,-84.4904016,270.4100036621094,-0.40948933362960815,-0.5294893383979797
1666656885.03688192,152338717,42.730776899999995,-84.49040169999999,270.4100036621094,-0.40891534090042114,-0.5289153456687927
1666656885.07695103,152378786,42.7307768,-84.49040169999999,270.4100036621094,-0.4084964394569397,-0.5284964442253113
1666656885.07988906,152381724,42.7307768,-84.4904018,270.4100036621094,-0.40730172395706177,-0.5273017287254333
1666656885.11740685,152419242,42.7307768,-84.4904018,270.4100036621094,-0.40685081481933594,-0.5268508195877075
1666656885.15725398,152459089,42.7307767,-84.4904019,270.4100036621094,-0.40594732761383057,-0.5259473323822021
1666656885.17987394,152481709,42.7307767,-84.4904019,270.4100036621094,-0.40526795387268066,-0.5252679586410522
1666656885.19687486,152498710,42.7307767,-84.4904019,270.4100036621094,-0.40564221143722534,-0.5256422162055969
1666656885.23690391,152538739,42.7307766,-84.490402,270.4100036621094,-0.4024381637573242,-0.5224381685256958
1666656885.27701902,152578854,42.7307766,-84.4904021,270.41998291015625,-0.399452269077301,-0.5194522738456726
1666656885.27994585,152581781,42.7307766,-84.4904021,270.41998291015625,-0.3974883556365967,-0.5174883604049683
1666656885.31743693,152619272,42.7307765,-84.4904021,270.41998291015625,-0.39467889070510864,-0.5146788954734802
1666656885.35721993,152659055,42.7307765,-84.49040219999999,270.41998291015625,-0.39145904779434204,-0.5114590525627136
1666656885.37995696,152681792,42.730776399999996,-84.49040219999999,270.42999267578125,-0.38938504457473755,-0.5093850493431091
1666656885.39686799,152698703,42.730776399999996,-84.4904023,270.42999267578125,-0.3891037106513977,-0.5091037154197693
1666656885.43689585,152738731,42.730776399999996,-84.4904023,270.42999267578125,-0.3857802152633667,-0.5057802200317383
1666656885.47689199,152778727,42.730776299999995,-84.4904024,270.42999267578125,-0.3828263282775879,-0.5028263330459595
1666656885.48001790,152781853,42.730776299999995,-84.4904024,270.42999267578125,-0.3808903694152832,-0.5008903741836548
1666656885.51734304,152819178,42.7307762,-84.4904025,270.44000244140625,-0.37806257605552673,-0.4980625808238983
1666656885.55714202,152858977,42.7307762,-84.4904026,270.44000244140625,-0.3749551475048065,-0.4949551522731781
1666656885.57990289,152881738,42.7307761,-84.4904026,270.44000244140625,-0.37297964096069336,-0.49297964572906494
1666656885.59695292,152898788,42.7307761,-84.4904026,270.44000244140625,-0.37269866466522217,-0.49269866943359375
1666656885.63696384,152938799,42.7307761,-84.49040269999999,270.44000244140625,-0.3711183965206146,-0.4911184012889862
1666656885.67689085,152978726,42.730776,-84.4904028,270.4499816894531,-0.369484543800354,-0.4894845485687256
1666656885.67995095,152981786,42.730776,-84.4904028,270.4499816894531,-0.36804309487342834,-0.4880430996417999
1666656885.71729493,153019130,42.730776,-84.49040289999999,270.4499816894531,-0.36625683307647705,-0.48625683784484863
1666656885.75720096,153059036,42.7307759,-84.49040289999999,270.4499816894531,-0.3637704849243164,-0.483770489692688
1666656885.77994084,153081776,42.7307759,-84.490403,270.4499816894531,-0.36216235160827637,-0.48216235637664795
1666656885.79691792,153098753,42.7307759,-84.490403,270.4499816894531,-0.36208072304725647,-0.48208072781562805
1666656885.83696985,153138805,42.730775799999996,-84.4904031,270.4599914550781,-0.35849636793136597,-0.47849637269973755
1666656885.87684488,153178680,42.730775799999996,-84.4904031,270.4599914550781,-0.3549981415271759,-0.4749981462955475
1666656885.87994003,153181775,42.730775799999996,-84.4904032,270.4599914550781,-0.35306334495544434,-0.4730633497238159
1666656885.91727686,153219112,42.730775699999995,-84.4904032,270.4700012207031,-0.3493918776512146,-0.4693918824195862
1666656885.95726204,153259097,42.730775699999995,-84.4904033,270.4700012207031,-0.34459078311920166,-0.46459078788757324
1666656885.97989893,153281734,42.730775699999995,-84.4904033,270.4700012207031,-0.3415992259979248,-0.4615992307662964
1666656885.99694705,153298782,42.730775699999995,-84.4904033,270.4700012207031,-0.34086793661117554,-0.4608679413795471
1666656886.03695202,153338787,42.7307756,-84.49040339999999,270.47998046875,-0.3354218006134033,-0.4554218053817749
1666656886.07691002,153378745,42.7307756,-84.4904035,270.489990234375,-0.32968059182167053,-0.4496805965900421
1666656886.07982492,153381660,42.7307756,-84.4904035,270.489990234375,-0.3270861804485321,-0.4470861852169037
1666656886.11739898,153419234,42.7307755,-84.4904036,270.489990234375,-0.3211100399494171,-0.4411100447177887
1666656886.15722799,153459063,42.7307755,-84.4904036,270.5,-0.31387007236480713,-0.4338700771331787
1666656886.17986703,153481702,42.7307755,-84.4904037,270.5099792480469,-0.3093680143356323,-0.4293680191040039
1666656886.19700694,153498842,42.7307755,-84.4904037,270.5099792480469,-0.30793604254722595,-0.42793604731559753
1666656886.23693085,153538766,42.7307754,-84.4904038,270.5099792480469,-0.30019596219062805,-0.42019596695899963
1666656886.27695894,153578794,42.7307753,-84.49040389999999,270.5199890136719,-0.29229986667633057,-0.41229987144470215
1666656886.28000498,153581840,42.7307753,-84.49040389999999,270.5299987792969,-0.289109468460083,-0.4091094732284546
1666656886.31734705,153619182,42.7307753,-84.49040389999999,270.5299987792969,-0.2810363471508026,-0.4010363519191742
1666656886.35718989,153659025,42.7307752,-84.490404,270.5400085449219,-0.27129942178726196,-0.39129942655563354
1666656886.37987995,153681715,42.7307752,-84.490404,270.54998779296875,-0.2653602659702301,-0.3853602707386017
1666656886.39694190,153698777,42.7307752,-84.490404,270.54998779296875,-0.2629164159297943,-0.3829164206981659
1666656886.43690705,153738742,42.730775099999995,-84.49040409999999,270.55999755859375,-0.25097212195396423,-0.3709721267223358
1666656886.47699785,153778833,42.730775,-84.4904042,270.5799865722656,-0.23836803436279297,-0.35836803913116455
1666656886.47985888,153781694,42.730775,-84.4904042,270.5799865722656,-0.23408111929893494,-0.3540811240673065
1666656886.51739883,153819234,42.730775,-84.4904042,270.5899963378906,-0.22078511118888855,-0.34078511595726013
1666656886.55723786,153859073,42.7307749,-84.4904043,270.6099853515625,-0.20449450612068176,-0.32449451088905334
1666656886.57988787,153881723,42.7307749,-84.4904043,270.6199951171875,-0.1942284107208252,-0.3142284154891968
1666656886.59684491,153898680,42.7307749,-84.4904043,270.6300048828125,-0.18874552845954895,-0.30874553322792053
1666656886.63689089,153938726,42.7307748,-84.4904044,270.6499938964844,-0.16973212361335754,-0.2897321283817291
1666656886.67692399,153978759,42.7307748,-84.4904044,270.66998291015625,-0.14926749467849731,-0.2692674994468689
1666656886.67987299,153981708,42.7307748,-84.4904045,270.66998291015625,-0.14429232478141785,-0.26429232954978943
1666656886.71739197,154019227,42.7307747,-84.4904045,270.69000244140625,-0.1227455660700798,-0.2427455633878708
1666656886.75736284,154059198,42.7307747,-84.49040459999999,270.7200012207031,-0.09650345891714096,-0.21650345623493195
1666656886.77997804,154081813,42.7307746,-84.49040459999999,270.72998046875,-0.08043473213911057,-0.20043472945690155
1666656886.79689693,154098732,42.7307746,-84.49040459999999,270.739990234375,-0.07112116366624832,-0.1911211609840393
1666656886.83685303,154138688,42.730774499999995,-84.4904047,270.7699890136719,-0.041391946375370026,-0.161391943693161
1666656886.87697697,154178812,42.730774499999995,-84.4904048,270.79998779296875,-0.010831855237483978,-0.13083185255527496
1666656886.87992501,154181760,42.7307744,-84.4904049,270.80999755859375,-0.0042987242341041565,-0.12429872155189514
1666656886.91731787,154219153,42.7307744,-84.4904049,270.8399963378906,0.0258009135723114,-0.09419908374547958
1666656886.95723796,154259073,42.7307743,-84.490405,270.8699951171875,0.05946233123540878,-0.0605376660823822
1666656886.97990799,154281743,42.7307743,-84.49040509999999,270.8899841308594,0.07954742759466171,-0.04045256972312927
1666656886.99687696,154298712,42.7307742,-84.49040509999999,270.9100036621094,0.0916668176651001,-0.028333179652690887
1666656887.03684282,154338678,42.7307742,-84.49040529999999,270.9499816894531,0.13666179776191711,0.016661792993545532
1666656887.07693291,154378768,42.7307741,-84.4904054,271.0,0.18596088886260986,0.06596089154481888
1666656887.07989597,154381731,42.7307741,-84.4904054,271.0099792480469,0.19686484336853027,0.07686485350131989
1666656887.11740685,154419242,42.730774,-84.4904056,271.05999755859375,0.24741753935813904,0.12741753458976746
1666656887.15721583,154459051,42.730773899999996,-84.4904057,271.1199951171875,0.3080589771270752,0.1880589872598648
1666656887.17991090,154481746,42.730773899999996,-84.49040579999999,271.1600036621094,0.34361013770103455,0.22361014783382416
1666656887.19693589,154498771,42.7307738,-84.49040579999999,271.17999267578125,0.3638573884963989,0.24385739862918854
1666656887.23690605,154538741,42.7307737,-84.4904059,271.239990234375,0.4222218990325928,0.3022218942642212
1666656887.27688694,154578722,42.7307736,-84.4904061,271.29998779296875,0.481378436088562,0.36137843132019043
1666656887.27995300,154581788,42.7307736,-84.4904061,271.30999755859375,0.4943792521953583,0.3743792474269867
1666656887.31747103,154619306,42.7307735,-84.4904062,271.3699951171875,0.5518931746482849,0.43189316987991333
1666656887.35722589,154659061,42.7307735,-84.49040629999999,271.42999267578125,0.6178975105285645,0.49789753556251526
1666656887.38000488,154681840,42.7307734,-84.4904064,271.4700012207031,0.6564503908157349,0.5364503860473633
1666656887.39695191,154698787,42.7307734,-84.4904064,271.489990234375,0.6781724095344543,0.5581724047660828
1666656887.43694997,154738785,42.730773299999996,-84.49040649999999,271.55999755859375,0.7404959797859192,0.6204959750175476
1666656887.47693491,154778770,42.7307732,-84.4904066,271.6199951171875,0.8020880818367004,0.6820880770683289
1666656887.47989297,154781728,42.7307732,-84.4904066,271.6300048828125,0.8159915804862976,0.695991575717926
1666656887.51729703,154819132,42.7307731,-84.4904067,271.69000244140625,0.8715403079986572,0.7515403032302856
1666656887.55722785,154859063,42.730773,-84.4904068,271.739990234375,0.9280500411987305,0.8080500364303589
1666656887.58008385,154881919,42.730773,-84.4904068,271.7799987792969,0.9605167508125305,0.8405167460441589
1666656887.59695482,154898790,42.730773,-84.4904069,271.7900085449219,0.9781712293624878,0.8581712245941162
1666656887.63692188,154938757,42.7307729,-84.49040699999999,271.8399963378906,1.0223455429077148,0.902345597743988
1666656887.67690086,154978736,42.7307728,-84.4904071,271.8800048828125,1.063628911972046,0.9436289072036743
1666656887.67993784,154981773,42.7307728,-84.4904071,271.8899841308594,1.073266625404358,0.9532666206359863
1666656887.71727085,155019106,42.730772699999996,-84.49040719999999,271.91998291015625,1.1094293594360352,0.9894293546676636
1666656887.75725198,155059087,42.730772599999995,-84.4904073,271.9599914550781,1.1456836462020874,1.0256836414337158
1666656887.77984095,155081676,42.7307725,-84.4904073,271.97998046875,1.1659976243972778,1.0459976196289062
1666656887.79696202,155098797,42.7307725,-84.4904074,271.989990234375,1.1767644882202148,1.0567644834518433
1666656887.83696985,155138805,42.7307724,-84.4904074,272.0199890136719,1.2005281448364258,1.0805281400680542
1666656887.87693787,155178773,42.7307723,-84.49040749999999,272.0400085449219,1.2215896844863892,1.1015896797180176
1666656887.87985682,155181692,42.7307723,-84.49040749999999,272.0400085449219,1.226598858833313,1.1065988540649414
1666656887.91735697,155219192,42.7307722,-84.49040749999999,272.05999755859375,1.2439416646957397,1.1239416599273682
1666656887.95720887,155259044,42.730772099999996,-84.4904076,272.07000732421875,1.2595304250717163,1.1395304203033447
1666656887.97982192,155281657,42.730772099999996,-84.4904076,272.0799865722656,1.2682496309280396,1.148249626159668
1666656887.99692488,155298760,42.730771999999995,-84.4904076,272.0899963378906,1.272908329963684,1.1529083251953125
1666656888.03691483,155338750,42.7307719,-84.4904076,272.1000061035156,1.2805331945419312,1.1605331897735596
1666656888.07690883,155378744,42.7307719,-84.4904076,272.1000061035156,1.2864527702331543,1.1664527654647827
1666656888.07987094,155381706,42.7307718,-84.4904076,272.1000061035156,1.28744375705719,1.1674437522888184
1666656888.11736202,155419197,42.7307718,-84.4904076,272.1099853515625,1.2913285493850708,1.1713285446166992
1666656888.15737796,155459213,42.7307717,-84.4904076,272.1099853515625,1.2932084798812866,1.173208475112915
1666656888.17986298,155481698,42.7307717,-84.4904076,272.1099853515625,1.2942478656768799,1.1742478609085083
1666656888.19700193,155498837,42.7307717,-84.4904076,272.1099853515625,1.2953904867172241,1.1753904819488525
1666656888.23689699,155538732,42.7307716,-84.4904076,272.1099853515625,1.2950822114944458,1.1750822067260742
1666656888.27697802,155578813,42.730771499999996,-84.49040749999999,272.1099853515625,1.295614242553711,1.1756142377853394
1666656888.27991891,155581754,42.730771499999996,-84.49040749999999,272.1099853515625,1.2945477962493896,1.174547791481018
1666656888.31741095,155619246,42.730771499999996,-84.49040749999999,272.1099853515625,1.295811414718628,1.1758114099502563
1666656888.35735297,155659188,42.730771399999995,-84.4904074,272.1099853515625,1.2982633113861084,1.1782633066177368
1666656888.37997293,155681808,42.730771399999995,-84.4904074,272.1199951171875,1.300078272819519,1.1800782680511475
1666656888.39684200,155698677,42.730771399999995,-84.4904074,272.1199951171875,1.3025436401367188,1.1825436353683472
1666656888.43683195,155738667,42.7307713,-84.4904074,272.1199951171875,1.3063604831695557,1.186360478401184
1666656888.47692585,155778761,42.7307713,-84.4904074,272.1300048828125,1.3107887506484985,1.190788745880127
1666656888.47993803,155781773,42.7307712,-84.4904074,272.1199951171875,1.3092992305755615,1.18929922580719
1666656888.51733589,155819171,42.7307712,-84.4904074,272.1300048828125,1.313880205154419,1.1938802003860474
1666656888.55734491,155859180,42.7307712,-84.4904074,272.1300048828125,1.3182755708694458,1.1982755661010742
1666656888.58004093,155881876,42.7307711,-84.4904074,272.1399841308594,1.321048378944397,1.2010483741760254
1666656888.59689784,155898733,42.7307711,-84.4904074,272.1399841308594,1.3251261711120605,1.205126166343689
1666656888.63688183,155938717,42.730771,-84.4904074,272.1499938964844,1.3335983753204346,1.213598370552063
1666656888.67685699,155978692,42.730771,-84.4904074,272.1600036621094,1.3440650701522827,1.2240650653839111
1666656888.67990303,155981738,42.730771,-84.49040749999999,272.1600036621094,1.3426061868667603,1.2226061820983887
1666656888.71730995,156019145,42.730770899999996,-84.49040749999999,272.16998291015625,1.352783203125,1.2327831983566284
1666656888.75722790,156059063,42.730770899999996,-84.49040749999999,272.17999267578125,1.3644832372665405,1.244483232498169
1666656888.77995801,156081793,42.730770799999995,-84.49040749999999,272.19000244140625,1.3710941076278687,1.251094102859497
1666656888.79694986,156098785,42.730770799999995,-84.49040749999999,272.19000244140625,1.378080129623413,1.2580801248550415
1666656888.83693385,156138769,42.7307707,-84.4904076,272.2099914550781,1.3908923864364624,1.2708923816680908
1666656888.87688398,156178719,42.7307707,-84.4904076,272.2200012207031,1.4044734239578247,1.2844734191894531
1666656888.87993002,156181765,42.7307707,-84.49040769999999,272.2200012207031,1.403138518333435,1.2831385135650635
1666656888.91737294,156219208,42.7307706,-84.49040769999999,272.22998046875,1.4162753820419312,1.2962753772735596
1666656888.95719790,156259033,42.7307706,-84.4904078,272.25,1.4307526350021362,1.3107526302337646
1666656888.97988892,156281724,42.7307705,-84.4904078,272.25,1.4385496377944946,1.318549633026123
1666656888.99700093,156298836,42.7307705,-84.4904078,272.2599792480469,1.4461474418640137,1.326147437095642
1666656889.03693485,156338770,42.7307704,-84.4904079,272.2699890136719,1.458163857460022,1.3381638526916504
1666656889.07688498,156378720,42.7307704,-84.490408,272.2900085449219,1.470946192741394,1.3509461879730225
1666656889.07991791,156381753,42.7307704,-84.4904081,272.2799987792969,1.4689661264419556,1.348966121673584
1666656889.11722088,156419056,42.730770299999996,-84.49040819999999,272.29998779296875,1.4819622039794922,1.3619621992111206
1666656889.15718699,156459022,42.730770299999996,-84.4904083,272.30999755859375,1.4963241815567017,1.37632417678833
1666656889.17993093,156481766,42.730770199999995,-84.4904083,272.32000732421875,1.5035202503204346,1.383520245552063
1666656889.19695187,156498787,42.730770199999995,-84.4904083,272.3299865722656,1.511041522026062,1.3910415172576904
1666656889.23694086,156538776,42.7307701,-84.4904085,272.3399963378906,1.522316575050354,1.4023165702819824
1666656889.27704883,156578884,42.73077,-84.4904087,272.3500061035156,1.5336724519729614,1.4136724472045898
1666656889.27985692,156581692,42.73077,-84.4904087,272.3500061035156,1.5318913459777832,1.4118913412094116
1666656889.31732702,156619162,42.73077,-84.4904088,272.3599853515625,1.5426914691925049,1.4226914644241333
1666656889.35723686,156659072,42.7307699,-84.49040889999999,272.3699951171875,1.555251955986023,1.4352519512176514
1666656889.37989497,156681730,42.7307698,-84.49040889999999,272.3800048828125,1.5616707801818848,1.4416707754135132
1666656889.39690995,156698745,42.7307698,-84.49040889999999,272.3800048828125,1.568299651145935,1.4482996463775635
1666656889.43699288,156738828,42.7307698,-84.4904091,272.3899841308594,1.576453447341919,1.4564534425735474
1666656889.47687793,156778713,42.730769699999996,-84.4904093,272.3999938964844,1.585260033607483,1.4652600288391113
1666656889.47990489,156781740,42.730769699999996,-84.4904093,272.3999938964844,1.5829442739486694,1.4629442691802979
1666656889.51737094,156819206,42.730769699999996,-84.4904095,272.4100036621094,1.5913294553756714,1.4713294506072998
1666656889.55729604,156859131,42.730769599999995,-84.49040959999999,272.41998291015625,1.601061463356018,1.4810614585876465
1666656889.57992291,156881758,42.730769599999995,-84.4904097,272.41998291015625,1.6059272289276123,1.4859272241592407
1666656889.59692192,156898757,42.730769599999995,-84.4904097,272.42999267578125,1.6116739511489868,1.4916739463806152
1666656889.63693285,156938768,42.7307695,-84.4904099,272.42999267578125,1.6176656484603882,1.4976656436920166
1666656889.67691588,156978751,42.7307695,-84.49041,272.44000244140625,1.624597430229187,1.5045974254608154
1666656889.67997384,156981809,42.7307695,-84.49041,272.44000244140625,1.6219779253005981,1.5019779205322266
1666656889.71735191,157019187,42.7307694,-84.49041009999999,272.44000244140625,1.6281445026397705,1.508144497871399
1666656889.75727487,157059110,42.7307694,-84.4904102,272.4499816894531,1.6348527669906616,1.51485276222229
1666656889.77986383,157081699,42.7307693,-84.4904103,272.4499816894531,1.6380289793014526,1.518028974533081
1666656889.79691386,157098749,42.7307693,-84.4904103,272.4599914550781,1.642105221748352,1.5221052169799805
1666656889.83699393,157138829,42.7307693,-84.4904105,272.4599914550781,1.6449638605117798,1.5249638557434082
1666656889.87684989,157178685,42.7307692,-84.49041059999999,272.4599914550781,1.6482622623443604,1.5282622575759888
1666656889.87991595,157181751,42.7307692,-84.4904107,272.4599914550781,1.6452161073684692,1.5252161026000977
1666656889.91733289,157219168,42.7307692,-84.49041079999999,272.4599914550781,1.648889183998108,1.5288891792297363
1666656889.95723200,157259067,42.7307692,-84.4904109,272.4700012207031,1.654162049293518,1.5341620445251465
1666656889.97989583,157281731,42.7307692,-84.490411,272.4700012207031,1.6566407680511475,1.5366407632827759
1666656889.99694991,157298785,42.730769099999996,-84.4904111,272.47998046875,1.660122275352478,1.5401222705841064
1666656890.03683400,157338669,42.730769099999996,-84.4904112,272.47998046875,1.662129282951355,1.5421292781829834
1666656890.07689404,157378729,42.730769099999996,-84.49041129999999,272.47998046875,1.6651800870895386,1.545180082321167
1666656890.07988787,157381723,42.730768999999995,-84.49041129999999,272.47998046875,1.662840485572815,1.5428404808044434
1666656890.11734295,157419178,42.730768999999995,-84.4904115,272.47998046875,1.6662954092025757,1.546295404434204
1666656890.15726495,157459100,42.730768999999995,-84.4904116,272.489990234375,1.670859694480896,1.5508596897125244
1666656890.17991304,157481748,42.7307689,-84.4904116,272.489990234375,1.6727484464645386,1.552748441696167
1666656890.19693184,157498767,42.7307689,-84.4904117,272.489990234375,1.6756575107574463,1.5556575059890747
1666656890.23684382,157538679,42.7307688,-84.49041179999999,272.489990234375,1.676466464996338,1.5564664602279663
1666656890.27698183,157578817,42.7307687,-84.4904121,272.489990234375,1.6784510612487793,1.5584510564804077
1666656890.27993894,157581774,42.7307687,-84.4904121,272.489990234375,1.676273226737976,1.5562732219696045
1666656890.31733084,157619166,42.7307686,-84.4904122,272.489990234375,1.6786381006240845,1.558638095855713
1666656890.35728288,157659118,42.730768499999996,-84.4904123,272.5,1.682344675064087,1.5623446702957153
1666656890.38005686,157681892,42.730768399999995,-84.4904124,272.5,1.6838873624801636,1.563887357711792
1666656890.39689493,157698730,42.730768399999995,-84.49041249999999,272.5,1.6862770318984985,1.566277027130127
1666656890.43687105,157738706,42.7307683,-84.4904127,272.5,1.6872475147247314,1.5672475099563599
1666656890.47690392,157778739,42.7307681,-84.4904129,272.5,1.6890339851379395,1.5690339803695679
1666656890.47986889,157781704,42.7307681,-84.4904129,272.5,1.6874265670776367,1.5674265623092651
1666656890.51730394,157819139,42.730768,-84.4904131,272.5,1.6898823976516724,1.5698823928833008
1666656890.55719686,157859032,42.730767799999995,-84.49041319999999,272.5099792480469,1.6940889358520508,1.5740889310836792
1666656890.57989597,157881731,42.730767799999995,-84.4904133,272.5099792480469,1.6961833238601685,1.5761833190917969
1666656890.59692001,157898755,42.7307677,-84.4904134,272.5099792480469,1.6984113454818726,1.578411340713501
1666656890.63696504,157938800,42.7307676,-84.4904136,272.5199890136719,1.699994444847107,1.5799944400787354
1666656890.67697406,157978809,42.7307675,-84.49041369999999,272.5199890136719,1.7020697593688965,1.582069754600525
1666656890.67990494,157981740,42.7307674,-84.4904138,272.5199890136719,1.7009761333465576,1.580976128578186
1666656890.71733689,158019172,42.7307673,-84.4904139,272.5199890136719,1.7030807733535767,1.583080768585205
1666656890.75721002,158059045,42.730767199999995,-84.490414,272.5199890136719,1.705864667892456,1.5858646631240845
1666656890.77986503,158081700,42.7307671,-84.4904141,272.5199890136719,1.707100749015808,1.5871007442474365
1666656890.79692984,158098765,42.7307671,-84.49041419999999,272.5199890136719,1.7085596323013306,1.588559627532959
1666656890.83696389,158138799,42.730767,-84.4904143,272.5199890136719,1.7072784900665283,1.5872784852981567
1666656890.87692595,158178761,42.730767,-84.4904145,272.5199890136719,1.7065805196762085,1.586580514907837
1666656890.87983990,158181675,42.730767,-84.4904145,272.5199890136719,1.7051078081130981,1.5851078033447266
1666656890.91731405,158219149,42.7307669,-84.4904146,272.5199890136719,1.7046868801116943,1.5846868753433228
1666656890.95722198,158259057,42.7307668,-84.4904147,272.5199890136719,1.7048113346099854,1.5848113298416138
1666656890.97980285,158281638,42.7307668,-84.4904148,272.5199890136719,1.704506516456604,1.5845065116882324
1666656890.99705195,158298887,42.7307668,-84.4904148,272.5199890136719,1.7048133611679077,1.5848133563995361
1666656891.03694296,158338778,42.7307667,-84.490415,272.5199890136719,1.703038215637207,1.5830382108688354
1666656891.07695603,158378791,42.7307667,-84.49041509999999,272.5199890136719,1.7017173767089844,1.5817173719406128
1666656891.07985497,158381690,42.7307667,-84.49041509999999,272.5199890136719,1.7005550861358643,1.5805550813674927
1666656891.11735988,158419195,42.730766599999995,-84.4904152,272.5099792480469,1.6993392705917358,1.5793392658233643
1666656891.15721083,158459046,42.730766599999995,-84.4904153,272.5099792480469,1.698323130607605,1.5783231258392334
1666656891.17984486,158481680,42.7307665,-84.49041539999999,272.5099792480469,1.6974713802337646,1.577471375465393
1666656891.19686198,158498697,42.7307665,-84.49041539999999,272.5099792480469,1.6972531080245972,1.5772531032562256
1666656891.23700595,158538841,42.7307665,-84.49041559999999,272.5099792480469,1.6926517486572266,1.572651743888855
1666656891.27701783,158578853,42.7307665,-84.4904157,272.5,1.688584566116333,1.5685845613479614
1666656891.27992201,158581757,42.7307665,-84.4904157,272.5,1.6870918273925781,1.5670918226242065
1666656891.31736493,158619200,42.7307665,-84.4904158,272.5,1.6836795806884766,1.563679575920105
1666656891.35726404,158659099,42.7307665,-84.4904159,272.5,1.680795669555664,1.5607956647872925
1666656891.37992501,158681760,42.7307664,-84.4904159,272.489990234375,1.6788219213485718,1.5588219165802002
1666656891.39690590,158698741,42.7307664,-84.490416,272.489990234375,1.6778403520584106,1.557840347290039
1666656891.43694592,158738781,42.7307664,-84.49041609999999,272.489990234375,1.670993685722351,1.5509936809539795
1666656891.47686887,158778704,42.7307664,-84.49041629999999,272.47998046875,1.6647953987121582,1.5447953939437866
1666656891.47994900,158781784,42.7307664,-84.49041629999999,272.47998046875,1.6630797386169434,1.5430797338485718
1666656891.51747203,158819307,42.7307664,-84.4904164,272.4700012207031,1.657767415046692,1.5377674102783203
1666656891.55724001,158859075,42.7307664,-84.4904165,272.4700012207031,1.653268575668335,1.5332685708999634
1666656891.57992387,158881759,42.7307663,-84.4904166,272.4700012207031,1.650441288948059,1.5304412841796875
1666656891.59686089,158898696,42.7307663,-84.4904167,272.4599914550781,1.6488170623779297,1.528817057609558
1666656891.63687682,158938712,42.7307663,-84.49041679999999,272.4599914550781,1.6415013074874878,1.5215013027191162
1666656891.67689085,158978726,42.7307663,-84.490417,272.4499816894531,1.6346909999847412,1.5146909952163696
1666656891.67988992,158981725,42.7307663,-84.490417,272.4499816894531,1.6332181692123413,1.5132181644439697
1666656891.71733499,159019170,42.7307663,-84.4904172,272.44000244140625,1.6272977590560913,1.5072977542877197
1666656891.75727201,159059107,42.7307663,-84.49041729999999,272.44000244140625,1.622266173362732,1.5022661685943604
1666656891.77999187,159081827,42.7307663,-84.4904174,272.42999267578125,1.6192078590393066,1.499207854270935
1666656891.79700685,159098842,42.7307663,-84.49041749999999,272.42999267578125,1.6172935962677002,1.4972935914993286
1666656891.83685184,159138687,42.7307663,-84.4904176,272.41998291015625,1.609407663345337,1.4894076585769653
1666656891.87686801,159178703,42.7307663,-84.4904178,272.41998291015625,1.6019361019134521,1.4819360971450806
1666656891.87995005,159181785,42.7307663,-84.4904178,272.41998291015625,1.600529670715332,1.4805296659469604
1666656891.91732097,159219156,42.7307663,-84.4904179,272.4100036621094,1.5941412448883057,1.474141240119934
1666656891.95722604,159259061,42.7307663,-84.4904181,272.3999938964844,1.5882792472839355,1.468279242515564
1666656891.97991991,159281755,42.7307663,-84.4904181,272.3999938964844,1.5848753452301025,1.464875340461731
1666656891.99692297,159298758,42.7307663,-84.4904182,272.3999938964844,1.5825785398483276,1.462578535079956
1666656892.03689599,159338731,42.7307664,-84.4904183,272.3899841308594,1.5750000476837158,1.4550000429153442
1666656892.07690191,159378737,42.7307664,-84.4904184,272.3800048828125,1.5678377151489258,1.4478377103805542
1666656892.08007503,159381910,42.7307664,-84.4904184,272.3800048828125,1.56663179397583,1.4466317892074585
1666656892.11731100,159419146,42.7307664,-84.4904186,272.3800048828125,1.560207724571228,1.4402077198028564
1666656892.15728188,159459117,42.7307664,-84.49041869999999,272.3699951171875,1.5541331768035889,1.4341331720352173
1666656892.18003201,159481867,42.7307664,-84.49041869999999,272.3699951171875,1.55057954788208,1.4305795431137085
1666656892.19691896,159498754,42.7307664,-84.4904188,272.3599853515625,1.5480469465255737,1.4280469417572021
1666656892.23694396,159538779,42.7307665,-84.4904189,272.3500061035156,1.5393306016921997,1.4193305969238281
1666656892.27697086,159578806,42.730766599999995,-84.490419,272.3500061035156,1.5311936140060425,1.411193609237671
1666656892.27988601,159581721,42.730766599999995,-84.4904191,272.3399963378906,1.5299547910690308,1.4099547863006592
1666656892.31735802,159619193,42.730766599999995,-84.49041919999999,272.3399963378906,1.5226960182189941,1.4026960134506226
1666656892.35735083,159659186,42.7307667,-84.4904193,272.3299865722656,1.5157639980316162,1.3957639932632446
1666656892.37996602,159681801,42.7307667,-84.4904194,272.3299865722656,1.512032151222229,1.3920321464538574
1666656892.39688897,159698724,42.7307667,-84.4904194,272.32000732421875,1.5090941190719604,1.3890941143035889
1666656892.43694496,159738780,42.7307668,-84.4904196,272.32000732421875,1.5019137859344482,1.3819137811660767
1666656892.47694898,159778784,42.7307669,-84.4904198,272.30999755859375,1.4951242208480835,1.375124216079712
1666656892.47985482,159781690,42.7307669,-84.49041989999999,272.30999755859375,1.494489312171936,1.3744893074035645
1666656892.51731706,159819152,42.730767,-84.4904201,272.29998779296875,1.4883875846862793,1.3683875799179077
1666656892.55724502,159859080,42.730767,-84.4904202,272.29998779296875,1.4822769165039062,1.3622769117355347
1666656892.57993603,159881771,42.7307671,-84.49042039999999,272.2900085449219,1.4786700010299683,1.3586699962615967
1666656892.59693193,159898767,42.7307671,-84.49042039999999,272.2900085449219,1.4758082628250122,1.3558082580566406
1666656892.63694596,159938781,42.7307671,-84.4904207,272.2799987792969,1.4675188064575195,1.347518801689148
1666656892.67694902,159978784,42.7307671,-84.49042089999999,272.2699890136719,1.4598606824874878,1.3398606777191162
1666656892.67985296,159981688,42.7307671,-84.49042089999999,272.2699890136719,1.4593162536621094,1.3393162488937378
1666656892.71762896,160019464,42.730767199999995,-84.49042109999999,272.2699890136719,1.4525659084320068,1.3325659036636353
1666656892.75720787,160059043,42.730767199999995,-84.4904214,272.2599792480469,1.4460276365280151,1.3260276317596436
1666656892.77989101,160081726,42.730767199999995,-84.4904215,272.2599792480469,1.442304253578186,1.3223042488098145
1666656892.79686284,160098698,42.730767199999995,-84.49042159999999,272.25,1.4389855861663818,1.3189855813980103
1666656892.83695388,160138789,42.730767199999995,-84.4904219,272.25,1.4300304651260376,1.310030460357666
1666656892.87697697,160178812,42.7307671,-84.49042209999999,272.239990234375,1.4213920831680298,1.3013920783996582
1666656892.87987304,160181708,42.730767199999995,-84.4904222,272.239990234375,1.4209446907043457,1.3009446859359741
1666656892.91728187,160219117,42.7307671,-84.4904224,272.22998046875,1.413184404373169,1.2931843996047974
1666656892.95727801,160259113,42.7307671,-84.4904227,272.2200012207031,1.4057507514953613,1.2857507467269897
1666656892.97987890,160281714,42.7307671,-84.49042279999999,272.2200012207031,1.4015485048294067,1.2815485000610352
1666656892.99691200,160298747,42.7307671,-84.4904229,272.2099914550781,1.397922158241272,1.2779221534729004
1666656893.03693199,160338767,42.730767,-84.4904232,272.1999816894531,1.385809302330017,1.2658092975616455
1666656893.07689500,160378730,42.730767,-84.49042349999999,272.19000244140625,1.3744289875030518,1.2544289827346802
1666656893.08003092,160381866,42.730767,-84.49042349999999,272.19000244140625,1.373285174369812,1.2532851696014404
1666656893.11729503,160419130,42.730767,-84.4904237,272.17999267578125,1.3631316423416138,1.2431316375732422
1666656893.15722585,160459061,42.730767,-84.49042399999999,272.16998291015625,1.3535829782485962,1.2335829734802246
1666656893.17988491,160481720,42.730767,-84.4904241,272.1600036621094,1.348158836364746,1.2281588315963745
1666656893.19696593,160498801,42.7307669,-84.49042419999999,272.1600036621094,1.3438681364059448,1.2238681316375732
1666656893.23689890,160538734,42.7307669,-84.4904245,272.1499938964844,1.3330914974212646,1.213091492652893
1666656893.27694392,160578779,42.7307669,-84.49042469999999,272.1300048828125,1.3194711208343506,1.199471116065979
1666656893.27991390,160581749,42.7307669,-84.49042469999999,272.1300048828125,1.317858099937439,1.1978580951690674
1666656893.31733990,160619175,42.7307669,-84.4904249,272.1199951171875,1.305935263633728,1.1859352588653564
1666656893.35730696,160659142,42.7307669,-84.4904251,272.1099853515625,1.2946852445602417,1.1746852397918701
1666656893.38001299,160681848,42.7307669,-84.49042519999999,272.1000061035156,1.2884546518325806,1.168454647064209
1666656893.39694190,160698777,42.7307669,-84.4904253,272.1000061035156,1.2835984230041504,1.1635984182357788
1666656893.43684697,160738682,42.7307669,-84.4904255,272.0799865722656,1.2694021463394165,1.149402141571045
1666656893.47685599,160778691,42.7307669,-84.4904257,272.07000732421875,1.2561179399490356,1.136117935180664
1666656893.47994995,160781785,42.7307669,-84.4904257,272.07000732421875,1.2545838356018066,1.134583830833435
1666656893.51732898,160819164,42.730767,-84.4904258,272.05999755859375,1.2431532144546509,1.1231532096862793
1666656893.55720305,160859038,42.730767,-84.490426,272.04998779296875,1.2321581840515137,1.112158179283142
1666656893.57993984,160881775,42.730767,-84.4904261,272.0400085449219,1.2260042428970337,1.106004238128662
1666656893.59698796,160898823,42.730767,-84.4904262,272.0400085449219,1.2214025259017944,1.1014025211334229
1666656893.63691497,160938750,42.730767,-84.49042639999999,272.0199890136719,1.2095190286636353,1.0895190238952637
1666656893.67683387,160978669,42.730767,-84.4904265,272.0099792480469,1.1985636949539185,1.0785636901855469
1666656893.67990184,160981737,42.7307671,-84.4904265,272.0099792480469,1.1976863145828247,1.0776863098144531
1666656893.71728086,161019116,42.7307671,-84.49042659999999,272.0,1.1882226467132568,1.0682226419448853
1666656893.75727606,161059111,42.7307671,-84.4904268,271.989990234375,1.1793692111968994,1.0593692064285278
1666656893.77989984,161081735,42.7307671,-84.4904268,271.989990234375,1.1744135618209839,1.0544135570526123
1666656893.79693604,161098771,42.7307671,-84.4904269,271.989990234375,1.1702574491500854,1.0502574443817139
1666656893.83691502,161138750,42.730767199999995,-84.49042709999999,271.9700012207031,1.1598787307739258,1.0398787260055542
1666656893.87689805,161178733,42.730767199999995,-84.4904272,271.9700012207031,1.1499958038330078,1.0299957990646362
1666656893.88005495,161181890,42.7307673,-84.4904272,271.9599914550781,1.1495890617370605,1.029589056968689
1666656893.91735101,161219186,42.7307673,-84.4904274,271.9599914550781,1.141204595565796,1.0212045907974243
1666656893.95726299,161259098,42.7307674,-84.4904275,271.9499816894531,1.133137583732605,1.0131375789642334
1666656893.97997499,161281810,42.7307674,-84.49042759999999,271.94000244140625,1.1286611557006836,1.008661150932312
1666656893.99689484,161298730,42.7307674,-84.49042759999999,271.94000244140625,1.1247402429580688,1.0047402381896973
1666656894.03697205,161338807,42.7307675,-84.49042779999999,271.92999267578125,1.1137316226959229,0.9937316179275513
1666656894.07695198,161378787,42.7307675,-84.4904279,271.91998291015625,1.1034058332443237,0.9834058880805969
1666656894.07988906,161381724,42.7307675,-84.4904279,271.91998291015625,1.1028869152069092,0.9828869104385376
1666656894.11733985,161419175,42.7307675,-84.4904281,271.9100036621094,1.0938999652862549,0.9738999605178833
1666656894.15715599,161458991,42.7307675,-84.4904282,271.8999938964844,1.0854283571243286,0.9654284119606018
1666656894.17982697,161481662,42.7307675,-84.49042829999999,271.8999938964844,1.080830693244934,0.9608306884765625
1666656894.19689488,161498730,42.7307675,-84.4904284,271.8899841308594,1.0767422914505005,0.9567422866821289
1666656894.23696589,161538801,42.7307676,-84.4904285,271.8800048828125,1.0679450035095215,0.9479450583457947
1666656894.27699304,161578828,42.7307677,-84.4904286,271.8699951171875,1.0593299865722656,0.939329981803894
1666656894.27990389,161581739,42.7307677,-84.4904286,271.8699951171875,1.059561014175415,0.9395610094070435
1666656894.31744790,161619283,42.730767799999995,-84.4904287,271.8699951171875,1.0521208047866821,0.9321208000183105
1666656894.35723090,161659066,42.730767799999995,-84.49042879999999,271.8599853515625,1.0454587936401367,0.9254588484764099
1666656894.37995195,161681787,42.730767799999995,-84.4904289,271.8599853515625,1.041987419128418,0.9219874739646912
1666656894.39684701,161698682,42.730767799999995,-84.49042899999999,271.8500061035156,1.0383033752441406,0.9183034300804138
1666656894.43689799,161738733,42.7307679,-84.49042899999999,271.8500061035156,1.0308963060379028,0.9108963012695312
1666656894.47693586,161778771,42.7307679,-84.4904291,271.8399963378906,1.0236201286315918,0.903620183467865
1666656894.47985697,161781692,42.7307679,-84.49042899999999,271.8399963378906,1.0244042873382568,0.9044042825698853
1666656894.51729202,161819127,42.730768,-84.4904291,271.8299865722656,1.018095850944519,0.8980958461761475
1666656894.55730605,161859141,42.730768,-84.4904292,271.8299865722656,1.012535572052002,0.8925355672836304
1666656894.57992601,161881761,42.7307681,-84.4904292,271.82000732421875,1.0093872547149658,0.8893872499465942
1666656894.59689689,161898732,42.7307681,-84.4904292,271.82000732421875,1.0059715509414673,0.8859716057777405
1666656894.63685298,161938688,42.7307682,-84.4904293,271.80999755859375,0.9984026551246643,0.8784026503562927
