timestamp,TimeUS,C,Roll,Pitch,Yaw,VN,VE,VD,dPD,PN,PE,PD,GX,GY,GZ,OH
1666656879.57873297,146880568,1,0.06,-0.49,354.04,0.02218487858772278,0.02807246707379818,-0.028312411159276962,0.05422784760594368,6.737496376037598,8.561213493347168,0.09979651868343353,0.12,0.0,-0.01,270.94
1666656879.59623098,146898066,1,0.06,-0.48,354.04,0.02184429205954075,0.027642369270324707,-0.027921907603740692,0.049631789326667786,6.735264778137207,8.562713623046875,0.10008471459150314,0.12,0.0,-0.01,270.94
1666656879.63624883,146938084,1,0.06,-0.48,354.03000000000003,0.02021612785756588,0.027448484674096107,-0.02684388868510723,0.041443318128585815,6.727459907531738,8.567408561706543,0.10160374641418457,0.12,0.0,-0.01,270.94
1666656879.67623305,146978068,1,0.06,-0.48,354.03000000000003,0.018437646329402924,0.02762007713317871,-0.02473283000290394,0.05430041253566742,6.717772960662842,8.573042869567871,0.10451293736696243,0.12,0.0,-0.01,270.94
1666656879.67873287,146980568,1,0.06,-0.48,354.03000000000003,0.01859404519200325,0.02747875452041626,-0.024709006771445274,0.05490504205226898,6.717813968658447,8.573103904724121,0.10445813834667206,0.12,0.0,-0.01,270.94
1666656879.71622205,147018057,1,0.06,-0.47000000000000003,354.03000000000003,0.017027974128723145,0.027581967413425446,-0.022933971136808395,0.06804501265287399,6.7094573974609375,8.578007698059082,0.10710522532463074,0.12,0.0,-0.01,270.94
1666656879.75621104,147058046,1,0.06,-0.48,354.03000000000003,0.014890114776790142,0.027877885848283768,-0.021404722705483437,0.07341590523719788,6.700015544891357,8.583365440368652,0.11033625155687332,0.12,0.0,-0.01,270.94
1666656879.77871084,147080546,1,0.06,-0.48,354.02,0.01496555283665657,0.027510888874530792,-0.020863061770796776,0.07337374985218048,6.698144435882568,8.584909439086914,0.11075429618358612,0.12,0.0,-0.01,270.94
1666656879.79624200,147098077,1,0.06,-0.47000000000000003,354.02,0.014306441880762577,0.027666255831718445,-0.019998667761683464,0.0714934915304184,6.6942853927612305,8.587080001831055,0.11210893094539642,0.12,0.0,-0.01,270.94
1666656879.83624291,147138078,1,0.06,-0.47000000000000003,354.02,0.012806367129087448,0.028695369139313698,-0.01699562557041645,0.08620577305555344,6.684682369232178,8.593825340270996,0.11748428642749786,0.12,-0.01,-0.01,270.94
1666656879.87623882,147178074,1,0.06,-0.47000000000000003,354.02,0.011261418461799622,0.029619697481393814,-0.01471406314522028,0.1140262633562088,6.676431179046631,8.599852561950684,0.1222262755036354,0.12,-0.01,-0.01,270.94
1666656879.87871695,147180552,1,0.06,-0.47000000000000003,354.02,0.011379210278391838,0.029481960460543633,-0.014697695150971413,0.11488071084022522,6.676456451416016,8.5999174118042,0.12219367176294327,0.12,-0.01,-0.01,270.94
1666656879.91622186,147218057,1,0.06,-0.47000000000000003,354.02,0.010554550215601921,0.02981272153556347,-0.012650149874389172,0.12930501997470856,6.669372081756592,8.605209350585938,0.12648822367191315,0.12,-0.01,-0.01,270.94
1666656879.95621300,147258048,1,0.07,-0.46,354.02,0.009752054698765278,0.030619774013757706,-0.010359927080571651,0.12870460748672485,6.661449432373047,8.611072540283203,0.13141140341758728,0.12,-0.01,-0.01,270.94
1666656879.97870994,147280545,1,0.07,-0.46,354.02,0.01002370286732912,0.030210847035050392,-0.009758989326655865,0.1247202605009079,6.659857749938965,8.61277961730957,0.13241097331047058,0.12,-0.01,-0.01,270.94
1666656879.99620605,147298041,1,0.07,-0.46,354.02,0.009668609127402306,0.03030676767230034,-0.008684519678354263,0.1197873130440712,6.656682014465332,8.615191459655762,0.13457508385181427,0.12,-0.01,-0.01,270.94
1666656880.03623486,147338070,1,0.07,-0.46,354.02,0.007407510187476873,0.03127006068825722,-0.004936015699058771,0.13902027904987335,6.646793842315674,8.62073802947998,0.14299851655960083,0.12,-0.01,-0.01,270.94
1666656880.07624698,147378082,1,0.07,-0.46,354.02,0.005494029726833105,0.031602706760168076,-0.0014626148622483015,0.17823448777198792,6.638209342956543,8.625726699829102,0.1504855751991272,0.12,-0.01,-0.01,270.94
1666656880.07870102,147380536,1,0.07,-0.46,354.02,0.005526623222976923,0.031512122601270676,-0.0014128300826996565,0.179751455783844,6.638224124908447,8.625810623168945,0.15048176050186157,0.12,-0.01,-0.01,270.94
1666656880.11624503,147418080,1,0.07,-0.46,354.02,0.003793128998950124,0.031878676265478134,0.0016363488975912333,0.2006140500307083,6.630768775939941,8.630182266235352,0.15727044641971588,0.12,-0.01,-0.01,270.94
1666656880.15618491,147458020,1,0.08,-0.45,354.02,0.0017371225403621793,0.03222781419754028,0.004471311811357737,0.19967445731163025,6.622361183166504,8.634992599487305,0.16494697332382202,0.12,-0.01,-0.01,270.94
1666656880.17872095,147480556,1,0.08,-0.45,354.02,0.0019368433859199286,0.03179327771067619,0.005204128101468086,0.19376671314239502,6.620536804199219,8.63648509979248,0.16676943004131317,0.12,-0.01,-0.01,270.94
1666656880.19620991,147498045,1,0.08,-0.45,354.02,0.0012043773895129561,0.03174857795238495,0.006731672678142786,0.18670804798603058,6.6171064376831055,8.638448715209961,0.1701149344444275,0.12,-0.01,-0.01,270.94
1666656880.23624802,147538083,1,0.08,-0.45,354.01,-0.0016887951642274857,0.031288765370845795,0.010722368024289608,0.19459588825702667,6.6069111824035645,8.642206192016602,0.17937630414962769,0.12,-0.01,-0.01,270.94
1666656880.27624702,147578082,1,0.08,-0.45,354.01,-0.00403096666559577,0.03039420023560524,0.014098033308982849,0.21515187621116638,6.5979461669921875,8.645508766174316,0.18758781254291534,0.12,-0.01,-0.01,270.94
1666656880.27871799,147580553,1,0.08,-0.45,354.01,-0.0038902980741113424,0.030266322195529938,0.014083805494010448,0.2156962752342224,6.597933769226074,8.645602226257324,0.1876315474510193,0.12,-0.01,-0.01,270.94
1666656880.31625390,147618089,1,0.08,-0.45,354.01,-0.006246685981750488,0.029820725321769714,0.017025716602802277,0.22277489304542542,6.590063095092773,8.648447036743164,0.19508101046085358,0.12,-0.01,-0.01,270.94
1666656880.35619688,147658032,1,0.08,-0.45,354.01,-0.008944930508732796,0.029039978981018066,0.020392566919326782,0.21355460584163666,6.581137180328369,8.651432991027832,0.2034229338169098,0.12,-0.01,-0.01,270.94
1666656880.37872195,147680557,1,0.08,-0.44,354.01,-0.00942444521933794,0.0286750216037035,0.021123500540852547,0.20485277473926544,6.579028129577637,8.652460098266602,0.20561327040195465,0.12,-0.01,-0.01,270.94
1666656880.39623094,147698066,1,0.08,-0.44,354.01,-0.01070461980998516,0.028430640697479248,0.02252035401761532,0.1961704045534134,6.575322151184082,8.653634071350098,0.20925183594226837,0.12,-0.01,-0.01,270.94
1666656880.43621087,147738046,1,0.08,-0.44,354.01,-0.013690578751266003,0.02787191979587078,0.026269463822245598,0.20070062577724457,6.565631866455078,8.656292915344238,0.2189473956823349,0.12,-0.01,-0.01,270.94
1666656880.47623801,147778073,1,0.07,-0.44,354.0,-0.016148041933774948,0.026974938809871674,0.029626555740833282,0.21967801451683044,6.557045936584473,8.658626556396484,0.2276403158903122,0.12,-0.01,-0.01,270.94
1666656880.47870398,147780539,1,0.07,-0.44,354.0,-0.01606111042201519,0.026899658143520355,0.029737403616309166,0.2200608104467392,6.557003021240234,8.658698081970215,0.2277192771434784,0.12,-0.01,-0.01,270.94
1666656880.51622796,147818063,1,0.07,-0.43,354.0,-0.018191350623965263,0.025969188660383224,0.03297184780240059,0.22722065448760986,6.549459457397461,8.660643577575684,0.23560932278633118,0.12,-0.01,-0.01,270.94
1666656880.55624390,147858079,1,0.07,-0.43,354.0,-0.020623279735445976,0.025242390111088753,0.03623616322875023,0.21667127311229706,6.540931224822998,8.662631034851074,0.24418559670448303,0.12,-0.01,-0.01,270.94
1666656880.57874799,147880583,1,0.07,-0.43,354.0,-0.021435748785734177,0.0246798824518919,0.03726350888609886,0.20733995735645294,6.538766384124756,8.663365364074707,0.2466217577457428,0.12,-0.01,-0.01,270.94
1666656880.59623098,147898066,1,0.07,-0.43,354.0,-0.02257281169295311,0.02420678734779358,0.038746561855077744,0.19835446774959564,6.535229206085205,8.66409683227539,0.2503533959388733,0.12,-0.01,-0.01,270.94
1666656880.63618302,147938018,1,0.07,-0.43,354.0,-0.02468496561050415,0.02402571402490139,0.043015189468860626,0.2108379453420639,6.525786399841309,8.666732788085938,0.2616487741470337,0.12,-0.01,-0.01,270.94
1666656880.67621088,147978046,1,0.07,-0.43,354.0,-0.02691451832652092,0.02377309650182724,0.04683433845639229,0.24306076765060425,6.517414093017578,8.669078826904297,0.2718489468097687,0.12,-0.01,-0.01,270.94
1666656880.67874885,147980584,1,0.07,-0.43,354.0,-0.026923319324851036,0.023692743852734566,0.04688866809010506,0.24409930408000946,6.5173420906066895,8.669142723083496,0.2719736099243164,0.12,-0.01,-0.01,270.94
1666656880.71623898,148018074,1,0.07,-0.42,354.0,-0.02947058342397213,0.023929640650749207,0.05027618259191513,0.2598467171192169,6.509957313537598,8.671174049377441,0.28124120831489563,0.12,-0.01,-0.01,270.94
1666656880.75625992,148058095,1,0.07,-0.42,354.0,-0.03190812095999718,0.024004368111491203,0.053341202437877655,0.2517036497592926,6.5016889572143555,8.673328399658203,0.2909208834171295,0.12,-0.01,-0.01,270.94
1666656880.77875400,148080589,1,0.07,-0.42,354.0,-0.03183649107813835,0.023906266316771507,0.05381027236580849,0.24059759080410004,6.499413967132568,8.674127578735352,0.29387664794921875,0.12,-0.01,-0.01,270.94
1666656880.79621792,148098053,1,0.07,-0.42,353.99,-0.0327627994120121,0.023740803822875023,0.05545332282781601,0.23089171946048737,6.496012210845947,8.674979209899902,0.2980656623840332,0.12,-0.01,-0.01,270.94
1666656880.83622789,148138063,1,0.07,-0.42,353.99,-0.036418475210666656,0.023981820791959763,0.058416660875082016,0.21863660216331482,6.48604679107666,8.677289009094238,0.30674365162849426,0.12,-0.01,-0.01,270.94
1666656880.87621593,148178051,1,0.07,-0.41000000000000003,353.99,-0.03969404101371765,0.02401568740606308,0.06092265620827675,0.21403725445270538,6.477097988128662,8.679390907287598,0.3146698772907257,0.12,-0.01,-0.01,270.94
1666656880.87872696,148180562,1,0.07,-0.41000000000000003,353.99,-0.03966439515352249,0.023997189477086067,0.06097061187028885,0.2133062183856964,6.4770097732543945,8.679443359375,0.31480497121810913,0.12,-0.01,-0.01,270.94
1666656880.91624284,148218078,1,0.07,-0.41000000000000003,353.99,-0.042062461376190186,0.024259623140096664,0.06317930668592453,0.20521380007266998,6.469050407409668,8.681303977966309,0.3220508098602295,0.12,-0.01,-0.01,270.94
1666656880.95623899,148258074,1,0.07,-0.41000000000000003,353.99,-0.045024532824754715,0.02451537363231182,0.06543409079313278,0.18802280724048615,6.460134029388428,8.683279991149902,0.3296375274658203,0.12,-0.01,-0.01,270.94
1666656880.97874093,148280576,1,0.07,-0.41000000000000003,353.99,-0.04579639807343483,0.024308670312166214,0.06613179296255112,0.17745478451251984,6.45753288269043,8.684041023254395,0.3322526812553406,0.12,-0.01,-0.01,270.94
1666656880.99621797,148298053,1,0.07,-0.41000000000000003,353.99,-0.04702812805771828,0.024219520390033722,0.06702069193124771,0.16873972117900848,6.453794479370117,8.684844970703125,0.33555132150650024,0.12,-0.01,-0.01,270.94
1666656881.03620195,148338037,1,0.07,-0.41000000000000003,353.99,-0.04988982155919075,0.022653544321656227,0.0689983069896698,0.15219618380069733,6.443675994873047,8.685371398925781,0.3411335349082947,0.12,-0.01,-0.01,270.94
1666656881.07623291,148378068,1,0.07,-0.41000000000000003,353.99,-0.05286301672458649,0.020890938118100166,0.07074926048517227,0.13482096791267395,6.434540748596191,8.68578052520752,0.34616735577583313,0.12,-0.01,-0.01,270.94
1666656881.07873487,148380570,1,0.07,-0.41000000000000003,353.99,-0.052894700318574905,0.02080746367573738,0.07076967507600784,0.1335323452949524,6.4344000816345215,8.685835838317871,0.3463555872440338,0.12,-0.01,-0.01,270.94
1666656881.11620903,148418044,1,0.07,-0.41000000000000003,354.0,-0.05537561699748039,0.01931636594235897,0.07171513885259628,0.11951705068349838,6.426263332366943,8.686078071594238,0.3509727716445923,0.12,-0.01,-0.01,270.94
1666656881.15625000,148458085,1,0.06,-0.41000000000000003,354.0,-0.05785618722438812,0.01771525852382183,0.07307251542806625,0.10117199271917343,6.417186260223389,8.686079978942871,0.35483118891716003,0.12,-0.01,-0.01,270.94
1666656881.17874098,148480576,1,0.06,-0.41000000000000003,353.99,-0.05837748572230339,0.017051100730895996,0.07336122542619705,0.0908125713467598,6.414381504058838,8.686273574829102,0.3566979765892029,0.12,-0.01,-0.01,270.94
1666656881.19623995,148498075,1,0.06,-0.41000000000000003,353.99,-0.05951828509569168,0.01652034930884838,0.07357709109783173,0.0837363600730896,6.4106059074401855,8.686156272888184,0.35835450887680054,0.12,-0.01,-0.01,270.94
1666656881.23624492,148538080,1,0.06,-0.42,354.0,-0.06266407668590546,0.014663005247712135,0.07518450915813446,0.08149093389511108,6.400351524353027,8.685823440551758,0.36320337653160095,0.12,-0.01,-0.01,270.94
1666656881.27623987,148578075,1,0.06,-0.42,353.99,-0.06513836979866028,0.013453085906803608,0.07624126970767975,0.08625689148902893,6.391075134277344,8.685417175292969,0.3675583004951477,0.12,-0.01,-0.01,270.94
1666656881.27874494,148580580,1,0.06,-0.42,353.99,-0.06515292823314667,0.013365293852984905,0.07624246925115585,0.08645302057266235,6.390902042388916,8.685452461242676,0.36776113510131836,0.12,-0.01,-0.01,270.94
1666656881.31618404,148618019,1,0.06,-0.41000000000000003,353.99,-0.06756290793418884,0.012345894239842892,0.07739526033401489,0.09043150395154953,6.382634162902832,8.684974670410156,0.3717692792415619,0.12,-0.01,-0.01,270.94
1666656881.35620403,148658039,1,0.06,-0.41000000000000003,353.99,-0.07033609598875046,0.011051231063902378,0.07865075021982193,0.0895761102437973,6.373419284820557,8.68419361114502,0.3756537437438965,0.12,-0.01,-0.01,270.94
1666656881.37871599,148680551,1,0.06,-0.41000000000000003,353.99,-0.07102776318788528,0.010230579413473606,0.0789889544248581,0.08776216208934784,6.370451927185059,8.684117317199707,0.37755757570266724,0.12,-0.01,-0.01,270.94
1666656881.39623499,148698070,1,0.06,-0.41000000000000003,354.0,-0.07178355008363724,0.009447906166315079,0.07955335080623627,0.08629805594682693,6.366598606109619,8.683675765991211,0.37924814224243164,0.12,-0.01,-0.01,270.94
1666656881.43622303,148738058,1,0.06,-0.41000000000000003,354.0,-0.0734085813164711,0.00772443599998951,0.0809222161769867,0.09241730719804764,6.3570556640625,8.682549476623535,0.384196937084198,0.12,-0.01,-0.01,270.94
1666656881.47623897,148778074,1,0.06,-0.41000000000000003,354.0,-0.07482296228408813,0.0065303039737045765,0.08209994435310364,0.10241817682981491,6.348323345184326,8.6814546585083,0.38884562253952026,0.12,-0.01,-0.01,270.94
1666656881.47871089,148780546,1,0.06,-0.41000000000000003,354.0,-0.0748327374458313,0.0064562601037323475,0.0821247547864914,0.10276367515325546,6.34815788269043,8.681468963623047,0.3890276551246643,0.12,-0.01,-0.01,270.94
1666656881.51623702,148818072,1,0.06,-0.41000000000000003,354.0,-0.0757342055439949,0.004665470216423273,0.08275814354419708,0.10794949531555176,6.340469837188721,8.680365562438965,0.39327332377433777,0.12,-0.01,-0.01,270.94
1666656881.55618596,148858021,1,0.06,-0.41000000000000003,354.0,-0.07670250535011292,0.0035084327682852745,0.08405174314975739,0.10332363098859787,6.332129955291748,8.678884506225586,0.3966887295246124,0.12,-0.01,-0.01,270.94
1666656881.57871699,148880552,1,0.06,-0.41000000000000003,354.0,-0.0768643245100975,0.002690770197659731,0.08444517850875854,0.09813382476568222,6.329289436340332,8.678557395935059,0.3985672891139984,0.12,-0.01,-0.01,270.94
1666656881.59621286,148898048,1,0.06,-0.41000000000000003,354.0,-0.07707908749580383,0.002193236257880926,0.0848279669880867,0.0939846858382225,6.325851917266846,8.677831649780273,0.40008044242858887,0.12,-0.01,-0.01,270.94
1666656881.63624501,148938080,1,0.07,-0.41000000000000003,354.0,-0.07874049991369247,0.00012357499508652836,0.08578791469335556,0.0944797471165657,6.315948486328125,8.675230026245117,0.4047381281852722,0.12,-0.01,-0.01,270.94
1666656881.67624784,148978083,1,0.06,-0.41000000000000003,354.0,-0.08057523518800735,-0.0024103564210236073,0.08686242997646332,0.09972571581602097,6.3069562911987305,8.672735214233398,0.4090023636817932,0.12,-0.01,-0.01,270.94
1666656881.67868996,148980525,1,0.06,-0.41000000000000003,354.0,-0.080590158700943,-0.0025140298530459404,0.08693134039640427,0.10001221299171448,6.306742191314697,8.672728538513184,0.4092335104942322,0.12,-0.01,-0.01,270.94
1666656881.71623087,149018066,1,0.07,-0.41000000000000003,354.0,-0.08180122822523117,-0.004780469927936792,0.08819166570901871,0.10361486673355103,6.2987470626831055,8.670326232910156,0.41323229670524597,0.12,-0.01,-0.01,270.94
1666656881.75622892,149058064,1,0.06,-0.41000000000000003,353.99,-0.08341489732265472,-0.007229126989841461,0.08937389403581619,0.1001020073890686,6.290048599243164,8.667325973510742,0.41668418049812317,0.12,-0.01,-0.01,270.94
1666656881.77870297,149080538,1,0.06,-0.41000000000000003,353.99,-0.08401726931333542,-0.008077039383351803,0.08981376141309738,0.09637273848056793,6.286993026733398,8.666502952575684,0.4186820983886719,0.12,-0.01,-0.01,270.94
1666656881.79621506,149098050,1,0.06,-0.41000000000000003,353.99,-0.08471574634313583,-0.009171182289719582,0.0905691608786583,0.09394198656082153,6.2834014892578125,8.665096282958984,0.4201812446117401,0.12,-0.01,-0.01,270.94
1666656881.83624291,149138078,1,0.06,-0.41000000000000003,353.98,-0.08273351192474365,-0.009156911633908749,0.0921967625617981,0.09904994815587997,6.276452541351318,8.663707733154297,0.4252532720565796,0.12,-0.01,-0.01,270.94
1666656881.87624002,149178075,1,0.06,-0.41000000000000003,353.98,-0.0809314101934433,-0.010067150928080082,0.09360689669847488,0.10846805572509766,6.270284175872803,8.662391662597656,0.4298880398273468,0.12,-0.01,-0.01,270.94
1666656881.87872791,149180563,1,0.06,-0.41000000000000003,353.98,-0.08083964139223099,-0.010096350684762001,0.09369208663702011,0.10898028314113617,6.270069122314453,8.662364959716797,0.43013715744018555,0.12,-0.01,-0.01,270.94
1666656881.91624904,149218084,1,0.06,-0.42,353.98,-0.07909294217824936,-0.010017484426498413,0.09469031542539597,0.11452341079711914,6.2647833824157715,8.661127090454102,0.43448126316070557,0.12,-0.01,-0.01,270.94
1666656881.95624900,149258084,1,0.06,-0.42,353.98,-0.07683570683002472,-0.010261034592986107,0.09565158188343048,0.10955844819545746,6.259474277496338,8.659685134887695,0.4379171133041382,0.12,-0.01,-0.01,270.94
1666656881.97873092,149280566,1,0.06,-0.42,353.98,-0.07626434415578842,-0.011156558059155941,0.09606803208589554,0.10426601022481918,6.257325649261475,8.65920639038086,0.43999752402305603,0.12,-0.01,-0.01,270.94
1666656881.99622798,149298063,1,0.06,-0.42,353.98,-0.07542566955089569,-0.011191237717866898,0.09667535126209259,0.1005432978272438,6.255329132080078,8.658559799194336,0.44149357080459595,0.12,-0.01,-0.01,270.94
1666656882.03621292,149338048,1,0.06,-0.42,353.98,-0.07135042548179626,-0.010047120973467827,0.09802210330963135,0.10578406602144241,6.250248432159424,8.657963752746582,0.4470673203468323,0.12,-0.01,-0.01,270.94
1666656882.07623982,149378075,1,0.06,-0.42,353.98,-0.06812597811222076,-0.00939900241792202,0.09929734468460083,0.11760242283344269,6.245884895324707,8.657461166381836,0.4521690607070923,0.12,-0.01,-0.01,270.94
1666656882.07872605,149380561,1,0.06,-0.41000000000000003,353.98,-0.0682130679488182,-0.00944562442600727,0.0993315652012825,0.11809346079826355,6.245733737945557,8.657440185546875,0.4523892104625702,0.12,-0.01,-0.01,270.94
1666656882.11625004,149418085,1,0.06,-0.42,353.98,-0.06535094976425171,-0.008717129938304424,0.10010689496994019,0.12498556822538376,6.242214202880859,8.657037734985352,0.45707330107688904,0.12,-0.01,-0.01,270.94
1666656882.15625501,149458090,1,0.06,-0.42,353.98,-0.06155034154653549,-0.007397338282316923,0.10137681663036346,0.11966752260923386,6.238936901092529,8.65666389465332,0.46070414781570435,0.12,-0.01,-0.01,270.94
1666656882.17874789,149480583,1,0.06,-0.42,353.98,-0.06067570671439171,-0.007845745421946049,0.1017833799123764,0.11328825354576111,6.237477779388428,8.656488418579102,0.4629004895687103,0.12,-0.01,-0.01,270.94
1666656882.19622898,149498064,1,0.06,-0.42,353.98,-0.05939716845750809,-0.007644277065992355,0.1022171750664711,0.10854694247245789,6.236397743225098,8.656353950500488,0.46446940302848816,0.12,-0.01,-0.01,270.94
1666656882.23623300,149538068,1,0.06,-0.42,353.97,-0.059216562658548355,-0.006390960421413183,0.10361216217279434,0.10768701136112213,6.22919225692749,8.655767440795898,0.4694538712501526,0.12,-0.01,-0.01,270.94
1666656882.27621698,149578052,1,0.06,-0.42,353.97,-0.059046853333711624,-0.005840311758220196,0.10440956056118011,0.1102197915315628,6.222836494445801,8.655298233032227,0.47398605942726135,0.12,-0.01,-0.01,270.94
1666656882.27875686,149580592,1,0.06,-0.42,353.97,-0.05895279347896576,-0.005868508946150541,0.1044711247086525,0.11039134114980698,6.222679615020752,8.655282020568848,0.47426387667655945,0.12,-0.01,-0.01,270.94
1666656882.31625104,149618086,1,0.06,-0.42,353.97,-0.05944729223847389,-0.005153984762728214,0.10539037734270096,0.11231888830661774,6.217170715332031,8.654916763305664,0.47849947214126587,0.12,-0.01,-0.01,270.94
1666656882.35622787,149658063,1,0.06,-0.42,353.97,-0.060059696435928345,-0.00418016966432333,0.10618633776903152,0.10634610801935196,6.211307525634766,8.654574394226074,0.4818122088909149,0.12,-0.01,-0.01,270.94
1666656882.37875700,149680592,1,0.06,-0.42,353.97,-0.058449164032936096,-0.004132086411118507,0.10627008974552155,0.10090690106153488,6.20923376083374,8.654449462890625,0.48401525616645813,0.12,-0.01,-0.01,270.94
1666656882.39626789,149698103,1,0.06,-0.42,353.97,-0.059048183262348175,-0.004578706808388233,0.10662107914686203,0.0972437709569931,6.2068376541137695,8.654318809509277,0.48556914925575256,0.12,-0.01,-0.01,270.94
1666656882.43621898,149738054,1,0.06,-0.42,353.97,-0.06040022149682045,-0.002501885639503598,0.10740187019109726,0.09086941182613373,6.199059009552002,8.652880668640137,0.4890013039112091,0.12,-0.01,-0.01,270.94
1666656882.47620392,149778039,1,0.06,-0.42,353.96,-0.06037371605634689,-0.004635390359908342,0.10798562318086624,0.08250901848077774,6.19210958480835,8.651633262634277,0.4922267198562622,0.12,-0.01,-0.01,270.94
1666656882.47873497,149780570,1,0.06,-0.42,353.96,-0.06077463552355766,-0.004794140812009573,0.10849892348051071,0.08269023150205612,6.1919755935668945,8.651622772216797,0.49246668815612793,0.12,-0.01,-0.01,270.94
1666656882.51621795,149818053,1,0.05,-0.42,353.95,-0.06092894449830055,-0.00355129805393517,0.1088106632232666,0.07781729102134705,6.185756683349609,8.650524139404297,0.4955809712409973,0.12,-0.01,-0.01,270.94
1666656882.55624294,149858078,1,0.06,-0.42,353.95,-0.06324896961450577,-0.0022943338844925165,0.10893328487873077,0.06857060641050339,6.179086208343506,8.64925765991211,0.49734967947006226,0.12,-0.01,-0.01,270.94
1666656882.57874393,149880579,1,0.05,-0.42,353.96,-0.06223247945308685,-0.0018219418125227094,0.10949070751667023,0.06325459480285645,6.17674446105957,8.648961067199707,0.49923011660575867,0.12,-0.01,-0.01,270.94
1666656882.59624887,149898084,1,0.05,-0.42,353.97,-0.06045779585838318,-0.004712987691164017,0.10992354154586792,0.06041679158806801,6.173990249633789,8.648422241210938,0.5000625252723694,0.12,-0.01,-0.01,270.94
1666656882.63623691,149938072,1,0.05,-0.42,354.0,-0.0629996806383133,-0.0021369941532611847,0.11109603196382523,0.05918340012431145,6.166991233825684,8.646623611450195,0.5028995871543884,0.12,-0.01,-0.01,270.94
1666656882.67622900,149978064,1,0.04,-0.42,354.02,-0.06064935028553009,-0.004643246531486511,0.11106378585100174,0.057179734110832214,6.160737991333008,8.645012855529785,0.5056042671203613,0.12,-0.01,-0.01,270.94
1666656882.67875099,149980586,1,0.04,-0.42,354.02,-0.061046306043863297,-0.00453271484002471,0.11120229959487915,0.05740632489323616,6.160603046417236,8.645003318786621,0.505850613117218,0.12,-0.01,-0.01,270.94
1666656882.71623182,150018067,1,0.05,-0.42,354.02,-0.06099784001708031,-0.00386313209310174,0.1110261082649231,0.058171991258859634,6.155091285705566,8.643576622009277,0.5085095167160034,0.12,-0.01,-0.01,270.94
1666656882.75624299,150058078,1,0.05,-0.43,354.0,-0.06109321117401123,-0.004711876157671213,0.11228491365909576,0.054610032588243484,6.149303436279297,8.641867637634277,0.5095983743667603,0.12,-0.01,-0.01,270.94
1666656882.77874303,150080578,1,0.05,-0.43,353.99,-0.06214870885014534,-0.002978939563035965,0.11232772469520569,0.050375428050756454,6.147187232971191,8.64144229888916,0.5113721489906311,0.12,-0.01,-0.01,270.94
1666656882.79626894,150098104,1,0.05,-0.42,353.98,-0.06037094071507454,-0.004251457285135984,0.11200675368309021,0.048212356865406036,6.144840240478516,8.640735626220703,0.511873185634613,0.12,-0.01,-0.01,270.94
1666656882.83624983,150138085,1,0.05,-0.42,353.96,-0.06068381667137146,-0.003940100781619549,0.11230459809303284,0.04102293774485588,6.1389079093933105,8.637629508972168,0.5130664110183716,0.12,-0.01,-0.01,270.94
1666656882.87626004,150178095,1,0.06,-0.41000000000000003,353.97,-0.05895015969872475,-0.005566196981817484,0.11364155262708664,0.028627967461943626,6.133645057678223,8.634875297546387,0.5141863822937012,0.12,-0.01,-0.01,270.94
1666656882.87874603,150180581,1,0.06,-0.41000000000000003,353.97,-0.05950025096535683,-0.006247897166758776,0.11377275735139847,0.02827448584139347,6.133487224578857,8.634860038757324,0.5144888758659363,0.12,-0.01,-0.01,270.94
1666656882.91622686,150218062,1,0.06,-0.41000000000000003,353.99,-0.060487497597932816,-0.004501657094806433,0.11236387491226196,0.020623723044991493,6.128890514373779,8.632344245910645,0.5156915783882141,0.12,-0.01,-0.01,270.94
1666656882.95621991,150258055,1,0.06,-0.41000000000000003,354.0,-0.05538215488195419,-0.012396641075611115,0.1104159951210022,0.014219185337424278,6.1241865158081055,8.62938404083252,0.5155982971191406,0.12,-0.01,-0.01,270.94
1666656882.97871995,150280555,1,0.06,-0.4,354.01,-0.05530431121587753,-0.013270939700305462,0.10771667212247849,0.009550347924232483,6.122453212738037,8.628557205200195,0.5171222686767578,0.12,-0.01,-0.01,270.94
1666656882.99624586,150298081,1,0.05,-0.41000000000000003,354.01,-0.05249468982219696,-0.00881277211010456,0.11946415156126022,0.02177383005619049,6.12065315246582,8.627246856689453,0.5171607136726379,0.12,-0.01,-0.01,270.94
1666656883.03623986,150338075,1,0.05,-0.4,353.99,-0.053117748349905014,-0.004168568179011345,0.1103474348783493,0.011475657112896442,6.1148786544799805,8.624246597290039,0.5176699161529541,0.12,-0.01,-0.01,270.94
1666656883.07625294,150378088,1,0.06,-0.42,353.98,-0.05001699551939964,-0.010926525108516216,0.12085020542144775,0.015241388231515884,6.109716415405273,8.6215181350708,0.5183313488960266,0.12,-0.01,-0.01,270.94
1666656883.07871699,150380552,1,0.03,-0.41000000000000003,353.98,-0.050690896809101105,-0.009876629337668419,0.11950571089982986,0.013864555396139622,6.109582424163818,8.621490478515625,0.518651008605957,0.12,-0.01,-0.01,270.94
1666656883.11622500,150418060,1,0.04,-0.42,353.97,-0.049223050475120544,-0.005940491799265146,0.11511003971099854,0.008753382600843906,6.1052422523498535,8.618972778320312,0.5194078683853149,0.12,-0.01,-0.01,270.94
1666656883.15622783,150458063,1,0.08,-0.4,353.99,-0.04694588854908943,-0.007364881224930286,0.11003054678440094,-0.0008066768059507012,6.100591659545898,8.616114616394043,0.5180399417877197,0.12,-0.01,-0.01,270.94
1666656883.17870402,150480539,1,0.08,-0.42,353.99,-0.050460848957300186,-0.007415393367409706,0.10910335183143616,-0.005657947156578302,6.098936557769775,8.61529541015625,0.5191870331764221,0.12,-0.01,-0.01,270.94
1666656883.19622183,150498057,1,0.04,-0.4,354.0,-0.05267897993326187,-0.012165676802396774,0.11568030714988708,0.0002612647076603025,6.097053050994873,8.613998413085938,0.5186797380447388,0.12,-0.01,-0.01,270.94
1666656883.23624802,150538083,1,0.09,-0.43,354.03000000000003,-0.05104746297001839,-0.012198209762573242,0.11418833583593369,-0.0017397892661392689,6.093305587768555,8.611682891845703,0.5189846158027649,0.12,-0.01,-0.01,270.94
1666656883.27625299,150578088,1,0.04,-0.4,354.04,-0.04465693607926369,-0.005855103489011526,0.11488933861255646,0.0002633810800034553,6.088791847229004,8.608566284179688,0.5197287797927856,0.12,-0.01,-0.01,270.94
1666656883.27873397,150580569,1,0.07,-0.4,354.04,-0.0455184131860733,-0.00248055811971426,0.10809323936700821,-0.005905933678150177,6.08865213394165,8.608553886413574,0.5200747847557068,0.12,-0.01,-0.01,270.94
1666656883.31624985,150618085,1,0.08,-0.4,354.03000000000003,-0.04446486756205559,-0.017325175926089287,0.11113075166940689,0.0044413465075194836,6.084887504577637,8.605798721313477,0.5210192203521729,0.12,-0.01,-0.01,270.94
1666656883.35624385,150658079,1,0.03,-0.4,354.02,-0.04161051660776138,-0.007273642346262932,0.11597229540348053,0.009904175996780396,6.081034183502197,8.602670669555664,0.5197035074234009,0.12,-0.01,-0.01,270.94
1666656883.37873387,150680569,1,0.03,-0.4,354.02,-0.039481982588768005,-0.015605326741933823,0.11401145160198212,0.005729072727262974,6.079718112945557,8.601778984069824,0.5208961367607117,0.12,-0.01,-0.01,270.94
1666656883.39621091,150698046,1,0.06,-0.4,354.01,-0.036906544119119644,-0.014181604608893394,0.11214093863964081,0.00384531170129776,6.078327178955078,8.60041332244873,0.5204317569732666,0.12,-0.01,-0.01,270.94
1666656883.43619490,150738030,1,0.05,-0.41000000000000003,354.02,-0.03716852888464928,-0.015317643992602825,0.11523853242397308,-0.001805882784537971,6.0739359855651855,8.59488582611084,0.5191094279289246,0.12,-0.01,-0.01,270.94
1666656883.47624087,150778076,1,0.06,-0.41000000000000003,354.03000000000003,-0.03320316597819328,-0.013786794617772102,0.11308347433805466,-0.02285795286297798,6.070133686065674,8.589860916137695,0.5180287957191467,0.12,-0.01,-0.01,270.94
1666656883.47872901,150780564,1,0.06,-0.41000000000000003,354.04,-0.03475124388933182,-0.016260556876659393,0.11130821704864502,-0.02521461993455887,6.070043087005615,8.589820861816406,0.5183272957801819,0.12,-0.01,-0.01,270.94
1666656883.51625490,150818090,1,0.04,-0.41000000000000003,354.06,-0.03444847837090492,-0.020441986620426178,0.1127682775259018,-0.03134636580944061,6.066878318786621,8.585235595703125,0.5175994634628296,0.12,-0.01,-0.01,270.94
1666656883.55622101,150858056,1,0.06,-0.41000000000000003,354.08,-0.033961065113544464,-0.01645774208009243,0.10888107866048813,-0.04306769743561745,6.063623905181885,8.579985618591309,0.5141210556030273,0.12,-0.01,-0.01,270.94
1666656883.57870483,150880540,1,0.06,-0.4,354.08,-0.03349592536687851,-0.019136415794491768,0.11148013919591904,-0.04464489221572876,6.0624799728393555,8.578522682189941,0.5148413181304932,0.12,-0.01,-0.01,270.94
1666656883.59618998,150898025,1,0.05,-0.4,354.08,-0.03216967731714249,-0.02191329002380371,0.1126079261302948,-0.043744318187236786,6.061261177062988,8.576200485229492,0.5134042501449585,0.12,-0.01,-0.01,270.94
1666656883.63622189,150938057,1,0.05,-0.4,354.07,-0.03144305944442749,-0.023597899824380875,0.1092434898018837,-0.04535370692610741,6.056338310241699,8.571161270141602,0.5121410489082336,0.12,-0.01,-0.01,270.94
1666656883.67624187,150978077,1,0.06,-0.39,354.06,-0.028009872883558273,-0.025074684992432594,0.10554679483175278,-0.049446702003479004,6.052121639251709,8.566549301147461,0.511140763759613,0.12,-0.01,-0.01,270.94
1666656883.67875099,150980586,1,0.06,-0.39,354.06,-0.027542809024453163,-0.023593751713633537,0.10923555493354797,-0.045197322964668274,6.052048206329346,8.566484451293945,0.5114264488220215,0.12,-0.01,-0.01,270.94
1666656883.71624303,151018078,1,0.06,-0.39,354.06,-0.02648676373064518,-0.027216339483857155,0.10869971662759781,-0.039278242737054825,6.048496723175049,8.562246322631836,0.5107412934303284,0.12,-0.01,-0.01,270.94
1666656883.75625587,151058091,1,0.05,-0.4,354.06,-0.022946391254663467,-0.023648973554372787,0.10526448488235474,-0.03694475069642067,6.044793605804443,8.557469367980957,0.5081801414489746,0.12,-0.01,-0.01,270.94
1666656883.77875304,151080588,1,0.05,-0.39,354.07,-0.02295159548521042,-0.023519035428762436,0.10974486172199249,-0.030168328434228897,6.043697357177734,8.556045532226562,0.509056031703949,0.12,-0.01,-0.01,270.94
1666656883.79622293,151098058,1,0.06,-0.39,354.08,-0.02360302023589611,-0.029849747195839882,0.1057218387722969,-0.030745746567845345,6.04228401184082,8.55398178100586,0.5079876184463501,0.12,-0.01,-0.01,270.94
1666656883.83623099,151138066,1,0.04,-0.4,354.1,-0.02384374290704727,-0.026631956920027733,0.10894137620925903,-0.011825919151306152,6.035606861114502,8.549248695373535,0.5088579058647156,0.12,-0.01,-0.01,270.94
1666656883.87621903,151178054,1,0.06,-0.4,354.1,-0.02620846964418888,-0.02695217914879322,0.10577309131622314,0.0014810357242822647,6.0296430587768555,8.54499626159668,0.509765088558197,0.12,-0.01,-0.01,270.94
1666656883.87874889,151180584,1,0.05,-0.4,354.1,-0.026397019624710083,-0.03007694147527218,0.10648204386234283,0.0034802835434675217,6.029573440551758,8.544919967651367,0.510047435760498,0.12,-0.01,-0.01,270.94
1666656883.91624284,151218078,1,0.04,-0.4,354.11,-0.026667769998311996,-0.02962261438369751,0.11002654582262039,0.02153105102479458,6.024286270141602,8.54102897644043,0.511125922203064,0.12,-0.01,-0.01,270.94
1666656883.95623803,151258073,1,0.06,-0.4,354.1,-0.027278153225779533,-0.027150750160217285,0.1080995723605156,0.02619752287864685,6.018453598022461,8.536726951599121,0.510458767414093,0.12,-0.01,-0.01,270.94
1666656883.97875190,151280587,1,0.07,-0.4,354.09000000000003,-0.029423313215374947,-0.0270418468862772,0.10684619843959808,0.025391146540641785,6.016757965087891,8.535379409790039,0.5118021368980408,0.12,-0.01,-0.01,270.94
1666656883.99626303,151298098,1,0.06,-0.39,354.09000000000003,-0.02862553298473358,-0.029797451570630074,0.10541132092475891,0.025230469182133675,6.01428747177124,8.533541679382324,0.5116499662399292,0.12,-0.01,-0.01,270.94
1666656884.03622794,151338063,1,0.06,-0.39,354.1,-0.028822036460042,-0.029439274221658707,0.11105246096849442,0.031183317303657532,6.004760265350342,8.527582168579102,0.5121700167655945,0.12,-0.01,-0.01,270.94
1666656884.07618904,151378024,1,0.05,-0.39,354.11,-0.03093475103378296,-0.031679652631282806,0.10574618726968765,0.02063508704304695,5.996203899383545,8.522189140319824,0.5128530859947205,0.12,-0.01,-0.01,270.94
1666656884.07875085,151380586,1,0.06,-0.39,354.11,-0.030371779575943947,-0.031021272763609886,0.1061597540974617,0.02105865441262722,5.996135711669922,8.522119522094727,0.5130879878997803,0.12,-0.01,-0.01,270.94
1666656884.11622000,151418055,1,0.06,-0.39,354.13,-0.031693294644355774,-0.03394706919789314,0.11056285351514816,0.024913715198636055,5.988490104675293,8.517160415649414,0.5140036940574646,0.12,-0.01,-0.01,270.94
1666656884.15623999,151458075,1,0.06,-0.39,354.15000000000003,-0.03398992121219635,-0.03415365144610405,0.10849439352750778,0.02136707678437233,5.9798359870910645,8.511560440063477,0.5134227871894836,0.12,-0.01,-0.01,270.94
1666656884.17874098,151480576,1,0.06,-0.39,354.15000000000003,-0.03538534790277481,-0.03260018676519394,0.10821530967950821,0.019701529294252396,5.977418422698975,8.50983715057373,0.5147163271903992,0.12,-0.01,-0.01,270.94
1666656884.19622803,151498063,1,0.05,-0.4,354.15000000000003,-0.03486346825957298,-0.03684868663549423,0.10551946610212326,0.017679069191217422,5.973721027374268,8.507440567016602,0.514528214931488,0.12,-0.01,-0.01,270.94
1666656884.23625803,151538093,1,0.06,-0.39,354.14,-0.03778671845793724,-0.03574328124523163,0.1071058064699173,0.008329727686941624,5.964982509613037,8.50172233581543,0.5131720900535583,0.12,-0.01,-0.01,270.94
1666656884.27623391,151578069,1,0.06,-0.4,354.14,-0.04035317897796631,-0.035702694207429886,0.10591654479503632,-0.017662368714809418,5.9570536613464355,8.496588706970215,0.5119022130966187,0.12,-0.01,-0.01,270.94
1666656884.27874303,151580578,1,0.05,-0.4,354.14,-0.04072478041052818,-0.03488432243466377,0.1078961044549942,-0.016422878950834274,5.956963539123535,8.49651050567627,0.5121392011642456,0.12,-0.01,-0.01,270.94
1666656884.31622100,151618056,1,0.05,-0.39,354.14,-0.040679968893527985,-0.039546143263578415,0.1045399084687233,-0.03177917003631592,5.949891090393066,8.49184513092041,0.5112788677215576,0.12,-0.01,-0.01,270.94
1666656884.35625100,151658086,1,0.05,-0.39,354.15000000000003,-0.04186834767460823,-0.03677186369895935,0.10133914649486542,-0.041157037019729614,5.941946029663086,8.486557960510254,0.5085176229476929,0.12,-0.01,-0.01,270.94
1666656884.37874699,151680582,1,0.05,-0.39,354.16,-0.041772060096263885,-0.037621624767780304,0.10506724566221237,-0.03934825584292412,5.939600944519043,8.484855651855469,0.5093075037002563,0.12,-0.01,-0.01,270.94
1666656884.39624190,151698077,1,0.06,-0.39,354.16,-0.04317071661353111,-0.0423063226044178,0.10696624964475632,-0.035554010421037674,5.9362711906433105,8.48261547088623,0.5081896185874939,0.12,-0.01,-0.01,270.94
1666656884.43627095,151738106,1,0.06,-0.39,354.19,-0.04224187135696411,-0.0387100875377655,0.10028186440467834,-0.04043259471654892,5.926313400268555,8.477054595947266,0.506947934627533,0.12,-0.01,-0.01,270.94
1666656884.47622895,151778064,1,0.04,-0.39,354.2,-0.04407522827386856,-0.042758867144584656,0.10095159709453583,-0.042338043451309204,5.917330741882324,8.47202205657959,0.5059272646903992,0.12,-0.01,-0.01,270.94
1666656884.47871304,151780548,1,0.05,-0.39,354.2,-0.04353553429245949,-0.040426887571811676,0.09897404164075851,-0.043975476175546646,5.917233943939209,8.471929550170898,0.5061488747596741,0.12,-0.01,-0.01,270.94
1666656884.51619601,151818031,1,0.05,-0.4,354.2,-0.04521488398313522,-0.0432092621922493,0.10131565481424332,-0.03787447512149811,5.9092302322387695,8.46742057800293,0.5054633021354675,0.12,-0.01,-0.01,270.94
1666656884.55621600,151858051,1,0.04,-0.4,354.2,-0.046067070215940475,-0.04244375228881836,0.09710882604122162,-0.03957964479923248,5.900211334228516,8.462445259094238,0.5026567578315735,0.12,-0.01,-0.01,270.94
1666656884.57871699,151880552,1,0.06,-0.39,354.19,-0.04911176860332489,-0.04473447799682617,0.09935658425092697,-0.03693808615207672,5.897522449493408,8.460786819458008,0.503409206867218,0.12,-0.01,-0.01,270.94
1666656884.59625006,151898085,1,0.07,-0.39,354.2,-0.04877318814396858,-0.044415298849344254,0.10246916115283966,-0.030996141955256462,5.893682479858398,8.45864486694336,0.5022831559181213,0.12,-0.01,-0.01,270.94
1666656884.63624191,151938077,1,0.06,-0.4,354.2,-0.04968246817588806,-0.04670063406229019,0.09929721802473068,-0.029135217890143394,5.883224010467529,8.4518461227417,0.5013617873191833,0.12,-0.01,-0.01,270.94
1666656884.67624688,151978082,1,0.07,-0.39,354.21,-0.05409024655818939,-0.04351012781262398,0.09278164058923721,-0.035282980650663376,5.873584270477295,8.445550918579102,0.5007146596908569,0.12,-0.01,-0.01,270.94
1666656884.67872095,151980556,1,0.08,-0.39,354.21,-0.0534643717110157,-0.046359602361917496,0.09904100745916367,-0.028593724593520164,5.873465061187744,8.445451736450195,0.5009272694587708,0.12,-0.01,-0.01,270.94
1666656884.71623182,152018067,1,0.04,-0.38,354.22,-0.061587780714035034,-0.04521932825446129,0.10591287910938263,-0.016499049961566925,5.864923000335693,8.439875602722168,0.5005710124969482,0.12,-0.01,-0.01,270.94
1666656884.75622988,152058065,1,0.07,-0.39,354.24,-0.05125132203102112,-0.04654434695839882,0.08574990928173065,-0.033404745161533356,5.855238437652588,8.433589935302734,0.4983207583427429,0.12,-0.01,-0.01,270.94
1666656884.77869296,152080528,1,0.05,-0.39,354.23,-0.05351394787430763,-0.04550454020500183,0.0964844822883606,-0.022069698199629784,5.852357387542725,8.431538581848145,0.49916213750839233,0.12,-0.01,-0.01,270.94
1666656884.79623389,152098069,1,0.05,-0.38,354.25,-0.059802569448947906,-0.04952811822295189,0.09543406218290329,-0.02066715992987156,5.84829044342041,8.428857803344727,0.4982890188694,0.12,-0.01,-0.01,270.94
1666656884.83624792,152138083,1,0.06,-0.39,354.24,-0.05683065950870514,-0.047218285501003265,0.10310032218694687,0.0005173027166165411,5.840276718139648,8.423728942871094,0.4993472099304199,0.12,-0.01,-0.01,270.94
1666656884.87622905,152178064,1,0.05,-0.4,354.25,-0.05738043412566185,-0.047700703144073486,0.10384498536586761,0.015312956646084785,5.8331475257873535,8.419134140014648,0.5002474188804626,0.12,-0.01,-0.01,270.94
1666656884.87872005,152180555,1,0.06,-0.4,354.24,-0.062497857958078384,-0.046731144189834595,0.1057388037443161,0.018298832699656487,5.832988262176514,8.419008255004883,0.5005261898040771,0.12,-0.01,-0.01,270.94
1666656884.91624999,152218085,1,0.05,-0.39,354.26,-0.050107192248106,-0.048404186964035034,0.10126544535160065,0.026616856455802917,5.826589584350586,8.41482925415039,0.5016959309577942,0.12,-0.01,-0.01,270.94
1666656884.95623398,152258069,1,0.1,-0.38,354.27,-0.0562276728451252,-0.04812360927462578,0.10576749593019485,0.03269409388303757,5.819563388824463,8.410260200500488,0.5006415843963623,0.12,-0.01,-0.01,270.94
1666656884.97871804,152280553,1,0.02,-0.39,354.28000000000003,-0.06464849412441254,-0.04281178489327431,0.08168679475784302,0.005881207063794136,5.817191123962402,8.408574104309082,0.501804530620575,0.12,-0.01,-0.01,270.94
1666656884.99618888,152298024,1,0.08,-0.36,354.29,-0.06196308881044388,-0.04618362709879875,0.1045813336968422,0.02803834155201912,5.8142805099487305,8.406692504882812,0.5013719797134399,0.12,-0.01,-0.01,270.94
1666656885.03622389,152338059,1,0.07,-0.36,354.32,-0.06205950304865837,-0.050973933190107346,0.10593268275260925,0.022161167114973068,5.807612895965576,8.401148796081543,0.5008289813995361,0.12,-0.01,-0.01,270.94
1666656885.07624483,152378080,1,0.05,-0.36,354.33,-0.060837794095277786,-0.04675319418311119,0.11354567855596542,0.014508005231618881,5.801650524139404,8.396116256713867,0.5003246665000916,0.12,-0.01,-0.01,270.94
1666656885.07872200,152380557,1,0.04,-0.38,354.34000000000003,-0.054924916476011276,-0.0417628176510334,0.09695428609848022,-0.0025893505662679672,5.801496505737305,8.395998001098633,0.5006046891212463,0.12,-0.01,-0.01,270.94
1666656885.11626291,152418098,1,0.06,-0.37,354.35,-0.05623621866106987,-0.044906143099069595,0.10466974228620529,-0.0012184155639261007,5.796318531036377,8.3916015625,0.5003519654273987,0.12,-0.01,-0.01,270.94
1666656885.15623689,152458072,1,0.09,-0.37,354.36,-0.056918561458587646,-0.04990548640489578,0.09368579089641571,-0.021547282114624977,5.790722846984863,8.386646270751953,0.4977227747440338,0.12,-0.01,-0.02,270.94
1666656885.17871785,152480553,1,0.1,-0.37,354.37,-0.053687188774347305,-0.03918122500181198,0.09654375165700912,-0.023845944553613663,5.788784980773926,8.384900093078613,0.4983874559402466,0.12,-0.01,-0.02,270.94
1666656885.19623494,152498070,1,0.0,-0.37,354.38,-0.05132550001144409,-0.06284830719232559,0.09626837074756622,-0.025907084345817566,5.786571979522705,8.382770538330078,0.4973464906215668,0.12,-0.01,-0.02,270.94
1666656885.23621798,152538053,1,0.08,-0.39,354.40000000000003,-0.053647480905056,-0.034360021352767944,0.08426152169704437,-0.049198880791664124,5.779571056365967,8.37588882446289,0.494566410779953,0.12,-0.01,-0.02,270.94
1666656885.27624488,152578080,1,0.06,-0.35000000000000003,354.43,-0.04820326343178749,-0.05983695760369301,0.10650893300771713,-0.05115065723657608,5.77325439453125,8.36953067779541,0.4918978214263916,0.12,-0.01,-0.02,270.94
1666656885.27875805,152580593,1,0.0,-0.41000000000000003,354.43,-0.04645967110991478,-0.0454411543905735,0.09371218085289001,-0.06475001573562622,5.773128509521484,8.369390487670898,0.49216413497924805,0.12,-0.01,-0.02,270.94
1666656885.31624389,152618079,1,0.13,-0.38,354.46,-0.06236657500267029,-0.05004534497857094,0.09355314075946808,-0.07526369392871857,5.767596244812012,8.363777160644531,0.4899158179759979,0.12,-0.01,-0.02,270.94
1666656885.35625696,152658092,1,0.1,-0.4,354.5,-0.051192060112953186,-0.05081767961382866,0.08698602765798569,-0.09350110590457916,5.761547565460205,8.357473373413086,0.4842906594276428,0.12,-0.01,-0.02,270.94
1666656885.37875605,152680591,1,0.11,-0.39,354.53000000000003,-0.059721238911151886,-0.05637407302856445,0.08126629143953323,-0.10533592849969864,5.759458541870117,8.355372428894043,0.4842725992202759,0.12,-0.01,-0.02,270.94
1666656885.39620304,152698038,1,0.04,-0.37,354.54,-0.053116533905267715,-0.043501678854227066,0.09215261787176132,-0.09536822885274887,5.756901264190674,8.352703094482422,0.4819478392601013,0.12,-0.01,-0.02,270.94
1666656885.43622804,152738063,1,0.01,-0.35000000000000003,354.58,-0.059142664074897766,-0.05437953770160675,0.09338093549013138,-0.09406733512878418,5.749031066894531,8.345930099487305,0.47866666316986084,0.12,-0.01,-0.02,270.94
1666656885.47621584,152778051,1,0.04,-0.36,354.62,-0.059801071882247925,-0.05552545189857483,0.09490468353033066,-0.09690800309181213,5.741931915283203,8.339692115783691,0.47568634152412415,0.12,-0.01,-0.02,270.94
1666656885.47874594,152780581,1,0.03,-0.35000000000000003,354.61,-0.05385930836200714,-0.04946904256939888,0.09233439713716507,-0.09892285615205765,5.741780757904053,8.33955192565918,0.4759353995323181,0.12,-0.01,-0.02,270.94
1666656885.51625395,152818089,1,0.06,-0.36,354.65000000000003,-0.060108017176389694,-0.05723540112376213,0.09775533527135849,-0.08745086938142776,5.735537052154541,8.3339262008667,0.4735197126865387,0.12,-0.01,-0.02,270.94
1666656885.55624199,152858077,1,0.06,-0.36,354.69,-0.06211617961525917,-0.05360850691795349,0.0947374701499939,-0.08764665573835373,5.728743553161621,8.327651023864746,0.46793004870414734,0.12,-0.01,-0.02,270.94
1666656885.57873797,152880573,1,0.08,-0.32,354.71,-0.05714862793684006,-0.05202888324856758,0.10201261937618256,-0.08049710839986801,5.726466655731201,8.3255033493042,0.4679255187511444,0.12,-0.01,-0.02,270.94
1666656885.59625888,152898094,1,0.06,-0.35000000000000003,354.73,-0.06203066557645798,-0.050244592130184174,0.09476341307163239,-0.08486338704824448,5.723613739013672,8.32282829284668,0.46569785475730896,0.12,-0.01,-0.02,270.94
1666656885.63622785,152938063,1,0.05,-0.35000000000000003,354.78000000000003,-0.05851859226822853,-0.052109163254499435,0.09931991249322891,-0.06365307420492172,5.717757701873779,8.31619930267334,0.46453478932380676,0.12,-0.01,-0.03,270.94
1666656885.67618990,152978025,1,0.0,-0.34,354.83,-0.05218013748526573,-0.053107116371393204,0.08909833431243896,-0.058200035244226456,5.7125372886657715,8.31016731262207,0.46324673295021057,0.12,-0.01,-0.03,270.94
1666656885.67874503,152980580,1,0.05,-0.38,354.84000000000003,-0.047424159944057465,-0.0533936582505703,0.0913100615143776,-0.05456751212477684,5.712404727935791,8.310025215148926,0.4634867012500763,0.12,-0.01,-0.03,270.94
1666656885.71621585,153018051,1,0.05,-0.37,354.89,-0.050336066633462906,-0.05262932926416397,0.09737059473991394,-0.03249029815196991,5.707878112792969,8.304677963256836,0.46263450384140015,0.12,-0.01,-0.03,270.94
1666656885.75624490,153058080,1,0.0,-0.37,354.94,-0.05580678954720497,-0.055982764810323715,0.09687245637178421,-0.03220251575112343,5.702974796295166,8.298635482788086,0.45818400382995605,0.12,-0.01,-0.03,270.94
1666656885.77874088,153080576,1,0.04,-0.38,354.97,-0.05351610854268074,-0.05637552961707115,0.08524062484502792,-0.04799717292189598,5.7011637687683105,8.296513557434082,0.45840203762054443,0.12,-0.01,-0.03,270.94
1666656885.79622889,153098064,1,0.03,-0.38,354.99,-0.05606105923652649,-0.05786743015050888,0.08925130218267441,-0.04481513798236847,5.699138164520264,8.293946266174316,0.45664042234420776,0.12,-0.01,-0.03,270.94
1666656885.83625889,153138094,1,0.08,-0.36,355.04,-0.055601347237825394,-0.061948198825120926,0.07763208448886871,-0.06653996556997299,5.692709922790527,8.286611557006836,0.4530019462108612,0.12,-0.01,-0.03,270.94
1666656885.87623191,153178067,1,0.03,-0.36,355.08,-0.0573820061981678,-0.055124878883361816,0.09061934053897858,-0.07664443552494049,5.686872959136963,8.280004501342773,0.4493562877178192,0.12,-0.01,-0.03,270.94
1666656885.87874389,153180579,1,0.07,-0.37,355.08,-0.05672679468989372,-0.05294175073504448,0.08352107554674149,-0.08444280177354813,5.686721324920654,8.279860496520996,0.4495879113674164,0.12,-0.01,-0.03,270.94
1666656885.91618991,153218025,1,0.05,-0.34,355.12,-0.055778246372938156,-0.05584448575973511,0.09123283624649048,-0.08592451363801956,5.681593894958496,8.274072647094727,0.44663193821907043,0.12,-0.01,-0.03,270.94
1666656885.95625687,153258092,1,0.04,-0.33,355.17,-0.057684965431690216,-0.062264446169137955,0.09272433817386627,-0.10280468314886093,5.676050186157227,8.267620086669922,0.43869295716285706,0.12,-0.01,-0.03,270.94
1666656885.97874093,153280576,1,0.04,-0.33,355.21,-0.058818649500608444,-0.05480675771832466,0.07980058342218399,-0.1276317834854126,5.674075603485107,8.26541805267334,0.4380154013633728,0.12,-0.01,-0.03,270.94
1666656885.99624491,153298080,1,0.02,-0.33,355.24,-0.059850044548511505,-0.055299825966358185,0.08786817640066147,-0.12359035760164261,5.671799659729004,8.262632369995117,0.434799462556839,0.12,-0.01,-0.03,270.94
1666656886.03621483,153338050,1,0.02,-0.33,355.28000000000003,-0.052383504807949066,-0.06040860339999199,0.0905214473605156,-0.12842707335948944,5.666220188140869,8.255876541137695,0.4294613003730774,0.12,-0.01,-0.03,270.94
1666656886.07623291,153378068,1,0.03,-0.34,355.35,-0.0467866025865078,-0.06258241832256317,0.08172451704740524,-0.1563977152109146,5.661325931549072,8.24959659576416,0.4237361252307892,0.12,-0.01,-0.03,270.94
1666656886.07870197,153380537,1,0.06,-0.34,355.36,-0.046873658895492554,-0.060000453144311905,0.072819784283638,-0.16538386046886444,5.661221981048584,8.249460220336914,0.42390742897987366,0.12,-0.01,-0.03,270.94
1666656886.11623693,153418072,1,0.04,-0.33,355.39,-0.04968259483575821,-0.06506525725126266,0.08484377712011337,-0.1567254662513733,5.656980514526367,8.243850708007812,0.4191504120826721,0.12,-0.01,-0.03,270.94
1666656886.15621686,153458052,1,0.12,-0.36,355.44,-0.04461938142776489,-0.050421494990587234,0.07087961584329605,-0.18592679500579834,5.652544975280762,8.237648963928223,0.408005952835083,0.12,-0.01,-0.04,270.94
1666656886.17873001,153480565,1,0.12,-0.34,355.46,-0.04524768888950348,-0.06905170530080795,0.07258407771587372,-0.1961446851491928,5.650989532470703,8.235457420349121,0.40660175681114197,0.12,-0.01,-0.04,270.94
1666656886.19624305,153498078,1,0.07,-0.34,355.48,-0.04337534308433533,-0.06567340344190598,0.08543924242258072,-0.18594062328338623,5.6492390632629395,8.232888221740723,0.4020064175128937,0.12,-0.01,-0.04,270.94
1666656886.23624587,153538081,1,0.03,-0.36,355.52,-0.051743604242801666,-0.058958228677511215,0.07076308131217957,-0.2071688175201416,5.642180919647217,8.22606372833252,0.3943011164665222,0.12,-0.01,-0.04,270.94
1666656886.27624798,153578083,1,0.0,-0.38,355.58,-0.04365088790655136,-0.054286062717437744,0.08601094037294388,-0.2101307511329651,5.635711669921875,8.21976375579834,0.3864380717277527,0.12,-0.01,-0.04,270.94
1666656886.27872705,153580562,1,0.01,-0.37,355.58,-0.0508975125849247,-0.05679638683795929,0.0677320584654808,-0.2282092273235321,5.63560676574707,8.219640731811523,0.3866084814071655,0.12,-0.01,-0.04,270.94
1666656886.31619596,153618031,1,0.06,-0.37,355.64,-0.045874644070863724,-0.06539932638406754,0.07753825932741165,-0.21771636605262756,5.6298828125,8.213980674743652,0.37980905175209045,0.12,-0.01,-0.04,270.94
1666656886.35619402,153658029,1,0.15,-0.29,355.68,-0.045648474246263504,-0.06910425424575806,0.060089949518442154,-0.25030282139778137,5.623522758483887,8.207823753356934,0.36532875895500183,0.12,-0.01,-0.04,270.94
1666656886.37869096,153680526,1,0.14,-0.29,355.72,-0.07064855843782425,-0.04539734497666359,0.06731735914945602,-0.255490243434906,5.621344566345215,8.20566177368164,0.36300206184387207,0.12,-0.01,-0.04,270.94
1666656886.39621687,153698052,1,0.09,-0.26,355.74,-0.0669901892542839,-0.05449391156435013,0.03411632031202316,-0.29124608635902405,5.618551731109619,8.203190803527832,0.3568341135978699,0.12,-0.01,-0.04,270.94
1666656886.43624496,153738080,1,0.18,-0.23,355.81,-0.06954719126224518,-0.03298715502023697,0.02595614641904831,-0.3070894181728363,5.61116361618042,8.19739055633545,0.3453045189380646,0.12,-0.01,-0.04,270.94
1666656886.47624397,153778079,1,0.15,-0.16,355.87,-0.05993971228599548,-0.032290101051330566,-0.0008353840676136315,-0.3591543734073639,5.604383945465088,8.192359924316406,0.3330878019332886,0.12,-0.01,-0.04,270.94
1666656886.47872901,153780564,1,0.29,-0.15,355.88,-0.06932038813829422,-0.03261178359389305,0.01346629485487938,-0.34500429034233093,5.604211807250977,8.19227409362793,0.33310461044311523,0.12,-0.01,-0.04,270.94
1666656886.51624703,153818082,1,0.1,-0.02,355.92,-0.06537262350320816,-0.02907986007630825,-0.014917731285095215,-0.37569284439086914,5.5981221199035645,8.187833786010742,0.3214685916900635,0.12,-0.01,-0.04,270.94
1666656886.55623293,153858068,1,0.06,0.17,355.97,-0.061349108815193176,-0.029165666550397873,-0.02438255213201046,-0.4000895023345947,5.5914225578308105,8.183082580566406,0.2999362647533417,0.12,-0.01,-0.04,270.94
1666656886.57874298,153880578,1,-0.06,0.26,355.96,-0.07748153805732727,-0.06525740027427673,-0.08339390158653259,-0.47156792879104614,5.589013576507568,8.181448936462402,0.294197142124176,0.12,-0.01,-0.04,270.94
1666656886.59619403,153898029,1,-0.1,0.37,355.99,-0.05701647698879242,-0.041084181517362595,-0.059083834290504456,-0.4484647810459137,5.586197376251221,8.179449081420898,0.28438374400138855,0.12,-0.01,-0.04,270.94
1666656886.63622904,153938064,1,-0.37,0.54,356.01,-0.060653746128082275,-0.05412504822015762,-0.09398304671049118,-0.4836134612560272,5.579842567443848,8.17339038848877,0.2654361426830292,0.12,-0.01,-0.05,270.94
1666656886.67624092,153978076,1,-0.58,0.66,356.03000000000003,-0.07254865020513535,-0.07387353479862213,-0.12788620591163635,-0.5362081527709961,5.574008941650391,8.167920112609863,0.2451629489660263,0.12,-0.01,-0.05,270.94
1666656886.67874384,153980579,1,-0.67,0.6,356.02,-0.06672365963459015,-0.05920691788196564,-0.13217689096927643,-0.5402672290802002,5.573823928833008,8.167743682861328,0.24481703341007233,0.12,-0.01,-0.05,270.94
1666656886.71625090,154018086,1,-0.74,0.6900000000000001,356.03000000000003,-0.09082356840372086,-0.06413684785366058,-0.15675048530101776,-0.5618804097175598,5.568478584289551,8.162792205810547,0.2255961298942566,0.12,-0.01,-0.05,270.94
1666656886.75625205,154058087,1,-0.8300000000000001,0.77,356.03000000000003,-0.08786005526781082,-0.06783885508775711,-0.19880937039852142,-0.631892740726471,5.562464237213135,8.1573486328125,0.19248059391975403,0.12,-0.01,-0.05,270.94
1666656886.77873302,154080568,1,-0.72,0.8,356.02,-0.09202639013528824,-0.05161040648818016,-0.23801006376743317,-0.6944388151168823,5.560019493103027,8.155452728271484,0.18183167278766632,0.12,-0.01,-0.05,270.94
1666656886.79623103,154098066,1,-0.87,0.84,356.03000000000003,-0.08156092464923859,-0.06958629190921783,-0.2288716733455658,-0.6938561797142029,5.557485103607178,8.153115272521973,0.16717377305030823,0.12,-0.01,-0.05,270.94
1666656886.83621502,154138050,1,-0.75,0.85,356.01,-0.07957204431295395,-0.08013535290956497,-0.26115408539772034,-0.7362241744995117,5.54850435256958,8.144306182861328,0.13814182579517365,0.12,-0.01,-0.05,270.94
1666656886.87623882,154178074,1,-0.78,0.8300000000000001,355.98,-0.08708497881889343,-0.07822150737047195,-0.2974450886249542,-0.799076497554779,5.53999137878418,8.136090278625488,0.10772710293531418,0.12,-0.01,-0.05,270.94
1666656886.87876105,154180596,1,-0.89,0.76,356.0,-0.09276653826236725,-0.058329902589321136,-0.2980664074420929,-0.7992538809776306,5.539752006530762,8.135909080505371,0.10693500190973282,0.12,-0.01,-0.05,270.94
1666656886.91624093,154218076,1,-0.87,0.78,355.94,-0.0910198912024498,-0.0841759517788887,-0.3259744644165039,-0.8243923783302307,5.531965732574463,8.128473281860352,0.07871229946613312,0.12,-0.01,-0.05,270.94
1666656886.95622396,154258059,1,-0.85,0.67,355.91,-0.10269583016633987,-0.08263812959194183,-0.34308522939682007,-0.8541316986083984,5.523271083831787,8.120007514953613,0.03765833377838135,0.12,-0.01,-0.05,270.94
1666656886.97874999,154280585,1,-0.65,0.71,355.87,-0.1054820716381073,-0.08542601019144058,-0.38517504930496216,-0.9070162773132324,5.5199079513549805,8.11711311340332,0.023570727556943893,0.12,-0.01,-0.05,270.94
1666656886.99622893,154298064,1,-0.77,0.62,355.86,-0.10782842338085175,-0.08463835716247559,-0.3797847032546997,-0.9006707072257996,5.516113758087158,8.113299369812012,0.005680337082594633,0.12,-0.01,-0.05,270.94
1666656887.03620982,154338045,1,-0.65,0.63,355.8,-0.1134861558675766,-0.09185979515314102,-0.41583535075187683,-0.9669182896614075,5.505998611450195,8.101485252380371,-0.03863698989152908,0.12,-0.01,-0.05,270.94
1666656887.07622290,154378058,1,-0.56,0.64,355.74,-0.1171431615948677,-0.0960235446691513,-0.436071515083313,-1.131801962852478,5.496362209320068,8.090561866760254,-0.08727145195007324,0.12,-0.01,-0.05,270.94
1666656887.07875395,154380589,1,-0.55,0.61,355.74,-0.1224016398191452,-0.07987724989652634,-0.4188305735588074,-1.1195613145828247,5.496096611022949,8.090367317199707,-0.0882190465927124,0.12,-0.01,-0.05,270.94
1666656887.11624789,154418083,1,-0.47000000000000003,0.62,355.69,-0.12074079364538193,-0.09841153770685196,-0.44294169545173645,-1.22616708278656,5.4871416091918945,8.080458641052246,-0.1329067051410675,0.12,-0.01,-0.05,270.94
1666656887.15624905,154458084,1,-0.38,0.61,355.62,-0.12642255425453186,-0.10461628437042236,-0.47318482398986816,-1.3947374820709229,5.477202892303467,8.06930160522461,-0.2079184502363205,0.12,-0.01,-0.06,270.94
1666656887.17873883,154480574,1,-0.24,0.63,355.58,-0.13379566371440887,-0.08969596773386002,-0.5089612007141113,-1.5149247646331787,5.4732232093811035,8.065555572509766,-0.23125958442687988,0.12,-0.01,-0.06,270.94
1666656887.19625592,154498091,1,-0.33,0.63,355.53000000000003,-0.1363845020532608,-0.11035247147083282,-0.49677520990371704,-1.542503833770752,5.468857765197754,8.060635566711426,-0.2635974586009979,0.12,-0.01,-0.06,270.94
1666656887.23623204,154538067,1,-0.16,0.65,355.47,-0.14008435606956482,-0.10110408067703247,-0.4819297194480896,-1.5631393194198608,5.457462310791016,8.04958438873291,-0.32157883048057556,0.12,-0.01,-0.06,270.94
1666656887.27618790,154578023,1,0.05,0.63,355.39,-0.14772844314575195,-0.11423387378454208,-0.5040015578269958,-1.627258062362671,5.446678638458252,8.039422988891602,-0.3800244629383087,0.12,-0.01,-0.06,270.94
1666656887.27874494,154580580,1,-0.05,0.61,355.39,-0.1513180434703827,-0.10814402252435684,-0.4942932426929474,-1.6157550811767578,5.446346759796143,8.039176940917969,-0.38113099336624146,0.12,-0.01,-0.06,270.94
1666656887.31621695,154618052,1,0.19,0.62,355.31,-0.1450200229883194,-0.1095934808254242,-0.517031729221344,-1.6148306131362915,5.436357021331787,8.030145645141602,-0.43400129675865173,0.12,-0.01,-0.06,270.94
1666656887.35624504,154658080,1,-0.97,0.27,152.27,-0.14146298170089722,-0.10000716149806976,-0.517295241355896,-1.6502065658569336,5.425447463989258,8.019147872924805,-0.5160611271858215,0.12,-0.01,-0.06,270.94
1666656887.37874198,154680577,1,-0.86,0.37,152.21,-0.15236225724220276,-0.1230265274643898,-0.5492222905158997,-1.7186583280563354,5.421051979064941,8.015178680419922,-0.5414286851882935,0.12,-0.01,-0.06,270.94
1666656887.39623785,154698073,1,-0.66,0.27,152.18,-0.1475324183702469,-0.09931377321481705,-0.5288183093070984,-1.7032791376113892,5.416503429412842,8.010793685913086,-0.5759870409965515,0.12,-0.01,-0.06,270.94
1666656887.43625903,154738094,1,-0.35000000000000003,0.24,152.09,-0.14331863820552826,-0.10342778265476227,-0.5145951509475708,-1.6773571968078613,5.403092861175537,8.001283645629883,-0.6383513808250427,0.12,-0.01,-0.06,270.94
1666656887.47622800,154778063,1,0.0,0.17,152.01,-0.13887952268123627,-0.11644380539655685,-0.49998173117637634,-1.6806098222732544,5.390934944152832,7.992508411407471,-0.6996957063674927,0.12,-0.01,-0.06,270.94
