timestamp,TimeUS,C,Q1,Q2,Q3,Q4
1666656879.57873297,146880568,1,0.9986386299133301,0.00034792287624441087,-0.00431812833994627,-0.05198177695274353
1666656879.59623098,146898066,1,0.9986386299133301,0.00034556540776975453,-0.004295364487916231,-0.051984380930662155
1666656879.63624883,146938084,1,0.9986377954483032,0.0003339776012580842,-0.00426031369715929,-0.05200258642435074
1666656879.67623305,146978068,1,0.9986368417739868,0.00034371489891782403,-0.004243938252329826,-0.05202292650938034
1666656879.67873287,146980568,1,0.9986368417739868,0.0003433589299675077,-0.004240451380610466,-0.05202260613441467
1666656879.71622205,147018057,1,0.9986361861228943,0.00034810503711923957,-0.004210920538753271,-0.052037134766578674
1666656879.75621104,147058046,1,0.9986351728439331,0.00035867601400241256,-0.004219249822199345,-0.05205685272812843
1666656879.77871084,147080546,1,0.9986342787742615,0.00037152247386984527,-0.004213861655443907,-0.05207405611872673
1666656879.79624200,147098077,1,0.9986338019371033,0.0003737978986464441,-0.004209120292216539,-0.0520838238298893
1666656879.83624291,147138078,1,0.9986335039138794,0.0003756034711841494,-0.004189460538327694,-0.05209028348326683
1666656879.87623882,147178074,1,0.9986332654953003,0.00037941604387015104,-0.0041550458408892155,-0.052097760140895844
1666656879.87871695,147180552,1,0.9986332654953003,0.00038241007132455707,-0.00415286747738719,-0.052097536623477936
1666656879.91622186,147218057,1,0.9986342787742615,0.0003782384446822107,-0.004146942403167486,-0.05207935720682144
1666656879.95621300,147258048,1,0.9986345767974854,0.0004072413721587509,-0.004117551259696484,-0.052075985819101334
1666656879.97870994,147280545,1,0.9986345171928406,0.00040869295480661094,-0.0041146655566990376,-0.0520767867565155
1666656879.99620605,147298041,1,0.9986345171928406,0.0004088069254066795,-0.004113024100661278,-0.05207664147019386
1666656880.03623486,147338070,1,0.9986333847045898,0.0004405406943988055,-0.004096050281077623,-0.05209973827004433
1666656880.07624698,147378082,1,0.9986339807510376,0.00046977680176496506,-0.004069473594427109,-0.052090756595134735
1666656880.07870102,147380536,1,0.9986340403556824,0.00047093722969293594,-0.004071568604558706,-0.05208931490778923
1666656880.11624503,147418080,1,0.9986328482627869,0.0004870981501881033,-0.004060795996338129,-0.05211191624403
1666656880.15618491,147458020,1,0.9986318945884705,0.0004982771351933479,-0.004033543635159731,-0.05213242396712303
1666656880.17872095,147480556,1,0.99863201379776,0.00050300860311836,-0.00402056472375989,-0.05213170871138573
1666656880.19620991,147498045,1,0.9986322522163391,0.0005117455730214715,-0.004013425204902887,-0.052127014845609665
1666656880.23624802,147538083,1,0.9986305236816406,0.0005185186746530235,-0.004005881957709789,-0.05216061323881149
1666656880.27624702,147578082,1,0.9986293911933899,0.000501904112752527,-0.004000522196292877,-0.0521833635866642
1666656880.27871799,147580553,1,0.9986293911933899,0.0005027365405112505,-0.003993087913841009,-0.05218428373336792
1666656880.31625390,147618089,1,0.9986283183097839,0.0005221709725446999,-0.0039667426608502865,-0.05220629274845123
1666656880.35619688,147658032,1,0.9986274242401123,0.0005061309784650803,-0.0039679729379713535,-0.05222354456782341
1666656880.37872195,147680557,1,0.998627245426178,0.0004956210614182055,-0.003957970067858696,-0.052227359265089035
1666656880.39623094,147698066,1,0.9986270070075989,0.0004973739269189537,-0.00394858093932271,-0.052232954651117325
1666656880.43621087,147738046,1,0.9986264705657959,0.0004979144432581961,-0.003930786158889532,-0.05224424600601196
1666656880.47623801,147778073,1,0.9986260533332825,0.0004904498928226531,-0.0038955104537308216,-0.05225469172000885
1666656880.47870398,147780539,1,0.9986261129379272,0.0004916214966215193,-0.0038931823801249266,-0.05225363001227379
1666656880.51622796,147818063,1,0.9986259341239929,0.0004840015317313373,-0.0038582533597946167,-0.05225969851016998
1666656880.55624390,147858079,1,0.998624861240387,0.0004599885724019259,-0.003833644324913621,-0.052283115684986115
1666656880.57874799,147880583,1,0.998623788356781,0.0004556704079732299,-0.0038185755256563425,-0.05230426788330078
1666656880.59623098,147898066,1,0.9986237287521362,0.0004592942714225501,-0.0038069607689976692,-0.052306484431028366
1666656880.63618302,147938018,1,0.9986237287521362,0.0004689118650276214,-0.003813984803855419,-0.05230521038174629
1666656880.67621088,147978046,1,0.9986233115196228,0.0004660713311750442,-0.003804909996688366,-0.0523141510784626
1666656880.67874885,147980584,1,0.9986231327056885,0.00046492498950101435,-0.003800960723310709,-0.05231839418411255
1666656880.71623898,148018074,1,0.9986231327056885,0.00045472243800759315,-0.003771995659917593,-0.052320342510938644
1666656880.75625992,148058095,1,0.9986227750778198,0.0004558748041745275,-0.003747660433873534,-0.05232921242713928
1666656880.77875400,148080589,1,0.998622715473175,0.00045665071229450405,-0.0037493943236768246,-0.052329741418361664
1666656880.79621792,148098053,1,0.9986214637756348,0.0004619732790160924,-0.003739431267604232,-0.05235447734594345
1666656880.83622789,148138063,1,0.9986216425895691,0.0004642883432097733,-0.0037259485106915236,-0.05235157907009125
1666656880.87621593,148178051,1,0.9986212253570557,0.000469904305646196,-0.0036824080161750317,-0.05236322805285454
1666656880.87872696,148180562,1,0.9986211657524109,0.0004672223294619471,-0.0036873663775622845,-0.052363794296979904
1666656880.91624284,148218078,1,0.9986212253570557,0.00045283109648153186,-0.0036766270641237497,-0.05236324295401573
1666656880.95623899,148258074,1,0.9986215233802795,0.0004556165949907154,-0.0036709520500153303,-0.05235792323946953
1666656880.97874093,148280576,1,0.998621940612793,0.0004360708990134299,-0.003663568524643779,-0.05235111340880394
1666656880.99621797,148298053,1,0.9986220598220825,0.0004434197617229074,-0.003670091973617673,-0.05234828591346741
1666656881.03620195,148338037,1,0.9986223578453064,0.00044665951281785965,-0.003665015334263444,-0.05234229192137718
1666656881.07623291,148378068,1,0.9986225962638855,0.0004340043815318495,-0.003660011338070035,-0.05233895033597946
1666656881.07873487,148380570,1,0.9986228346824646,0.000435467780334875,-0.003659356851130724,-0.052333634346723557
1666656881.11620903,148418044,1,0.9986234307289124,0.00043163084774278104,-0.0036639422178268433,-0.0523223914206028
1666656881.15625000,148458085,1,0.9986231327056885,0.00040807307232171297,-0.003682572627440095,-0.05232733115553856
1666656881.17874098,148480576,1,0.998622715473175,0.00039835041388869286,-0.0036745783872902393,-0.05233527347445488
1666656881.19623995,148498075,1,0.9986225962638855,0.00040051137330010533,-0.003683811752125621,-0.052337467670440674
1666656881.23624492,148538080,1,0.998623251914978,0.00039110559737309813,-0.00370065588504076,-0.05232381075620651
1666656881.27623987,148578075,1,0.9986221194267273,0.00039011926855891943,-0.0036923843435943127,-0.05234592407941818
1666656881.27874494,148580580,1,0.9986220002174377,0.0003929208032786846,-0.0036921557039022446,-0.052347760647535324
1666656881.31618404,148618019,1,0.9986222982406616,0.0003900271840393543,-0.0036857069935649633,-0.05234334245324135
1666656881.35620403,148658039,1,0.9986224174499512,0.00037956773303449154,-0.003682136768475175,-0.05234062671661377
1666656881.37871599,148680551,1,0.9986222386360168,0.00038457883056253195,-0.0036701494827866554,-0.05234481766819954
1666656881.39623499,148698070,1,0.9986229538917542,0.0003867018676828593,-0.0036716675385832787,-0.05233154445886612
1666656881.43622303,148738058,1,0.9986233115196228,0.00038326470530591905,-0.0036672952119261026,-0.052324771881103516
1666656881.47623897,148778074,1,0.9986241459846497,0.00037593673914670944,-0.0036509064957499504,-0.05230986699461937
1666656881.47871089,148780546,1,0.9986241459846497,0.0003764515568036586,-0.0036514457315206528,-0.05231046304106712
1666656881.51623702,148818072,1,0.9986241459846497,0.0003794887743424624,-0.0036559593863785267,-0.05230972170829773
1666656881.55618596,148858021,1,0.9986250996589661,0.00039496857789345086,-0.0036456771194934845,-0.05229182541370392
1666656881.57871699,148880552,1,0.9986246824264526,0.00040284075657837093,-0.00365451630204916,-0.05229891091585159
1666656881.59621286,148898048,1,0.9986242055892944,0.0004157618386670947,-0.0036565642803907394,-0.05230878293514252
1666656881.63624501,148938080,1,0.9986240863800049,0.0004247931356076151,-0.003647034987807274,-0.05231158435344696
1666656881.67624784,148978083,1,0.9986245036125183,0.00041768269147723913,-0.0036562124732881784,-0.052302952855825424
1666656881.67868996,148980525,1,0.998624324798584,0.00041772995609790087,-0.003656096989288926,-0.05230626091361046
1666656881.71623087,149018066,1,0.9986228942871094,0.00042088812915608287,-0.0036561747547239065,-0.052333343774080276
1666656881.75622892,149058064,1,0.99862140417099,0.0004141376120969653,-0.0036627580411732197,-0.05236165225505829
1666656881.77870297,149080538,1,0.9986206293106079,0.00041824133950285614,-0.0036717329639941454,-0.05237551033496857
1666656881.79621506,149098050,1,0.9986193776130676,0.00040625178371556103,-0.0036652579437941313,-0.052399516105651855
1666656881.83624291,149138078,1,0.9986181259155273,0.00038649162161163986,-0.003679185640066862,-0.052423086017370224
1666656881.87624002,149178075,1,0.9986170530319214,0.00037946016527712345,-0.0036638565361499786,-0.05244406685233116
1666656881.87872791,149180563,1,0.9986168742179871,0.0003796521632466465,-0.003658673260360956,-0.05244775488972664
1666656881.91624904,149218084,1,0.9986169934272766,0.0003747448790818453,-0.0036923345178365707,-0.052444010972976685
1666656881.95624900,149258084,1,0.9986169934272766,0.00037683401023969054,-0.0036955305840820074,-0.05244377627968788
1666656881.97873092,149280566,1,0.9986169338226318,0.0003649615100584924,-0.0037105020601302385,-0.05244401469826698
1666656881.99622798,149298063,1,0.9986167550086975,0.00036164867924526334,-0.0037147044204175472,-0.05244693160057068
1666656882.03621292,149338048,1,0.9986168742179871,0.0003658660571090877,-0.0037041539326310158,-0.052445217967033386
1666656882.07623982,149378075,1,0.9986159801483154,0.0003561509947758168,-0.003695619758218527,-0.0524628721177578
1666656882.07872605,149380561,1,0.9986162185668945,0.0003568678512237966,-0.0036876338999718428,-0.052459217607975006
1666656882.11625004,149418085,1,0.9986162185668945,0.00035662780283018947,-0.0037134597077965736,-0.05245698243379593
1666656882.15625501,149458090,1,0.9986160397529602,0.0003663655079435557,-0.0037194308824837208,-0.05245967209339142
1666656882.17874789,149480583,1,0.9986152648925781,0.0003612468426581472,-0.0037129903212189674,-0.0524747259914875
1666656882.19622898,149498064,1,0.9986141324043274,0.00036309240385890007,-0.003722976427525282,-0.05249537155032158
1666656882.23623300,149538068,1,0.9986128211021423,0.00037888422957621515,-0.003717438317835331,-0.05252063646912575
1666656882.27621698,149578052,1,0.9986118674278259,0.00036880161496810615,-0.0037340326234698296,-0.05253820866346359
1666656882.27875686,149580592,1,0.9986116290092468,0.0003675502957776189,-0.003731503849849105,-0.052542559802532196
1666656882.31625104,149618086,1,0.9986117482185364,0.0003635465691331774,-0.0037317650858312845,-0.05254022404551506
1666656882.35622787,149658063,1,0.9986124634742737,0.00037075934233143926,-0.0037310398183763027,-0.052526768296957016
1666656882.37875700,149680592,1,0.9986118674278259,0.00037479595630429685,-0.0037435381673276424,-0.05253707617521286
1666656882.39626789,149698103,1,0.9986118674278259,0.00037239547236822546,-0.003751221811398864,-0.05253708362579346
1666656882.43621898,149738054,1,0.9986094832420349,0.0003702079120557755,-0.0037386100739240646,-0.052583590149879456
1666656882.47620392,149778039,1,0.9986046552658081,0.00035359428147785366,-0.00372523651458323,-0.05267634987831116
1666656882.47873497,149780570,1,0.9986044764518738,0.00035110159660689533,-0.0037289888132363558,-0.052679259330034256
1666656882.51621795,149818053,1,0.9985997676849365,0.0003066642675548792,-0.0037288491148501635,-0.052768856287002563
1666656882.55624294,149858078,1,0.9986028671264648,0.0003385867166798562,-0.003736604005098343,-0.05270855501294136
1666656882.57874393,149880579,1,0.9986069202423096,0.0003169641422573477,-0.0037324666045606136,-0.052633024752140045
1666656882.59624887,149898084,1,0.9986115097999573,0.0003224967513233423,-0.0037443279288709164,-0.05254409462213516
1666656882.63623691,149938072,1,0.9986242651939392,0.000265314185526222,-0.003741325344890356,-0.0523020401597023
1666656882.67622900,149978064,1,0.9986332058906555,0.00022215706121642143,-0.0037628135178238153,-0.05212992802262306
1666656882.67875099,149980586,1,0.9986333847045898,0.0002224726922577247,-0.0037636992055922747,-0.052126187831163406
1666656882.71623182,150018067,1,0.9986336827278137,0.00026599151897244155,-0.0037463060580193996,-0.052121736109256744
1666656882.75624299,150058078,1,0.998625636100769,0.0002875046047847718,-0.0037732780911028385,-0.05227354168891907
1666656882.77874303,150080578,1,0.9986194372177124,0.0002975270908791572,-0.003781507723033428,-0.05239110812544823
1666656882.79626894,150098104,1,0.9986141324043274,0.00030668184626847506,-0.003762678010389209,-0.05249331519007683
1666656882.83624983,150138085,1,0.9986062049865723,0.00029162256396375597,-0.003711102297529578,-0.052647631615400314
1666656882.87626004,150178095,1,0.9986120462417603,0.00035695204860530794,-0.0036354793701320887,-0.05254228040575981
1666656882.87874603,150180581,1,0.9986122846603394,0.00034597190096974373,-0.003636656329035759,-0.05253707617521286
1666656882.91622686,150218062,1,0.9986205697059631,0.0004016737511847168,-0.0036234657745808363,-0.05238044634461403
1666656882.95621991,150258055,1,0.9986274838447571,0.00037999413325451314,-0.003616332309320569,-0.05224839970469475
1666656882.97871995,150280555,1,0.9986279606819153,0.00040957072633318603,-0.0036011114716529846,-0.052240822464227676
1666656882.99624586,150298081,1,0.9986294507980347,0.00028730681515298784,-0.003627591533586383,-0.05221047252416611
1666656883.03623986,150338075,1,0.9986212253570557,0.0002954155788756907,-0.003583761630579829,-0.052370697259902954
1666656883.07625294,150378088,1,0.9986159205436707,0.00034089008113369346,-0.0036888548638671637,-0.05246470123529434
1666656883.07871699,150380552,1,0.9986160397529602,0.00011838704085676,-0.0036492885556071997,-0.05246564373373985
1666656883.11622500,150418060,1,0.9986103773117065,0.0002390351874055341,-0.003689645091071725,-0.05257069319486618
1666656883.15622783,150458063,1,0.9986199140548706,0.0005605285405181348,-0.0035977037623524666,-0.05239317566156387
1666656883.17870402,150480539,1,0.9986202120780945,0.0005465975264087319,-0.003731092670932412,-0.05237799510359764
1666656883.19622183,150498057,1,0.9986271262168884,0.00019728530605789274,-0.003582423785701394,-0.05225884169340134
1666656883.23624802,150538083,1,0.9986394047737122,0.0005985560128465295,-0.0037999015767127275,-0.05200474336743355
1666656883.27625299,150578088,1,0.9986429214477539,0.00021709704014938325,-0.0035727890208363533,-0.0519561804831028
1666656883.27873397,150580569,1,0.9986443519592285,0.00045156345004215837,-0.0035661873407661915,-0.05192846432328224
1666656883.31624985,150618085,1,0.9986405372619629,0.0005177623243071139,-0.003534930758178234,-0.05200303718447685
1666656883.35624385,150658079,1,0.9986364841461182,0.00012387697643134743,-0.0035126276779919863,-0.05208510160446167
1666656883.37873387,150680569,1,0.9986332058906555,0.00010267437755828723,-0.0035735443234443665,-0.05214354768395424
1666656883.39621091,150698046,1,0.9986317753791809,0.0003651458246167749,-0.003601150121539831,-0.052168264985084534
1666656883.43619490,150738030,1,0.9986357092857361,0.0003223149396944791,-0.0036128382198512554,-0.052091557532548904
1666656883.47624087,150778076,1,0.9986407160758972,0.00034525393857620656,-0.0036719460040330887,-0.05199151858687401
1666656883.47872901,150780564,1,0.998641848564148,0.0003748092276509851,-0.0036673282738775015,-0.051969725638628006
1666656883.51625490,150818090,1,0.9986543655395508,0.00023393785522785038,-0.00362769584171474,-0.05173240974545479
1666656883.55622101,150858056,1,0.9986603260040283,0.00036253189318813384,-0.0036223516799509525,-0.05161647871136665
1666656883.57870483,150880540,1,0.9986595511436462,0.0003482759348116815,-0.0035968932788819075,-0.051633406430482864
1666656883.59618998,150898025,1,0.998659610748291,0.00027322969981469214,-0.0035583130083978176,-0.05163545906543732
1666656883.63622189,150938057,1,0.9986572265625,0.0003272590402048081,-0.003552340669557452,-0.051681697368621826
1666656883.67624187,150978077,1,0.9986510872840881,0.0003622366930358112,-0.003477050457149744,-0.051805127412080765
1666656883.67875099,150980586,1,0.9986513257026672,0.0003903449687641114,-0.003482101485133171,-0.051799748092889786
1666656883.71624303,151018078,1,0.9986511468887329,0.0003536707954481244,-0.0034984126687049866,-0.05180228874087334
1666656883.75625587,151058091,1,0.9986542463302612,0.00030888032051734626,-0.003513071220368147,-0.05174208804965019
1666656883.77875304,151080588,1,0.9986580014228821,0.00028946055681444705,-0.0035003270022571087,-0.05167030543088913
1666656883.79622293,151098058,1,0.9986610412597656,0.0003802682040259242,-0.003502884181216359,-0.051611512899398804
1666656883.83623099,151138066,1,0.9986712336540222,0.00022502621868625283,-0.003544044913724065,-0.05141111835837364
1666656883.87621903,151178054,1,0.9986713528633118,0.0003795145021285862,-0.003563209204003215,-0.05140673369169235
1666656883.87874889,151180584,1,0.9986715912818909,0.0003246088162995875,-0.003571463283151388,-0.05140216648578644
1666656883.91624284,151218078,1,0.9986733198165894,0.0002463452983647585,-0.0035479413345456123,-0.05137104168534279
1666656883.95623803,151258073,1,0.9986699223518372,0.0004254113300703466,-0.0035537995863705873,-0.05143542215228081
1666656883.97875190,151280587,1,0.9986675977706909,0.00043780021951533854,-0.0035247504711151123,-0.051482636481523514
1666656883.99626303,151298098,1,0.9986664056777954,0.0003501010069157928,-0.0034784586168825626,-0.051509253680706024
1666656884.03622794,151338063,1,0.9986691474914551,0.0003576716408133507,-0.0034674610942602158,-0.0514569915831089
1666656884.07618904,151378024,1,0.9986749887466431,0.00031293198117055,-0.0034412152599543333,-0.05134476721286774
1666656884.07875085,151380586,1,0.9986757636070251,0.0003915264387615025,-0.003447081660851836,-0.05132901668548584
1666656884.11622000,151418055,1,0.9986855387687683,0.00038323181797750294,-0.0034670967143028975,-0.051137425005435944
1666656884.15623999,151458075,1,0.9986912608146667,0.00035156551166437566,-0.0034959849435836077,-0.051023852080106735
1666656884.17874098,151480576,1,0.99869304895401,0.00039410946192219853,-0.003506674198433757,-0.05098807439208031
1666656884.19622803,151498063,1,0.9986931681632996,0.00032718302099965513,-0.003525311592966318,-0.05098463222384453
1666656884.23625803,151538093,1,0.998690664768219,0.0003666456032078713,-0.0034896312281489372,-0.05103625729680061
1666656884.27623391,151578069,1,0.9986895322799683,0.00036657441523857415,-0.0035768509842455387,-0.0510522723197937
1666656884.27874303,151580578,1,0.998688817024231,0.0002870713942684233,-0.003558527212589979,-0.05106768012046814
1666656884.31622100,151618056,1,0.998687744140625,0.00028631018358282745,-0.0034990294370800257,-0.051092587411403656
1666656884.35625100,151658086,1,0.9986931681632996,0.00029992361669428647,-0.003479558974504471,-0.050987888127565384
1666656884.37874699,151680582,1,0.9986978769302368,0.00028757547261193395,-0.003478432074189186,-0.05089622735977173
1666656884.39624190,151698077,1,0.9986989498138428,0.0003784481668844819,-0.003466858761385083,-0.05087536200881004
1666656884.43627095,151738106,1,0.9987091422080994,0.0003655506588984281,-0.0034709267783910036,-0.05067369341850281
1666656884.47622895,151778064,1,0.9987139701843262,0.0002350135036977008,-0.003479146398603916,-0.05057889595627785
1666656884.47871304,151780548,1,0.998715341091156,0.0003265039122197777,-0.0034745102748274803,-0.0505521334707737
1666656884.51619601,151818031,1,0.998714029788971,0.0002827246789820492,-0.003545499173924327,-0.050572771579027176
1666656884.55621600,151858051,1,0.998714029788971,0.00024247060355264693,-0.0035572086926549673,-0.050572603940963745
1666656884.57871699,151880552,1,0.998711347579956,0.00042003128328360617,-0.0034869685769081116,-0.05062879994511604
1666656884.59625006,151898085,1,0.998713493347168,0.0005052606575191021,-0.0034618405625224113,-0.0505879707634449
1666656884.63624191,151938077,1,0.9987143278121948,0.0003933061088901013,-0.003532281843945384,-0.050567835569381714
1666656884.67624688,151978082,1,0.9987191557884216,0.0004366771609056741,-0.0034714809153229,-0.0504753515124321
1666656884.67872095,151980556,1,0.9987217783927917,0.0005970671772956848,-0.0034815105609595776,-0.05042131245136261
1666656884.71623182,152018067,1,0.9987260103225708,0.00022959074703976512,-0.003391624428331852,-0.05034683644771576
1666656884.75622988,152058065,1,0.9987329244613647,0.0004648523754440248,-0.003516832133755088,-0.05019864812493324
1666656884.77869296,152080528,1,0.9987308979034424,0.0002769061829894781,-0.003433626377955079,-0.050247080624103546
1666656884.79623389,152098069,1,0.9987365007400513,0.00031173115712590516,-0.0033724119421094656,-0.05013865604996681
1666656884.83624792,152138083,1,0.998733639717102,0.0003877448907587677,-0.0034515252336859703,-0.05018983408808708
1666656884.87622905,152178064,1,0.9987369775772095,0.0003003832825925201,-0.003573705442249775,-0.05011584609746933
1666656884.87872005,152180555,1,0.9987350106239319,0.0004135422932449728,-0.003520958824083209,-0.05015750601887703
1666656884.91624999,152218085,1,0.9987399578094482,0.0003178828628733754,-0.0035100493114441633,-0.050061147660017014
1666656884.95623398,152258069,1,0.9987466335296631,0.0007354779518209398,-0.003379078581929207,-0.049932025372982025
1666656884.97871804,152280553,1,0.9987493753433228,2.994714304804802e-05,-0.003476664423942566,-0.04987617954611778
1666656884.99618888,152298024,1,0.9987577199935913,0.0005538798868656158,-0.003191643161699176,-0.049724120646715164
1666656885.03622389,152338059,1,0.9987673759460449,0.0005238897283561528,-0.0032363098580390215,-0.04952745512127876
1666656885.07624483,152378080,1,0.9987747669219971,0.00031436493736691773,-0.0032056651543825865,-0.04938168451189995
1666656885.07872200,152380557,1,0.9987760186195374,0.00025402719620615244,-0.00335880764760077,-0.04934743791818619
1666656885.11626291,152418098,1,0.9987820386886597,0.00041929283179342747,-0.0032648956403136253,-0.049230050295591354
1666656885.15623689,152458072,1,0.9987860321998596,0.0006559158209711313,-0.003296653041616082,-0.04914473369717598
1666656885.17871785,152480553,1,0.998788058757782,0.0007870675763115287,-0.0033009361941367388,-0.04910113662481308
1666656885.19623494,152498070,1,0.9987956285476685,-9.717406646814197e-05,-0.0032529295422136784,-0.0489564873278141
1666656885.23621798,152538053,1,0.9988041520118713,0.0005769312265329063,-0.003505983389914036,-0.04876061528921127
1666656885.27624488,152578080,1,0.9988142848014832,0.0004406601656228304,-0.003144732676446438,-0.048579614609479904
1666656885.27875805,152580593,1,0.9988133907318115,-0.0002050549373961985,-0.003593488596379757,-0.048567842692136765
1666656885.31624389,152618079,1,0.9988259673118591,0.0010170280002057552,-0.0034057442098855972,-0.0483122318983078
1666656885.35625696,152658092,1,0.9988435506820679,0.0007291686488315463,-0.00354215526022017,-0.047941941767930984
1666656885.37875605,152680591,1,0.9988551139831543,0.0008593318052589893,-0.0034590873401612043,-0.04770495370030403
1666656885.39620304,152698038,1,0.998862624168396,0.0002737562754191458,-0.003323172451928258,-0.047563813626766205
1666656885.43622804,152738063,1,0.9988777041435242,-1.0547002602834255e-05,-0.0031183145474642515,-0.04726159945130348
1666656885.47621584,152778051,1,0.998894453048706,0.00023235251137521118,-0.0031577362678945065,-0.04690239951014519
1666656885.47874594,152780581,1,0.9988927841186523,0.00019935703312512487,-0.0031256265938282013,-0.04694036766886711
1666656885.51625395,152818089,1,0.9989068508148193,0.0004360554739832878,-0.0032333233393728733,-0.046630457043647766
1666656885.55624199,152858077,1,0.9989228248596191,0.00039252248825505376,-0.0031696753576397896,-0.04629264771938324
1666656885.57873797,152880573,1,0.9989327788352966,0.0005671206163242459,-0.002871187636628747,-0.04609522968530655
1666656885.59625888,152898094,1,0.9989398717880249,0.0004588412994053215,-0.003113808576017618,-0.045926667749881744
1666656885.63622785,152938063,1,0.9989594221115112,0.00033642040216363966,-0.003097417764365673,-0.04550139978528023
1666656885.67618990,152978025,1,0.9989809989929199,-9.82305864454247e-05,-0.0030426133889704943,-0.04502987489104271
1666656885.67874503,152980580,1,0.9989844560623169,0.0003342345589771867,-0.003351715160533786,-0.04492959380149841
1666656885.71621585,153018051,1,0.9990020394325256,0.00033975709811784327,-0.0032563882414251566,-0.0445440337061882
1666656885.75624490,153058080,1,0.9990231990814209,-0.0001044208838720806,-0.003263304941356182,-0.04406809061765671
1666656885.77874088,153080576,1,0.9990336894989014,0.00020562426652759314,-0.0033597482834011316,-0.04382218420505524
1666656885.79622889,153098064,1,0.9990425705909729,0.0001919747155625373,-0.003354461397975683,-0.04361935704946518
1666656885.83625889,153138094,1,0.9990603923797607,0.0005855068447999656,-0.003189178416505456,-0.043217889964580536
1666656885.87623191,153178067,1,0.9990736246109009,0.0001358476874884218,-0.003192218719050288,-0.04291454330086708
1666656885.87874389,153180579,1,0.9990737438201904,0.0005122245638631284,-0.00331462686881423,-0.04289936646819115
1666656885.91618991,153218025,1,0.9990895986557007,0.0003338531532790512,-0.003027499420568347,-0.04255162179470062
1666656885.95625687,153258092,1,0.9991106390953064,0.0003104876377619803,-0.0029399218037724495,-0.04206128418445587
1666656885.97874093,153280576,1,0.9991244673728943,0.00028682377887889743,-0.0029408233240246773,-0.04173215851187706
1666656885.99624491,153298080,1,0.9991351962089539,6.698344805045053e-05,-0.002895360579714179,-0.04147820919752121
1666656886.03621483,153338050,1,0.9991487860679626,0.0001377681765006855,-0.002968360437080264,-0.04114523530006409
1666656886.07623291,153378068,1,0.9991723299026489,0.0001525170519016683,-0.0030590929090976715,-0.040562521666288376
1666656886.07870197,153380537,1,0.9991757869720459,0.0004031162825413048,-0.0030340049415826797,-0.04047621786594391
1666656886.11623693,153418072,1,0.9991865754127502,0.00029627353069372475,-0.002950149355456233,-0.040216442197561264
1666656886.15621686,153458052,1,0.9992030262947083,0.0009658301714807749,-0.003198731690645218,-0.03977614641189575
1666656886.17873001,153480565,1,0.9992112517356873,0.0009680002112872899,-0.0030778401996940374,-0.03957817703485489
1666656886.19624305,153498078,1,0.999218761920929,0.000497479981277138,-0.0030512467492371798,-0.03939929977059364
1666656886.23624587,153538081,1,0.9992324709892273,0.000199910718947649,-0.003229944733902812,-0.03903859481215477
1666656886.27624798,153578083,1,0.999252200126648,-5.524916196009144e-05,-0.003372934879735112,-0.03851893171668053
1666656886.27872705,153580562,1,0.9992519617080688,2.984837738040369e-05,-0.0032886976841837168,-0.03853205591440201
1666656886.31619596,153618031,1,0.9992729425430298,0.0004670456110034138,-0.003298612078651786,-0.03798019140958786
1666656886.35619402,153658029,1,0.9992874264717102,0.0012215813621878624,-0.0026477111969143152,-0.03763081133365631
1666656886.37869096,153680526,1,0.9993016719818115,0.0012058267602697015,-0.002658261451870203,-0.037251681089401245
1666656886.39621687,153698052,1,0.9993067979812622,0.0007467607501894236,-0.002307451795786619,-0.03714865818619728
1666656886.43624496,153738080,1,0.9993306398391724,0.0015574285062029958,-0.0020934913773089647,-0.03648923709988594
1666656886.47624397,153778079,1,0.9993497133255005,0.001259300857782364,-0.0014466297579929233,-0.03600618615746498
1666656886.47872901,153780564,1,0.9993498921394348,0.0024826203007251024,-0.001451033283956349,-0.03593762218952179
1666656886.51624703,153818082,1,0.9993666410446167,0.0009217066690325737,-0.00022073974832892418,-0.03557195886969566
1666656886.55623293,153858068,1,0.9993807673454285,0.0006118111195974052,0.0014924161368981004,-0.03514949977397919
1666656886.57874298,153880578,1,0.9993781447410583,-0.0004600740794558078,0.0023241830058395863,-0.03518131375312805
1666656886.59619403,153898029,1,0.9993851780891418,-0.0007594771450385451,0.0032680367585271597,-0.03489968553185463
1666656886.63622904,153938064,1,0.9993805885314941,-0.0031163403764367104,0.004863838665187359,-0.03471340611577034
1666656886.67624092,153978076,1,0.9993715286254883,-0.004885115660727024,0.005957367364317179,-0.03460012748837471
1666656886.67874384,153980579,1,0.9993691444396973,-0.005695916246622801,0.005515620112419128,-0.034619130194187164
1666656886.71625090,154018086,1,0.9993640780448914,-0.006320680025964975,0.006255298852920532,-0.03453114628791809
1666656886.75625205,154058087,1,0.9993546009063721,-0.007005913183093071,0.0069982619024813175,-0.03452999144792557
1666656886.77873302,154080568,1,0.9993565678596497,-0.006076453719288111,0.007226575631648302,-0.03460145369172096
1666656886.79623103,154098066,1,0.9993457794189453,-0.007358452305197716,0.007663285359740257,-0.03456997498869896
1666656886.83621502,154138050,1,0.9993478655815125,-0.006349814590066671,0.00768019026145339,-0.03470689430832863
1666656886.87623882,154178074,1,0.999338686466217,-0.0066067008301615715,0.007552814669907093,-0.03495043143630028
1666656886.87876105,154180596,1,0.9993398785591125,-0.007571110501885414,0.00694723054766655,-0.03484513238072395
1666656886.91624093,154218076,1,0.9993246793746948,-0.007352730724960566,0.007079640403389931,-0.035298772156238556
1666656886.95622396,154258059,1,0.9993196129798889,-0.00726946908980608,0.006191999651491642,-0.03562401235103607
1666656886.97874999,154280585,1,0.9993188977241516,-0.005501942243427038,0.00645354762673378,-0.0359136164188385
1666656886.99622893,154298064,1,0.9993135333061218,-0.0065202973783016205,0.005687061697244644,-0.03602265939116478
1666656887.03620982,154338045,1,0.999298632144928,-0.005506345070898533,0.005715888924896717,-0.03659661114215851
1666656887.07622290,154378058,1,0.9992834329605103,-0.004758564755320549,0.0058488319627940655,-0.03709074854850769
1666656887.07875395,154380589,1,0.9992854595184326,-0.004650999791920185,0.005500198807567358,-0.03710312768816948
1666656887.11624789,154418083,1,0.9992731213569641,-0.0039028460159897804,0.005611893720924854,-0.037502940744161606
1666656887.15624905,154458084,1,0.999252438545227,-0.00311063090339303,0.005483656655997038,-0.03814156353473663
1666656887.17873883,154480574,1,0.9992399215698242,-0.0019032626878470182,0.0056536151096224785,-0.0385223887860775
1666656887.19625592,154498091,1,0.9992227554321289,-0.0027147282380610704,0.005693516228348017,-0.03891095519065857
1666656887.23623204,154538067,1,0.9992027878761292,-0.001204148051328957,0.0057291146367788315,-0.039490848779678345
1666656887.27618790,154578023,1,0.9991766810417175,0.0006729845190420747,0.0055130356922745705,-0.04018876701593399
1666656887.27874494,154580580,1,0.9991773366928101,-0.00027016931562684476,0.005409493576735258,-0.04019097611308098
1666656887.31621695,154618052,1,0.9991471767425537,0.001886578742414713,0.005402642302215099,-0.04089244082570076
1666656887.35624504,154658080,1,0.2395915687084198,-0.004354605916887522,-0.007700135000050068,0.9708334803581238
1666656887.37874198,154680577,1,0.24004097282886505,-0.004987562540918589,-0.006535110529512167,0.9707279205322266
1666656887.39623785,154698073,1,0.24032071232795715,-0.0037477256264537573,-0.005027377046644688,0.9706732630729675
1666656887.43625903,154738094,1,0.24112647771835327,-0.0028357047121971846,-0.0024843993596732616,0.9704864025115967
1666656887.47622800,154778063,1,0.24179677665233612,-0.0014609009958803654,0.00042860760004259646,0.9703257083892822
1666656887.47873998,154780575,1,0.24186000227928162,-0.0016541358781978488,-0.00031673384364694357,0.9703096747398376
1666656887.51618791,154818023,1,0.24267852306365967,-5.399723522714339e-05,0.0018382862908765674,0.970104992389679
1666656887.55621600,154858051,1,0.24256564676761627,0.0016256397357210517,0.003953147679567337,0.9701255559921265
1666656887.57873988,154880575,1,0.24260756373405457,0.0020492407493293285,0.005307602230459452,0.9701078534126282
1666656887.59624100,154898076,1,0.2426801174879074,0.003083654446527362,0.006043956149369478,0.9700826406478882
1666656887.63625193,154938087,1,0.2425881177186966,0.004177621100097895,0.008240492083132267,0.9700853824615479
1666656887.67624497,154978080,1,0.2424597144126892,0.0049344454891979694,0.009123851545155048,0.9701060056686401
1666656887.67871594,154980551,1,0.24251194298267365,0.004792667925357819,0.008833502419292927,0.9700963497161865
1666656887.71623182,155018067,1,0.2424992322921753,0.004965241067111492,0.008177769370377064,0.9701043963432312
1666656887.75622201,155058057,1,0.2424723356962204,0.004005615133792162,0.006424320861697197,0.9701287746429443
1666656887.77871490,155080550,1,0.2427496612071991,0.0036402768455445766,0.004273653496056795,0.9700727462768555
1666656887.79625106,155098086,1,0.24274049699306488,0.002717721974477172,0.003463342785835266,0.9700812697410583
1666656887.83624291,155138078,1,0.24327684938907623,0.0014030234888195992,-0.0025920523330569267,0.969952404499054
1666656887.87626195,155178097,1,0.24400973320007324,-0.0004175624926574528,-0.009101062081754208,0.9697299599647522
1666656887.87869191,155180527,1,0.24408693611621857,-0.000208689205464907,-0.009084414690732956,0.9697107672691345
1666656887.91623282,155218068,1,0.24479785561561584,-0.0017338043544441462,-0.013854458928108215,0.9694736003875732
1666656887.95622802,155258063,1,0.24585366249084473,-0.0032058539800345898,-0.018616877496242523,0.9691228866577148
1666656887.97868705,155280522,1,0.24661998450756073,-0.0033376123756170273,-0.019495228305459023,0.9689103960990906
1666656887.99622488,155298060,1,0.24702408909797668,-0.004399397410452366,-0.02121088281273842,0.9687671661376953
1666656888.03624201,155338077,1,0.24793779850006104,-0.005156348925083876,-0.02318832278251648,0.9684846997261047
1666656888.07624197,155378077,1,0.24839814007282257,-0.0056297131814062595,-0.023666683584451675,0.9683524966239929
1666656888.07871485,155380550,1,0.24846218526363373,-0.0059482562355697155,-0.02299814671278,0.9683502912521362
1666656888.11624885,155418084,1,0.2488836944103241,-0.006010014563798904,-0.023066215217113495,0.9682400226593018
1666656888.15624785,155458083,1,0.24880896508693695,-0.006252252962440252,-0.02212011255323887,0.9682797789573669
1666656888.17873287,155480568,1,0.2487013339996338,-0.006144687999039888,-0.021669818088412285,0.9683182835578918
1666656888.19621992,155498055,1,0.24864430725574493,-0.005837942939251661,-0.020878782495856285,0.968352198600769
1666656888.23621798,155538053,1,0.2485305517911911,-0.005466249771416187,-0.01924663782119751,0.9684174060821533
1666656888.27625489,155578090,1,0.24836422502994537,-0.005040700081735849,-0.01753106154501438,0.9684949517250061
1666656888.27871203,155580547,1,0.24834787845611572,-0.005397571716457605,-0.018588274717330933,0.9684774875640869
1666656888.31624484,155618080,1,0.2483389973640442,-0.00450165756046772,-0.015211955644190311,0.968543291091919
1666656888.35625291,155658088,1,0.24841991066932678,-0.003958224784582853,-0.011673984117805958,0.9685739874839783
1666656888.37873793,155680573,1,0.24846093356609344,-0.0032121127005666494,-0.008878369815647602,0.9685959219932556
1666656888.39622903,155698064,1,0.2485394924879074,-0.004194364417344332,-0.007726125419139862,0.9685818552970886
1666656888.43618894,155738024,1,0.24879500269889832,-0.004015474580228329,-0.004060919396579266,0.9685393571853638
1666656888.47621799,155778053,1,0.24896682798862457,-0.004025768022984266,-0.0022226350847631693,0.968501091003418
1666656888.47876191,155780597,1,0.24909435212612152,-0.003873353824019432,-0.002204491524025798,0.968468964099884
1666656888.51624203,155818077,1,0.2493661493062973,-0.0029484445694833994,-0.0013868112582713366,0.9684038162231445
1666656888.55625486,155858090,1,0.24968859553337097,-0.0016184409614652395,0.00038534149643965065,0.9683247804641724
1666656888.57874584,155880581,1,0.24988460540771484,-0.0007253289804793894,0.0005406776326708496,0.9682751893997192
1666656888.59624100,155898076,1,0.24999147653579712,-0.0005076202214695513,0.001634339801967144,0.9682465195655823
1666656888.63621783,155938053,1,0.25016674399375916,0.0002705709484871477,0.002108881948515773,0.9682004451751709
1666656888.67621684,155978052,1,0.25007131695747375,0.00059577013598755,0.002950564492493868,0.9682227373123169
1666656888.67872596,155980561,1,0.24998700618743896,0.00031678995583206415,0.004110373090952635,0.9682404398918152
1666656888.71624589,156018081,1,0.24989613890647888,0.00046998626203276217,0.004784919787198305,0.9682607054710388
1666656888.75624204,156058077,1,0.2492433488368988,-6.375541852321476e-05,0.005740261171013117,0.9684239029884338
1666656888.77874804,156080583,1,0.2487635612487793,0.0010355841368436813,0.005030779168009758,0.9685506224632263
1666656888.79625392,156098089,1,0.2486886978149414,0.0004967855056747794,0.005256699863821268,0.9685690999031067
1666656888.83626485,156138100,1,0.247892364859581,0.0012421059655025601,0.0045629036612808704,0.9687760472297668
1666656888.87622786,156178063,1,0.24710382521152496,0.001753138960339129,0.004215359687805176,0.968978226184845
1666656888.87874103,156180576,1,0.24705243110656738,0.0017898776568472385,0.0039683314971625805,0.9689923524856567
1666656888.91621995,156218055,1,0.24631279706954956,0.0028062451165169477,0.004372166004031897,0.9691764712333679
1666656888.95624495,156258080,1,0.24536408483982086,0.0031331332866102457,0.005458724219352007,0.9694105982780457
1666656888.97874594,156280581,1,0.24488021433353424,0.0031178828794509172,0.006901707034558058,0.9695237874984741
1666656888.99624085,156298076,1,0.24438908696174622,0.0031063975766301155,0.006022749003022909,0.9696535468101501
1666656889.03625202,156338087,1,0.24346017837524414,0.0027666555251926184,0.0067967986688017845,0.969883143901825
1666656889.07623196,156378067,1,0.24227671325206757,0.0025988444685935974,0.007146474905312061,0.970177412033081
1666656889.07875991,156380595,1,0.24212327599525452,0.0025560716167092323,0.0075406841933727264,0.9702128171920776
1666656889.11618900,156418024,1,0.24125134944915771,0.002467405516654253,0.0065870932303369045,0.9704371690750122
1666656889.15619683,156458032,1,0.2400590032339096,0.002196693327277899,0.0053525399416685104,0.9707410335540771
1666656889.17871499,156480550,1,0.23934708535671234,0.0017286243382841349,0.005559938494116068,0.9709166288375854
1666656889.19624400,156498079,1,0.23896954953670502,0.0019422618206590414,0.004777660593390465,0.9710133671760559
1666656889.23622990,156538065,1,0.23786160349845886,0.001455891877412796,0.004134977702051401,0.9712891578674316
1666656889.27626300,156578098,1,0.23688271641731262,0.0009328068699687719,0.0031699135433882475,0.9715326428413391
1666656889.27871990,156580555,1,0.23677369952201843,0.0011490030447021127,0.0037579385098069906,0.9715569019317627
1666656889.31622887,156618064,1,0.23601694405078888,0.0005582937737926841,0.002029965166002512,0.9717466831207275
1666656889.35618901,156658024,1,0.2351614534854889,0.0002924596192315221,0.0008574933744966984,0.9719558954238892
1666656889.37872005,156680555,1,0.2348296344280243,0.0005685706273652613,0.001203084015287459,0.9720356464385986
1666656889.39621496,156698050,1,0.23447251319885254,8.423713006777689e-05,-0.0011638265568763018,0.972122073173523
1666656889.43624306,156738078,1,0.23376254737377167,-0.00025053363060578704,-0.00330932205542922,0.9722880721092224
1666656889.47621202,156778047,1,0.23304522037506104,-0.0011215351987630129,-0.006026322953402996,0.9724465608596802
1666656889.47868800,156780523,1,0.23297731578350067,-0.0011313367867842317,-0.006843589246273041,0.9724574089050293
1666656889.51626992,156818105,1,0.23243023455142975,-0.0019748073536902666,-0.008748877793550491,0.9725717306137085
1666656889.55621505,156858050,1,0.23155388236045837,-0.0026595869567245245,-0.01111788209527731,0.9727548956871033
1666656889.57870984,156880545,1,0.2312164455652237,-0.0026055516209453344,-0.010445713996887207,0.9728427529335022
1666656889.59621882,156898054,1,0.2308826893568039,-0.002919846912845969,-0.011754211038351059,0.972906231880188
1666656889.63619399,156938029,1,0.23006798326969147,-0.0029078891966491938,-0.011227861046791077,0.9731054306030273
1666656889.67624092,156978076,1,0.2292925864458084,-0.002375394804403186,-0.009724287316203117,0.9733060598373413
1666656889.67873192,156980567,1,0.22939425706863403,-0.002118215197697282,-0.009077000431716442,0.9732889533042908
1666656889.71624589,157018081,1,0.2286704182624817,-0.0018136606086045504,-0.008010771125555038,0.9734692573547363
1666656889.75621390,157058049,1,0.22799964249134064,-0.0016208910383284092,-0.006447830703109503,0.9736385345458984
1666656889.77872896,157080564,1,0.2277085930109024,-0.001989495474845171,-0.006318442523479462,0.9737067818641663
1666656889.79623699,157098072,1,0.22752435505390167,-0.001783451298251748,-0.005488653667271137,0.9737553000450134
1666656889.83622098,157138056,1,0.22713203728199005,-0.0017607564805075526,-0.005062944255769253,0.9738492369651794
1666656889.87624598,157178081,1,0.22689487040042877,-0.0014580084243789315,-0.004606886301189661,0.9739072918891907
1666656889.87872887,157180564,1,0.22689472138881683,-0.0014426162233576179,-0.003789573209360242,0.9739108681678772
1666656889.91624188,157218077,1,0.22666631639003754,-0.0013185859424993396,-0.0039411080069839954,0.9739636182785034
1666656889.95624804,157258083,1,0.22676053643226624,-0.0011169379577040672,-0.0030996953137218952,0.9739449620246887
1666656889.97876596,157280601,1,0.2267758697271347,-0.0009717149659991264,-0.0021022572182118893,0.9739442467689514
1666656889.99626398,157298099,1,0.22686254978179932,-0.0009739079396240413,-0.0024858517572283745,0.9739231467247009
1666656890.03618789,157338023,1,0.22705307602882385,-0.0008780097705312073,-0.001567969680763781,0.9738807082176208
1666656890.07621598,157378051,1,0.22716017067432404,-0.0007205216097645462,-0.0002445104473736137,0.9738571047782898
1666656890.07875299,157380588,1,0.22729159891605377,-0.0003443668538238853,-0.0008579006535001099,0.9738262891769409
1666656890.11625099,157418086,1,0.22740419209003448,-0.0005236377473920584,0.0004051213327329606,0.9738002419471741
1666656890.15622401,157458059,1,0.2275375872850418,-0.0001754010299919173,0.000661805213894695,0.9737690687179565
1666656890.17870998,157480545,1,0.22766155004501343,-4.40134244854562e-05,0.00035083125112578273,0.97374027967453
1666656890.19625092,157498086,1,0.22775575518608093,3.766610461752862e-05,0.0008452430483885109,0.9737179279327393
1666656890.23623204,157538067,1,0.22789202630519867,0.0004164442070759833,0.0011364130768924952,0.9736856818199158
1666656890.27620292,157578038,1,0.22796840965747833,0.00043452513637021184,0.0007645312580280006,0.9736681580543518
1666656890.27874684,157580582,1,0.22800561785697937,0.0004251227364875376,0.0015039389254525304,0.973658561706543
1666656890.31625199,157618087,1,0.2281070351600647,0.00040351899224333465,0.0006499217124655843,0.973635733127594
1666656890.35624599,157658081,1,0.22827933728694916,0.0001649059704504907,0.00037113853613846004,0.9735956192016602
1666656890.37874293,157680578,1,0.22830365598201752,3.927072248188779e-05,0.0016854030545800924,0.9735885262489319
1666656890.39621687,157698052,1,0.22830244898796082,3.6346918932395056e-05,0.00032979052048176527,0.9735901951789856
1666656890.43622994,157738065,1,0.22838877141475677,0.00011353849549777806,7.38964881747961e-05,0.9735699892044067
1666656890.47623086,157778066,1,0.2284620851278305,0.0003469733928795904,0.00016755714023020118,0.9735527634620667
1666656890.47874093,157780576,1,0.22848065197467804,0.0002428958541713655,0.0010428994428366423,0.9735478758811951
1666656890.51621604,157818051,1,0.22850565612316132,0.0005580568104051054,0.0004988465225324035,0.9735422730445862
1666656890.55624390,157858079,1,0.2284190058708191,0.0008310435805469751,0.0004835651197936386,0.9735624194145203
1666656890.57874393,157880579,1,0.2284390777349472,0.0007293268572539091,0.0016483655199408531,0.9735565185546875
1666656890.59625006,157898085,1,0.22836782038211823,0.0008926092414185405,0.0003355705412104726,0.9735744595527649
1666656890.63627100,157938106,1,0.22834934294223785,0.0009058028226718307,0.00048789079301059246,0.973578691482544
1666656890.67625189,157978087,1,0.2281663566827774,0.000774282612837851,0.00029102072585374117,0.9736217856407166
1666656890.67874599,157980581,1,0.2282341718673706,0.0014491862384602427,0.0007706086616963148,0.9736048579216003
1666656890.71621084,158018046,1,0.22809642553329468,0.0008240307215601206,2.7912032237509266e-05,0.9736381769180298
1666656890.75622106,158058056,1,0.22792945802211761,0.0008563873125240207,5.208960283198394e-05,0.9736772775650024
1666656890.77871895,158080554,1,0.22788549959659576,0.0007081205258145928,-0.00016071024583652616,0.9736876487731934
1666656890.79624486,158098080,1,0.22786416113376617,0.001064457930624485,0.00040302250999957323,0.9736922383308411
1666656890.83624101,158138076,1,0.22765593230724335,0.0011562875006347895,0.00015412068751174957,0.9737409353256226
1666656890.87625289,158178088,1,0.22761254012584686,0.0008721108315512538,2.747812141024042e-05,0.9737513661384583
1666656890.87871003,158180545,1,0.22765091061592102,0.0010257585672661662,-0.00034347502514719963,0.9737421870231628
1666656890.91622806,158218063,1,0.22748741507530212,0.00029892195016145706,-0.0002584350877441466,0.9737809300422668
1666656890.95619988,158258035,1,0.2273988425731659,-2.203587609983515e-05,-0.0010457702446728945,0.9738011360168457
1666656890.97871494,158280550,1,0.22722508013248444,0.00016504182713106275,-0.0006535620777867734,0.9738420248031616
1666656890.99622989,158298065,1,0.22727257013320923,-0.0001710912329144776,-0.0016839710297062993,0.9738296866416931
1666656891.03624105,158338076,1,0.22709567844867706,-8.359993807971478e-05,-0.0020013179164379835,0.9738703966140747
1666656891.07625604,158378091,1,0.22687087953090668,0.00021915319666732103,-0.002413796726614237,0.9739218354225159
1666656891.07871890,158380554,1,0.22691817581653595,5.4046181503508706e-06,-0.001287466031499207,0.9739129543304443
1666656891.11624384,158418079,1,0.22664879262447357,0.00020455432240851223,-0.0027935428079217672,0.973972499370575
1666656891.15623689,158458072,1,0.22644716501235962,-6.0419632063712925e-05,-0.002696990966796875,0.9740197062492371
1666656891.17869592,158480531,1,0.22617371380329132,-0.00043755685328505933,-0.0030062575824558735,0.9740822315216064
1666656891.19621205,158498047,1,0.22617289423942566,-2.200719973188825e-05,-0.0025855565909296274,0.9740837216377258
1666656891.23624682,158538082,1,0.22587622702121735,8.787940168986097e-05,-0.0019841622561216354,0.974153995513916
1666656891.27624202,158578077,1,0.22571884095668793,5.768480696133338e-05,-0.0019412036053836346,0.9741905331611633
1666656891.27873302,158580568,1,0.22566640377044678,9.904791659209877e-05,-0.001968722091987729,0.9742026329040527
1666656891.31622005,158618055,1,0.22551557421684265,1.928080564539414e-05,-0.002035350538790226,0.9742374420166016
1666656891.35626602,158658101,1,0.22531747817993164,0.00035730196395888925,-0.0022453174460679293,0.9742827415466309
1666656891.37873483,158680570,1,0.22527164220809937,-0.0001263470039702952,-0.003197212005034089,0.9742907285690308
1666656891.39624000,158698075,1,0.22518907487392426,0.0002596961858216673,-0.002284193644300103,0.9743123650550842
1666656891.43621683,158738052,1,0.22510869801044464,0.00033513837843202055,-0.0021995205897837877,0.9743311405181885
1666656891.47623992,158778075,1,0.22501198947429657,0.0006836241227574646,-0.001737159793265164,0.9743542075157166
1666656891.47873402,158780569,1,0.22498764097690582,-7.198712410172448e-05,-0.0021021035499870777,0.9743593335151672
1666656891.51624584,158818081,1,0.22496388852596283,0.0006042513996362686,-0.001468725735321641,0.9743658304214478
1666656891.55625391,158858089,1,0.22493015229701996,0.00026473187608644366,-0.0012803515419363976,0.974373996257782
1666656891.57875586,158880591,1,0.22483457624912262,0.00036106244078837335,-0.0022415027488023043,0.9743943214416504
1666656891.59619284,158898028,1,0.22495126724243164,0.00012162073835497722,-0.0014424313558265567,0.9743689298629761
1666656891.63621497,158938050,1,0.22489075362682343,0.00029514983179979026,-0.0016323478193953633,0.9743825793266296
1666656891.67622590,158978061,1,0.22484451532363892,0.00032360974000766873,-0.0015519693261012435,0.974393367767334
1666656891.67875290,158980588,1,0.22479116916656494,6.247859710128978e-05,-0.0012216317700222135,0.9744061827659607
1666656891.71624398,159018079,1,0.22480492293834686,0.00022162741515785456,-0.0012340062530711293,0.9744029641151428
1666656891.75624704,159058082,1,0.22467780113220215,0.0005109027842991054,-0.00038200279232114553,0.9744328856468201
1666656891.77874804,159080583,1,0.22457514703273773,0.0002926515880972147,-0.0016577130882069468,0.9744552969932556
1666656891.79625297,159098088,1,0.22458356618881226,0.0006735256174579263,-5.616368434857577e-05,0.9744545817375183
1666656891.83623195,159138067,1,0.2244093120098114,0.0004429024120327085,0.0006246930570341647,0.9744946956634521
1666656891.87619400,159178029,1,0.22440746426582336,0.0002198869187850505,0.0008740914054214954,0.974494993686676
1666656891.87874603,159180581,1,0.2243487387895584,0.00034420713200233877,-0.0003927620127797127,0.9745087623596191
1666656891.91621804,159218053,1,0.22447150945663452,0.00034342086291871965,0.0004072673909831792,0.9744805097579956
1666656891.95625091,159258086,1,0.22439078986644745,0.00046855583786964417,0.00027526120538823307,0.9744991064071655
1666656891.97874188,159280577,1,0.22453512251377106,0.0006149152177385986,-6.7104134359397e-05,0.9744657874107361
1666656891.99627995,159298115,1,0.2243625819683075,0.0004318346327636391,1.6481179045513272e-05,0.9745056629180908
1666656892.03628588,159338121,1,0.22439074516296387,0.00035094755003228784,-0.0003187783295288682,0.9744991660118103
1666656892.07622886,159378064,1,0.2243916243314743,0.0003852970548905432,-0.0008167583728209138,0.9744986295700073
1666656892.07874084,159380576,1,0.22432130575180054,-0.00011504762369440868,-0.0012323730625212193,0.9745144248008728
1666656892.11622286,159418058,1,0.22432580590248108,0.0004990915185771883,-0.000645877153147012,0.9745138883590698
1666656892.15624499,159458080,1,0.22425395250320435,0.00011802074004663154,-0.00042614698759280145,0.9745306372642517
1666656892.17874599,159480581,1,0.22424675524234772,0.0004956063348799944,-0.0004976053023710847,0.9745321273803711
1666656892.19624090,159498076,1,0.22428032755851746,-0.0002687469532247633,-0.00024833163479343057,0.9745246171951294
1666656892.23625803,159538093,1,0.22421859204769135,-0.0005172757664695382,-0.0007081129006110132,0.9745385050773621
1666656892.27626705,159578102,1,0.2241859883069992,-0.0004126566054765135,-0.0009578826720826328,0.9745458364486694
1666656892.27871704,159580552,1,0.22414985299110413,-0.00021448370534926653,-0.0009553444688208401,0.974554181098938
1666656892.31622100,159618056,1,0.22405016422271729,-0.0003343998978380114,-0.0004151818866375834,0.9745774865150452
1666656892.35622191,159658057,1,0.22399379312992096,9.666943515185267e-05,0.0011011144379153848,0.9745899438858032
1666656892.37871599,159680551,1,0.22401858866214752,0.0009178532636724412,0.002958958735689521,0.974579930305481
1666656892.39624286,159698078,1,0.2238456904888153,0.000590250943787396,0.0034536710008978844,0.9746183156967163
1666656892.43624306,159738078,1,0.2237911820411682,0.001532243681140244,0.006254786625504494,0.9746158123016357
1666656892.47625804,159778093,1,0.22366240620613098,0.0026027574203908443,0.009347186423838139,0.9746183753013611
1666656892.47872090,159780556,1,0.22371554374694824,0.0023579380940645933,0.009519875980913639,0.974605143070221
1666656892.51622987,159818065,1,0.22354210913181305,0.0029671569354832172,0.012032367289066315,0.9746155142784119
1666656892.55622101,159858056,1,0.2232961505651474,0.0032849085982888937,0.01439182460308075,0.9746388792991638
1666656892.57869101,159880526,1,0.22332434356212616,0.003635063534602523,0.017585134133696556,0.9745787978172302
1666656892.59623694,159898072,1,0.2232072502374649,0.004118929151445627,0.01687820628285408,0.9746161699295044
1666656892.63624692,159938082,1,0.22294454276561737,0.004961493890732527,0.01947017014026642,0.9746240377426147
1666656892.67622685,159978062,1,0.22272427380084991,0.005286537576466799,0.022025033831596375,0.9746183156967163
1666656892.67873192,159980567,1,0.22276954352855682,0.005518191494047642,0.02289762906730175,0.974586546421051
1666656892.71625805,160018093,1,0.2225729376077652,0.005533263087272644,0.02349657192826271,0.9746171236038208
1666656892.75622892,160058064,1,0.22240807116031647,0.005718124099075794,0.02451464533805847,0.9746286273002625
1666656892.77871990,160080555,1,0.2222757637500763,0.005648280959576368,0.026215750724077225,0.9746149778366089
1666656892.79619384,160098029,1,0.22215768694877625,0.005454558413475752,0.024842897430062294,0.9746789336204529
1666656892.83623695,160138072,1,0.22196069359779358,0.00490794749930501,0.024338481947779655,0.9747394323348999
1666656892.87624192,160178077,1,0.2217874974012375,0.004893931094557047,0.023307358846068382,0.974804162979126
1666656892.87872887,160180564,1,0.22174373269081116,0.005618499591946602,0.02386789210140705,0.9747966527938843
1666656892.91625404,160218089,1,0.22168415784835815,0.004906778689473867,0.02222847193479538,0.9748528003692627
1666656892.95625591,160258091,1,0.2214784473180771,0.0045046391896903515,0.020831840112805367,0.9749323129653931
1666656892.97874284,160280578,1,0.22161166369915009,0.004719157703220844,0.020725227892398834,0.9749032855033875
1666656892.99622703,160298062,1,0.22134160995483398,0.004155176226049662,0.01947794295847416,0.9749929308891296
1666656893.03621793,160338053,1,0.22116704285144806,0.003935148473829031,0.018685197457671165,0.9750489592552185
1666656893.07624698,160378082,1,0.2209787517786026,0.003745987545698881,0.017108440399169922,0.9751213788986206
1666656893.07874990,160380585,1,0.22105135023593903,0.003659870009869337,0.01572774536907673,0.9751284718513489
1666656893.11624193,160418077,1,0.22083640098571777,0.0033673280850052834,0.015195664949715137,0.9751866459846497
1666656893.15625095,160458086,1,0.22054873406887054,0.002373324939981103,0.012014022096991539,0.975299060344696
1666656893.17874503,160480580,1,0.22050315141677856,0.0027867406606674194,0.010381625965237617,0.9753270149230957
1666656893.19620991,160498045,1,0.22041133046150208,0.0015592370182275772,0.00813822727650404,0.9753718376159668
1666656893.23619485,160538030,1,0.22019782662391663,0.0010655410587787628,0.0043214899487793446,0.9754450917243958
1666656893.27621698,160578052,1,0.21996557712554932,0.0007778774597682059,0.0013172724284231663,0.9755064249038696
1666656893.27876592,160580601,1,0.22002236545085907,0.00017023117106873542,0.0004688930348493159,0.9754946827888489
1666656893.31624389,160618079,1,0.21970829367637634,0.00030693571898154914,-0.0008888873271644115,0.9755651354789734
1666656893.35624599,160658081,1,0.21965306997299194,-0.0005163269233889878,-0.0023335556033998728,0.9755751490592957
1666656893.37875199,160680587,1,0.21957959234714508,-0.00018106508650816977,-0.0017290918622165918,0.9755930304527283
1666656893.39625502,160698090,1,0.219636932015419,-0.0010668967152014375,-0.003587909508496523,0.9755744934082031
1666656893.43622899,160738064,1,0.21959996223449707,-0.0015232854057103395,-0.004542297683656216,0.975578248500824
1666656893.47620296,160778038,1,0.21948972344398499,-0.0016386860515922308,-0.0063260868191719055,0.9755929112434387
1666656893.47874188,160780577,1,0.21961410343647003,-0.0012469235807657242,-0.006325386464595795,0.975565493106842
1666656893.51622605,160818061,1,0.21941162645816803,-0.002362052910029888,-0.008542475290596485,0.9755921363830566
1666656893.55624294,160858078,1,0.2193780094385147,-0.0029129458125680685,-0.011788607574999332,0.9755643606185913
1666656893.57874584,160880581,1,0.21959051489830017,-0.0023863394744694233,-0.013227992691099644,0.9754995107650757
1666656893.59622192,160898057,1,0.2194778025150299,-0.0032348763197660446,-0.01490623876452446,0.9754982590675354
1666656893.63625002,160938085,1,0.2196062058210373,-0.0036748310085386038,-0.018186012282967567,0.975412130355835
1666656893.67622805,160978063,1,0.21985723078250885,-0.0036571661476045847,-0.019768761470913887,0.9753248691558838
1666656893.67874599,160980581,1,0.2198985368013382,-0.003998280502855778,-0.019213641062378883,0.975325345993042
1666656893.71618891,161018024,1,0.21999844908714294,-0.0031810938380658627,-0.019407205283641815,0.97530198097229
1666656893.75623083,161058066,1,0.220320463180542,-0.0027363793924450874,-0.016812752932310104,0.9752787947654724
1666656893.77874303,161080578,1,0.220545694231987,-0.0031667195726186037,-0.015316182747483253,0.9752512574195862
1666656893.79624104,161098076,1,0.2205798625946045,-0.0018348557641729712,-0.012425431050360203,0.9752880334854126
1666656893.83625793,161138093,1,0.22091060876846313,-0.0013714171946048737,-0.008465331979095936,0.9752563834190369
1666656893.87622595,161178061,1,0.22133979201316833,-0.0011806655675172806,-0.0057591721415519714,0.9751790165901184
1666656893.87873101,161180566,1,0.22122135758399963,-0.0005340735078789294,-0.006547754164785147,0.9752014875411987
1666656893.91622806,161218063,1,0.2216712087392807,-0.0007276737014763057,-0.003628243925049901,0.9751144647598267
1666656893.95621705,161258052,1,0.22198620438575745,-0.0001673958176979795,-0.002214619889855385,0.9750472903251648
1666656893.97871995,161280555,1,0.2221307009458542,0.0004993340116925538,-0.0024040457792580128,0.975013792514801
1666656893.99624586,161298081,1,0.22229133546352386,-3.0856816010782495e-05,-0.001193854259327054,0.9749795794487
1666656894.03624201,161338077,1,0.22262652218341827,0.0001551938330521807,-4.0458868170389906e-05,0.9749038219451904
1666656894.07625294,161378088,1,0.2230069637298584,0.0006692316965200007,0.0009816314559429884,0.9748161435127258
1666656894.07872391,161380559,1,0.22305697202682495,0.00016163680993486196,-0.0002593504614196718,0.9748053550720215
1666656894.11620688,161418042,1,0.22327286005020142,0.0011652341345325112,0.0016587601276114583,0.9747538566589355
1666656894.15619302,161458028,1,0.2234945148229599,0.0011322355130687356,0.002188687911257148,0.9747020602226257
1666656894.17869091,161480526,1,0.22358891367912292,0.0011552670039236546,0.0012852203799411654,0.9746820330619812
1666656894.19621682,161498052,1,0.22365286946296692,0.001096518011763692,0.002202374394983053,0.9746657609939575
1666656894.23625302,161538088,1,0.2235902100801468,0.0010882883798331022,0.0019123018719255924,0.9746807813644409
1666656894.27623987,161578075,1,0.2233978658914566,0.000745941826608032,0.0016976735787466168,0.974725604057312
1666656894.27872086,161580556,1,0.22351957857608795,0.0007134450133889914,-1.817766678868793e-05,0.9746991991996765
1666656894.31625605,161618091,1,0.22321262955665588,0.0009777037193998694,0.00047059456119313836,0.9747691750526428
