timestamp,TimeUS,C,Roll,Pitch,Yaw,VN,VE,VD,dPD,PN,PE,PD,GX,GY,GZ,OH
35.67219700,35672197,2,-0.13,0.55,87.2,0.02261536568403244,-0.017658043652772903,0.07612252980470657,-0.7600858211517334,0.0,0.0,0.7070913314819336,0.0,0.0,-0.08,0.0
35.77218500,35772185,2,-0.13,0.55,87.18,0.0232295710593462,-0.01949460618197918,0.07674115896224976,-2.6773500442504883,0.0,0.0,0.47178223729133606,0.0,0.0,-0.07,0.0
35.87220000,35872200,2,-0.13,0.55,87.17,0.024462053552269936,-0.015767352655529976,0.07697774469852448,-2.2794015407562256,0.0,0.0,0.31265130639076233,0.0,0.0,-0.07,0.0
35.97225100,35972251,2,-0.13,0.54,87.18,0.025224674493074417,-0.017463745549321175,0.07750809192657471,-1.3528144359588623,0.0,0.0,0.20615118741989136,0.0,0.0,-0.08,0.0
36.07223800,36072238,2,-0.13,0.56,87.18,0.026569843292236328,-0.018432416021823883,0.07881555706262589,-0.6688293218612671,0.0,0.0,0.13657213747501373,0.0,0.0,-0.08,0.0
36.17226700,36172267,2,-0.17,0.5700000000000001,87.23,0.026618655771017075,-0.019274042919278145,0.07987947016954422,-0.28106048703193665,0.0,0.0,0.09264635294675827,0.0,0.0,-0.07,0.0
36.27227900,36272279,2,-0.11,0.54,87.19,0.03386310860514641,-0.009392866864800453,0.08239658921957016,-0.08218403905630112,0.0,0.0,0.06615686416625977,0.0,0.0,-0.07,0.0
36.37227500,36372275,2,-0.09,0.52,87.19,0.025787724182009697,-0.019344963133335114,0.08431456983089447,0.002745694015175104,0.0,0.0,0.050488848239183426,0.0,0.0,-0.07,0.0
36.47221500,36472215,2,-0.08,0.53,87.24,0.03238176554441452,-0.019671162590384483,0.08572959154844284,0.038624003529548645,0.0,0.0,0.04262238368391991,0.0,0.0,-0.07,0.0
36.57218900,36572189,2,-0.05,0.51,87.26,0.03096082992851734,-0.01476830244064331,0.08574378490447998,0.05924435332417488,0.0,0.0,0.04008849337697029,0.0,0.0,-0.07,0.0
36.67219500,36672195,2,-0.04,0.5,87.24,0.03519577160477638,-0.0256472397595644,0.08643430471420288,0.0707922950387001,0.0,0.0,0.04123231768608093,0.0,0.0,-0.07,0.0
36.77219700,36772197,2,-0.03,0.52,87.25,0.03263859078288078,-0.022505970671772957,0.08763322234153748,0.08143143355846405,0.0,0.0,0.04529278352856636,0.0,0.0,-0.07,0.0
36.87225400,36872254,2,-0.02,0.49,87.25,0.03598359227180481,-0.019677486270666122,0.08950483798980713,0.09722565114498138,0.0,0.0,0.052268121391534805,0.0,0.0,-0.07,0.0
36.97226700,36972267,2,-0.02,0.49,87.26,0.0366784892976284,-0.026317084208130836,0.09214718639850616,0.11383382976055145,0.0,0.0,0.06132420897483826,0.0,0.0,-0.07,0.0
37.07226500,37072265,2,-0.01,0.49,87.28,0.03822243958711624,-0.022850574925541878,0.09334737062454224,0.10971434414386749,0.0,0.0,0.07004312425851822,0.0,0.0,-0.07,0.0
37.17222700,37172227,2,0.0,0.48,87.28,0.038803886622190475,-0.02358972653746605,0.09387148171663284,0.09627055376768112,0.0,0.0,0.07870899885892868,0.0,0.0,-0.08,0.0
37.27227200,37272272,2,-0.02,0.5,87.28,0.037678465247154236,-0.029215211048722267,0.09611999243497849,0.09691303968429565,0.0,0.0,0.08803270757198334,0.0,0.0,-0.08,0.0
37.37221000,37372210,2,0.0,0.49,87.32000000000001,0.04465422034263611,-0.021443888545036316,0.09751750528812408,0.08575494587421417,0.0,0.0,0.09586019814014435,0.0,0.0,-0.08,0.0
37.47218400,37472184,2,0.03,0.44,87.32000000000001,0.03895095735788345,-0.02116708643734455,0.09820941835641861,0.06487060338258743,0.0,0.0,0.1023634672164917,0.0,0.0,-0.07,0.0
37.57218400,37572184,2,0.02,0.43,87.3,0.04397394508123398,-0.03288985788822174,0.09890428185462952,0.05564586818218231,0.0,0.0,0.10856692492961884,0.0,0.0,-0.07,0.0
37.67218300,37672183,2,0.02,0.46,87.3,0.04509800672531128,-0.033164285123348236,0.09977460652589798,0.056555718183517456,0.0,0.0,0.11499045789241791,0.0,0.0,-0.07,0.0
37.77222100,37772221,2,0.0,0.45,87.28,0.044006917625665665,-0.026350127533078194,0.1000024601817131,0.05976387858390808,0.0,0.0,0.12131933867931366,0.0,0.0,-0.07,0.0
37.87223900,37872239,2,0.0,0.43,87.28,0.04823591187596321,-0.0289307851344347,0.0992465689778328,0.05440175533294678,0.0,0.0,0.1268700361251831,0.0,0.0,-0.07,0.0
37.97227800,37972278,2,-0.01,0.45,87.29,0.049161914736032486,-0.03676222637295723,0.09916450828313828,0.041827742010354996,0.0,0.0,0.1310509592294693,0.0,0.0,-0.07,0.0
38.07229000,38072290,2,-0.01,0.48,87.28,0.05260977894067764,-0.03412891924381256,0.09953982383012772,0.038841258734464645,0.0,0.0,0.13564829528331757,0.0,0.0,-0.07,0.0
38.17227700,38172277,2,0.0,0.47000000000000003,87.24,0.05170891061425209,-0.028276408091187477,0.09957776218652725,0.04951778054237366,0.0,0.0,0.14121262729167938,0.0,0.0,-0.07,0.0
38.27222600,38272226,2,-0.01,0.46,87.25,0.05508532375097275,-0.03501935303211212,0.09975045174360275,0.056677114218473434,0.0,0.0,0.14685775339603424,0.0,0.0,-0.07,0.0
38.37218600,38372186,2,-0.02,0.47000000000000003,87.25,0.056364718824625015,-0.03535015508532524,0.1004091277718544,0.0641845241189003,0.0,0.0,0.15335853397846222,0.0,0.0,-0.07,0.0
38.47219000,38472190,2,-0.02,0.46,87.24,0.0569642074406147,-0.032793931663036346,0.10101372748613358,0.0804038792848587,0.0,0.0,0.16147035360336304,0.0,0.0,-0.07,0.0
38.57219300,38572193,2,-0.02,0.46,87.24,0.05894119292497635,-0.03711322322487831,0.10125041007995605,0.09386483579874039,0.0,0.0,0.1704714447259903,0.0,0.0,-0.06,0.0
38.67226200,38672262,2,-0.02,0.46,87.22,0.05809987336397171,-0.03442230820655823,0.10382858663797379,0.08467305451631546,0.0,0.0,0.17779920995235443,0.0,0.0,-0.06,0.0
38.77223800,38772238,2,-0.01,0.46,87.22,0.06157998368144035,-0.034110937267541885,0.10398564487695694,0.06475138664245605,0.0,0.0,0.1842072606086731,0.0,0.0,-0.06,0.0
38.87227700,38872277,2,0.0,0.46,87.23,0.06135059520602226,-0.036754678934812546,0.10411947965621948,0.06469082087278366,0.0,0.0,0.19132786989212036,0.0,0.0,-0.06,0.0
38.97229200,38972292,2,0.0,0.46,87.22,0.06458629667758942,-0.0365636833012104,0.10496599972248077,0.07178293913602829,0.0,0.0,0.19862207770347595,0.0,0.0,-0.06,0.0
39.07228300,39072283,2,0.01,0.44,87.23,0.06159862130880356,-0.032531969249248505,0.10548397898674011,0.07443660497665405,0.0,0.0,0.20618785917758942,0.0,0.0,-0.06,0.0
39.17222100,39172221,2,0.0,0.41000000000000003,87.22,0.06215516850352287,-0.038097742944955826,0.10556898266077042,0.06360018998384476,0.0,0.0,0.21212907135486603,0.0,0.0,-0.06,0.0
39.27219400,39272194,2,-0.1,0.45,87.24,0.060393065214157104,-0.04277622327208519,0.10532832890748978,0.047202177345752716,0.0,0.0,0.21692489087581635,0.0,0.0,-0.06,0.0
39.37218700,39372187,2,0.03,0.43,87.26,0.06733401864767075,-0.026520704850554466,0.10484495759010315,0.04108556732535362,0.0,0.0,0.22166381776332855,0.0,0.0,-0.06,0.0
39.47219200,39472192,2,0.13,0.31,87.21000000000001,0.04356297105550766,-0.020539915189146996,0.08988594263792038,0.020205119624733925,0.0,0.0,0.22494693100452423,0.0,0.0,-0.07,0.0
39.57224800,39572248,2,0.13,0.13,87.16,0.030349526554346085,-0.018940206617116928,0.06598145514726639,-0.01747678779065609,0.0,0.0,0.22447191178798676,0.0,0.0,-0.07,0.0
39.67219500,39672195,2,-0.06,0.01,87.11,0.04000178724527359,-0.031138015910983086,0.012720697559416294,-0.07098957151174545,0.0,0.0,0.22126451134681702,0.0,0.0,-0.07,0.0
39.77227300,39772273,2,-0.27,0.14,87.13,0.05957025662064552,-0.038470733910799026,-0.014827009290456772,-0.08960211277008057,0.0,0.0,0.21379846334457397,0.0,0.0,-0.06,0.0
39.87228500,39872285,2,-0.5700000000000001,0.36,87.19,0.08106968551874161,-0.04623957350850105,-0.03216046839952469,-0.099339060485363,0.0,0.0,0.20489764213562012,0.0,0.0,-0.07,0.0
39.97227300,39972273,2,-0.99,0.6,87.25,0.08689193427562714,-0.05344486981630325,-0.050108931958675385,-0.11360582709312439,0.0,0.0,0.19433815777301788,0.0,0.0,-0.06,0.0
40.07221600,40072216,2,-1.36,0.74,87.26,0.08732684701681137,-0.054341673851013184,-0.06756574660539627,-0.13036680221557617,0.0,0.0,0.18211844563484192,0.0,0.0,-0.06,0.0
40.17219000,40172190,2,-1.44,0.79,87.16,0.08688205480575562,-0.05335089936852455,-0.0871276929974556,-0.17345993220806122,0.0,0.0,0.16466104984283447,0.0,0.0,-0.06,0.0
40.27219500,40272195,2,-1.3900000000000001,0.81,87.11,0.09103113412857056,-0.04585334286093712,-0.08958285301923752,-0.18377389013767242,0.0,0.0,0.14762663841247559,0.0,0.0,-0.06,0.0
40.37218500,40372185,2,-1.36,0.86,87.2,0.09694456309080124,-0.03637374937534332,-0.0966091975569725,-0.1763211190700531,0.0,0.0,0.13060906529426575,0.0,0.0,-0.06,0.0
40.47225100,40472251,2,-1.36,0.97,87.34,0.09894116222858429,-0.03488756716251373,-0.1024356409907341,-0.17620374262332916,0.0,0.0,0.11344362795352936,0.0,0.0,-0.06,0.0
40.57224900,40572249,2,-1.3800000000000001,1.1500000000000001,87.37,0.10085182636976242,-0.038676586002111435,-0.09795917570590973,-0.17630860209465027,0.0,0.0,0.09520556777715683,0.0,0.0,-0.06,0.0
40.67227300,40672273,2,-1.48,1.32,87.34,0.09949419647455215,-0.04427128657698631,-0.10349098592996597,-0.1917610764503479,0.0,0.0,0.07649010419845581,0.0,0.0,-0.06,0.0
40.77223100,40772231,2,-1.78,1.42,87.33,0.08899800479412079,-0.04298444092273712,-0.10517683625221252,-0.2054004967212677,0.0,0.0,0.05593801289796829,0.0,0.0,-0.06,0.0
40.87227600,40872276,2,-2.2,1.54,87.33,0.06646757572889328,-0.041396576911211014,-0.10547621548175812,-0.2172279953956604,0.0,0.0,0.03468337282538414,0.0,0.0,-0.06,0.0
40.97222000,40972220,2,-2.52,1.62,87.28,0.04463236406445503,-0.03165430948138237,-0.09770894050598145,-0.20701543986797333,0.0,0.0,0.014374922960996628,0.0,0.0,-0.06,0.0
41.07218700,41072187,2,-2.7,1.67,87.22,0.03665326535701752,-0.023823194205760956,-0.07485875487327576,-0.18461380898952484,0.0,0.0,-0.005193666554987431,0.0,0.0,-0.06,0.0
41.17219700,41172197,2,-2.8000000000000003,1.67,87.19,0.03226124495267868,-0.017466029152274132,-0.05428408831357956,-0.15783898532390594,0.0,0.0,-0.021135250106453896,0.0,0.0,-0.06,0.0
41.27219500,41272195,2,-2.91,1.6600000000000001,87.19,0.020276114344596863,-0.02047111839056015,-0.04542643204331398,-0.15017808973789215,0.0,0.0,-0.037161748856306076,0.0,0.0,-0.06,0.0
41.37225900,41372259,2,-2.81,1.49,87.16,0.008626086637377739,-0.015326936729252338,-0.022353852167725563,-0.13305248320102692,0.0,0.0,-0.05137412250041962,0.0,0.0,-0.06,0.0
41.47224900,41472249,2,-2.37,1.11,87.12,-0.006405801046639681,-0.006153220310807228,0.009357956238090992,-0.10635090619325638,0.0,0.0,-0.06359078735113144,0.0,0.0,-0.06,0.0
41.57227700,41572277,2,-1.77,0.71,87.2,-0.0077356016263365746,0.005507115740329027,0.04728405177593231,-0.07230336964130402,0.0,0.0,-0.07242166250944138,0.0,0.0,-0.06,0.0
41.67231400,41672314,2,-1.47,0.67,87.31,-0.00814986601471901,0.0062725478783249855,0.07536453753709793,-0.03935929015278816,0.0,0.0,-0.07666291296482086,0.0,0.0,-0.06,0.0
41.77227600,41772276,2,-1.08,0.64,87.34,-0.02052094042301178,0.021657079458236694,0.08038105070590973,-0.03825502470135689,0.0,0.0,-0.08095461875200272,0.0,0.0,-0.06,0.0
41.87222500,41872225,2,-0.78,0.54,87.33,-0.027289053425192833,0.029381344094872475,0.09442698955535889,-0.023836959153413773,0.0,0.0,-0.08342026174068451,0.0,0.0,-0.06,0.0
41.97219200,41972192,2,-0.8200000000000001,0.54,87.28,-0.024462996050715446,0.02004252001643181,0.09328886866569519,-0.01672990806400776,0.0,0.0,-0.0847986564040184,0.0,0.0,-0.06,0.0
42.07219800,42072198,2,-0.9500000000000001,0.55,87.23,-0.017748909071087837,0.005792169366031885,0.07851144671440125,-0.03642595559358597,0.0,0.0,-0.08820053189992905,0.0,0.0,-0.05,0.0
42.17219000,42172190,2,-0.98,0.49,87.21000000000001,-0.009600561112165451,-0.005234112963080406,0.0862085148692131,-0.026869744062423706,0.0,0.0,-0.08998049050569534,0.0,0.0,-0.05,0.0
42.27224800,42272248,2,-1.07,0.42,87.19,0.00494681391865015,-0.011814365163445473,0.11240780353546143,0.008806862868368626,0.0,0.0,-0.09013137221336365,0.0,0.0,-0.05,0.0
42.37223900,42372239,2,-1.23,0.36,87.18,0.021934930235147476,-0.016695883125066757,0.12519150972366333,0.04888251796364784,0.0,0.0,-0.08529406785964966,0.0,0.0,-0.05,0.0
42.47227400,42472274,2,-1.35,0.34,87.18,0.03443622961640358,-0.019175201654434204,0.12018611282110214,0.05716632306575775,0.0,0.0,-0.08036159723997116,0.0,0.0,-0.05,0.0
42.57229800,42572298,2,-1.4000000000000001,0.46,87.15,0.03393623232841492,-0.02246759459376335,0.11918702721595764,0.05147051066160202,0.0,0.0,-0.0756453275680542,0.0,0.0,-0.05,0.0
42.67226400,42672264,2,-1.43,0.64,87.16,0.04439443722367287,-0.019847387447953224,0.12111835181713104,0.047054313123226166,0.0,0.0,-0.07172221690416336,0.0,0.0,-0.05,0.0
42.77221700,42772217,2,-1.56,0.74,87.21000000000001,0.05052829161286354,-0.019271045923233032,0.1294248104095459,0.035479117184877396,0.0,0.0,-0.0684560239315033,0.0,0.0,-0.05,0.0
42.87219500,42872195,2,-1.67,0.8300000000000001,87.19,0.0439433827996254,-0.025214247405529022,0.11380650848150253,0.018154334276914597,0.0,0.0,-0.06486395001411438,0.0,0.0,-0.05,0.0
42.97218700,42972187,2,-1.6,0.87,87.08,0.03675166890025139,-0.021491866558790207,0.10813776403665543,0.004780603107064962,0.0,0.0,-0.06429633498191833,0.0,0.0,-0.05,0.0
43.07218800,43072188,2,-1.47,0.76,87.02,0.033865272998809814,-0.007489928975701332,0.10990238189697266,-0.017974289134144783,0.0,0.0,-0.0658954307436943,0.0,0.0,-0.04,0.0
43.17225000,43172250,2,-1.51,0.67,87.18,0.03519343212246895,-0.0005595693946816027,0.1165834590792656,-0.021886929869651794,0.0,0.0,-0.06732459366321564,0.0,0.0,-0.04,0.0
43.27224600,43272246,2,-1.5,0.75,87.28,0.04262159764766693,-0.015592029318213463,0.11589691787958145,-0.01791336014866829,0.0,0.0,-0.06801260262727737,0.0,0.0,-0.04,0.0
43.37227900,43372279,2,-1.3800000000000001,0.89,87.21000000000001,0.05015081167221069,-0.017044709995388985,0.11409309506416321,-0.0013998362701386213,0.0,0.0,-0.06753385812044144,0.0,0.0,-0.04,0.0
43.47228900,43472289,2,-1.3900000000000001,0.96,87.16,0.04854712262749672,-0.011110560968518257,0.12093675136566162,0.0107300765812397,0.0,0.0,-0.06717515736818314,0.0,0.0,-0.04,0.0
43.57227400,43572274,2,-1.43,0.9500000000000001,87.17,0.04070371761918068,-0.015554179437458515,0.11950834840536118,0.003655628999695182,0.0,0.0,-0.06644152849912643,0.0,0.0,-0.04,0.0
43.67222100,43672221,2,-1.35,0.87,87.12,0.04109201580286026,-0.024270333349704742,0.112192302942276,0.003581042168661952,0.0,0.0,-0.06635230034589767,0.0,0.0,-0.04,0.0
43.77218900,43772189,2,-1.21,0.75,87.04,0.04658767953515053,-0.024409392848610878,0.11152492463588715,-0.0030045711901038885,0.0,0.0,-0.06667894870042801,0.0,0.0,-0.04,0.0
43.87219900,43872199,2,-1.26,0.67,87.02,0.05267595872282982,-0.015453021973371506,0.1269877851009369,0.0006159744807519019,0.0,0.0,-0.06760071218013763,0.0,0.0,-0.04,0.0
43.97219700,43972197,2,-1.35,0.58,87.02,0.05301949381828308,-0.016999438405036926,0.12338855117559433,-0.015772521495819092,0.0,0.0,-0.067882239818573,0.0,0.0,-0.04,0.0
44.07223900,44072239,2,-1.1500000000000001,0.45,86.93,0.05061778053641319,-0.026585707440972328,0.11432048678398132,-0.011574968695640564,0.0,0.0,-0.06777123361825943,0.0,0.0,-0.04,0.0
44.17225900,44172259,2,-1.02,0.48,86.89,0.060116976499557495,-0.022250564768910408,0.1338321417570114,0.01665557734668255,0.0,0.0,-0.06711918115615845,0.0,0.0,-0.04,0.0
44.27227800,44272278,2,-1.17,0.55,86.86,0.062305379658937454,-0.011966688558459282,0.14061914384365082,0.03833780810236931,0.0,0.0,-0.06308458745479584,0.0,0.0,-0.03,0.0
44.37229000,44372290,2,-1.1,0.45,86.73,0.06209062412381172,-0.016298066824674606,0.11919192969799042,0.014621943235397339,0.0,0.0,-0.06138287112116814,0.0,0.0,-0.03,0.0
44.47227500,44472275,2,-0.89,0.38,86.61,0.061775628477334976,-0.02099895104765892,0.11225368827581406,-0.007418726570904255,0.0,0.0,-0.06201085448265076,0.0,0.0,-0.03,0.0
44.57222200,44572222,2,-0.79,0.37,86.59,0.06684184074401855,-0.02110397070646286,0.11789324879646301,-0.0095722246915102,0.0,0.0,-0.06307052075862885,0.0,0.0,-0.03,0.0
44.67218600,44672186,2,-0.8,0.31,86.58,0.0689534842967987,-0.029368119314312935,0.12262396514415741,0.0018101976020261645,0.0,0.0,-0.06212833523750305,0.0,0.0,-0.03,0.0
44.77219500,44772195,2,-0.85,0.21,86.48,0.0654054507613182,-0.04181208461523056,0.11646362394094467,0.012412702664732933,0.0,0.0,-0.06012234464287758,0.0,0.0,-0.03,0.0
44.87219700,44872197,2,-0.9,0.16,86.43,0.0635918378829956,-0.041849616914987564,0.1056382954120636,0.007447695359587669,0.0,0.0,-0.059174198657274246,0.0,0.0,-0.03,0.0
44.97224700,44972247,2,-0.99,0.13,86.47,0.06704002618789673,-0.034414276480674744,0.10370711982250214,0.0014180720318108797,0.0,0.0,-0.05918966978788376,0.0,0.0,-0.03,0.0
45.07226700,45072267,2,-1.03,0.07,86.5,0.0685546025633812,-0.0331440195441246,0.10631589591503143,-0.004525608848780394,0.0,0.0,-0.059997864067554474,0.0,0.0,-0.03,0.0
45.17228400,45172284,2,-1.01,0.01,86.47,0.06943444162607193,-0.033772971481084824,0.104310542345047,-0.01033702027052641,0.0,0.0,-0.06054569408297539,0.0,0.0,-0.03,0.0
45.27228400,45272284,2,-0.99,0.01,86.47,0.07066740095615387,-0.03437122702598572,0.09752381592988968,-0.025819480419158936,0.0,0.0,-0.06282311677932739,0.0,0.0,-0.03,0.0
45.37226200,45372262,2,-1.03,0.09,86.5,0.07347467541694641,-0.03481920808553696,0.09517578035593033,-0.026055505499243736,0.0,0.0,-0.06450055539608002,0.0,0.0,-0.03,0.0
45.47221800,45472218,2,-1.09,0.17,86.54,0.07334647327661514,-0.03008156269788742,0.09550099074840546,-0.012884375639259815,0.0,0.0,-0.06561270356178284,0.0,0.0,-0.03,0.0
45.57219000,45572190,2,-1.08,0.19,86.53,0.07093608379364014,-0.025443723425269127,0.0992903783917427,-0.013667507097125053,0.0,0.0,-0.0675778016448021,0.0,0.0,-0.03,0.0
45.67219200,45672192,2,-1.06,0.19,86.54,0.06917251646518707,-0.02728278748691082,0.09635157138109207,-0.028426265344023705,0.0,0.0,-0.0701541155576706,0.0,0.0,-0.03,0.0
45.77218900,45772189,2,-1.09,0.25,86.56,0.07120980322360992,-0.03256360813975334,0.10173210501670837,-0.03390654921531677,0.0,0.0,-0.07355113327503204,0.0,0.0,-0.03,0.0
45.87225500,45872255,2,-1.11,0.32,86.59,0.07699999958276749,-0.03807096928358078,0.10136273503303528,-0.04772072285413742,0.0,0.0,-0.07782147079706192,0.0,0.0,-0.04,0.0
45.97223800,45972238,2,-1.1300000000000001,0.4,86.63,0.07996881753206253,-0.03808213770389557,0.10018676519393921,-0.03991502895951271,0.0,0.0,-0.08043401688337326,0.0,0.0,-0.04,0.0
46.07227000,46072270,2,-1.18,0.44,86.67,0.06970134377479553,-0.03323444351553917,0.09584533423185349,-0.06408707797527313,0.0,0.0,-0.08754215389490128,0.0,0.0,-0.04,0.0
46.17222700,46172227,2,-1.24,0.5,86.71000000000001,0.0601070262491703,-0.0313197560608387,0.09018021076917648,-0.18001291155815125,0.0,0.0,-0.10677678883075714,0.0,0.0,-0.04,0.0
46.27226400,46272264,2,-1.26,0.55,86.76,0.058125946670770645,-0.03152037411928177,0.08488389849662781,-0.24117210507392883,0.0,0.0,-0.12616930902004242,0.0,0.0,-0.04,0.0
46.37220700,46372207,2,-1.24,0.54,86.83,0.05884602293372154,-0.028250979259610176,0.0783812627196312,-0.24995191395282745,0.0,0.0,-0.14834526181221008,0.0,0.0,-0.04,0.0
46.47218200,46472182,2,-1.26,0.51,86.88,0.057377900928258896,-0.029370423406362534,0.07795919477939606,-0.2558733820915222,0.0,0.0,-0.17156797647476196,0.0,0.0,-0.04,0.0
46.57218500,46572185,2,-1.26,0.5,86.91,0.05843858793377876,-0.03133988752961159,0.0762428343296051,-0.20898489654064178,0.0,0.0,-0.1892964094877243,0.0,0.0,-0.04,0.0
46.67217800,46672178,2,-1.26,0.55,86.93,0.05715847387909889,-0.030878668650984764,0.07263825088739395,-0.17478518187999725,0.0,0.0,-0.20685867965221405,0.0,0.0,-0.04,0.0
46.77223600,46772236,2,-1.26,0.58,86.94,0.057306040078401566,-0.03074909746646881,0.07048529386520386,-0.17845752835273743,0.0,0.0,-0.22518281638622284,0.0,0.0,-0.04,0.0
46.87225800,46872258,2,-1.26,0.6,86.96000000000001,0.061384234577417374,-0.03255513310432434,0.06917233020067215,-0.17389103770256042,0.0,0.0,-0.2424168884754181,0.0,0.0,-0.04,0.0
46.97226800,46972268,2,-1.31,0.61,86.92,0.06829088926315308,-0.03370601311326027,0.06515615433454514,-0.13124437630176544,0.0,0.0,-0.25428807735443115,0.0,0.0,-0.04,0.0
47.07223100,47072231,2,-1.36,0.58,86.84,0.07153569906949997,-0.03446638584136963,0.05967392399907112,-0.0737420842051506,0.0,0.0,-0.2619450092315674,0.0,0.0,-0.04,0.0
47.17227100,47172271,2,-1.3900000000000001,0.54,86.78,0.06883864104747772,-0.038395851850509644,0.06340980529785156,-0.02922075241804123,0.0,0.0,-0.26691004633903503,0.0,0.0,-0.03,0.0
47.27221100,47272211,2,-1.4000000000000001,0.58,86.81,0.0674058273434639,-0.04392585903406143,0.0623430572450161,-0.03372478485107422,0.0,0.0,-0.2728668451309204,0.0,0.0,-0.03,0.0
47.37218600,47372186,2,-1.36,0.63,86.86,0.07207156717777252,-0.044975098222494125,0.05982186272740364,-0.03822413459420204,0.0,0.0,-0.27718597650527954,0.0,0.0,-0.03,0.0
47.47218100,47472181,2,-1.32,0.6,86.85000000000001,0.0755636915564537,-0.041192106902599335,0.060520466417074203,-0.05701635032892227,0.0,0.0,-0.2847067415714264,0.0,0.0,-0.03,0.0
47.57218100,47572181,2,-1.33,0.55,86.78,0.07621918618679047,-0.04072676599025726,0.0600212886929512,-0.07953435182571411,0.0,0.0,-0.29205915331840515,0.0,0.0,-0.03,0.0
47.67222500,47672225,2,-1.33,0.5,86.72,0.07516033202409744,-0.04108695685863495,0.056303970515728,-0.09391887485980988,0.0,0.0,-0.3009413182735443,0.0,0.0,-0.03,0.0
47.77224200,47772242,2,-1.27,0.46,86.7,0.07449648529291153,-0.03908545896410942,0.05513257905840874,-0.10060326755046844,0.0,0.0,-0.3101477324962616,0.0,0.0,-0.03,0.0
47.87226700,47872267,2,-1.22,0.43,86.71000000000001,0.07487479597330093,-0.037064675241708755,0.05790260434150696,-0.08095040917396545,0.0,0.0,-0.3173888325691223,0.0,0.0,-0.03,0.0
47.97222800,47972228,2,-1.18,0.4,86.71000000000001,0.07438083738088608,-0.03731730580329895,0.06108103320002556,-0.042452797293663025,0.0,0.0,-0.32106703519821167,0.0,0.0,-0.03,0.0
48.07231700,48072317,2,-1.1500000000000001,0.42,86.7,0.0725332498550415,-0.03797956556081772,0.060448069125413895,-0.002130678156390786,0.0,0.0,-0.32149773836135864,0.0,0.0,-0.03,0.0
48.17221200,48172212,2,-1.12,0.43,86.69,0.07175378501415253,-0.03824120759963989,0.06139874458312988,-0.001842852565459907,0.0,0.0,-0.3238581717014313,0.0,0.0,-0.03,0.0
48.27218600,48272186,2,-1.1300000000000001,0.43,86.65,0.06660160422325134,-0.03778695687651634,0.07718641310930252,0.011119804345071316,0.0,0.0,-0.32377898693084717,0.0,0.0,-0.02,0.0
48.37217700,48372177,2,-1.18,0.43,86.61,0.062492985278367996,-0.042144112288951874,0.08815653622150421,0.05715477466583252,0.0,0.0,-0.31809040904045105,0.0,0.0,-0.02,0.0
48.47217900,48472179,2,-1.03,0.41000000000000003,86.60000000000001,0.07167042791843414,-0.044485270977020264,0.0837462916970253,0.07557480782270432,0.0,0.0,-0.3115916848182678,0.0,0.0,-0.02,0.0
48.57223700,48572237,2,-0.76,0.28,86.55,0.07958773523569107,-0.0411141961812973,0.08847638964653015,0.07779780775308609,0.0,0.0,-0.30532222986221313,0.0,0.0,-0.02,0.0
48.67227000,48672270,2,-0.4,0.1,86.49,0.07646218687295914,-0.04073874279856682,0.10654523223638535,0.0894821435213089,0.0,0.0,-0.29811811447143555,0.0,0.0,-0.02,0.0
48.77227000,48772270,2,0.06,-0.08,86.4,0.07718358188867569,-0.034974511712789536,0.11785173416137695,0.0797441229224205,0.0,0.0,-0.29142919182777405,0.0,0.0,-0.02,0.0
48.87222500,48872225,2,0.53,-0.23,86.24,0.07379676401615143,-0.02459888905286789,0.1164681687951088,0.06561378389596939,0.0,0.0,-0.2841147780418396,0.0,0.0,-0.02,0.0
48.97225900,48972259,2,0.96,-0.34,86.11,0.07301363348960876,-0.01926303841173649,0.11865130811929703,0.08401886373758316,0.0,0.0,-0.2749922573566437,0.0,0.0,-0.02,0.0
49.07221800,49072218,2,1.17,-0.32,85.93,0.07541520148515701,-0.018818465992808342,0.12788794934749603,0.12653662264347076,0.0,0.0,-0.26231613755226135,0.0,0.0,-0.02,0.0
49.17218200,49172182,2,0.96,-0.2,85.71000000000001,0.07717693597078323,-0.014965180307626724,0.1725306361913681,0.18345218896865845,0.0,0.0,-0.24797703325748444,0.0,0.0,-0.02,0.0
49.27218200,49272182,2,0.16,0.13,85.46000000000001,0.06525205075740814,-0.023670442402362823,0.22664310038089752,0.2059788554906845,0.0,0.0,-0.23060910403728485,0.0,0.0,-0.02,0.0
49.37217800,49372178,2,-0.12,0.18,85.19,0.06256279349327087,-0.03592488542199135,0.1930222362279892,0.1550302356481552,0.0,0.0,-0.21241027116775513,0.0,0.0,-0.01,0.0
49.47223300,49472233,2,0.28,-0.16,84.94,0.06427348405122757,-0.03986573964357376,0.17724034190177917,0.15327633917331696,0.0,0.0,-0.1956624984741211,0.0,0.0,-0.01,0.0
49.57223300,49572233,2,0.8,-0.61,84.76,0.06930079311132431,-0.030789317563176155,0.17503613233566284,0.14175589382648468,0.0,0.0,-0.18211844563484192,0.0,0.0,-0.01,0.0
49.67227000,49672270,2,1.04,-0.98,84.57000000000001,0.06576751917600632,-0.022988801822066307,0.18439121544361115,0.1318393051624298,0.0,0.0,-0.16943953931331635,0.0,0.0,-0.01,0.0
49.77229200,49772292,2,1.06,-1.1,84.25,0.04402773454785347,-0.02400769107043743,0.19698113203048706,0.1264781504869461,0.0,0.0,-0.157478928565979,0.0,0.0,-0.01,0.0
49.87226900,49872269,2,0.75,-0.8,83.65,0.01738053932785988,-0.021751366555690765,0.22008700668811798,0.11442987620830536,0.0,0.0,-0.1468280404806137,0.0,0.0,-0.01,0.0
49.97221300,49972213,2,0.73,-0.63,83.04,0.016185231506824493,-0.009791075251996517,0.16631938517093658,0.05168468505144119,0.0,0.0,-0.13660955429077148,0.0,0.0,-0.01,0.0
50.07218100,50072181,2,1.01,-0.9500000000000001,82.7,0.01997123844921589,0.0005250731483101845,0.15465039014816284,0.06858646124601364,0.0,0.0,-0.12833379209041595,0.0,0.0,-0.01,0.0
50.17218300,50172183,2,0.86,-1.11,82.34,0.010466721840202808,0.008585792034864426,0.1611989289522171,0.11952182650566101,0.0,0.0,-0.11573638767004013,0.0,0.0,-0.01,0.0
50.27218600,50272186,2,0.54,-1.03,81.83,0.0035778451710939407,0.013843728229403496,0.15796557068824768,0.14936012029647827,0.0,0.0,-0.10149411112070084,0.0,0.0,-0.01,0.0
50.37225200,50372252,2,0.46,-0.96,81.39,-0.004732976201921701,0.018084853887557983,0.14091145992279053,0.13366077840328217,0.0,0.0,-0.08882909268140793,0.0,0.0,0.0,0.0
50.47224400,50472244,2,0.27,-0.73,81.16,-0.003704116912558675,0.016507945954799652,0.15209487080574036,0.12681573629379272,0.0,0.0,-0.07833446562290192,0.0,0.0,0.0,0.0
50.57226900,50572269,2,0.04,-0.41000000000000003,81.10000000000001,0.008404950611293316,0.0021873258519917727,0.13879932463169098,0.10442400723695755,0.0,0.0,-0.06668295711278915,0.0,0.0,0.0,0.0
50.67227600,50672276,2,0.23,-0.36,81.14,0.014880710281431675,-0.01826467737555504,0.11668749898672104,0.06809171289205551,0.0,0.0,-0.058972086757421494,0.0,0.0,0.0,0.0
50.77225000,50772250,2,0.48,-0.58,81.10000000000001,0.023040853440761566,-0.03793976455926895,0.12211477011442184,0.06590484827756882,0.0,0.0,-0.052110206335783005,0.0,0.0,0.0,0.0
50.87221000,50872210,2,0.6,-0.89,81.03,0.01628059335052967,-0.039108581840991974,0.14671605825424194,0.10167442262172699,0.0,0.0,-0.042543377727270126,0.0,0.0,0.0,0.0
50.97218700,50972187,2,0.8300000000000001,-1.06,81.08,0.0038921593222767115,-0.025243723765015602,0.10158675909042358,0.07096277177333832,0.0,0.0,-0.03281129524111748,0.0,0.0,0.0,0.0
51.07218200,51072182,2,0.89,-0.99,81.17,-0.02269432321190834,-0.0009842085419222713,0.0776190310716629,0.06367914378643036,0.0,0.0,-0.027225328609347343,0.0,0.0,0.0,0.0
51.17218000,51172180,2,1.08,-1.03,81.14,-0.037339311093091965,-0.0015263115055859089,0.06635085493326187,0.06769445538520813,0.0,0.0,-0.020154759287834167,0.0,0.0,0.0,0.0
51.27225000,51272250,2,1.36,-1.11,81.03,-0.0374632254242897,-0.016125500202178955,0.0805576890707016,0.08295664936304092,0.0,0.0,-0.01351946871727705,0.0,0.0,0.0,0.0
51.37223400,51372234,2,1.47,-1.21,80.83,-0.008899950422346592,-0.02676088735461235,0.07184477895498276,0.055313557386398315,0.0,0.0,-0.007238560356199741,0.0,0.0,0.0,0.0
51.47226400,51472264,2,1.54,-1.08,80.65,0.013030966743826866,-0.049610067158937454,0.05342360958456993,0.02566644549369812,0.0,0.0,-0.003983957227319479,0.0,0.0,0.0,0.0
51.57222400,51572224,2,1.51,-0.89,80.57000000000001,0.00576005456969142,-0.05576792731881142,0.0643889307975769,0.02230541594326496,0.0,0.0,-0.0019404959166422486,0.0,0.0,0.0,0.0
51.67225500,51672255,2,1.47,-0.62,80.5,-0.01104806549847126,-0.058197807520627975,0.04973408952355385,-0.009184664115309715,0.0,0.0,-0.0009759123786352575,0.0,0.0,0.0,0.0
51.77220900,51772209,2,1.35,-0.35000000000000003,80.41,0.0011947372695431113,-0.0636337623000145,0.04865673556923866,-0.007242986001074314,0.0,0.0,-0.0010338613064959645,0.0,0.0,0.0,0.0
51.87218100,51872181,2,1.23,-0.09,80.27,0.010094985365867615,-0.06476329267024994,0.04567833989858627,-0.004924858920276165,0.0,0.0,-0.001012599328532815,0.0,0.0,0.01,0.0
51.97218800,51972188,2,1.06,0.14,80.13,0.003438435960561037,-0.05972545966506004,0.037162866443395615,-0.021907363086938858,0.0,0.0,-0.0028036043513566256,0.0,0.0,0.01,0.0
52.07217800,52072178,2,0.8300000000000001,0.28,80.12,0.014783740043640137,-0.03164586424827576,0.0376039519906044,-0.04062020778656006,0.0,0.0,-0.0070927441120147705,0.0,0.0,0.01,0.0
52.17224000,52172240,2,0.56,0.25,80.07000000000001,0.034663841128349304,-0.0203567985445261,0.04367012903094292,-0.017588751390576363,0.0,0.0,-0.007827509194612503,0.0,0.0,0.01,0.0
52.27224600,52272246,2,0.31,0.3,80.06,-0.011644824407994747,-0.04726539924740791,0.024613849818706512,0.001947365002706647,0.0,0.0,-0.006917777005583048,0.0,0.0,0.01,0.0
52.37226700,52372267,2,0.19,0.41000000000000003,80.18,0.019276944920420647,-0.030742710456252098,0.026081254705786705,-0.01014877948909998,0.0,0.0,-0.009874745272099972,0.0,0.0,0.01,0.0
52.47222300,52472223,2,0.06,0.46,80.16,-0.00815723929554224,-0.03249567002058029,0.02170851267874241,-0.046622466295957565,0.0,0.0,-0.014105642214417458,0.0,0.0,0.01,0.0
52.57227200,52572272,2,-0.07,0.53,80.12,0.015743838623166084,-0.04180888086557388,0.020398691296577454,-0.04812271520495415,0.0,0.0,-0.017989179119467735,0.0,0.0,0.01,0.0
52.67221200,52672212,2,-0.11,0.6,80.05,-0.0008037336519919336,-0.03523051738739014,0.0202762670814991,-0.0410061813890934,0.0,0.0,-0.021718857809901237,0.0,0.0,0.01,0.0
52.77218000,52772180,2,-0.13,0.6,80.02,0.01500188373029232,-0.029535707086324692,0.021147271618247032,-0.024066593497991562,0.0,0.0,-0.02364000864326954,0.0,0.0,0.02,0.0
52.87218100,52872181,2,-0.17,0.61,80.05,0.0017951878253370523,-0.032172780483961105,0.020486880093812943,0.001079441630281508,0.0,0.0,-0.023706723004579544,0.0,0.0,0.02,0.0
52.97217800,52972178,2,-0.12,0.62,80.01,0.019884131848812103,-0.034919824451208115,0.01995456963777542,0.0025124591775238514,0.0,0.0,-0.02456027828156948,0.0,0.0,0.02,0.0
53.07223800,53072238,2,-0.17,0.63,79.98,0.005661497358232737,-0.03293934464454651,0.01874254271388054,-0.0035343628842383623,0.0,0.0,-0.025031711906194687,0.0,0.0,0.02,0.0
53.17219300,53172193,2,-0.14,0.63,80.0,0.01434845756739378,-0.03272317349910736,0.018527111038565636,0.005776023957878351,0.0,0.0,-0.024510571733117104,0.0,0.0,0.02,0.0
53.27226400,53272264,2,-0.18,0.63,79.94,0.014460976235568523,-0.0360635370016098,0.018190203234553337,0.0006575512234121561,0.0,0.0,-0.025134630501270294,0.0,0.0,0.02,0.0
53.37228000,53372280,2,-0.13,0.63,79.91,0.013362519443035126,-0.03384733200073242,0.018037596717476845,-0.0020463273394852877,0.0,0.0,-0.024978071451187134,0.0,0.0,0.02,0.0
53.47225100,53472251,2,-0.17,0.63,79.91,0.01753072813153267,-0.03524615243077278,0.01879873313009739,0.004241961520165205,0.0,0.0,-0.02478998713195324,0.0,0.0,0.02,0.0
53.57221100,53572211,2,-0.16,0.62,79.86,0.010696533136069775,-0.03831985965371132,0.018799450248479843,-0.005333775654435158,0.0,0.0,-0.02554619126021862,0.0,0.0,0.02,0.0
53.67218600,53672186,2,-0.16,0.62,79.82000000000001,0.0212953332811594,-0.03602421656250954,0.018294723704457283,-0.016566405072808266,0.0,0.0,-0.027023212984204292,0.0,0.0,0.03,0.0
53.77217900,53772179,2,-0.17,0.62,79.81,0.01174249965697527,-0.03514963760972023,0.017648937180638313,-0.0014715139986947179,0.0,0.0,-0.026101084426045418,0.0,0.0,0.03,0.0
53.87218200,53872182,2,-0.17,0.62,79.76,0.020629888400435448,-0.03826277703046799,0.01778317242860794,0.017318828031420708,0.0,0.0,-0.024888498708605766,0.0,0.0,0.03,0.0
53.97224300,53972243,2,-0.2,0.62,79.72,0.015520873479545116,-0.035572685301303864,0.018535086885094643,0.017425162717700005,0.0,0.0,-0.023552872240543365,0.0,0.0,0.03,0.0
54.07224200,54072242,2,-0.18,0.61,79.71000000000001,0.021510327234864235,-0.03705321624875069,0.01801050268113613,0.015602244064211845,0.0,0.0,-0.022393854334950447,0.0,0.0,0.03,0.0
54.17226500,54172265,2,-0.21,0.61,79.66,0.020749764516949654,-0.03846006095409393,0.018323956057429314,-0.0018445574678480625,0.0,0.0,-0.023235883563756943,0.0,0.0,0.03,0.0
54.27222700,54272227,2,-0.19,0.61,79.61,0.020258788019418716,-0.03649955242872238,0.018635578453540802,-0.011317625641822815,0.0,0.0,-0.023635320365428925,0.0,0.0,0.03,0.0
54.37226400,54372264,2,-0.2,0.62,79.60000000000001,0.025864791125059128,-0.03685365989804268,0.018650753423571587,-0.00684385746717453,0.0,0.0,-0.024081148207187653,0.0,0.0,0.03,0.0
54.47221000,54472210,2,-0.2,0.62,79.55,0.022656584158539772,-0.037662941962480545,0.01738703064620495,-0.0280003659427166,0.0,0.0,-0.027226606383919716,0.0,0.0,0.03,0.0
54.57218400,54572184,2,-0.2,0.62,79.52,0.02918938919901848,-0.036426790058612823,0.01582295447587967,-0.04795167222619057,0.0,0.0,-0.031039193272590637,0.0,0.0,0.04,0.0
54.67218400,54672184,2,-0.21,0.62,79.52,0.025726547464728355,-0.037365593016147614,0.015053489245474339,-0.04504374787211418,0.0,0.0,-0.034654974937438965,0.0,0.0,0.04,0.0
54.77217900,54772179,2,-0.21,0.62,79.48,0.030962741002440453,-0.03942541405558586,0.01481375377625227,-0.04223724454641342,0.0,0.0,-0.03842267394065857,0.0,0.0,0.04,0.0
54.87223300,54872233,2,-0.23,0.62,79.45,0.029343221336603165,-0.0388244204223156,0.015048842877149582,-0.033507853746414185,0.0,0.0,-0.04124484211206436,0.0,0.0,0.04,0.0
54.97218800,54972188,2,-0.22,0.62,79.45,0.0316847488284111,-0.040837742388248444,0.014414106495678425,-0.025325991213321686,0.0,0.0,-0.04385645315051079,0.0,0.0,0.04,0.0
55.07227800,55072278,2,-0.24,0.62,79.42,0.03339919075369835,-0.041741278022527695,0.01336396299302578,-0.041556112468242645,0.0,0.0,-0.0486442968249321,0.0,0.0,0.04,0.0
55.17222400,55172224,2,-0.23,0.62,79.39,0.03312550112605095,-0.041963379830121994,0.012489162385463715,-0.0550847165286541,0.0,0.0,-0.05348837003111839,0.0,0.0,0.04,0.0
55.27226900,55272269,2,-0.24,0.62,79.39,0.037706755101680756,-0.04202796146273613,0.011699454858899117,-0.054445531219244,0.0,0.0,-0.05862285569310188,0.0,0.0,0.04,0.0
55.37221600,55372216,2,-0.24,0.62,79.34,0.03494194149971008,-0.042620498687028885,0.01070556789636612,-0.044550321996212006,0.0,0.0,-0.06224436312913895,0.0,0.0,0.04,0.0
55.47217900,55472179,2,-0.23,0.62,79.3,0.039378684014081955,-0.04316307231783867,0.010423913598060608,-0.04403740540146828,0.0,0.0,-0.06732657551765442,0.0,0.0,0.04,0.0
55.57219300,55572193,2,-0.24,0.62,79.29,0.03613550215959549,-0.04334459826350212,0.010582017712295055,-0.05046170949935913,0.0,0.0,-0.07183387875556946,0.0,0.0,0.05,0.0
55.67218700,55672187,2,-0.23,0.61,79.23,0.03926533833146095,-0.044723596423864365,0.009669164195656776,-0.03497990965843201,0.0,0.0,-0.07503172010183334,0.0,0.0,0.05,0.0
55.77223800,55772238,2,-0.23,0.62,79.19,0.040038034319877625,-0.04367939755320549,0.009509257040917873,-0.008675935678184032,0.0,0.0,-0.07558159530162811,0.0,0.0,0.05,0.0
55.87227100,55872271,2,-0.22,0.61,79.17,0.04005433991551399,-0.042816221714019775,0.00967160053551197,0.016378190368413925,0.0,0.0,-0.07477623969316483,0.0,0.0,0.05,0.0
55.97226500,55972265,2,-0.22,0.62,79.12,0.04265445098280907,-0.043899212032556534,0.009136887267231941,0.026115747168660164,0.0,0.0,-0.07297001779079437,0.0,0.0,0.05,0.0
56.07222200,56072222,2,-0.22,0.62,79.09,0.040965307503938675,-0.04337413236498833,0.009605145081877708,0.025904733687639236,0.0,0.0,-0.07156401872634888,0.0,0.0,0.05,0.0
56.17226300,56172263,2,-0.22,0.62,79.08,0.044754743576049805,-0.04364212229847908,0.009411552920937538,0.00014730198017787188,0.0,0.0,-0.07257068157196045,0.0,0.0,0.05,0.0
56.27221300,56272213,2,-0.22,0.62,79.04,0.04286009073257446,-0.04395226761698723,0.00745012704282999,-0.08563266694545746,0.0,0.0,-0.08276103436946869,0.0,0.0,0.05,0.0
56.37217800,56372178,2,-0.21,0.62,79.01,0.04523468390107155,-0.04309433326125145,0.0035050055012106895,-0.2057517021894455,0.0,0.0,-0.10167349874973297,0.0,0.0,0.05,0.0
56.47217900,56472179,2,-0.21,0.62,79.0,0.04381972923874855,-0.04344504326581955,-0.0015038193669170141,-0.2753073573112488,0.0,0.0,-0.12488436698913574,0.0,0.0,0.05,0.0
56.57218400,56572184,2,-0.21,0.62,78.96000000000001,0.04453288018703461,-0.0436081737279892,-0.005929174832999706,-0.2500755190849304,0.0,0.0,-0.14411824941635132,0.0,0.0,0.05,0.0
56.67224900,56672249,2,-0.22,0.62,78.94,0.04665667191147804,-0.04190715029835701,-0.00925237126648426,-0.15972831845283508,0.0,0.0,-0.15724070370197296,0.0,0.0,0.05,0.0
56.77223100,56772231,2,-0.21,0.62,78.92,0.04620644450187683,-0.042231734842061996,-0.010535319335758686,-0.08094173669815063,0.0,0.0,-0.16557517647743225,0.0,0.0,0.06,0.0
56.87226500,56872265,2,-0.21,0.63,78.88,0.049089763313531876,-0.04268233850598335,-0.011059802956879139,-0.012373719364404678,0.0,0.0,-0.16806384921073914,0.0,0.0,0.06,0.0
56.97227400,56972274,2,-0.21,0.63,78.86,0.04768100753426552,-0.04217090085148811,-0.011512559838593006,0.047174762934446335,0.0,0.0,-0.1656683385372162,0.0,0.0,0.06,0.0
57.07225300,57072253,2,-0.21,0.63,78.83,0.049565430730581284,-0.04356823116540909,-0.011633687652647495,0.051913030445575714,0.0,0.0,-0.16462039947509766,0.0,0.0,0.06,0.0
57.17221200,57172212,2,-0.21,0.62,78.79,0.04887617751955986,-0.043525148183107376,-0.01370649691671133,0.009706860408186913,0.0,0.0,-0.1658095121383667,0.0,0.0,0.06,0.0
57.27218100,57272181,2,-0.2,0.62,78.77,0.0502510666847229,-0.042486827820539474,-0.013382193632423878,-0.0007614746573381126,0.0,0.0,-0.16587890684604645,0.0,0.0,0.06,0.0
57.37217800,57372178,2,-0.2,0.61,78.75,0.04968177154660225,-0.04339781776070595,-0.012943792156875134,0.019650258123874664,0.0,0.0,-0.1636727899312973,0.0,0.01,0.06,0.0
57.47217900,57472179,2,-0.19,0.61,78.71000000000001,0.04852467030286789,-0.043204471468925476,-0.011932342313230038,0.03013024292886257,0.0,0.0,-0.16154800355434418,-0.01,0.01,0.06,0.0
57.57223200,57572232,2,-0.2,0.59,78.69,0.04908846691250801,-0.041971541941165924,-0.011223230510950089,0.026857169345021248,0.0,0.0,-0.15948985517024994,-0.01,0.01,0.06,0.0
57.67227100,57672271,2,-0.2,0.59,78.66,0.047416821122169495,-0.04224322736263275,-0.010968584567308426,0.01530373189598322,0.0,0.0,-0.1585167497396469,-0.01,0.01,0.06,0.0
57.77226400,57772264,2,-0.19,0.58,78.62,0.04821259528398514,-0.041382208466529846,-0.0111553268507123,-0.0028645575512200594,0.0,0.0,-0.158914253115654,-0.01,0.01,0.06,0.0
57.87222400,57872224,2,-0.19,0.58,78.59,0.04679983854293823,-0.04014263674616814,-0.011022101156413555,0.000586626585572958,0.0,0.0,-0.15795235335826874,-0.01,0.01,0.06,0.0
57.97228100,57972281,2,-0.19,0.58,78.57000000000001,0.047652680426836014,-0.040000319480895996,-0.011079519055783749,0.01700984314084053,0.0,0.0,-0.15598928928375244,-0.01,0.01,0.07,0.0
58.07220800,58072208,2,-0.19,0.58,78.52,0.04744908958673477,-0.03914998844265938,-0.011020313017070293,0.019238756969571114,0.0,0.0,-0.15453091263771057,-0.01,0.01,0.07,0.0
58.17218100,58172181,2,-0.19,0.58,78.5,0.04696894809603691,-0.03808174282312393,-0.011907641775906086,0.003736653830856085,0.0,0.0,-0.1546238362789154,-0.01,0.01,0.07,0.0
58.27219400,58272194,2,-0.19,0.58,78.47,0.04676917940378189,-0.03876792639493942,-0.012098859064280987,0.0037217361386865377,0.0,0.0,-0.15357434749603271,-0.01,0.01,0.07,0.0
58.37217800,58372178,2,-0.19,0.58,78.43,0.0456150621175766,-0.03872115537524223,-0.010949365794658661,0.029025563970208168,0.0,0.0,-0.15026554465293884,-0.01,0.01,0.07,0.0
58.47223100,58472231,2,-0.19,0.58,78.41,0.046091124415397644,-0.03870987147092819,-0.008884874172508717,0.06761839240789413,0.0,0.0,-0.14363235235214233,-0.01,0.01,0.07,0.0
58.57223600,58572236,2,-0.19,0.58,78.39,0.04478497803211212,-0.038700077682733536,-0.007069694809615612,0.08380112797021866,0.0,0.0,-0.13687096536159515,-0.01,0.01,0.07,0.0
58.67226700,58672267,2,-0.19,0.58,78.37,0.044141992926597595,-0.03862232342362404,-0.004715367220342159,0.09027470648288727,0.0,0.0,-0.12871257960796356,-0.01,0.01,0.07,0.0
58.77222300,58772223,2,-0.19,0.58,78.35000000000001,0.043307919055223465,-0.037564825266599655,-0.003300514305010438,0.0838082954287529,0.0,0.0,-0.12168970704078674,-0.01,0.01,0.07,0.0
58.87227200,58872272,2,-0.19,0.58,78.33,0.043692272156476974,-0.03813745453953743,-0.001162653905339539,0.07277300208806992,0.0,0.0,-0.11477991193532944,-0.01,0.01,0.07,0.0
58.97221100,58972211,2,-0.2,0.59,78.29,0.04301240295171738,-0.0380859412252903,0.0007813771953806281,0.06327929347753525,0.0,0.0,-0.10876839607954025,-0.01,0.01,0.07,0.0
59.07217800,59072178,2,-0.19,0.59,78.28,0.041965849697589874,-0.03763766214251518,0.002422516932711005,0.063834547996521,0.0,0.0,-0.10189147293567657,-0.01,0.01,0.07,0.0
59.17218100,59172181,2,-0.19,0.59,78.26,0.04199190065264702,-0.037725042551755905,0.004600456915795803,0.07521037012338638,0.0,0.0,-0.09426866471767426,-0.01,0.01,0.07,0.0
59.27218200,59272182,2,-0.18,0.58,78.23,0.040206823498010635,-0.03701913729310036,0.006040744483470917,0.05556454882025719,0.0,0.0,-0.08973972499370575,-0.01,0.01,0.07,0.0
59.37223500,59372235,2,-0.18,0.58,78.21000000000001,0.039845798164606094,-0.03585748001933098,0.007323297206312418,0.025624381378293037,0.0,0.0,-0.0869438499212265,-0.01,0.01,0.07,0.0
59.47224500,59472245,2,-0.18,0.58,78.19,0.038525085896253586,-0.03608376160264015,0.008733326569199562,0.0311245396733284,0.0,0.0,-0.08246037364006042,-0.01,0.01,0.07,0.0
59.57227700,59572277,2,-0.18,0.58,78.16,0.03860652819275856,-0.035809773951768875,0.008231326937675476,0.0343608483672142,0.0,0.0,-0.07899212837219238,-0.01,0.01,0.07,0.0
59.67222800,59672228,2,-0.18,0.5700000000000001,78.16,0.03736542910337448,-0.035713475197553635,0.00903711374849081,0.028272652998566628,0.0,0.0,-0.07596062868833542,-0.01,0.01,0.07,0.0
59.77225100,59772251,2,-0.18,0.5700000000000001,78.15,0.03679788485169411,-0.03524424880743027,0.00805676355957985,0.029415588825941086,0.0,0.0,-0.07255786657333374,-0.01,0.01,0.07,0.0
59.87221000,59872210,2,-0.18,0.5700000000000001,78.13,0.03631917014718056,-0.034627825021743774,0.007735301274806261,0.03540831059217453,0.0,0.0,-0.06881295144557953,-0.01,0.01,0.07,0.0
59.97218200,59972182,2,-0.18,0.5700000000000001,78.13,0.03469521924853325,-0.03376946225762367,0.008548025041818619,0.03484974801540375,0.0,0.0,-0.06558430194854736,-0.01,0.01,0.08,0.0
60.07217700,60072177,2,-0.17,0.5700000000000001,78.11,0.035108208656311035,-0.03395222872495651,0.010082351975142956,0.0359974205493927,0.0,0.0,-0.06190623715519905,-0.01,0.01,0.08,0.0
60.17218100,60172181,2,-0.17,0.58,78.09,0.033193472772836685,-0.03309354558587074,0.010545666329562664,0.0366068072617054,0.0,0.0,-0.05840962007641792,-0.01,0.01,0.08,0.0
60.27223800,60272238,2,-0.16,0.58,78.07000000000001,0.032881397753953934,-0.032102491706609726,0.011703120544552803,0.04676647484302521,0.0,0.0,-0.05345359817147255,-0.01,0.01,0.08,0.0
60.37223200,60372232,2,-0.16,0.58,78.05,0.03225624933838844,-0.03248538821935654,0.013164585456252098,0.051955971866846085,0.0,0.0,-0.048845913261175156,-0.01,0.01,0.08,0.0
60.47227100,60472271,2,-0.15,0.5700000000000001,78.03,0.03151290491223335,-0.03129833564162254,0.01440728735178709,0.05900762230157852,0.0,0.0,-0.04291040077805519,-0.01,0.01,0.08,0.0
60.57222700,60572227,2,-0.15,0.5700000000000001,78.01,0.03163832798600197,-0.03007018007338047,0.015642372891306877,0.05401993542909622,0.0,0.0,-0.03841743245720863,-0.01,0.01,0.08,0.0
60.67230100,60672301,2,-0.15,0.5700000000000001,78.0,0.031014524400234222,-0.029515335336327553,0.01628185622394085,0.05142172798514366,0.0,0.0,-0.0329614020884037,-0.01,0.01,0.08,0.0
60.77220800,60772208,2,-0.14,0.56,77.97,0.029717234894633293,-0.02850145846605301,0.018609514459967613,0.06283802539110184,0.0,0.0,-0.026789117604494095,-0.01,0.01,0.08,0.0
60.87218200,60872182,2,-0.15,0.56,77.96000000000001,0.029061703011393547,-0.028259985148906708,0.020360521972179413,0.05840960890054703,0.0,0.0,-0.021575000137090683,-0.01,0.01,0.08,0.0
