timestamp,TimeUS,DesRoll,Roll,DesPitch,Pitch,DesYaw,Yaw,ErrRP,ErrYaw,AEKF
1679662993.84076476,72882120,0.0,0.21,0.0,-0.76,333.78000000000003,333.8,0.0,0.02,3
1679662993.94061089,72981966,0.0,0.21,0.0,-0.76,333.78000000000003,333.81,0.0,0.02,3
1679662994.04039383,73081749,0.0,0.21,0.0,-0.76,333.78000000000003,333.82,0.0,0.02,3
1679662994.14048290,73181838,0.0,0.21,0.0,-0.76,333.78000000000003,333.83,0.0,0.01,3
1679662994.24042892,73281784,0.0,0.22,0.0,-0.75,333.78000000000003,333.83,0.0,0.02,3
1679662994.34039092,73381746,0.0,0.21,0.0,-0.75,333.78000000000003,333.83,0.0,0.01,3
1679662994.44022679,73481582,0.0,0.21,0.0,-0.75,333.78000000000003,333.83,0.0,0.01,3
1679662994.54013896,73581494,0.0,0.21,0.0,-0.75,333.78000000000003,333.83,0.0,0.01,3
1679662994.64021587,73681571,0.0,0.22,0.0,-0.75,333.78000000000003,333.83,0.0,0.01,3
1679662994.74025798,73781613,0.0,0.22,0.0,-0.75,333.78000000000003,333.83,0.0,0.01,3
1679662994.84027576,73881631,0.0,0.22,0.0,-0.76,333.78000000000003,333.83,0.0,0.01,3
1679662994.94030380,73981659,0.0,0.23,0.0,-0.76,333.78000000000003,333.83,0.0,0.01,3
1679662995.04045177,74081807,0.0,0.23,0.0,-0.77,333.78000000000003,333.82,0.0,0.02,3
1679662995.14039683,74181752,0.0,0.24,0.0,-0.77,333.78000000000003,333.81,0.0,0.02,3
1679662995.24034595,74281701,0.0,0.24,0.0,-0.77,333.78000000000003,333.8,0.0,0.02,3
1679662995.34029984,74381655,0.0,0.25,0.0,-0.77,333.78000000000003,333.8,0.0,0.02,3
1679662995.44014597,74481501,0.0,0.25,0.0,-0.78,333.78000000000003,333.79,0.0,0.02,3
1679662995.54015589,74581511,0.0,0.26,0.0,-0.78,333.78000000000003,333.78000000000003,0.0,0.02,3
1679662995.64023089,74681586,0.0,0.26,0.0,-0.78,333.78000000000003,333.77,0.0,0.02,3
1679662995.74032378,74781679,0.0,0.27,0.0,-0.78,333.78000000000003,333.77,0.0,0.02,3
1679662995.84032583,74881681,0.0,0.28,0.0,-0.78,333.76,333.77,0.0,0.03,3
1679662995.94065595,74982011,0.0,0.28,0.0,-0.79,333.76,333.77,0.0,0.03,3
1679662996.04061198,75081967,0.0,0.29,0.0,-0.79,333.76,333.77,0.0,0.02,3
1679662996.14061475,75181970,0.0,0.29,0.0,-0.8,333.75,333.76,0.0,0.02,3
1679662996.24064279,75281998,0.0,0.3,0.0,-0.8,333.74,333.75,0.0,0.02,3
1679662996.34061289,75381968,0.0,0.31,0.0,-0.8,333.74,333.74,0.0,0.02,3
1679662996.44049597,75481851,0.0,0.31,0.0,-0.8,333.74,333.73,0.0,0.01,3
1679662996.54057479,75581930,0.0,0.32,0.0,-0.81,333.74,333.73,0.0,0.01,3
1679662996.64029789,75681653,0.0,0.32,0.0,-0.81,333.74,333.72,0.0,0.01,3
1679662996.74034286,75781698,0.0,0.32,0.0,-0.81,333.74,333.72,0.0,0.01,3
1679662996.84046483,75881820,0.0,0.33,0.0,-0.8200000000000001,333.74,333.76,0.0,0.01,3
1679662996.94044089,75981796,0.0,0.34,0.0,-0.8300000000000001,333.74,333.75,0.0,0.02,3
1679662997.04035997,76081715,0.0,0.33,0.0,-0.84,333.74,333.73,0.01,0.03,3
1679662997.14027786,76181633,0.0,0.31,0.0,-0.8200000000000001,333.74,333.78000000000003,0.01,0.08,3
1679662997.24017477,76281530,0.0,0.29,0.0,-0.8,333.74,333.71,0.01,0.08,3
1679662997.34024596,76381601,0.0,0.34,0.0,-0.8200000000000001,333.74,333.64,0.01,0.09,3
1679662997.44026089,76481616,0.0,0.35000000000000003,0.0,-0.8200000000000001,333.74,333.65000000000003,0.01,0.09,3
1679662997.54031277,76581668,0.0,0.33,0.0,-0.81,333.74,333.55,0.01,0.09,3
1679662997.64032698,76681682,0.0,0.34,0.0,-0.8200000000000001,333.74,333.49,0.01,0.07,3
1679662997.74048877,76781844,0.0,0.33,0.0,-0.84,333.74,333.51,0.01,0.07,3
1679662997.84041786,76881773,0.0,0.33,0.0,-0.8200000000000001,333.74,333.44,0.01,0.08,3
1679662997.94035387,76981709,0.0,0.36,0.0,-0.8200000000000001,333.74,333.39,0.01,0.09,3
1679662998.04041076,77081766,0.0,0.33,0.0,-0.85,333.74,333.40000000000003,0.01,0.2,3
1679662998.14026594,77181621,0.0,0.25,0.0,-0.76,333.74,333.32,0.01,0.24,3
1679662998.24020982,77281565,0.0,0.21,0.0,-0.32,333.74,333.23,0.01,0.26,3
1679662998.34028387,77381639,0.0,0.04,0.0,0.38,333.74,333.08,0.01,0.28,3
1679662998.44029593,77481651,0.0,-0.17,0.0,0.98,333.74,332.85,0.01,0.3,3
1679662998.54058695,77581942,0.0,-0.5,-0.01,1.52,333.74,332.56,0.01,0.33,3
1679662998.64067483,77682030,0.0,-0.9500000000000001,-0.07,1.83,333.74,332.25,0.01,0.37,3
1679662998.74059892,77781954,0.08,-1.31,-0.72,1.7,333.74,332.0,0.01,0.4,3
1679662998.84065676,77882012,0.79,-1.26,-1.2,0.72,333.74,331.76,0.02,0.43,3
1679662998.94027185,77981627,2.66,-0.27,-1.1,-0.41000000000000003,333.74,331.58,0.02,0.45,3
1679662999.04054189,78081897,4.1,1.97,-1.9100000000000001,-0.78,333.74,331.43,0.01,0.45,3
1679662999.14045882,78181814,4.51,4.5200000000000005,-2.36,-1.31,333.74,331.31,0.01,0.49,3
1679662999.24049187,78281847,4.72,5.57,-2.12,-2.04,333.74,331.2,0.02,0.52,3
1679662999.34059978,78381955,0.8200000000000001,1.8900000000000001,1.49,1.71,194.63,192.07,0.02,0.54,3
1679662999.44055676,78481912,0.41000000000000003,2.35,0.6,1.1400000000000001,194.63,191.89000000000001,0.03,0.5700000000000001,3
1679662999.54063392,78581989,0.21,2.5300000000000002,0.3,-0.77,194.63,191.84,0.03,0.62,3
1679662999.64057279,78681928,0.1,2.13,0.15,-1.93,194.63,192.44,0.03,0.62,3
1679662999.74058890,78781944,0.05,1.26,0.07,-1.71,194.63,193.34,0.03,0.61,3
1679662999.84051776,78881873,0.02,0.3,0.04,-1.03,194.63,193.91,0.03,0.62,3
1679662999.94051075,78981866,0.01,-0.2,0.02,-0.25,194.63,194.04,0.03,0.62,3
1679663000.04046488,79081820,0.0,-0.49,0.01,0.56,194.63,193.88,0.03,0.61,3
1679663000.14059591,79181951,0.0,-0.66,0.0,1.1500000000000001,194.63,193.43,0.03,0.6,3
1679663000.24052882,79281884,0.0,-0.72,0.0,1.26,194.63,192.67000000000002,0.02,0.58,3
1679663000.34063697,79381992,0.0,-0.79,0.0,1.21,194.63,191.83,0.02,0.56,3
1679663000.44062877,79481984,0.0,-0.84,0.0,1.21,194.63,190.98,0.02,0.55,3
1679663000.54055476,79581910,0.0,-1.01,0.0,1.1,194.63,190.24,0.02,0.54,3
1679663000.64057994,79681935,0.0,-0.8300000000000001,0.0,0.9,194.63,189.67000000000002,0.02,0.54,3
1679663000.74079680,79782152,0.0,-0.36,0.0,0.7000000000000001,194.63,189.37,0.02,0.53,3
1679663000.84056878,79881924,0.0,0.03,0.0,0.5700000000000001,194.63,189.27,0.02,0.54,3
1679663000.94049883,79981854,0.0,0.34,0.0,0.26,194.63,189.33,0.02,0.54,3
1679663001.04059076,80081946,0.0,0.47000000000000003,0.0,0.02,194.35,189.5,0.02,0.54,3
1679663001.14037681,80181732,0.0,0.58,0.0,-0.13,193.22,189.70000000000002,0.02,0.54,3
1679663001.24032593,80281681,0.0,0.48,0.0,-0.15,191.22,189.79,0.02,0.54,3
1679663001.34050798,80381863,0.0,0.34,0.0,-0.02,189.23,189.58,0.02,0.54,3
1679663001.44040489,80481760,0.0,0.09,0.0,0.05,187.82,189.12,0.02,0.53,3
1679663001.54036880,80581724,0.0,-0.18,0.0,-0.05,187.17000000000002,188.49,0.02,0.53,3
1679663001.64028287,80681638,0.0,-0.41000000000000003,0.0,0.0,187.14000000000001,187.83,0.02,0.53,3
1679663001.74024677,80781602,0.0,-0.49,0.0,-0.03,187.29,187.26,0.02,0.53,3
1679663001.84022284,80881578,0.0,-0.45,-0.01,-0.03,187.81,186.76,0.02,0.54,3
1679663001.94025898,80981614,0.27,-0.38,-0.22,-0.11,188.11,186.38,0.02,0.55,3
1679663002.04033685,81081692,0.56,0.14,-0.86,-0.36,188.18,186.1,0.03,0.56,3
1679663002.14039183,81181747,0.28,0.74,-0.92,-1.07,188.18,185.9,0.03,0.58,3
1679663002.24047875,81281834,0.14,0.53,-0.8300000000000001,-1.31,188.18,185.79,0.02,0.5700000000000001,3
1679663002.34048796,81381843,0.07,0.22,-0.45,-0.96,188.18,185.70000000000002,0.02,0.58,3
1679663002.44034791,81481703,0.03,0.04,-0.23,-0.47000000000000003,188.18,185.66,0.03,0.59,3
1679663002.54027081,81581626,0.01,0.04,-0.11,-0.22,188.18,185.62,0.03,0.6,3
1679663002.64027095,81681626,0.01,-0.01,-0.06,-0.16,188.18,185.6,0.04,0.61,3
1679663002.74023390,81781589,0.0,-0.11,-0.03,-0.24,188.18,185.63,0.04,0.62,3
1679663002.84025788,81881613,0.0,-0.22,-0.01,-0.22,188.18,185.68,0.04,0.62,3
1679663002.94032979,81981685,0.0,-0.36,0.0,-0.22,188.02,185.78,0.04,0.63,3
1679663003.04038191,82081737,0.0,-0.42,0.0,-0.27,187.8,185.82,0.04,0.63,3
1679663003.14048481,82181840,0.0,-0.39,0.0,-0.29,187.79,185.78,0.04,0.63,3
1679663003.24044991,82281805,0.41000000000000003,-0.39,0.0,-0.27,187.68,185.76,0.05,0.62,3
1679663003.34069896,82382054,0.84,0.06,0.0,-0.24,187.61,185.72,0.05,0.62,3
1679663003.44027591,82481631,1.0,0.87,0.0,-0.2,187.25,185.65,0.05,0.63,3
1679663003.54026794,82581623,0.92,1.28,0.0,-0.19,187.0,185.52,0.05,0.64,3
1679663003.64025879,82681614,0.52,1.06,0.0,-0.21,186.84,185.38,0.04,0.64,3
1679663003.74028182,82781637,0.26,0.5700000000000001,0.0,-0.17,186.42000000000002,185.23,0.04,0.66,3
1679663003.84032178,82881677,0.13,-0.05,0.0,-0.1,185.28,185.02,0.03,0.67,3
1679663003.94033575,82981691,0.06,-0.17,0.0,-0.12,184.51,184.69,0.03,0.67,3
1679663004.04049397,83081849,0.03,-0.23,0.0,0.02,184.45000000000002,184.23,0.03,0.68,3
1679663004.14061379,83181969,0.01,-0.22,0.0,-0.03,184.45000000000002,183.87,0.03,0.68,3
1679663004.24062085,83281976,0.0,-0.13,0.0,-0.05,184.45000000000002,183.58,0.02,0.68,3
1679663004.34100485,83382360,0.0,-0.1,0.0,-0.01,184.45000000000002,183.27,0.02,0.68,3
1679663004.44057894,83481934,0.0,-0.02,0.0,0.0,184.69,183.03,0.02,0.6900000000000001,3
1679663004.54022884,83581584,0.0,0.13,-0.03,0.01,184.84,182.85,0.02,0.6900000000000001,3
1679663004.64028978,83681645,0.04,0.19,-0.03,0.0,184.84,182.74,0.02,0.7000000000000001,3
1679663004.74032378,83781679,0.53,0.54,-0.01,-0.05,184.84,182.65,0.02,0.71,3
1679663004.84032798,83881683,0.9,0.79,0.0,-0.16,184.84,182.59,0.02,0.72,3
1679663004.94048595,83981841,1.1,1.53,0.0,-0.37,184.84,182.55,0.02,0.73,3
1679663005.04041982,84081775,1.19,1.79,0.0,-0.52,184.84,182.55,0.02,0.74,3
1679663005.14036083,84181716,1.21,2.02,-0.17,-0.45,184.84,182.63,0.02,0.75,3
1679663005.24027181,84281627,1.21,2.04,-0.8200000000000001,-0.63,184.84,182.68,0.02,0.75,3
1679663005.34057689,84381932,1.24,1.8800000000000001,-1.59,-1.3900000000000001,184.84,182.77,0.02,0.77,3
1679663005.44021988,84481575,1.27,1.79,-2.21,-2.36,184.84,182.88,0.01,0.77,3
1679663005.54027486,84581630,1.29,1.43,-2.19,-2.99,184.84,183.04,0.01,0.77,3
1679663005.64033484,84681690,1.37,1.51,-1.18,-2.79,184.84,183.24,0.01,0.77,3
1679663005.74032593,84781681,1.71,1.53,-0.6,-1.3800000000000001,184.84,183.4,0.01,0.76,3
1679663005.84047890,84881834,2.2,1.67,-0.31,-0.03,184.84,183.58,0.01,0.79,3
1679663005.94044495,84981800,2.52,2.05,-0.16,0.28,184.84,183.76,0.01,0.8,3
1679663006.04037285,85081728,2.66,2.67,-0.5700000000000001,0.2,184.84,183.92000000000002,0.01,0.81,3
1679663006.14028287,85181638,2.68,2.7800000000000002,-1.26,-0.48,184.84,184.1,0.01,0.81,3
1679663006.24024677,85281602,2.15,2.84,-1.94,-1.6400000000000001,184.84,184.21,0.01,0.8200000000000001,3
1679663006.34028697,85381642,0.96,1.97,-2.17,-2.59,189.15,188.62,0.01,0.8200000000000001,3
1679663006.44032979,85481685,0.49,0.8200000000000001,-1.69,-2.8000000000000003,189.15,188.41,0.01,0.81,3
1679663006.54031992,85581675,0.49,0.02,-1.25,-1.99,188.98,187.56,0.01,0.81,3
1679663006.64044690,85681802,0.81,-0.3,-0.71,-0.97,188.62,186.33,0.02,0.81,3
1679663006.74054480,85781900,1.01,0.16,-0.36,-0.02,188.61,185.09,0.02,0.81,3
1679663006.84047389,85881829,1.19,0.78,-0.18,0.59,188.61,184.24,0.01,0.8200000000000001,3
1679663006.94038892,85981744,1.4000000000000001,1.11,-0.09,0.58,188.61,183.82,0.01,0.8200000000000001,3
1679663007.04028678,86081642,2.23,1.58,-0.34,0.41000000000000003,188.61,183.83,0.01,0.8300000000000001,3
1679663007.14060092,86181956,2.67,2.35,-0.49,0.05,188.13,184.06,0.01,0.84,3
1679663007.24056196,86281917,2.87,3.27,-0.48,-0.24,187.13,184.43,0.01,0.85,3
1679663007.34064794,86382003,2.86,3.45,-0.35000000000000003,-0.33,186.12,184.72,0.01,0.85,3
1679663007.44062591,86481981,2.35,3.21,-0.19,-0.16,185.69,184.98,0.01,0.85,3
1679663007.54058576,86581941,1.95,2.46,-0.09,0.03,185.68,185.11,0.01,0.86,3
1679663007.64066577,86682021,1.74,1.6500000000000001,-0.05,0.19,185.52,185.28,0.02,0.86,3
1679663007.74060583,86781961,1.6300000000000001,1.07,-0.06,0.18,185.52,185.32,0.02,0.87,3
1679663007.84062576,86881981,1.58,1.07,-0.29,-0.04,185.52,185.35,0.02,0.87,3
1679663007.94061089,86981966,1.55,1.06,-0.48,-0.39,185.52,185.36,0.02,0.87,3
1679663008.04059792,87081953,1.54,1.3,-0.34,-0.74,185.4,185.33,0.02,0.88,3
1679663008.14052486,87181880,1.55,1.48,-0.17,-0.6,185.32,185.3,0.02,0.87,3
1679663008.24057698,87281932,1.53,1.57,-0.09,-0.19,185.32,185.24,0.01,0.87,3
1679663008.34065676,87382012,1.53,1.57,-0.04,0.15,185.32,185.12,0.01,0.88,3
1679663008.44057584,87481931,1.53,1.55,-0.02,0.13,185.32,185.0,0.01,0.89,3
1679663008.54065681,87582012,1.52,1.4000000000000001,-0.01,0.2,185.20000000000002,184.87,0.01,0.89,3
1679663008.64061093,87681966,1.19,1.17,-0.23,0.22,185.20000000000002,184.65,0.01,0.9,3
1679663008.74066877,87782024,0.75,0.9400000000000001,-0.15,0.03,185.20000000000002,184.42000000000002,0.01,0.9,3
1679663008.84061575,87881971,0.47000000000000003,0.46,-0.08,-0.05,185.20000000000002,184.18,0.01,0.9,3
1679663008.94057178,87981927,0.24,0.12,-0.04,-0.09,185.20000000000002,183.98,0.01,0.9,3
1679663009.04051375,88081869,0.12,0.1,-0.02,-0.18,185.20000000000002,183.8,0.01,0.91,3
1679663009.14058781,88181943,0.06,0.07,-0.01,-0.26,185.20000000000002,183.62,0.01,0.91,3
1679663009.24056888,88281924,0.03,0.28,0.0,-0.25,185.20000000000002,183.44,0.01,0.91,3
1679663009.34064698,88382002,0.01,0.21,0.0,-0.24,185.20000000000002,183.29,0.01,0.91,3
1679663009.44067979,88482035,0.0,0.42,0.0,-0.13,185.20000000000002,183.14000000000001,0.01,0.91,3
1679663009.54063392,88581989,0.0,0.31,-0.06,-0.06,185.20000000000002,183.01,0.01,0.92,3
1679663009.64065695,88682012,0.0,0.03,-0.68,-0.19,185.20000000000002,182.94,0.01,0.92,3
1679663009.74065590,88782011,0.0,0.23,-1.18,-0.76,185.20000000000002,182.91,0.01,0.93,3
1679663009.84060192,88881957,0.0,0.24,-1.76,-1.5,185.20000000000002,182.91,0.01,0.9400000000000001,3
1679663009.94048190,88981837,0.0,0.34,-2.2600000000000002,-2.2,185.20000000000002,183.0,0.01,0.9400000000000001,3
1679663010.04059386,89081949,0.0,0.7000000000000001,-2.34,-2.86,185.20000000000002,183.08,0.01,0.9400000000000001,3
1679663010.14063883,89181994,0.0,0.53,-2.33,-2.99,185.20000000000002,183.16,0.01,0.9400000000000001,3
1679663010.24060798,89281963,0.34,0.45,-1.96,-2.79,185.20000000000002,183.24,0.01,0.9500000000000001,3
1679663010.34076381,89382119,0.43,0.6900000000000001,-1.86,-2.27,185.20000000000002,183.25,0.01,0.9500000000000001,3
1679663010.44062185,89481977,0.44,0.97,-1.76,-1.82,185.20000000000002,183.24,0.01,0.96,3
1679663010.54063392,89581989,0.44,0.74,-1.55,-1.73,185.20000000000002,183.24,0.01,0.96,3
1679663010.64071488,89682070,0.54,0.72,-1.3,-1.42,185.20000000000002,183.21,0.01,0.96,3
1679663010.74057698,89781932,0.84,0.6,-0.81,-1.03,185.05,183.14000000000001,0.01,0.96,3
1679663010.84049797,89881853,1.3900000000000001,0.79,-0.45,-0.51,184.64000000000001,183.11,0.01,0.96,3
1679663010.94057488,89981930,2.13,1.61,-0.23,-0.09,183.73,183.04,0.01,0.96,3
1679663011.04062796,90081983,2.54,2.56,-0.11,0.13,182.75,182.88,0.01,0.97,3
1679663011.14060998,90181965,2.75,3.04,-0.06,0.15,181.63,182.55,0.01,0.97,3
1679663011.24066997,90282025,2.58,3.15,-0.03,-0.01,180.49,182.12,0.02,0.97,3
1679663011.34066391,90382019,1.57,2.72,-0.01,-0.15,179.54,181.57,0.02,0.98,3
1679663011.44062185,90481977,0.8,1.37,0.0,-0.11,179.38,180.97,0.02,0.98,3
1679663011.54059291,90581948,0.41000000000000003,0.05,0.0,0.01,179.38,180.34,0.02,0.98,3
1679663011.64054298,90681898,0.21,-0.6,0.0,0.06,179.38,179.82,0.03,0.98,3
1679663011.74051189,90781867,0.1,-0.66,0.0,0.13,179.38,179.33,0.03,0.98,3
1679663011.84058094,90881936,0.05,-0.45,0.0,0.21,179.38,178.88,0.03,0.98,3
1679663011.94056487,90981920,0.02,-0.27,0.0,0.32,179.38,178.59,0.03,0.98,3
1679663012.04058981,91081945,0.01,-0.25,0.0,0.44,179.38,178.43,0.03,0.98,3
1679663012.14067984,91182035,0.0,-0.12,0.0,0.4,179.38,178.37,0.03,0.99,3
1679663012.24060082,91281956,0.0,-0.13,0.0,0.38,179.38,178.44,0.03,0.99,3
1679663012.34045291,91381808,0.0,-0.23,0.0,0.34,179.38,178.53,0.03,0.99,3
1679663012.44027591,91481631,0.0,-0.17,0.0,0.37,179.38,178.64000000000001,0.03,0.99,3
1679663012.54024982,91581605,0.0,-0.24,0.03,0.41000000000000003,179.38,178.71,0.03,0.99,3
1679663012.64025593,91681611,0.0,-0.11,1.01,0.5700000000000001,179.38,178.79,0.03,0.99,3
1679663012.74031782,91781673,0.0,0.25,1.87,1.52,179.38,178.87,0.03,0.99,3
1679663012.84029388,91881649,0.08,0.2,2.15,2.73,179.38,179.0,0.03,0.99,3
1679663012.94033194,91981687,1.9000000000000001,0.45,1.41,3.02,179.38,179.15,0.03,0.99,3
1679663013.04049492,92081850,5.84,2.41,0.72,1.95,179.38,179.34,0.03,0.99,3
1679663013.14042592,92181781,8.23,7.07,0.36,0.53,179.38,179.51,0.03,0.99,3
1679663013.24036193,92281717,9.44,11.27,0.18,-0.28,179.38,179.54,0.02,0.99,3
1679663013.34042096,92381776,9.99,12.69,0.09,-0.42,179.38,179.6,0.02,0.98,3
1679663013.44026685,92481622,8.97,12.19,0.04,-0.29,179.38,179.74,0.05,0.96,3
1679663013.54050779,92581863,5.0600000000000005,9.94,0.02,-0.08,179.38,179.98,0.05,0.9400000000000001,3
1679663013.64057493,92681930,2.58,4.6000000000000005,0.01,0.14,179.38,180.21,0.08,0.9400000000000001,3
1679663013.74064898,92782004,1.32,-0.33,0.0,0.3,179.38,180.43,0.08,0.9400000000000001,3
1679663013.84063888,92881994,0.67,-2.45,0.0,0.27,179.38,180.66,0.09,0.9500000000000001,3
1679663013.94068289,92982038,0.34,-2.68,0.0,-0.03,179.38,180.63,0.09,0.96,3
1679663014.04063678,93081992,0.17,-2.2800000000000002,0.0,-0.44,179.38,180.55,0.08,0.96,3
1679663014.14063978,93181995,0.08,-1.86,0.0,-0.78,179.38,180.73,0.08,0.97,3
1679663014.24056482,93281920,0.04,-1.3800000000000001,0.0,-0.81,179.38,180.96,0.08,0.97,3
1679663014.34062386,93381979,0.02,-0.8300000000000001,0.0,-0.73,179.38,181.18,0.08,0.98,3
1679663014.44050193,93481857,0.01,-0.6900000000000001,0.0,-0.49,179.38,181.38,0.08,0.98,3
1679663014.54025888,93581614,0.0,-0.5700000000000001,0.0,-0.31,179.38,181.45000000000002,0.08,0.98,3
1679663014.64050984,93681865,-0.08,-0.48,0.0,-0.16,179.38,181.49,0.08,0.98,3
1679663014.74054098,93781896,-0.76,-0.8,0.0,-0.04,179.38,181.36,0.08,0.98,3
1679663014.84063292,93881988,-0.84,-1.87,0.0,-0.05,179.38,181.16,0.07,0.98,3
1679663014.94054580,93981901,-0.54,-2.16,0.0,-0.1,179.38,180.91,0.07,0.98,3
1679663015.04057288,94081928,-0.45,-1.9100000000000001,0.0,-0.23,179.38,180.6,0.07,0.98,3
1679663015.14051485,94181870,-0.41000000000000003,-1.47,0.0,-0.16,179.38,180.24,0.07,0.98,3
1679663015.24041796,94281773,-0.23,-1.19,-0.84,-0.28,179.38,179.99,0.07,0.98,3
1679663015.34049296,94381848,-0.12,-1.04,-1.8900000000000001,-1.16,179.38,179.8,0.07,0.98,3
1679663015.44049191,94481847,-0.06,-1.05,-2.65,-2.73,179.48,179.68,0.06,0.97,3
1679663015.54049397,94581849,-0.03,-0.6,-3.0700000000000003,-3.84,179.67000000000002,179.55,0.06,0.97,3
1679663015.64054894,94681904,-0.01,-0.28,-2.94,-4.2,179.67000000000002,179.52,0.06,0.97,3
1679663015.74061298,94781968,0.0,0.16,-2.8000000000000003,-3.83,179.67000000000002,179.53,0.06,0.97,3
1679663015.84058475,94881940,0.0,0.34,-3.18,-3.0500000000000003,179.67000000000002,179.56,0.06,0.9500000000000001,3
1679663015.94056988,94981925,0.0,0.44,-3.31,-2.8000000000000003,179.67000000000002,179.62,0.06,0.9400000000000001,3
1679663016.04050684,95081862,0.0,0.31,-3.37,-2.91,179.67000000000002,179.69,0.05,0.92,3
1679663016.14051580,95181871,0.0,0.38,-3.43,-3.0100000000000002,179.67000000000002,179.71,0.05,0.92,3
1679663016.24078488,95282140,-0.08,0.37,-3.33,-3.22,179.67000000000002,179.69,0.05,0.91,3
1679663016.34059381,95381949,-0.15,0.28,-2.96,-3.09,179.67000000000002,179.61,0.05,0.91,3
1679663016.44060087,95481956,-0.27,0.27,-2.43,-2.63,179.67000000000002,179.45000000000002,0.04,0.91,3
1679663016.54058480,95581940,-1.0,0.15,-1.27,-1.72,179.67000000000002,179.31,0.04,0.9,3
1679663016.64067483,95682030,-1.6300000000000001,-0.68,-0.64,-0.31,179.67000000000002,179.19,0.04,0.9,3
1679663016.74060488,95781960,-1.95,-1.84,-0.33,0.78,179.67000000000002,178.98,0.04,0.9,3
1679663016.84062290,95881978,-2.35,-2.52,-0.16,1.17,179.67000000000002,178.84,0.04,0.89,3
1679663016.94071484,95982070,-2.5300000000000002,-2.83,-0.08,1.04,179.67000000000002,178.83,0.04,0.89,3
1679663017.04024577,96081601,-2.08,-2.5500000000000003,-0.04,0.78,179.67000000000002,178.87,0.04,0.9,3
1679663017.14022398,96181579,-1.81,-1.77,-0.02,0.52,179.67000000000002,179.02,0.04,0.9,3
1679663017.24025488,96281610,-1.61,-1.0,-0.01,0.4,179.67000000000002,179.26,0.06,0.91,3
1679663017.34042788,96381783,-1.42,-0.29,0.0,0.36,179.67000000000002,179.58,0.06,0.91,3
1679663017.44033694,96481692,-1.24,0.09,0.0,0.31,179.67000000000002,179.93,0.06,0.91,3
1679663017.54046798,96581823,-0.72,0.54,0.0,0.21,179.67000000000002,180.34,0.06,0.9,3
1679663017.64044881,96681804,-0.36,0.97,0.0,0.2,179.67000000000002,180.69,0.06,0.9,3
1679663017.74035287,96781708,-0.18,1.32,0.0,0.1,179.67000000000002,181.0,0.06,0.89,3
1679663017.84027386,96881629,-0.09,1.61,0.0,0.07,179.67000000000002,181.28,0.05,0.89,3
1679663017.94023776,96981593,-0.04,1.3800000000000001,0.0,-0.01,179.67000000000002,181.44,0.05,0.88,3
1679663018.04023385,97081589,-0.02,1.48,-0.39,-0.1,179.67000000000002,181.55,0.04,0.87,3
1679663018.14026976,97181625,-0.01,1.1300000000000001,-1.02,-0.54,179.67000000000002,181.54,0.04,0.86,3
1679663018.24062777,97281983,0.0,0.96,-1.73,-1.29,179.67000000000002,181.46,0.04,0.85,3
1679663018.34067988,97382035,0.0,0.86,-2.18,-2.2,179.67000000000002,181.25,0.04,0.85,3
1679663018.44066691,97482022,0.0,0.72,-2.88,-2.8000000000000003,179.67000000000002,181.06,0.04,0.85,3
1679663018.54060984,97581965,0.0,0.71,-3.34,-3.5300000000000002,179.67000000000002,180.85,0.04,0.85,3
1679663018.64037395,97681729,0.0,0.48,-3.5300000000000002,-4.18,179.67000000000002,180.68,0.03,0.84,3
1679663018.74040794,97781763,0.0,0.56,-3.65,-4.3100000000000005,179.67000000000002,180.53,0.03,0.85,3
1679663018.84024596,97881601,0.0,0.77,-3.45,-4.17,179.67000000000002,180.47,0.04,0.85,3
1679663018.94026089,97981616,0.09,0.77,-2.73,-3.79,179.67000000000002,180.47,0.04,0.8300000000000001,3
1679663019.04031777,98081673,0.78,0.99,-2.44,-2.58,179.67000000000002,180.49,0.04,0.84,3
1679663019.14032388,98181679,1.18,1.61,-2.43,-1.84,179.67000000000002,180.58,0.04,0.8200000000000001,3
1679663019.24033380,98281689,1.3900000000000001,2.2,-2.54,-1.76,179.67000000000002,180.62,0.04,0.8,3
1679663019.34050894,98381864,1.49,2.27,-3.0300000000000002,-2.06,179.67000000000002,180.66,0.04,0.8,3
1679663019.44043994,98481795,1.54,2.19,-3.98,-2.77,179.67000000000002,180.61,0.04,0.79,3
1679663019.54035378,98581709,1.6300000000000001,1.93,-5.0600000000000005,-4.12,179.67000000000002,180.53,0.04,0.77,3
1679663019.64028382,98681639,2.42,1.75,-5.12,-5.3,179.67000000000002,180.39000000000001,0.04,0.77,3
1679663019.74026585,98781621,3.17,2.52,-5.0600000000000005,-5.43,179.67000000000002,180.3,0.04,0.78,3
1679663019.84022284,98881578,3.8200000000000003,3.5100000000000002,-4.51,-4.97,179.67000000000002,180.25,0.04,0.77,3
1679663019.94024777,98981603,4.41,4.32,-3.4,-4.12,179.67000000000002,180.35,0.04,0.75,3
1679663020.04029083,99081646,4.72,4.82,-2.5500000000000003,-2.59,179.67000000000002,180.48,0.05,0.74,3
1679663020.14058590,99181941,4.88,5.29,-2.06,-1.24,179.67000000000002,180.59,0.05,0.71,3
1679663020.24067879,99282034,4.96,5.36,-1.62,-0.73,179.67000000000002,180.61,0.06,0.67,3
1679663020.34066081,99382016,4.94,5.15,-1.27,-0.56,179.67000000000002,180.59,0.06,0.66,3
1679663020.44065189,99482007,4.67,5.07,-1.35,-0.39,179.67000000000002,180.42000000000002,0.06,0.65,3
1679663020.54052091,99581876,4.2,4.41,-1.26,-0.74,179.71,180.19,0.06,0.63,3
1679663020.64052796,99681883,3.93,3.71,-0.91,-1.0,180.28,179.93,0.07,0.63,3
1679663020.74051189,99781867,3.7600000000000002,2.92,-0.76,-0.72,180.62,179.79,0.07,0.63,3
1679663020.84052896,99881884,3.68,2.83,-0.66,-0.58,180.62,179.75,0.06,0.63,3
1679663020.94056177,99981917,3.63,2.84,-0.61,-0.73,180.62,179.8,0.06,0.62,3
1679663021.04054785,100081903,3.63,2.88,-0.5700000000000001,-0.79,180.62,179.86,0.06,0.63,3
1679663021.14062977,100181985,3.65,3.04,-0.59,-0.78,180.62,180.02,0.06,0.63,3
1679663021.24058890,100281944,3.63,3.33,-0.49,-0.65,180.62,180.22,0.05,0.62,3
1679663021.34062576,100381981,3.5700000000000003,3.27,-0.32,-0.47000000000000003,180.62,180.4,0.05,0.61,3
1679663021.44048691,100481842,3.43,3.11,-0.16,-0.11,180.62,180.61,0.04,0.61,3
1679663021.54050279,100581858,3.19,2.9,-0.08,0.22,180.62,180.82,0.04,0.6,3
1679663021.64044785,100681803,2.84,2.73,-0.04,0.46,180.62,181.02,0.04,0.59,3
1679663021.74053884,100781894,2.44,2.63,-0.02,0.72,180.62,181.23,0.04,0.59,3
1679663021.84051180,100881867,1.8,2.22,-0.01,0.8300000000000001,180.62,181.42000000000002,0.04,0.59,3
1679663021.94052982,100981885,0.92,1.49,0.0,0.85,180.62,181.63,0.04,0.6,3
1679663022.04061675,101081972,0.47000000000000003,0.47000000000000003,0.0,0.75,180.62,181.84,0.04,0.61,3
1679663022.14055181,101181907,0.24,-0.01,0.0,0.68,180.62,182.03,0.04,0.63,3
1679663022.24057484,101281930,0.12,-0.21,0.0,0.5700000000000001,180.62,182.22,0.05,0.64,3
1679663022.34068394,101382039,0.06,0.04,0.0,0.42,180.62,182.38,0.05,0.65,3
1679663022.44025683,101481612,0.03,0.37,0.0,0.27,180.62,182.47,0.05,0.66,3
1679663022.54022598,101581581,0.01,0.5700000000000001,0.0,0.14,180.62,182.57,0.05,0.66,3
1679663022.64025283,101681608,0.0,0.71,0.0,-0.05,180.62,182.58,0.05,0.66,3
1679663022.74031591,101781671,0.0,0.61,0.0,-0.27,180.62,182.53,0.05,0.66,3
1679663022.84039378,101881749,0.0,0.52,0.0,-0.41000000000000003,180.62,182.47,0.05,0.66,3
1679663022.94049096,101981846,0.0,0.52,0.0,-0.51,180.62,182.4,0.05,0.66,3
1679663023.04044580,102081801,0.0,0.22,0.0,-0.49,180.62,182.3,0.04,0.66,3
1679663023.14036894,102181724,0.0,-0.09,0.0,-0.33,180.62,182.19,0.04,0.66,3
1679663023.24043083,102281786,0.0,0.04,0.0,-0.14,180.62,182.03,0.04,0.65,3
1679663023.34028196,102381637,0.0,0.01,0.0,-0.03,180.62,181.87,0.04,0.64,3
1679663023.44021177,102481567,0.0,0.09,0.0,0.03,180.62,181.66,0.03,0.63,3
1679663023.54026079,102581616,0.0,0.01,0.0,0.01,180.62,181.42000000000002,0.03,0.62,3
1679663023.64031577,102681671,0.0,0.1,0.0,0.02,180.62,181.14000000000001,0.03,0.6,3
1679663023.74033380,102781689,0.0,0.31,0.0,-0.08,180.62,180.85,0.03,0.59,3
1679663023.84046793,102881823,0.0,0.15,0.0,-0.14,180.62,180.52,0.03,0.58,3
1679663023.94041276,102981768,0.0,0.32,0.0,-0.03,180.62,180.20000000000002,0.03,0.56,3
1679663024.04036498,103081720,0.0,0.3,0.0,0.08,180.62,179.92000000000002,0.03,0.55,3
1679663024.14027190,103181627,0.0,0.29,0.0,0.09,180.62,179.69,0.03,0.54,3
1679663024.24019885,103281554,0.0,0.33,-0.27,0.04,180.62,179.52,0.04,0.53,3
1679663024.34025979,103381615,0.11,0.5,-1.82,-0.56,180.62,179.41,0.04,0.52,3
1679663024.44026279,103481618,0.26,0.61,-3.75,-2.67,180.62,179.38,0.03,0.49,3
1679663024.54031277,103581668,0.27,0.86,-5.11,-5.54,180.62,179.38,0.03,0.48,3
1679663024.64042997,103681785,0.17,0.81,-5.57,-7.41,180.62,179.39000000000001,0.03,0.49,3
1679663024.74053693,103781892,0.12,0.68,-5.83,-7.79,180.62,179.44,0.03,0.5,3
1679663024.84046578,103881821,0.1,0.47000000000000003,-5.9,-7.43,180.62,179.55,0.04,0.46,3
1679663024.94063878,103981994,0.21,0.22,-5.69,-6.92,180.62,179.67000000000002,0.04,0.42,3
1679663025.04065275,104082008,1.25,0.23,-5.2,-6.140000000000001,180.56,179.78,0.07,0.42,3
1679663025.14059496,104181950,2.41,1.18,-5.23,-5.2,180.51,179.89000000000001,0.07,0.41000000000000003,3
1679663025.24051094,104281866,3.18,2.7800000000000002,-5.2,-4.9,180.51,179.94,0.08,0.38,3
1679663025.34043694,104381792,3.5700000000000003,4.38,-5.09,-4.84,180.51,179.91,0.08,0.37,3
1679663025.44030094,104481656,3.72,4.46,-5.12,-4.62,180.51,179.84,0.1,0.35000000000000003,3
1679663025.54038692,104581742,3.5100000000000002,4.46,-5.0,-4.44,180.51,179.70000000000002,0.1,0.32,3
1679663025.64047384,104681829,2.86,3.84,-4.05,-4.17,180.51,179.52,0.1,0.3,3
1679663025.74043584,104781791,2.34,2.89,-2.69,-2.95,180.51,179.33,0.1,0.31,3
1679663025.84034395,104881699,2.05,1.95,-1.73,-0.99,180.51,179.18,0.1,0.31,3
1679663025.94027185,104981627,1.9100000000000001,1.46,-1.24,0.52,180.51,178.96,0.1,0.3,3
1679663026.04026389,105081619,1.83,1.37,-1.11,1.05,180.51,178.87,0.1,0.3,3
1679663026.14022684,105181582,1.79,1.45,-1.43,0.8,180.51,178.71,0.1,0.31,3
1679663026.24025297,105281608,1.8,1.51,-2.52,-0.23,180.51,178.64000000000001,0.09,0.32,3
1679663026.34038997,105381745,1.85,1.7,-3.13,-1.8900000000000001,180.51,178.59,0.09,0.33,3
1679663026.44032979,105481685,1.87,1.94,-3.33,-3.13,180.51,178.63,0.08,0.35000000000000003,3
1679663026.54048395,105581839,1.8900000000000001,1.99,-3.39,-3.37,180.51,178.74,0.08,0.37,3
1679663026.64041591,105681771,1.8900000000000001,1.71,-3.43,-3.3000000000000003,180.51,179.03,0.07,0.37,3
1679663026.74035883,105781714,1.8900000000000001,1.71,-3.43,-3.21,180.51,179.41,0.07,0.36,3
1679663026.84027696,105881632,1.87,1.79,-3.34,-3.2,180.51,179.84,0.07,0.36,3
1679663026.94024682,105981602,1.83,1.8900000000000001,-3.0700000000000003,-2.97,180.51,180.27,0.07,0.38,3
1679663027.04023480,106081590,1.5,1.83,-1.93,-2.41,180.51,180.66,0.07,0.38,3
1679663027.14057994,106181935,0.98,1.51,-0.98,-1.07,180.51,181.01,0.07,0.39,3
1679663027.24056983,106281925,0.68,0.72,-0.5,0.39,180.51,181.31,0.07,0.41000000000000003,3
1679663027.34067297,106382028,0.52,0.2,-0.25,1.04,180.51,181.47,0.07,0.39,3
1679663027.44049597,106481851,0.28,0.0,-0.13,0.98,180.51,181.53,0.06,0.4,3
1679663027.54054785,106581903,0.14,-0.28,-0.06,0.88,180.51,181.51,0.06,0.43,3
1679663027.64057183,106681927,0.07,-0.07,-0.73,0.8300000000000001,180.51,181.4,0.06,0.44,3
1679663027.74050879,106781864,0.03,-0.09,-1.48,0.21,180.51,181.29,0.06,0.44,3
1679663027.84049892,106881854,0.01,0.15,-1.8900000000000001,-1.01,180.51,181.15,0.06,0.44,3
1679663027.94044375,106981799,0.0,0.04,-2.0300000000000002,-1.8,180.51,180.95000000000002,0.06,0.45,3
1679663028.04048896,107081844,-0.09,-0.1,-1.95,-2.11,180.51,180.79,0.05,0.46,3
1679663028.14051485,107181870,-0.75,-0.47000000000000003,-1.59,-2.09,180.51,180.65,0.05,0.45,3
1679663028.24053788,107281893,-1.34,-1.28,-1.4000000000000001,-1.78,180.51,180.54,0.05,0.45,3
1679663028.34064889,107382004,-1.61,-2.27,-1.3800000000000001,-1.35,180.51,180.4,0.05,0.45,3
1679663028.44058990,107481945,-1.75,-2.66,-1.34,-1.22,180.51,180.27,0.04,0.43,3
1679663028.54056382,107581919,-1.78,-2.35,-1.35,-1.19,180.81,180.12,0.04,0.43,3
1679663028.64051795,107681873,-1.54,-1.97,-1.57,-1.23,181.20000000000002,179.96,0.03,0.43,3
1679663028.74051285,107781868,-1.44,-1.54,-1.8900000000000001,-1.47,181.20000000000002,179.93,0.03,0.42,3
1679663028.84043694,107881792,-2.13,-1.0,-1.52,-1.73,181.3,179.86,0.04,0.39,3
1679663028.94051194,107981867,-2.88,-1.62,-1.1500000000000001,-1.43,182.14000000000001,179.83,0.04,0.41000000000000003,3
1679663029.04051876,108081874,-3.37,-2.83,-0.78,-0.77,183.24,179.94,0.03,0.4,3
1679663029.14056087,108181916,-3.62,-3.5700000000000003,-0.42,-0.24,183.84,180.26,0.03,0.38,3
1679663029.24063396,108281989,-3.75,-4.17,-0.22,-0.01,184.41,180.68,0.03,0.38,3
1679663029.34066582,108382021,-3.83,-4.32,-0.2,-0.01,184.86,181.22,0.03,0.39,3
1679663029.44062781,108481983,-3.71,-4.33,-0.22,-0.24,184.87,181.81,0.03,0.41000000000000003,3
1679663029.54070592,108582061,-2.21,-3.87,-0.13,-0.43,184.77,182.5,0.03,0.43,3
1679663029.64017487,108681530,-1.1300000000000001,-2.3000000000000003,-0.06,-0.2,184.48,183.17000000000002,0.05,0.44,3
1679663029.74023795,108781593,-0.5700000000000001,-0.33,-0.03,0.27,184.01,183.9,0.05,0.45,3
1679663029.84027290,108881628,-0.29,0.78,-0.01,0.5700000000000001,183.39000000000001,184.6,0.04,0.45,3
1679663029.94030690,108981662,-0.15,0.97,0.0,0.48,182.24,185.22,0.04,0.43,3
1679663030.04037881,109081734,-0.07,0.75,0.0,0.0,180.55,185.58,0.04,0.42,3
1679663030.14049077,109181846,-0.03,0.4,0.0,-0.29,179.6,185.69,0.04,0.42,3
1679663030.24042296,109281778,-0.13,0.24,0.0,-0.54,179.46,185.67000000000002,0.05,0.43,3
1679663030.34044981,109381805,-1.41,0.07,0.0,-0.59,179.46,185.67000000000002,0.05,0.42,3
1679663030.44026685,109481622,-2.72,-1.26,0.0,-0.46,179.46,185.76,0.05,0.44,3
1679663030.54021096,109581566,-3.74,-2.92,0.0,-0.15,179.46,185.85,0.05,0.46,3
1679663030.64021492,109681570,-4.66,-4.45,0.0,0.17,179.46,185.88,0.04,0.47000000000000003,3
1679663030.74026680,109781622,-5.11,-5.41,0.0,0.49,179.46,185.83,0.04,0.49,3
1679663030.84030485,109881660,-5.33,-5.7,0.0,0.51,179.46,185.78,0.04,0.52,3
1679663030.94037890,109981734,-5.42,-5.65,0.0,0.25,179.46,185.68,0.04,0.54,3
1679663031.04049993,110081855,-5.11,-5.15,0.0,0.11,179.46,185.54,0.05,0.56,3
1679663031.14046192,110181817,-4.5600000000000005,-4.79,-0.12,0.03,179.46,185.33,0.05,0.58,3
1679663031.24036193,110281717,-3.19,-4.08,-0.07,-0.05,179.63,185.1,0.07,0.58,3
1679663031.34040689,110381762,-2.04,-2.66,-0.03,-0.04,180.61,184.81,0.07,0.5700000000000001,3
1679663031.44024491,110481600,-1.62,-1.05,-0.01,-0.06,181.89000000000001,184.59,0.08,0.54,3
1679663031.54022598,110581581,-1.71,-0.18,0.0,-0.12,182.34,184.45000000000002,0.08,0.51,3
1679663031.64033389,110681689,-1.98,-0.34,0.0,-0.13,182.55,184.21,0.07,0.47000000000000003,3
1679663031.74030590,110781661,-2.13,-0.8300000000000001,0.0,-0.11,182.72,183.85,0.07,0.43,3
1679663031.84058094,110881936,-2.2600000000000002,-1.3800000000000001,0.0,-0.19,182.82,183.47,0.05,0.4,3
1679663031.94064283,110981998,-2.35,-1.62,0.0,-0.21,182.84,183.09,0.05,0.38,3
1679663032.04063177,111081987,-2.39,-1.8900000000000001,-0.13,-0.27,182.84,182.78,0.05,0.36,3
1679663032.14063096,111181986,-2.41,-1.57,-0.79,-0.49,182.84,182.52,0.05,0.34,3
1679663032.24060678,111281962,-2.42,-1.6600000000000001,-1.07,-1.16,182.84,182.32,0.04,0.32,3
1679663032.34062481,111381980,-2.43,-1.74,-1.17,-1.58,182.84,182.14000000000001,0.04,0.31,3
1679663032.44047785,111481833,-2.43,-1.67,-1.26,-1.5,182.84,182.01,0.03,0.31,3
1679663032.54025984,111581615,-2.39,-1.79,-1.51,-1.46,182.84,181.93,0.03,0.3,3
1679663032.64033079,111681686,-2.19,-1.72,-2.98,-1.8900000000000001,182.84,181.91,0.03,0.3,3
1679663032.74034190,111781697,-1.76,-1.52,-2.89,-3.48,182.84,181.89000000000001,0.03,0.26,3
1679663032.84050488,111881860,-0.96,-1.1,-1.96,-4.11,182.84,181.84,0.04,0.28,3
1679663032.94043589,111981791,-0.49,-0.14,-1.1,-2.73,182.84,181.73,0.04,0.33,3
1679663033.04037690,112081732,-0.25,0.56,-0.58,-1.02,182.84,181.66,0.04,0.3,3
1679663033.14028788,112181643,-0.12,0.74,-0.36,-0.22,182.84,181.64000000000001,0.04,0.25,3
1679663033.24026990,112281625,-0.06,0.52,-0.8200000000000001,-0.19,182.84,181.63,0.05,0.22,3
1679663033.34029794,112381653,-0.03,0.4,-1.43,-0.84,182.84,181.57,0.05,0.21,3
1679663033.44028497,112481640,-0.01,0.52,-1.74,-1.95,182.84,181.49,0.04,0.19,3
1679663033.54031491,112581670,0.0,0.31,-1.6,-2.67,182.84,181.39000000000001,0.04,0.21,3
1679663033.64034677,112681702,0.0,0.26,-0.8200000000000001,-2.43,182.84,181.36,0.03,0.21,3
1679663033.74077177,112782127,0.0,0.0,-0.41000000000000003,-1.34,182.84,181.4,0.03,0.21,3
1679663033.84059381,112881949,0.0,-0.39,-0.21,-0.41000000000000003,182.84,181.47,0.03,0.19,3
1679663033.94061875,112981974,0.0,-0.5,-0.1,-0.1,182.84,181.59,0.03,0.18,3
1679663034.04064083,113081996,0.0,-0.71,-0.05,0.0,182.84,181.65,0.03,0.19,3
1679663034.14056182,113181917,0.0,-0.68,-0.02,0.06,182.84,181.74,0.03,0.21,3
1679663034.24049187,113281847,0.0,-0.72,-0.01,-0.03,182.84,181.82,0.04,0.22,3
1679663034.34064198,113381997,0.0,-0.37,0.0,-0.15,182.84,181.95000000000002,0.04,0.23,3
1679663034.44058585,113481941,0.0,-0.06,0.0,-0.19,182.84,182.07,0.04,0.25,3
1679663034.54056096,113581916,0.0,0.26,0.0,-0.17,182.84,182.19,0.04,0.26,3
1679663034.64067698,113682032,0.0,0.52,0.0,-0.1,182.84,182.36,0.04,0.26,3
1679663034.74059486,113781950,0.0,0.6900000000000001,0.0,0.07,182.84,182.53,0.04,0.25,3
1679663034.84061480,113881970,0.0,0.99,0.0,0.16,182.84,182.74,0.04,0.24,3
1679663034.94054675,113981902,0.0,0.97,0.0,0.27,182.84,182.93,0.04,0.23,3
1679663035.04056787,114081923,0.0,0.87,0.0,0.35000000000000003,182.84,183.13,0.04,0.22,3
1679663035.14051890,114181874,0.56,0.85,0.0,0.29,182.84,183.36,0.04,0.22,3
1679663035.24057698,114281932,2.06,1.43,0.0,0.32,182.84,183.57,0.03,0.23,3
1679663035.34067178,114382027,3.33,3.15,0.0,0.12,182.84,183.77,0.03,0.22,3
1679663035.44059396,114481949,5.73,5.11,0.0,0.13,182.58,183.93,0.03,0.21,3
1679663035.54089689,114582252,6.3,7.54,0.0,0.08,181.58,184.0,0.03,0.18,3
1679663035.64062285,114681978,5.49,8.31,0.0,0.02,180.57,183.76,0.04,0.15,3
1679663035.74064684,114782002,5.34,6.36,0.0,-0.15,179.69,183.24,0.04,0.14,3
1679663035.84070992,114882065,5.65,4.44,0.0,-0.27,178.89000000000001,182.58,0.06,0.11,3
1679663035.94024181,114981597,5.71,4.11,0.0,-0.39,178.72,181.78,0.06,0.09,3
1679663036.04024291,115081598,5.47,4.75,0.0,-0.63,178.72,180.89000000000001,0.08,0.07,3
1679663036.14026189,115181617,5.29,4.95,0.0,-0.9500000000000001,178.72,179.97,0.08,0.08,3
1679663036.24030995,115281665,5.05,4.59,0.0,-1.08,178.72,179.06,0.08,0.07,3
1679663036.34044886,115381804,4.48,4.13,0.0,-1.1500000000000001,178.81,178.21,0.08,0.06,3
1679663036.44046187,115481817,2.5500000000000003,3.4,0.0,-1.25,179.08,177.4,0.07,0.05,3
1679663036.54043889,115581794,1.3,1.31,0.0,-1.25,179.13,176.69,0.07,0.06,3
1679663036.64066195,115682017,0.9,-0.9400000000000001,0.0,-1.2,179.13,176.07,0.07,0.06,3
1679663036.74028397,115781639,1.01,-1.45,0.0,-1.1500000000000001,179.13,175.57,0.07,0.06,3
1679663036.84024978,115881605,2.4,-0.64,0.0,-1.25,179.13,175.18,0.06,0.08,3
1679663036.94022679,115981582,4.72,1.51,0.0,-1.1,179.13,174.87,0.06,0.1,3
1679663037.04025483,116081610,5.95,4.87,0.0,-0.52,179.13,174.71,0.06,0.09,3
1679663037.14031577,116181671,6.5200000000000005,6.78,0.0,0.04,179.13,174.70000000000002,0.06,0.08,3
1679663037.24042678,116281782,6.83,7.12,0.0,0.31,179.13,174.79,0.05,0.11,3
1679663037.34076595,116382121,6.94,6.61,0.0,0.34,179.13,174.87,0.05,0.14,3
1679663037.44061494,116481970,6.99,6.08,0.0,0.33,179.13,175.06,0.06,0.16,3
1679663037.54064083,116581996,7.3500000000000005,5.73,0.0,0.41000000000000003,179.13,175.26,0.06,0.17,3
1679663037.64084792,116682203,7.69,5.96,0.0,0.43,179.13,175.52,0.08,0.18,3
1679663037.74059892,116781954,7.82,6.6000000000000005,0.0,0.53,179.13,175.86,0.08,0.18,3
1679663037.84050679,116881862,7.44,7.25,0.0,0.73,179.04,176.26,0.09,0.18,3
1679663037.94061780,116981973,5.46,7.28,0.0,0.87,178.82,176.62,0.09,0.18,3
1679663038.04056382,117081919,3.08,5.03,0.0,0.86,178.82,176.89000000000001,0.1,0.17,3
1679663038.14054394,117181899,1.57,1.56,0.0,0.93,178.82,177.11,0.1,0.16,3
1679663038.24061894,117281974,0.8,-0.97,0.0,0.93,178.82,177.34,0.09,0.12,3
1679663038.34059286,117381948,0.41000000000000003,-1.93,0.0,0.76,178.82,177.56,0.09,0.12,3
1679663038.44055080,117481906,0.2,-1.81,0.0,0.41000000000000003,178.82,177.68,0.08,0.14,3
1679663038.54049778,117581853,0.22,-1.52,0.0,-0.07,178.44,177.76,0.08,0.18,3
1679663038.64082980,117682185,1.84,-1.02,0.0,-0.34,177.44,177.86,0.08,0.2,3
1679663038.74088383,117782239,3.75,0.71,0.0,-0.59,176.41,177.83,0.08,0.21,3
1679663038.84056783,117881923,4.19,3.61,0.0,-0.75,175.28,177.61,0.08,0.2,3
1679663038.94056082,117981916,4.37,5.2,0.0,-0.6,174.15,177.24,0.08,0.2,3
1679663039.04062486,118081980,4.44,5.19,0.0,-0.34,173.02,176.72,0.07,0.16,3
1679663039.14065075,118182006,4.18,4.79,0.0,-0.15,171.9,176.04,0.07,0.16,3
1679663039.24062991,118281985,3.16,3.98,0.0,-0.02,171.16,175.21,0.07,0.14,3
1679663039.34067798,118382033,2.29,2.5300000000000002,0.0,0.05,171.1,174.28,0.07,0.13,3
1679663039.44081879,118482174,1.75,1.34,0.0,0.0,171.1,173.4,0.07,0.11,3
1679663039.54057980,118581935,1.49,0.66,0.0,-0.19,171.1,172.55,0.07,0.1,3
1679663039.64050889,118681864,1.43,0.77,-0.07,-0.29,171.1,171.75,0.07,0.08,3
1679663039.74058080,118781936,1.58,1.02,-0.78,-0.34,171.1,171.02,0.07,0.07,3
1679663039.84029484,118881650,1.76,1.34,-1.75,-1.06,171.1,170.38,0.06,0.08,3
1679663039.94033098,118981686,1.87,1.51,-2.24,-2.33,171.1,169.8,0.06,0.11,3
1679663040.04049277,119081848,1.81,1.81,-2.7600000000000002,-3.23,171.1,169.26,0.05,0.1,3
1679663040.14041591,119181771,1.16,1.6,-2.81,-3.91,171.1,168.75,0.05,0.12,3
1679663040.24035978,119281715,0.59,0.71,-2.61,-4.19,171.1,168.32,0.05,0.14,3
1679663040.34039879,119381754,0.3,-0.58,-2.2600000000000002,-3.7,171.1,167.93,0.05,0.14,3
1679663040.44024086,119481596,0.15,-1.17,-1.74,-2.68,171.1,167.57,0.06,0.15,3
1679663040.54049993,119581855,0.07,-1.51,-1.46,-1.54,171.1,167.25,0.06,0.15,3
1679663040.64057899,119681934,0.04,-1.1400000000000001,-1.36,-0.78,171.1,166.98,0.06,0.16,3
1679663040.74058986,119781945,0.06,-0.49,-1.48,-0.55,171.1,166.77,0.06,0.16,3
1679663040.84057593,119881931,0.21,-0.12,-1.57,-0.84,171.1,166.61,0.06,0.15,3
1679663040.94067788,119982033,0.23,0.35000000000000003,-1.72,-1.25,171.1,166.51,0.06,0.15,3
1679663041.04063892,120081994,0.22,0.84,-1.81,-1.78,171.1,166.42000000000002,0.05,0.15,3
1679663041.14064288,120181998,0.21,0.8200000000000001,-1.78,-2.3000000000000003,171.1,166.38,0.05,0.15,3
1679663041.24085498,120282210,0.21,0.9,-1.6300000000000001,-2.48,171.1,166.42000000000002,0.04,0.15,3
1679663041.34064484,120382000,0.22,1.03,-1.12,-2.27,171.1,166.51,0.04,0.15,3
1679663041.44049692,120481852,0.29,0.8300000000000001,-0.5700000000000001,-1.69,171.1,166.67000000000002,0.04,0.16,3
1679663041.54058290,120581938,0.38,0.65,-0.29,-1.05,171.1,166.84,0.04,0.15,3
1679663041.64029694,120681652,0.61,0.42,-0.14,-0.67,171.1,167.08,0.04,0.15,3
1679663041.74034095,120781696,0.8,0.37,-0.07,-0.58,171.1,167.37,0.04,0.15,3
1679663041.84048486,120881840,0.89,0.47000000000000003,-0.03,-0.41000000000000003,171.1,167.70000000000002,0.04,0.13,3
1679663041.94045496,120981810,0.87,0.46,-0.01,-0.38,171.1,168.12,0.04,0.11,3
1679663042.04038382,121081739,0.8200000000000001,0.44,-0.01,-0.16,171.1,168.63,0.03,0.1,3
1679663042.14044094,121181796,0.79,0.13,0.0,-0.02,171.1,169.12,0.03,0.09,3
1679663042.24025989,121281615,0.81,0.0,-0.14,0.06,171.1,169.6,0.03,0.08,3
1679663042.34026384,121381619,1.07,0.07,-0.4,-0.05,171.1,170.09,0.03,0.06,3
1679663042.44026995,121481625,1.43,0.62,-0.75,-0.45,171.1,170.55,0.03,0.05,3
1679663042.54031086,121581666,1.6300000000000001,1.41,-1.0,-0.9400000000000001,171.1,171.02,0.03,0.05,3
1679663042.64039493,121681750,1.72,1.73,-1.1,-1.3800000000000001,171.1,171.42000000000002,0.02,0.06,3
1679663042.74049878,121781854,1.68,2.13,-1.1300000000000001,-1.29,171.1,171.91,0.02,0.06,3
1679663042.84045696,121881812,1.47,1.8800000000000001,-0.9,-1.0,171.1,172.42000000000002,0.02,0.04,3
1679663042.94036889,121981724,1.23,1.37,-0.46,-0.25,171.1,172.84,0.02,0.04,3
1679663043.04063392,122081989,1.07,0.65,-0.23,0.77,171.08,173.22,0.02,0.04,3
1679663043.14058685,122181942,0.74,0.26,-0.2,1.34,171.08,173.5,0.02,0.03,3
1679663043.24051881,122281874,0.38,-0.29,-0.28,1.18,171.08,173.66,0.02,0.05,3
1679663043.34064984,122382005,0.19,-0.5,-0.49,0.88,171.08,173.68,0.02,0.07,3
1679663043.44051290,122481868,0.09,-0.53,-1.05,0.29,171.08,173.66,0.03,0.09,3
1679663043.54052877,122581884,0.05,-0.63,-1.42,-0.47000000000000003,171.08,173.63,0.03,0.1,3
1679663043.64060283,122681958,0.02,-0.47000000000000003,-2.42,-1.42,171.08,173.54,0.03,0.12,3
1679663043.74058390,122781939,0.01,-0.56,-3.31,-2.59,171.08,173.44,0.03,0.13,3
1679663043.84057188,122881927,0.0,-0.32,-3.67,-3.9,171.08,173.3,0.03,0.12,3
1679663043.94049382,122981849,0.0,-0.36,-3.5300000000000002,-4.48,171.08,173.17000000000002,0.03,0.13,3
1679663044.04051185,123081867,0.0,-0.49,-3.31,-4.13,171.08,172.98,0.03,0.15,3
1679663044.14044976,123181805,0.0,-0.41000000000000003,-2.91,-3.56,171.08,172.77,0.03,0.13,3
1679663044.24057794,123281933,0.0,-0.39,-2.56,-2.88,171.08,172.54,0.04,0.1,3
1679663044.34058785,123381943,0.0,-0.48,-2.74,-2.38,171.08,172.26,0.04,0.1,3
1679663044.44053984,123481895,0.0,-0.71,-3.0300000000000002,-2.48,171.08,171.96,0.05,0.08,3
1679663044.54060078,123581956,0.0,-0.8,-3.0500000000000003,-3.02,171.08,171.62,0.05,0.07,3
1679663044.64057493,123681930,0.0,-0.85,-2.97,-3.08,171.08,171.27,0.06,0.08,3
1679663044.74058795,123781943,0.0,-0.62,-2.2800000000000002,-2.7,171.08,170.85,0.06,0.08,3
1679663044.84051585,123881871,0.0,-0.96,-1.96,-2.11,171.08,170.46,0.06,0.07,3
1679663044.94051886,123981874,0.0,-1.04,-1.92,-1.77,171.08,170.11,0.06,0.06,3
1679663045.04045892,124081814,0.0,-1.44,-2.0300000000000002,-1.98,171.08,169.8,0.06,0.06,3
1679663045.14051485,124181870,0.0,-1.51,-2.18,-2.31,171.08,169.54,0.06,0.05,3
1679663045.24087381,124282229,0.0,-1.34,-2.18,-2.59,171.08,169.33,0.06,0.05,3
1679663045.34065795,124382013,0.0,-0.79,-2.11,-2.56,171.08,169.20000000000002,0.06,0.04,3
1679663045.44063377,124481989,0.0,-0.25,-2.02,-2.23,171.08,169.18,0.06,0.04,3
1679663045.54061890,124581974,0.0,-0.15,-1.9100000000000001,-1.86,171.08,169.22,0.06,0.05,3
1679663045.64037991,124681735,0.0,-0.44,-1.33,-1.6300000000000001,171.08,169.3,0.06,0.05,3
1679663045.74027586,124781631,0.0,-0.54,-1.17,-0.85,171.08,169.42000000000002,0.06,0.05,3
1679663045.84023476,124881590,0.0,-0.47000000000000003,-1.23,-0.28,171.08,169.55,0.05,0.05,3
1679663045.94021082,124981566,0.0,-0.33,-1.07,-0.52,171.08,169.76,0.05,0.06,3
1679663046.04025578,125081611,0.0,0.0,-0.9400000000000001,-0.55,171.08,169.97,0.04,0.05,3
1679663046.14030194,125181657,0.0,0.21,-0.97,-0.59,171.08,170.16,0.04,0.05,3
1679663046.24038696,125281742,0.0,0.46,-1.1,-0.76,171.08,170.36,0.03,0.04,3
1679663046.34055185,125381907,0.0,0.8200000000000001,-1.17,-1.08,171.08,170.61,0.03,0.04,3
1679663046.44046187,125481817,1.19,0.79,-1.27,-1.17,171.08,170.78,0.03,0.03,3
1679663046.54036188,125581717,2.08,2.05,-0.6900000000000001,-0.92,171.08,170.91,0.03,0.03,3
1679663046.64029384,125681649,1.9000000000000001,3.34,-0.35000000000000003,-0.16,171.08,171.07,0.03,0.02,3
1679663046.74021387,125781569,1.1500000000000001,3.02,-0.18,0.35000000000000003,171.08,171.16,0.03,0.02,3
1679663046.84023476,125881590,0.58,2.06,-0.09,0.64,171.08,171.20000000000002,0.03,0.04,3
1679663046.94028282,125981638,0.3,0.7000000000000001,-0.04,0.71,171.08,171.21,0.03,0.04,3
1679663047.04063797,126081993,0.15,0.13,-0.02,0.79,171.08,171.27,0.04,0.04,3
1679663047.14059377,126181949,0.07,-0.36,-0.01,0.76,171.08,171.26,0.04,0.04,3
1679663047.24066377,126282019,0.04,-0.34,0.0,0.86,171.08,171.28,0.03,0.05,3
1679663047.34067297,126382028,0.02,-0.04,0.01,0.89,171.08,171.3,0.03,0.06,3
1679663047.44034696,126481702,0.01,0.08,0.07,0.9500000000000001,171.08,171.38,0.04,0.07,3
1679663047.54027295,126581628,0.0,0.23,0.6,1.02,171.08,171.4,0.04,0.07,3
1679663047.64024878,126681604,0.0,0.48,0.92,1.45,171.08,171.45000000000002,0.03,0.08,3
1679663047.74021792,126781573,0.0,0.5,0.99,1.78,171.08,171.47,0.03,0.09,3
1679663047.84025383,126881609,0.0,0.58,1.05,1.6600000000000001,171.08,171.47,0.03,0.08,3
1679663047.94031596,126981671,0.0,0.6,1.1500000000000001,1.35,171.08,171.45000000000002,0.03,0.08,3
1679663048.04034185,127081697,0.0,0.77,1.33,1.3900000000000001,171.08,171.44,0.03,0.09,3
1679663048.14047098,127181826,0.0,0.93,1.67,1.53,171.08,171.42000000000002,0.03,0.09,3
1679663048.24043584,127281791,0.0,0.89,1.74,1.85,171.07,171.36,0.03,0.09,3
1679663048.34045482,127381810,0.0,1.02,1.31,1.9100000000000001,170.8,171.27,0.03,0.09,3
1679663048.44040489,127481760,0.0,0.84,1.12,1.34,170.47,171.14000000000001,0.03,0.08,3
1679663048.54021382,127581569,0.0,0.89,1.18,1.12,170.43,170.88,0.03,0.08,3
1679663048.64023995,127681595,0.06,0.8300000000000001,1.03,1.18,170.43,170.68,0.03,0.1,3
1679663048.74028778,127781643,0.28,0.98,0.88,1.01,170.43,170.48,0.03,0.1,3
1679663048.84031081,127881666,0.41000000000000003,1.02,0.76,0.6900000000000001,170.43,170.29,0.02,0.09,3
1679663048.94033790,127981693,0.65,1.1300000000000001,0.64,0.45,170.43,170.14000000000001,0.02,0.09,3
1679663049.04050183,128081857,0.99,1.48,0.54,0.27,170.43,170.0,0.02,0.1,3
1679663049.14044881,128181804,1.26,1.81,0.5,0.06,170.43,169.92000000000002,0.02,0.09,3
1679663049.24061894,128281974,1.53,2.04,0.56,-0.02,170.43,169.79,0.02,0.08,3
1679663049.34067297,128382028,1.54,2.0100000000000002,0.61,0.02,170.43,169.78,0.02,0.08,3
1679663049.44056678,128481922,1.48,1.9000000000000001,0.62,0.17,170.43,169.73,0.02,0.06,3
1679663049.54049397,128581849,1.32,1.74,0.68,0.18,170.36,169.73,0.02,0.06,3
1679663049.64057684,128681932,1.16,1.58,0.66,0.44,170.35,169.71,0.02,0.05,3
1679663049.74063897,128781994,1.18,1.3,0.53,0.48,170.35,169.71,0.02,0.05,3
1679663049.84058690,128881942,0.96,1.25,0.29,0.38,170.35,169.75,0.02,0.05,3
1679663049.94067693,128982032,0.54,1.06,0.15,0.23,170.35,169.79,0.02,0.05,3
1679663050.04063082,129081986,0.28,0.48,0.07,0.13,170.23,169.85,0.02,0.07,3
1679663050.14061785,129181973,0.17,0.14,0.03,0.19,170.04,169.96,0.02,0.07,3
1679663050.24063683,129281992,0.32,0.03,0.02,0.34,170.04,170.07,0.02,0.07,3
1679663050.34068990,129382045,0.87,0.56,0.01,0.44,170.04,170.16,0.02,0.08,3
1679663050.44050980,129481865,1.69,1.48,0.0,0.49,170.04,170.32,0.01,0.08,3
1679663050.54076886,129582124,3.0,2.64,0.0,0.45,169.59,170.43,0.01,0.08,3
1679663050.64063382,129681989,3.62,4.13,0.0,0.26,168.52,170.49,0.01,0.08,3
1679663050.74056792,129781923,3.54,5.19,0.0,0.05,167.43,170.3,0.01,0.07,3
1679663050.84068584,129882041,3.21,4.97,0.0,-0.18,166.34,169.91,0.02,0.06,3
1679663050.94060898,129981964,2.6,4.18,0.0,-0.29,165.43,169.4,0.02,0.06,3
1679663051.04062390,130081979,1.49,2.79,0.0,-0.4,165.21,168.79,0.04,0.06,3
1679663051.14063478,130181990,0.76,1.21,0.0,-0.46,165.21,168.25,0.04,0.05,3
1679663051.24059081,130281946,0.39,0.26,0.0,-0.4,165.21,167.74,0.05,0.04,3
1679663051.34089088,130382246,0.19,-0.42,0.11,-0.33,165.21,167.22,0.05,0.03,3
1679663051.44057989,130481935,0.1,-0.59,0.67,-0.14,165.21,166.81,0.04,0.04,3
1679663051.54062390,130581979,0.05,-0.52,0.96,0.64,165.21,166.37,0.04,0.06,3
1679663051.64063478,130681990,0.02,-0.51,0.71,1.09,165.21,166.04,0.04,0.05,3
1679663051.74075890,130782114,0.01,-0.3,0.37,0.92,165.21,165.67000000000002,0.04,0.05,3
1679663051.84061575,130881971,0.0,-0.29,0.24,0.35000000000000003,165.21,165.4,0.04,0.04,3
1679663051.94063687,130981992,0.0,-0.19,0.14,0.05,165.21,165.12,0.04,0.05,3
1679663052.04065180,131082007,0.0,-0.35000000000000003,0.07,-0.12,165.21,164.9,0.05,0.04,3
1679663052.14059281,131181948,-0.16,-0.28,0.03,-0.2,165.21,164.74,0.05,0.04,3
1679663052.24050093,131281856,-0.22,-0.17,0.01,-0.25,165.21,164.6,0.05,0.04,3
1679663052.34064794,131382003,-0.52,-0.37,0.01,-0.2,165.21,164.51,0.05,0.04,3
1679663052.44056892,131481924,-0.93,-0.58,0.0,-0.27,165.21,164.46,0.04,0.04,3
1679663052.54060793,131581963,-1.29,-1.08,0.0,-0.33,165.21,164.44,0.04,0.03,3
1679663052.64068294,131682038,-1.46,-1.26,0.0,-0.34,165.21,164.42000000000002,0.04,0.03,3
1679663052.74064183,131781997,-1.43,-1.52,0.0,-0.37,165.21,164.42000000000002,0.04,0.02,3
1679663052.84060884,131881964,-1.32,-1.56,0.0,-0.4,165.21,164.51,0.05,0.02,3
1679663052.94061089,131981966,-0.71,-1.24,0.0,-0.35000000000000003,165.21,164.52,0.05,0.02,3
1679663053.04054785,132081903,-0.36,-0.44,0.0,-0.28,165.21,164.56,0.05,0.01,3
1679663053.14084888,132182204,-0.18,-0.04,0.0,-0.3,165.21,164.61,0.05,0.01,3
1679663053.24057198,132281927,-0.09,0.0,0.0,-0.37,165.21,164.63,0.05,0.02,3
1679663053.34065890,132382014,-0.04,-0.17,-0.34,-0.43,165.21,164.65,0.05,0.03,3
1679663053.44058681,132481942,-0.02,0.01,-1.08,-0.84,165.21,164.64000000000001,0.05,0.04,3
1679663053.54047585,132581831,-0.01,0.19,-1.9000000000000001,-1.92,165.21,164.67000000000002,0.05,0.05,3
1679663053.64042282,132681778,0.0,0.13,-2.5100000000000002,-2.99,165.21,164.68,0.04,0.05,3
1679663053.74044776,132781803,0.0,0.2,-2.36,-3.62,165.21,164.68,0.04,0.04,3
1679663053.84058595,132881941,0.0,0.19,-1.82,-3.37,165.21,164.69,0.04,0.04,3
1679663053.94056678,132981922,0.16,0.07,-1.6,-2.35,165.21,164.64000000000001,0.04,0.04,3
1679663054.04051495,133081870,0.49,0.04,-2.25,-1.73,165.21,164.63,0.04,0.05,3
1679663054.14056492,133181920,0.68,0.54,-2.52,-2.17,165.21,164.63,0.04,0.08,3
1679663054.24061894,133281974,0.97,0.56,-2.25,-2.7600000000000002,165.21,164.62,0.05,0.07,3
1679663054.34067297,133382028,1.44,0.96,-1.8,-2.44,165.21,164.65,0.05,0.07,3
1679663054.44065475,133482010,2.04,1.59,-1.43,-1.83,165.21,164.67000000000002,0.05,0.07,3
1679663054.54059482,133581950,2.49,2.18,-1.25,-1.43,165.21,164.71,0.05,0.08,3
1679663054.64062595,133681981,2.85,2.68,-0.9400000000000001,-1.31,165.21,164.81,0.05,0.09,3
1679663054.74073291,133782088,3.06,3.21,-0.85,-0.93,165.21,164.91,0.05,0.09,3
1679663054.84056187,133881917,3.17,3.42,-0.76,-0.87,165.21,165.04,0.04,0.11,3
1679663054.94083977,133982195,3.22,3.3200000000000003,-0.75,-0.91,165.21,165.17000000000002,0.04,0.12,3
1679663055.04053378,134081889,3.25,3.2600000000000002,-0.9,-1.05,165.21,165.33,0.04,0.12,3
1679663055.14062190,134181977,3.31,3.13,-1.1500000000000001,-1.25,165.21,165.49,0.04,0.13,3
1679663055.24060988,134281965,3.68,2.95,-1.4000000000000001,-1.6400000000000001,165.21,165.69,0.04,0.13,3
1679663055.34050798,134381863,4.14,3.34,-1.4000000000000001,-1.77,165.21,165.87,0.04,0.13,3
1679663055.44062376,134481979,4.47,4.1,-1.22,-1.5,165.21,166.08,0.05,0.13,3
1679663055.54062080,134581976,4.64,4.3,-0.86,-1.21,165.21,166.28,0.05,0.12,3
1679663055.64064980,134682005,4.71,4.57,-0.6900000000000001,-0.87,165.21,166.41,0.05,0.12,3
1679663055.74058580,134781941,4.5600000000000005,4.46,-0.6,-0.65,165.21,166.49,0.05,0.12,3
1679663055.84048581,134881841,4.3100000000000005,4.58,-0.59,-0.68,165.21,166.56,0.05,0.12,3
1679663055.94057584,134981931,4.11,4.14,-0.4,-0.77,165.21,166.52,0.05,0.12,3
1679663056.04061198,135081967,3.91,3.74,-0.35000000000000003,-0.73,165.21,166.44,0.06,0.11,3
1679663056.14058280,135181938,3.62,3.7,-0.27,-0.63,165.21,166.36,0.06,0.12,3
1679663056.24060583,135281961,3.0500000000000003,3.5500000000000003,-0.14,-0.58,165.21,166.18,0.06,0.12,3
1679663056.34061980,135381975,2.39,2.63,-0.07,-0.48,165.21,165.96,0.06,0.12,3
1679663056.44056487,135481920,1.8800000000000001,1.86,-0.03,-0.49,165.21,165.73,0.05,0.11,3
1679663056.54050183,135581857,1.2,0.93,-0.02,-0.58,165.21,165.48,0.05,0.1,3
1679663056.64049983,135681855,0.61,0.4,-0.44,-0.71,165.21,165.25,0.05,0.08,3
1679663056.74044681,135781802,0.31,-0.31,-1.3900000000000001,-1.21,165.21,165.04,0.05,0.07,3
1679663056.84058475,135881940,0.16,-0.58,-2.17,-2.2,165.21,164.86,0.04,0.06,3
1679663056.94051075,135981866,0.08,-0.36,-2.04,-3.0,165.21,164.72,0.04,0.06,3
1679663057.04054475,136081900,0.18,-0.14,-1.27,-2.68,165.21,164.63,0.05,0.07,3
1679663057.14063692,136181992,0.74,0.21,-0.64,-1.21,165.21,164.51,0.05,0.09,3
1679663057.24058080,136281936,1.05,0.92,-0.33,0.0,165.21,164.43,0.06,0.09,3
1679663057.34065294,136382008,1.19,1.52,-0.16,0.42,165.21,164.38,0.06,0.1,3
1679663057.44051480,136481870,1.24,1.45,-0.08,0.44,165.21,164.33,0.06,0.09,3
1679663057.54051375,136581869,1.22,1.34,-0.04,0.27,165.21,164.3,0.06,0.08,3
1679663057.64046383,136681819,1.11,1.47,-0.02,0.13,165.21,164.28,0.05,0.08,3
1679663057.74058390,136781939,1.04,1.3800000000000001,-0.01,-0.09,165.21,164.27,0.05,0.08,3
1679663057.84053493,136881890,0.97,1.1300000000000001,0.0,-0.31,165.21,164.27,0.04,0.08,3
1679663057.94056177,136981917,0.86,0.96,0.0,-0.46,165.21,164.27,0.04,0.08,3
1679663058.04062891,137081984,0.88,0.88,0.0,-0.47000000000000003,165.21,164.33,0.04,0.07,3
1679663058.14074683,137182102,1.57,0.96,0.0,-0.38,165.21,164.38,0.04,0.08,3
1679663058.24061489,137281970,2.5300000000000002,1.6600000000000001,0.0,-0.07,165.21,164.43,0.03,0.08,3
1679663058.34067893,137382034,2.77,3.0,0.0,0.11,165.21,164.49,0.03,0.09,3
1679663058.44054484,137481900,2.45,3.54,0.0,0.14,165.21,164.54,0.03,0.09,3
1679663058.54049277,137581848,1.83,2.89,0.0,0.04,165.21,164.57,0.03,0.1,3
1679663058.64058495,137681940,0.99,1.86,0.26,0.03,165.21,164.58,0.03,0.11,3
1679663058.74067783,137782033,0.5,0.96,1.48,0.45,165.21,164.63,0.03,0.12,3
1679663058.84059286,137881948,0.25,-0.01,2.32,1.8800000000000001,165.21,164.65,0.03,0.09,3
1679663058.94068480,137982040,0.13,-0.29,2.7,3.52,165.21,164.66,0.03,0.08,3
1679663059.04060888,138081964,0.06,-0.35000000000000003,2.9,4.03,165.21,164.65,0.03,0.09,3
1679663059.14063787,138181993,0.03,-0.16,2.99,3.67,165.21,164.70000000000002,0.03,0.08,3
1679663059.24059176,138281947,0.1,-0.12,2.75,3.13,165.21,164.79,0.03,0.08,3
1679663059.34061480,138381970,0.05,-0.06,3.06,2.39,165.21,164.81,0.03,0.07,3
1679663059.44050384,138481859,0.02,0.27,3.34,2.29,165.21,164.86,0.05,0.06,3
1679663059.54057479,138581930,0.01,0.29,3.13,2.75,165.21,164.89000000000001,0.05,0.06,3
1679663059.64061880,138681974,0.0,0.13,2.75,2.69,165.21,164.92000000000002,0.05,0.07,3
1679663059.74064779,138782003,0.09,-0.01,2.5100000000000002,2.15,165.21,164.97,0.05,0.07,3
1679663059.84064198,138881997,0.3,0.14,2.21,1.86,165.21,165.05,0.05,0.06,3
1679663059.94061685,138981972,0.36,0.26,1.74,1.54,165.21,165.12,0.05,0.06,3
1679663060.04061675,139081972,0.19,0.17,1.58,1.12,165.21,165.17000000000002,0.05,0.06,3
1679663060.14061594,139181971,0.1,0.02,1.57,0.9500000000000001,165.20000000000002,165.22,0.05,0.05,3
1679663060.24058676,139281942,0.05,-0.02,1.72,1.1300000000000001,165.16,165.27,0.04,0.04,3
1679663060.34063792,139381993,0.02,-0.11,1.95,1.49,165.15,165.32,0.04,0.04,3
1679663060.44055581,139481911,0.01,-0.27,1.93,1.85,165.04,165.35,0.04,0.04,3
1679663060.54062581,139581981,0.0,-0.32,1.67,1.93,164.49,165.41,0.04,0.03,3
1679663060.64058876,139681944,0.0,-0.32,1.53,1.72,163.06,165.28,0.03,0.03,3
1679663060.74067092,139782026,0.0,-0.23,1.57,1.41,161.17000000000002,164.95000000000002,0.03,0.04,3
1679663060.84063792,139881993,0.0,-0.25,1.59,1.43,159.32,164.28,0.03,0.05,3
1679663060.94063282,139981988,0.22,-0.41000000000000003,1.8,1.51,157.13,163.32,0.03,0.04,3
1679663061.04042888,140081784,0.59,-0.06,2.15,1.75,154.66,162.12,0.03,0.03,3
1679663061.14021277,140181568,0.75,0.39,1.99,2.1,152.91,160.66,0.03,0.03,3
1679663061.24022484,140281580,0.81,0.8200000000000001,1.83,2.06,152.04,159.09,0.02,0.03,3
1679663061.34029579,140381651,0.67,0.75,1.86,1.62,151.93,157.57,0.02,0.06,3
1679663061.44029689,140481652,0.44,0.8200000000000001,1.59,1.52,151.93,156.22,0.03,0.07,3
1679663061.54033184,140581687,0.22,0.3,0.9500000000000001,1.25,151.93,154.94,0.03,0.1,3
1679663061.64048386,140681839,0.11,0.0,0.9400000000000001,0.41000000000000003,151.93,153.71,0.04,0.15,3
1679663061.74047279,140781828,0.05,-0.17,1.5,-0.07,151.93,152.59,0.04,0.17,3
1679663061.84035182,140881707,0.03,-0.2,1.6600000000000001,0.5,151.93,151.53,0.04,0.16,3
1679663061.94026279,140981618,0.01,-0.64,0.9500000000000001,0.92,151.93,150.58,0.04,0.2,3
1679663062.04024577,141081601,0.0,-0.78,0.48,0.31,151.93,149.73,0.04,0.25,3
1679663062.14022589,141181581,0.0,-0.5700000000000001,0.24,-0.56,151.93,149.0,0.04,0.28,3
1679663062.24026179,141281617,0.01,0.0,0.12,-0.96,151.93,148.41,0.06,0.29,3
1679663062.34044886,141381804,0.18,0.41000000000000003,0.06,-1.08,151.93,147.88,0.06,0.32,3
1679663062.44059396,141481949,0.81,0.59,0.03,-1.0,151.93,147.44,0.05,0.34,3
1679663062.54068589,141582041,1.37,1.1300000000000001,0.01,-0.76,151.93,147.03,0.05,0.36,3
1679663062.64062381,141681979,1.6300000000000001,1.73,0.0,-0.51,151.93,146.73,0.05,0.38,3
1679663062.74064398,141781999,1.7,2.15,0.0,-0.14,151.93,146.45000000000002,0.05,0.4,3
1679663062.84030175,141881657,1.52,2.35,0.0,0.12,151.93,146.28,0.05,0.43,3
1679663062.94024396,141981599,0.78,2.04,0.32,0.3,151.87,146.25,0.05,0.44,3
1679663063.04022789,142081583,0.4,0.78,0.98,0.56,151.11,146.26,0.05,0.45,3
1679663063.14038897,142181744,0.2,0.05,1.29,1.37,149.52,146.21,0.05,0.44,3
1679663063.24032092,142281676,0.21,-0.36,1.4000000000000001,1.82,147.91,145.96,0.04,0.44,3
1679663063.34046292,142381818,0.73,-0.2,1.1500000000000001,1.6300000000000001,146.07,145.58,0.04,0.43,3
1679663063.44050193,142481857,1.81,0.66,0.66,0.99,143.41,145.04,0.04,0.42,3
1679663063.54044580,142581801,2.38,2.0300000000000002,0.45,0.18,139.98,144.18,0.04,0.42,3
1679663063.64037681,142681732,2.54,2.95,0.49,-0.32,136.06,142.89000000000001,0.04,0.4,3
1679663063.74038792,142781743,2.5100000000000002,3.0700000000000003,0.7000000000000001,-0.26,132.83,141.18,0.04,0.4,3
1679663063.84029198,142881647,2.27,2.9,1.3,0.22,130.48,139.26,0.04,0.42,3
1679663063.94022584,142981581,1.98,2.47,2.15,1.02,129.01,137.26,0.04,0.45,3
1679663064.04026890,143081624,1.77,2.31,2.72,2.24,128.43,135.33,0.03,0.47000000000000003,3
1679663064.14032483,143181680,1.75,1.9000000000000001,3.17,3.0700000000000003,128.41,133.41,0.03,0.5,3
1679663064.24039888,143281754,1.6500000000000001,1.95,3.49,3.4,128.41,131.65,0.03,0.52,3
1679663064.34053898,143381894,1.45,1.7,3.63,3.5700000000000003,128.41,129.91,0.03,0.54,3
