timestamp,TimeUS,I,Status,GMS,GWk,NSats,HDop,Lat,Lng,Alt,Spd,GCrs,VZ,Yaw,U
1679662993.79999995,72841355,0,3,479011800,2254,16,0.66,42.6887255,-84.4915685,263.16,0.024351593106985092,199.17901611328125,0.06100000441074371,0.0,1
1679662994.00015092,73041506,0,3,479012000,2254,16,0.66,42.688725399999996,-84.49156839999999,263.17,0.03420526161789894,195.25514221191406,0.0990000069141388,0.0,1
1679662994.20026398,73241619,0,3,479012200,2254,16,0.66,42.688725399999996,-84.49156839999999,263.16,0.02640075795352459,204.62356567382812,0.0860000029206276,0.0,1
1679662994.40033484,73441690,0,3,479012400,2254,16,0.66,42.688725399999996,-84.49156839999999,263.16,0.011704700998961926,250.01690673828125,-0.03100000135600567,0.0,1
1679662994.60040379,73641759,0,3,479012600,2254,16,0.66,42.688725399999996,-84.49156839999999,263.17,0.013416407629847527,296.5650634765625,0.029000001028180122,0.0,1
1679662994.79993677,73841292,0,3,479012800,2254,16,0.66,42.688725399999996,-84.49156839999999,263.19,0.019723083823919296,210.46556091308594,0.07100000232458115,0.0,1
1679662994.99997783,74041333,0,3,479013000,2254,16,0.66,42.688725399999996,-84.49156839999999,263.18,0.015264337882399559,211.60751342773438,0.013000000268220901,0.0,1
1679662995.20004487,74241400,0,3,479013200,2254,16,0.66,42.688725399999996,-84.49156839999999,263.19,0.030083218589425087,195.42218017578125,0.04500000178813934,0.0,1
1679662995.38049078,74421846,0,3,479013400,2254,16,0.66,42.688725399999996,-84.4915683,263.21,0.028635643422603607,192.0947723388672,0.09600000083446503,0.0,1
1679662995.60001898,74641374,0,3,479013600,2254,16,0.66,42.688725399999996,-84.4915683,263.21,0.018384777009487152,225.0,0.024000000208616257,0.0,1
1679662995.78061485,74821970,0,3,479013800,2254,16,0.66,42.688725399999996,-84.4915683,263.2,0.007280109915882349,164.05459594726562,0.04500000178813934,0.0,1
1679662995.99999285,75041348,0,3,479014000,2254,16,0.66,42.688725399999996,-84.4915683,263.2,0.006708203814923763,63.4349479675293,0.046000003814697266,0.0,1
1679662996.20010281,75241458,0,3,479014200,2254,17,0.66,42.688725399999996,-84.4915683,263.21,0.02941088192164898,215.31121826171875,0.010000000707805157,0.0,1
1679662996.40011692,75441472,0,3,479014400,2254,17,0.66,42.688725399999996,-84.49156839999999,263.22,0.04219004884362221,264.5596923828125,0.07600000500679016,0.0,1
1679662996.60026383,75641619,0,3,479014600,2254,17,0.66,42.688725399999996,-84.49156839999999,263.22,0.013892443850636482,30.256439208984375,0.0560000017285347,0.0,1
1679662996.77996492,75821320,0,3,479014800,2254,17,0.66,42.6887255,-84.4915683,263.21,0.018973667174577713,108.4349365234375,0.003000000026077032,0.0,1
1679662997.00000882,76041364,0,3,479015000,2254,17,0.66,42.6887255,-84.4915683,263.21,0.0394081249833107,215.70669555664062,0.032999999821186066,0.0,1
1679662997.20029783,76241653,0,3,479015200,2254,17,0.66,42.6887255,-84.4915683,263.22,0.027802878990769386,322.3057556152344,0.0820000022649765,0.0,1
1679662997.40029788,76441653,0,3,479015400,2254,17,0.66,42.6887255,-84.49156839999999,263.21,0.004999999888241291,216.86990356445312,0.08300000429153442,0.0,1
1679662997.60013080,76641486,0,3,479015600,2254,17,0.62,42.6887255,-84.4915683,263.22,0.004472136031836271,243.43496704101562,-0.01600000075995922,0.0,1
1679662997.80022192,76841577,0,3,479015800,2254,17,0.62,42.6887255,-84.4915683,263.22,0.010198039934039116,281.3099365234375,0.003000000026077032,0.0,1
1679662998.02045178,77061807,0,3,479016000,2254,17,0.62,42.6887255,-84.4915683,263.23,0.02121320553123951,188.13011169433594,0.07200000435113907,0.0,1
1679662998.20035577,77241711,0,3,479016200,2254,17,0.62,42.6887255,-84.4915683,263.22,0.012727922759950161,225.0,0.05100000277161598,0.0,1
1679662998.40022492,77441580,0,3,479016400,2254,17,0.62,42.688725399999996,-84.4915683,263.24,0.07009279727935791,194.0362548828125,-0.1340000033378601,0.0,1
1679662998.60019588,77641551,0,3,479016600,2254,17,0.62,42.6887252,-84.4915683,263.36,0.11806777864694595,190.73890686035156,-0.9340000152587891,0.0,1
1679662998.80024981,77841605,0,3,479016800,2254,17,0.62,42.688725,-84.49156839999999,263.53000000000003,0.16629192233085632,222.80677795410156,-0.6730000376701355,0.0,1
1679662999.00061488,78041970,0,3,479017000,2254,17,0.62,42.688724699999995,-84.4915686,263.65,0.2219955027103424,198.10848999023438,-0.47300001978874207,0.0,1
1679662999.20036387,78241719,0,3,479017200,2254,17,0.62,42.6887244,-84.4915688,263.73,0.17719200253486633,204.684814453125,-0.33900001645088196,0.0,1
1679662999.40025592,78441611,0,3,479017400,2254,17,0.62,42.688724,-84.4915688,263.78000000000003,0.22302018105983734,180.77076721191406,-0.07900000363588333,0.0,1
1679662999.60000992,78641365,0,3,479017600,2254,17,0.62,42.6887237,-84.4915686,263.8,0.20600971579551697,143.6863555908203,-0.023000001907348633,0.0,1
1679662999.80012584,78841481,0,3,479017800,2254,17,0.62,42.6887234,-84.4915681,263.8,0.24460990726947784,126.35456848144531,0.06599999964237213,0.0,1
1679663000.00017881,79041534,0,3,479018000,2254,17,0.62,42.6887232,-84.4915675,263.79,0.256534606218338,101.92315673828125,0.026000000536441803,0.0,1
1679663000.19995880,79241314,0,3,479018200,2254,17,0.62,42.6887231,-84.4915669,263.79,0.2647961676120758,115.50054168701172,0.0990000069141388,0.0,1
1679663000.39998388,79441339,0,3,479018400,2254,17,0.62,42.6887228,-84.4915663,263.79,0.23331096768379211,122.39583587646484,0.010000000707805157,0.0,1
1679663000.60006189,79641417,0,3,479018600,2254,17,0.62,42.6887226,-84.49156579999999,263.81,0.20927494764328003,141.5967254638672,-0.04200000315904617,0.0,1
1679663000.80017686,79841532,0,3,479018800,2254,17,0.62,42.688722299999995,-84.4915655,263.84000000000003,0.18179383873939514,136.56019592285156,-0.2110000103712082,0.0,1
1679663001.00001097,80041366,0,3,479019000,2254,17,0.62,42.688722,-84.4915652,263.9,0.15611855685710907,152.12179565429688,-0.3930000066757202,0.0,1
1679663001.20026898,80241624,0,3,479019200,2254,17,0.62,42.688721799999996,-84.4915649,263.99,0.17682760953903198,136.3748321533203,-0.30900001525878906,0.0,1
1679663001.40033698,80441692,0,3,479019400,2254,17,0.62,42.6887215,-84.4915645,264.06,0.24276943504810333,137.50404357910156,-0.4240000247955322,0.0,1
1679663001.60039687,80641752,0,3,479019600,2254,17,0.62,42.688721199999996,-84.49156409999999,264.17,0.21957232058048248,131.6768798828125,-0.4310000240802765,0.0,1
1679663001.80043197,80841787,0,3,479019800,2254,17,0.62,42.688721,-84.4915637,264.24,0.16037768125534058,122.00537109375,-0.33900001645088196,0.0,1
1679663001.99994493,81041300,0,3,479020000,2254,17,0.62,42.6887207,-84.4915633,264.34000000000003,0.2603420913219452,141.23707580566406,-0.4970000088214874,0.0,1
1679663002.20024395,81241599,0,3,479020200,2254,17,0.62,42.6887203,-84.49156289999999,264.45,0.20604127645492554,137.95077514648438,-0.406000018119812,0.0,1
1679663002.40029693,81441652,0,3,479020400,2254,17,0.62,42.6887202,-84.4915626,264.56,0.059539906680583954,82.27816772460938,-0.49000000953674316,0.0,1
1679663002.60050488,81641860,0,3,479020600,2254,17,0.62,42.688719999999996,-84.4915625,264.65,0.1887882500886917,154.9281005859375,-0.4300000071525574,0.0,1
1679663002.80036187,81841717,0,3,479020800,2254,17,0.62,42.6887197,-84.49156219999999,264.75,0.19398196041584015,140.6482391357422,-0.3660000264644623,0.0,1
1679663003.00028396,82041639,0,3,479021000,2254,17,0.62,42.6887195,-84.491562,264.83,0.02828427217900753,135.0,-0.36000001430511475,0.0,1
1679663003.20029783,82241653,0,3,479021200,2254,17,0.62,42.688719299999995,-84.491562,264.89,0.1887432187795639,195.36163330078125,-0.23000000417232513,0.0,1
1679663003.40039587,82441751,0,3,479021400,2254,17,0.62,42.6887191,-84.491562,264.95,0.0971853956580162,139.5905303955078,-0.21300001442432404,0.0,1
1679663003.58057189,82621927,0,3,479021600,2254,17,0.62,42.6887189,-84.4915619,265.0,0.10604245215654373,159.00128173828125,-0.1120000034570694,0.0,1
1679663003.80029488,82841650,0,3,479021800,2254,17,0.62,42.688718699999995,-84.4915618,265.01,0.11001818627119064,181.04164123535156,-0.029000001028180122,0.0,1
1679663003.99997187,83041327,0,3,479022000,2254,17,0.62,42.6887185,-84.4915619,265.01,0.12624184787273407,196.56884765625,0.0820000022649765,0.0,1
1679663004.20005989,83241415,0,3,479022200,2254,17,0.62,42.6887182,-84.491562,265.0,0.1428040713071823,201.35438537597656,0.17800000309944153,0.0,1
1679663004.40015483,83441510,0,3,479022400,2254,17,0.62,42.6887179,-84.49156219999999,264.98,0.1803690791130066,208.83863830566406,0.20400001108646393,0.0,1
1679663004.60037875,83641734,0,3,479022600,2254,17,0.62,42.688717499999996,-84.4915625,264.95,0.23012389242649078,222.0057373046875,0.23400001227855682,0.0,1
1679663004.80025578,83841611,0,3,479022800,2254,17,0.62,42.6887172,-84.49156289999999,264.93,0.27139824628829956,221.26536560058594,0.20500001311302185,0.0,1
1679663004.97996187,84021317,0,3,479023000,2254,17,0.62,42.688716799999995,-84.4915633,264.91,0.23458048701286316,219.11756896972656,0.04100000113248825,0.0,1
1679663005.20040894,84241764,0,3,479023200,2254,17,0.62,42.6887164,-84.4915637,264.91,0.2810160219669342,217.48158264160156,0.10500000417232513,0.0,1
1679663005.40017295,84441528,0,3,479023400,2254,17,0.62,42.688716,-84.49156409999999,264.92,0.25660282373428345,216.60195922851562,-0.049000002443790436,0.0,1
1679663005.60045075,84641806,0,3,479023600,2254,17,0.62,42.688715599999995,-84.4915643,264.96,0.18117672204971313,207.97947692871094,-0.125,0.0,1
1679663005.79997993,84841335,0,3,479023800,2254,17,0.62,42.6887153,-84.4915645,265.01,0.17304624617099762,210.56626892089844,-0.20800000429153442,0.0,1
1679663006.02042484,85061780,0,3,479024000,2254,17,0.62,42.688714999999995,-84.4915647,265.07,0.11684606224298477,209.19749450683594,-0.2800000011920929,0.0,1
1679663006.20049882,85241854,0,3,479024200,2254,17,0.62,42.6887147,-84.49156479999999,265.15,0.15009663999080658,212.20770263671875,-0.30300000309944153,0.0,1
1679663006.40001392,85441369,0,3,479024400,2254,17,0.62,42.688714499999996,-84.491565,265.23,0.1292942464351654,208.15069580078125,-0.3500000238418579,0.0,1
1679663006.60029793,85641653,0,3,479024600,2254,17,0.62,42.6887143,-84.4915651,265.3,0.041677333414554596,210.25643920898438,-0.24900001287460327,0.0,1
1679663006.80027294,85841628,0,3,479024800,2254,17,0.62,42.6887142,-84.4915651,265.36,0.08987212926149368,222.7454376220703,-0.2880000174045563,0.0,1
1679663007.00038290,86041738,0,3,479025000,2254,17,0.62,42.6887141,-84.49156529999999,265.44,0.10360019654035568,216.75930786132812,-0.3880000114440918,0.0,1
1679663007.20044184,86241797,0,3,479025200,2254,17,0.62,42.688713899999996,-84.4915655,265.51,0.08184131234884262,234.9506378173828,-0.3060000240802765,0.0,1
1679663007.40026188,86441617,0,3,479025400,2254,17,0.62,42.688713799999995,-84.4915656,265.56,0.085959292948246,209.2488250732422,-0.14900000393390656,0.0,1
1679663007.60025287,86641608,0,3,479025600,2254,17,0.62,42.6887136,-84.4915656,265.62,0.08980534970760345,172.32102966308594,-0.1080000028014183,0.0,1
1679663007.80029488,86841650,0,3,479025800,2254,17,0.62,42.6887134,-84.4915655,265.65,0.10920165479183197,159.07550048828125,-0.10000000149011612,0.0,1
1679663008.00049996,87041855,0,3,479026000,2254,17,0.62,42.688713299999996,-84.49156529999999,265.68,0.07045566290616989,145.40769958496094,0.052000001072883606,0.0,1
1679663008.20037484,87241730,0,3,479026200,2254,17,0.62,42.688713199999995,-84.4915652,265.69,0.05047772079706192,146.30992126464844,0.15400001406669617,0.0,1
1679663008.39997292,87441328,0,3,479026400,2254,17,0.62,42.6887131,-84.4915651,265.66,0.06794115900993347,132.61404418945312,0.13700000941753387,0.0,1
1679663008.60004282,87641398,0,3,479026600,2254,17,0.62,42.688713,-84.4915649,265.64,0.06560488045215607,127.5685806274414,0.30400002002716064,0.0,1
1679663008.80012798,87841483,0,3,479026800,2254,17,0.62,42.6887129,-84.4915647,265.6,0.07310950756072998,130.00625610351562,0.20100000500679016,0.0,1
1679663009.00018692,88041542,0,3,479027000,2254,17,0.62,42.688712699999996,-84.4915645,265.58,0.09847334772348404,145.3416290283203,0.17800000309944153,0.0,1
1679663009.19996095,88241316,0,3,479027200,2254,17,0.62,42.688712599999995,-84.4915644,265.56,0.08653323352336884,146.30992126464844,0.1469999998807907,0.0,1
1679663009.39997387,88441329,0,3,479027400,2254,17,0.62,42.6887124,-84.4915644,265.54,0.04404543340206146,140.52752685546875,0.15700000524520874,0.0,1
1679663009.60003996,88641395,0,3,479027600,2254,17,0.62,42.6887123,-84.4915643,265.53000000000003,0.03080584481358528,125.7538833618164,0.06599999964237213,0.0,1
1679663009.80015683,88841512,0,3,479027800,2254,17,0.62,42.6887123,-84.4915643,265.53000000000003,0.03224903345108032,187.12503051757812,0.014000000432133675,0.0,1
1679663010.00007486,89041430,0,3,479028000,2254,17,0.62,42.6887122,-84.4915642,265.54,0.03106445074081421,56.82148361206055,0.03400000184774399,0.0,1
1679663010.19998980,89241345,0,3,479028200,2254,17,0.62,42.6887123,-84.4915642,265.55,0.08528774976730347,355.2921447753906,0.08500000089406967,0.0,1
1679663010.37998581,89421341,0,3,479028400,2254,17,0.62,42.6887125,-84.4915642,265.55,0.14977650344371796,351.1665954589844,0.04000000283122063,0.0,1
1679663010.60010982,89641465,0,3,479028600,2254,17,0.62,42.6887128,-84.4915642,265.56,0.21119186282157898,357.5575866699219,0.0430000014603138,0.0,1
1679663010.80004096,89841396,0,3,479028800,2254,17,0.62,42.6887131,-84.4915642,265.56,0.2140093594789505,0.5354589223861694,0.01900000125169754,0.0,1
1679663010.99995685,90041312,0,3,479029000,2254,17,0.62,42.6887135,-84.49156409999999,265.57,0.29948291182518005,3.2541158199310303,0.015000000596046448,0.0,1
1679663011.19996881,90241324,0,3,479029200,2254,17,0.62,42.688714,-84.491564,265.57,0.2568676769733429,13.278836250305176,0.07600000500679016,0.0,1
1679663011.40007591,90441431,0,3,479029400,2254,17,0.62,42.688714399999995,-84.4915637,265.58,0.2826676666736603,27.38091468811035,-0.0430000014603138,0.0,1
1679663011.60016680,90641522,0,3,479029600,2254,17,0.62,42.6887148,-84.49156339999999,265.6,0.26299241185188293,20.709035873413086,0.12700000405311584,0.0,1
1679663011.78139782,90822753,0,3,479029800,2254,17,0.62,42.6887153,-84.4915631,265.59000000000003,0.3017615079879761,33.37410354614258,-0.052000001072883606,0.0,1
1679663011.99997878,91041334,0,3,479030000,2254,17,0.62,42.688715699999996,-84.4915628,265.61,0.24549135565757751,16.811017990112305,0.07800000160932541,0.0,1
1679663012.20000887,91241364,0,3,479030200,2254,17,0.62,42.688716,-84.4915627,265.6,0.23025423288345337,5.9829559326171875,0.125,0.0,1
1679663012.40042377,91441779,0,3,479030400,2254,17,0.62,42.6887164,-84.4915627,265.58,0.25007200241088867,1.3748347759246826,0.07800000160932541,0.0,1
1679663012.60047197,91641827,0,3,479030600,2254,17,0.62,42.688716799999995,-84.4915627,265.58,0.2333795428276062,348.8826599121094,0.07900000363588333,0.0,1
1679663012.80021596,91841571,0,3,479030800,2254,17,0.62,42.6887172,-84.49156289999999,265.57,0.1888597309589386,335.60626220703125,0.08000000566244125,0.0,1
1679663013.00014997,92041505,0,3,479031000,2254,17,0.62,42.6887174,-84.4915632,265.56,0.159154012799263,309.3907165527344,-0.013000000268220901,0.0,1
1679663013.18115878,92222514,0,3,479031200,2254,17,0.62,42.688717499999996,-84.49156339999999,265.57,0.10801851749420166,358.9390869140625,-0.04500000178813934,0.0,1
1679663013.40031290,92441668,0,3,479031400,2254,17,0.62,42.6887176,-84.4915631,265.58,0.2118537276983261,84.85453796386719,0.13500000536441803,0.0,1
1679663013.60030890,92641664,0,3,479031600,2254,17,0.62,42.6887176,-84.4915621,265.56,0.5341610312461853,95.15557098388672,0.026000000536441803,0.0,1
1679663013.80016780,92841523,0,3,479031800,2254,17,0.62,42.688717499999996,-84.4915607,265.58,0.5932832360267639,95.0282974243164,0.05100000277161598,0.0,1
1679663014.00022483,93041580,0,3,479032000,2254,17,0.62,42.6887174,-84.49155909999999,265.59000000000003,0.7039730548858643,93.01277923583984,-0.005000000353902578,0.0,1
1679663014.20028687,93241642,0,3,479032200,2254,17,0.62,42.6887173,-84.4915575,265.6,0.5864350199699402,94.00904083251953,0.032999999821186066,0.0,1
1679663014.40038180,93441737,0,3,479032400,2254,17,0.62,42.6887172,-84.49155619999999,265.6,0.4866795837879181,96.0151596069336,0.09700000286102295,0.0,1
1679663014.60028696,93641642,0,3,479032600,2254,17,0.62,42.6887171,-84.49155499999999,265.59000000000003,0.446878045797348,93.59232330322266,0.12200000882148743,0.0,1
1679663014.80023980,93841595,0,3,479032800,2254,17,0.62,42.688716899999996,-84.491554,265.59000000000003,0.37732744216918945,101.30992126464844,0.16500000655651093,0.0,1
1679663015.00006485,94041420,0,3,479033000,2254,17,0.62,42.688716799999995,-84.4915532,265.58,0.32127872109413147,100.40054321289062,0.14100000262260437,0.0,1
1679663015.18133187,94222687,0,3,479033200,2254,17,0.62,42.6887166,-84.4915525,265.56,0.2792293131351471,108.37004852294922,0.04200000315904617,0.0,1
1679663015.38142991,94422785,0,3,479033400,2254,17,0.62,42.6887164,-84.49155189999999,265.57,0.2351701557636261,119.83552551269531,0.032999999821186066,0.0,1
1679663015.58126783,94622623,0,3,479033600,2254,17,0.62,42.688716199999995,-84.4915515,265.58,0.17240940034389496,106.85839080810547,0.010000000707805157,0.0,1
1679663015.78115296,94822508,0,3,479033800,2254,17,0.62,42.6887161,-84.4915511,265.59000000000003,0.1326725333929062,99.10733032226562,0.024000000208616257,0.0,1
1679663016.00012589,95041481,0,3,479034000,2254,17,0.62,42.688716,-84.4915508,265.61,0.1310267299413681,77.66090393066406,-0.03400000184774399,0.0,1
1679663016.20016885,95241524,0,3,479034200,2254,17,0.62,42.6887161,-84.4915505,265.62,0.17306646704673767,56.309932708740234,-0.0430000014603138,0.0,1
1679663016.38044095,95421796,0,3,479034400,2254,17,0.62,42.688716299999996,-84.49155019999999,265.64,0.18406793475151062,29.62905502319336,0.05300000309944153,0.0,1
1679663016.59999180,95641347,0,3,479034600,2254,17,0.62,42.6887166,-84.49154999999999,265.65,0.2149534970521927,29.546512603759766,0.015000000596046448,0.0,1
1679663016.78111076,95822466,0,3,479034800,2254,17,0.62,42.688716799999995,-84.4915498,265.66,0.15593910217285156,17.156755447387695,0.03800000250339508,0.0,1
1679663016.98119283,96022548,0,3,479035000,2254,17,0.62,42.688717,-84.4915497,265.66,0.11907981336116791,352.2781677246094,-0.05300000309944153,0.0,1
1679663017.18134594,96222701,0,3,479035200,2254,17,0.62,42.6887171,-84.4915499,265.69,0.1487615555524826,285.998291015625,0.07800000160932541,0.0,1
1679663017.38113594,96422491,0,3,479035400,2254,17,0.62,42.6887171,-84.4915503,265.68,0.21539035439491272,261.4560852050781,0.013000000268220901,0.0,1
1679663017.58116698,96622522,0,3,479035600,2254,17,0.62,42.688717,-84.4915509,265.69,0.2665802240371704,251.63302612304688,0.06400000303983688,0.0,1
1679663017.78133488,96822690,0,3,479035800,2254,17,0.62,42.6887167,-84.4915515,265.7,0.3003231883049011,241.13070678710938,0.018000001087784767,0.0,1
1679663017.98132682,97022682,0,3,479036000,2254,17,0.62,42.6887164,-84.491552,265.71,0.30460795760154724,233.54391479492188,0.08300000429153442,0.0,1
1679663018.18131995,97222675,0,3,479036200,2254,17,0.62,42.688716,-84.49155259999999,265.71,0.3457687199115753,231.34019470214844,0.03700000047683716,0.0,1
1679663018.37994385,97421299,0,3,479036400,2254,17,0.62,42.688715599999995,-84.49155329999999,265.72,0.36989864706993103,226.2049102783203,0.017000000923871994,0.0,1
1679663018.57998085,97621336,0,3,479036600,2254,17,0.62,42.688715099999996,-84.4915539,265.72,0.3796063959598541,233.46217346191406,0.06300000101327896,0.0,1
1679663018.80055881,97841914,0,3,479036800,2254,17,0.62,42.6887147,-84.4915547,265.72,0.41020241379737854,244.74685668945312,0.10000000149011612,0.0,1
1679663018.98014593,98021501,0,3,479037000,2254,17,0.62,42.688714399999995,-84.49155569999999,265.71,0.4106689989566803,256.9112854003906,0.06300000101327896,0.0,1
1679663019.20025492,98241610,0,3,479037200,2254,17,0.62,42.6887142,-84.4915566,265.71,0.4380924701690674,254.9169464111328,0.09700000286102295,0.0,1
1679663019.38000178,98421357,0,3,479037400,2254,17,0.62,42.6887141,-84.4915577,265.7,0.45543935894966125,267.4831237792969,0.11500000208616257,0.0,1
1679663019.60041881,98641774,0,3,479037600,2254,17,0.62,42.688714,-84.49155879999999,265.7,0.46247702836990356,267.3974304199219,0.06800000369548798,0.0,1
1679663019.78132987,98822685,0,3,479037800,2254,17,0.62,42.688714,-84.4915599,265.7,0.4733392000198364,275.69854736328125,0.1120000034570694,0.0,1
1679663019.98131084,99022666,0,3,479038000,2254,17,0.62,42.6887142,-84.4915609,265.68,0.41713789105415344,290.7811279296875,0.1120000034570694,0.0,1
1679663020.20013475,99241490,0,3,479038200,2254,17,0.62,42.688714499999996,-84.49156169999999,265.67,0.399472177028656,297.9122009277344,0.2070000171661377,0.0,1
1679663020.40023685,99441592,0,3,479038400,2254,17,0.62,42.6887148,-84.49156239999999,265.65,0.3298257291316986,304.7500915527344,0.0430000014603138,0.0,1
1679663020.60048389,99641839,0,3,479038600,2254,17,0.62,42.688715099999996,-84.49156289999999,265.66,0.23114065825939178,310.78948974609375,0.014000000432133675,0.0,1
1679663020.80035377,99841709,0,3,479038800,2254,17,0.62,42.6887154,-84.4915632,265.66,0.19944925606250763,316.2188720703125,0.052000001072883606,0.0,1
1679663020.98001480,100021370,0,3,479039000,2254,17,0.62,42.688715599999995,-84.4915635,265.67,0.18005555868148804,319.0535583496094,0.03500000014901161,0.0,1
1679663021.18000698,100221362,0,3,479039200,2254,17,0.62,42.6887158,-84.4915637,265.66,0.13903237879276276,324.36651611328125,0.012000000104308128,0.0,1
1679663021.38004780,100421403,0,3,479039400,2254,17,0.62,42.688716,-84.4915639,265.67,0.11871394515037537,325.640625,0.013000000268220901,0.0,1
1679663021.60018682,100641542,0,3,479039600,2254,17,0.62,42.6887161,-84.491564,265.67,0.10241582989692688,333.9353332519531,0.11800000816583633,0.0,1
1679663021.79994392,100841299,0,3,479039800,2254,17,0.62,42.688716199999995,-84.49156409999999,265.67,0.049091752618551254,3.5035312175750732,0.01900000125169754,0.0,1
1679663022.02009583,101061451,0,3,479040000,2254,17,0.62,42.688716299999996,-84.491564,265.68,0.026683328673243523,102.9946060180664,0.09200000762939453,0.0,1
1679663022.18119597,101222551,0,3,479040200,2254,17,0.62,42.688716199999995,-84.49156409999999,265.67,0.07692203670740128,195.8430938720703,0.020000001415610313,0.0,1
1679663022.38032389,101421679,0,3,479040400,2254,17,0.62,42.688716,-84.49156409999999,265.67,0.146328404545784,190.2348175048828,0.003000000026077032,0.0,1
1679663022.58136582,101622721,0,3,479040600,2254,17,0.62,42.688715699999996,-84.4915643,265.66,0.21641165018081665,200.2771759033203,-0.0020000000949949026,0.0,1
1679663022.78112292,101822478,0,3,479040800,2254,17,0.62,42.6887153,-84.4915645,265.66,0.247935488820076,197.850341796875,0.0820000022649765,0.0,1
1679663023.00030088,102041656,0,3,479041000,2254,17,0.62,42.6887148,-84.4915647,265.64,0.2657310664653778,201.64126586914062,0.0650000050663948,0.0,1
1679663023.20033884,102241694,0,3,479041200,2254,17,0.62,42.6887143,-84.491565,265.63,0.3187052011489868,200.76646423339844,0.07100000232458115,0.0,1
1679663023.40041685,102441772,0,3,479041400,2254,17,0.62,42.6887137,-84.4915652,265.61,0.33996766805648804,195.87596130371094,0.046000003814697266,0.0,1
1679663023.60028291,102641638,0,3,479041600,2254,17,0.62,42.688713199999995,-84.4915655,265.6,0.3516603410243988,204.88894653320312,0.03400000184774399,0.0,1
1679663023.80024576,102841601,0,3,479041800,2254,17,0.62,42.6887125,-84.4915659,265.59000000000003,0.40582388639450073,199.7298126220703,0.09800000488758087,0.0,1
1679663024.00028086,103041636,0,3,479042000,2254,17,0.62,42.6887118,-84.4915664,265.57,0.516575276851654,207.3091278076172,0.030000001192092896,0.0,1
1679663024.20018482,103241540,0,3,479042200,2254,17,0.62,42.6887109,-84.4915669,265.56,0.5322227478027344,198.06048583984375,0.11800000816583633,0.0,1
1679663024.40001893,103441374,0,3,479042400,2254,17,0.62,42.6887099,-84.4915674,265.56,0.5850983262062073,199.36399841308594,0.04400000348687172,0.0,1
1679663024.59997177,103641327,0,3,479042600,2254,17,0.62,42.688708999999996,-84.49156789999999,265.57,0.4857828915119171,205.35179138183594,-0.003000000026077032,0.0,1
1679663024.80000997,103841365,0,3,479042800,2254,17,0.62,42.688708299999995,-84.49156839999999,265.56,0.4281682074069977,209.67849731445312,-0.0010000000474974513,0.0,1
1679663025.00011396,104041469,0,3,479043000,2254,17,0.62,42.688707799999996,-84.49156889999999,265.55,0.3102579712867737,228.3971405029297,0.07000000029802322,0.0,1
1679663025.20016789,104241523,0,3,479043200,2254,17,0.62,42.6887076,-84.4915695,265.54,0.24838680028915405,255.06858825683594,0.09600000083446503,0.0,1
1679663025.38017797,104421533,0,3,479043400,2254,17,0.62,42.6887076,-84.49157,265.53000000000003,0.1883109211921692,295.4764404296875,0.052000001072883606,0.0,1
1679663025.60024595,104641601,0,3,479043600,2254,17,0.62,42.688707799999996,-84.49157029999999,265.52,0.16776472330093384,331.90740966796875,0.013000000268220901,0.0,1
1679663025.80028582,104841641,0,3,479043800,2254,17,0.62,42.6887081,-84.4915704,265.52,0.16602711379528046,1.0353530645370483,0.03800000250339508,0.0,1
1679663026.00050282,105041858,0,3,479044000,2254,17,0.62,42.688708399999996,-84.49157029999999,265.52,0.18522420525550842,24.904767990112305,0.12600000202655792,0.0,1
1679663026.20038390,105241739,0,3,479044200,2254,17,0.62,42.6887087,-84.49157009999999,265.51,0.18645374476909637,40.86793899536133,0.020000001415610313,0.0,1
1679663026.40015292,105441508,0,3,479044400,2254,17,0.62,42.688708899999995,-84.4915697,265.51,0.19416488707065582,55.491477966308594,-0.004000000189989805,0.0,1
1679663026.60024786,105641603,0,3,479044600,2254,17,0.62,42.6887091,-84.4915693,265.52,0.22063997387886047,65.64200592041016,0.07000000029802322,0.0,1
1679663026.80030084,105841656,0,3,479044800,2254,17,0.62,42.6887093,-84.4915688,265.51,0.3354116976261139,53.60840606689453,0.1080000028014183,0.0,1
1679663027.00038791,106041743,0,3,479045000,2254,17,0.62,42.6887097,-84.4915681,265.49,0.4008391201496124,53.93058776855469,0.07000000029802322,0.0,1
1679663027.20022583,106241581,0,3,479045200,2254,17,0.62,42.6887101,-84.49156719999999,265.49,0.47039666771888733,61.146514892578125,0.0950000062584877,0.0,1
1679663027.40014076,106441496,0,3,479045400,2254,17,0.62,42.6887106,-84.4915662,265.47,0.5286397933959961,60.04002380371094,-0.03700000047683716,0.0,1
1679663027.60027790,106641633,0,3,479045600,2254,17,0.62,42.688711,-84.491565,265.49,0.5186106562614441,69.57325744628906,0.08700000494718552,0.0,1
1679663027.80015993,106841515,0,3,479045800,2254,17,0.62,42.6887113,-84.4915639,265.48,0.48483094573020935,75.79177856445312,0.07000000029802322,0.0,1
1679663028.01998782,107061343,0,3,479046000,2254,17,0.62,42.6887115,-84.4915627,265.47,0.5364121794700623,74.53878021240234,0.1120000034570694,0.0,1
1679663028.19999194,107241347,0,3,479046200,2254,17,0.62,42.6887118,-84.4915614,265.45,0.5556986927986145,70.55424499511719,0.18300001323223114,0.0,1
1679663028.40003991,107441395,0,3,479046400,2254,17,0.62,42.6887122,-84.4915602,265.42,0.5270768404006958,66.40174102783203,0.16200000047683716,0.0,1
1679663028.60012197,107641477,0,3,479046600,2254,17,0.62,42.688712599999995,-84.491559,265.4,0.5384988188743591,64.24388122558594,0.0820000022649765,0.0,1
1679663028.78132176,107822677,0,3,479046800,2254,17,0.62,42.6887131,-84.491558,265.41,0.49154964089393616,57.3768310546875,0.021000001579523087,0.0,1
1679663028.98131776,108022673,0,3,479047000,2254,17,0.62,42.6887136,-84.491557,265.4,0.46689721941947937,60.909637451171875,-0.01900000125169754,0.0,1
1679663029.19998193,108241337,0,3,479047200,2254,17,0.62,42.6887141,-84.4915561,265.4,0.4676109552383423,50.72783279418945,0.08500000089406967,0.0,1
1679663029.38024879,108421604,0,3,479047400,2254,17,0.62,42.6887146,-84.4915553,265.41,0.39506202936172485,47.872642517089844,0.0020000000949949026,0.0,1
1679663029.58130193,108622657,0,3,479047600,2254,17,0.62,42.688714999999995,-84.4915548,265.41,0.3031996190547943,41.523685455322266,0.06800000369548798,0.0,1
1679663029.80037093,108841726,0,3,479047800,2254,17,0.62,42.6887155,-84.4915542,265.4,0.3622775375843048,49.141387939453125,0.07400000095367432,0.0,1
1679663030.00000787,109041363,0,3,479048000,2254,17,0.62,42.6887159,-84.4915537,265.4,0.2980268597602844,52.3610725402832,0.07500000298023224,0.0,1
1679663030.20003986,109241395,0,3,479048200,2254,17,0.62,42.688716199999995,-84.491553,265.39,0.36314183473587036,63.152706146240234,0.03100000135600567,0.0,1
1679663030.40014291,109441498,0,3,479048400,2254,17,0.62,42.6887165,-84.49155209999999,265.39,0.4082401692867279,73.78469848632812,0.0990000069141388,0.0,1
1679663030.60011792,109641473,0,3,479048600,2254,17,0.62,42.6887167,-84.49155119999999,265.39,0.391085684299469,67.76329803466797,0.10700000822544098,0.0,1
1679663030.78129888,109822654,0,3,479048800,2254,17,0.62,42.688717,-84.4915503,265.37,0.36378565430641174,70.07071685791016,0.05300000309944153,0.0,1
1679663030.99996185,110041317,0,3,479049000,2254,17,0.62,42.6887172,-84.4915497,265.38,0.2493291199207306,60.96771240234375,0.04500000178813934,0.0,1
1679663031.20006084,110241416,0,3,479049200,2254,17,0.62,42.6887174,-84.4915494,265.38,0.12397580593824387,19.31185531616211,0.04200000315904617,0.0,1
1679663031.40018797,110441543,0,3,479049400,2254,17,0.62,42.6887176,-84.4915494,265.39,0.13553228974342346,354.9203796386719,0.010000000707805157,0.0,1
1679663031.60000992,110641365,0,3,479049600,2254,17,0.62,42.6887178,-84.49154949999999,265.4,0.11433722823858261,320.32275390625,-0.06100000441074371,0.0,1
1679663031.79995179,110841307,0,3,479049800,2254,17,0.62,42.6887179,-84.4915498,265.41,0.1210826188325882,311.9872131347656,0.09100000560283661,0.0,1
1679663032.00005698,111041412,0,3,479050000,2254,17,0.62,42.688718,-84.4915501,265.42,0.10387011617422104,293.8504638671875,-0.004000000189989805,0.0,1
1679663032.18001580,111221371,0,3,479050200,2254,17,0.62,42.688718099999996,-84.4915504,265.45,0.13250283896923065,288.02471923828125,0.00800000037997961,0.0,1
1679663032.40017986,111441535,0,3,479050400,2254,17,0.62,42.6887182,-84.4915509,265.46,0.23104111850261688,290.7882385253906,-0.01600000075995922,0.0,1
1679663032.60028696,111641642,0,3,479050600,2254,17,0.62,42.6887182,-84.4915515,265.47,0.2800714373588562,281.9518737792969,-0.006000000052154064,0.0,1
1679663032.80022693,111841582,0,3,479050800,2254,17,0.62,42.6887184,-84.4915523,265.49,0.36700549721717834,292.9320983886719,-0.08700000494718552,0.0,1
1679663033.00043893,112041794,0,3,479051000,2254,17,0.62,42.6887186,-84.4915532,265.52,0.4113891124725342,292.8876953125,0.01900000125169754,0.0,1
1679663033.20055795,112241913,0,3,479051200,2254,17,0.62,42.6887189,-84.4915542,265.53000000000003,0.48481443524360657,297.25213623046875,-0.003000000026077032,0.0,1
1679663033.40036893,112441724,0,3,479051400,2254,17,0.62,42.688719299999995,-84.4915553,265.55,0.5031948089599609,297.58355712890625,-0.03400000184774399,0.0,1
1679663033.60025287,112641608,0,3,479051600,2254,17,0.62,42.6887197,-84.4915564,265.57,0.5161134004592896,299.99273681640625,-0.006000000052154064,0.0,1
1679663033.80026579,112841621,0,3,479051800,2254,17,0.62,42.6887202,-84.4915576,265.58,0.5515668988227844,295.21771240234375,0.05900000408291817,0.0,1
1679663034.00042582,113041781,0,3,479052000,2254,17,0.62,42.688720599999996,-84.4915589,265.58,0.6023421287536621,300.31121826171875,0.0690000057220459,0.0,1
1679663034.20042491,113241780,0,3,479052200,2254,17,0.62,42.688721099999995,-84.4915603,265.57,0.7083078622817993,292.58251953125,0.09800000488758087,0.0,1
1679663034.40027785,113441633,0,3,479052400,2254,17,0.62,42.6887216,-84.491562,265.56,0.7330436706542969,290.19012451171875,0.08400000631809235,0.0,1
1679663034.60022593,113641581,0,3,479052600,2254,17,0.62,42.688722,-84.4915638,265.55,0.7986645102500916,287.1871337890625,0.16200000047683716,0.0,1
1679663034.80007577,113841431,0,3,479052800,2254,17,0.62,42.688722399999996,-84.49156579999999,265.54,0.8608513474464417,284.87567138671875,0.15800000727176666,0.0,1
1679663034.98008776,114021443,0,3,479053000,2254,17,0.62,42.6887227,-84.49156789999999,265.52,0.9460364580154419,282.390869140625,0.15000000596046448,0.0,1
1679663035.20007896,114241434,0,3,479053200,2254,17,0.62,42.6887231,-84.4915702,265.48,0.9206443428993225,280.5776062011719,0.09300000220537186,0.0,1
1679663035.39996791,114441323,0,3,479053400,2254,17,0.62,42.6887233,-84.49157249999999,265.46,0.9498216509819031,276.34686279296875,0.1810000091791153,0.0,1
1679663035.60001898,114641374,0,3,479053600,2254,17,0.62,42.688723499999995,-84.4915747,265.46,0.8544905185699463,278.54736328125,0.16200000047683716,0.0,1
1679663035.80014181,114841497,0,3,479053800,2254,17,0.62,42.688723599999996,-84.4915766,265.45,0.7543434500694275,273.41998291015625,0.08400000631809235,0.0,1
1679663036.00041890,115041774,0,3,479054000,2254,17,0.62,42.6887237,-84.49157819999999,265.44,0.5817740559577942,272.95587158203125,0.026000000536441803,0.0,1
1679663036.18132496,115222680,0,3,479054200,2254,17,0.62,42.6887238,-84.4915796,265.44,0.5461877584457397,273.7791748046875,-0.004000000189989805,0.0,1
1679663036.40025282,115441608,0,3,479054400,2254,17,0.62,42.6887238,-84.4915809,265.44,0.4991512894630432,276.44158935546875,0.055000003427267075,0.0,1
1679663036.60023594,115641591,0,3,479054600,2254,17,0.62,42.688724,-84.4915821,265.44,0.4826758801937103,279.5404052734375,-0.010000000707805157,0.0,1
1679663036.80031395,115841669,0,3,479054800,2254,17,0.62,42.688724099999995,-84.4915833,265.45,0.5661245584487915,274.9653625488281,0.02200000174343586,0.0,1
1679663037.00032282,116041678,0,3,479055000,2254,17,0.62,42.688724199999996,-84.4915848,265.43,0.6513378620147705,280.70611572265625,0.08300000429153442,0.0,1
1679663037.20014191,116241497,0,3,479055200,2254,17,0.62,42.6887245,-84.4915863,265.42,0.6280326843261719,282.97412109375,0.13100001215934753,0.0,1
1679663037.40021682,116441572,0,3,479055400,2254,17,0.62,42.6887246,-84.4915877,265.42,0.5409473180770874,273.391357421875,0.005000000353902578,0.0,1
1679663037.58000898,116621364,0,3,479055600,2254,17,0.62,42.688724699999995,-84.4915888,265.42,0.43910935521125793,281.0284423828125,0.005000000353902578,0.0,1
1679663037.80039191,116841747,0,3,479055800,2254,17,0.62,42.6887249,-84.49158969999999,265.42,0.28383269906044006,278.1015625,0.021000001579523087,0.0,1
1679663038.00051689,117041872,0,3,479056000,2254,17,0.62,42.6887249,-84.49159019999999,265.41,0.17442764341831207,260.4296875,0.006000000052154064,0.0,1
1679663038.20023489,117241590,0,3,479056200,2254,17,0.62,42.688724799999996,-84.4915905,265.43,0.17387638986110687,229.8990936279297,-0.08800000697374344,0.0,1
1679663038.40001988,117441375,0,3,479056400,2254,17,0.62,42.6887245,-84.4915908,265.47,0.15620820224285126,217.45677185058594,-0.08700000494718552,0.0,1
1679663038.60019588,117641551,0,3,479056600,2254,17,0.62,42.6887243,-84.4915912,265.48,0.2637593746185303,225.46083068847656,-0.06800000369548798,0.0,1
1679663038.80008388,117841439,0,3,479056800,2254,17,0.62,42.6887239,-84.4915918,265.5,0.3229674994945526,231.2847900390625,0.006000000052154064,0.0,1
1679663038.98113990,118022495,0,3,479057000,2254,17,0.62,42.688723599999996,-84.4915923,265.51,0.2748818099498749,221.46043395996094,-0.02200000174343586,0.0,1
1679663039.20006084,118241416,0,3,479057200,2254,17,0.62,42.6887232,-84.49159259999999,265.52,0.26145172119140625,203.91799926757812,-0.010000000707805157,0.0,1
1679663039.40012789,118441483,0,3,479057400,2254,17,0.62,42.6887227,-84.4915927,265.53000000000003,0.2754959166049957,187.7183380126953,0.009000000543892384,0.0,1
1679663039.60018086,118641536,0,3,479057600,2254,17,0.62,42.6887222,-84.4915927,265.53000000000003,0.29055291414260864,174.0735626220703,-0.006000000052154064,0.0,1
1679663039.80026793,118841623,0,3,479057800,2254,17,0.62,42.688721699999995,-84.49159259999999,265.54,0.3293706178665161,171.79608154296875,0.0010000000474974513,0.0,1
1679663040.02026176,119061617,0,3,479058000,2254,17,0.62,42.688721099999995,-84.4915923,265.55,0.3041200637817383,163.76992797851562,-0.04700000211596489,0.0,1
1679663040.20006084,119241416,0,3,479058200,2254,17,0.62,42.688720599999996,-84.49159209999999,265.55,0.25689104199409485,164.88180541992188,0.04800000041723251,0.0,1
1679663040.40014696,119441502,0,3,479058400,2254,17,0.62,42.6887202,-84.4915919,265.54,0.20843465626239777,162.69515991210938,0.07900000363588333,0.0,1
1679663040.60007787,119641433,0,3,479058600,2254,17,0.62,42.688719899999995,-84.4915917,265.53000000000003,0.1530555635690689,161.32827758789062,0.052000001072883606,0.0,1
1679663040.79996181,119841317,0,3,479058800,2254,17,0.62,42.6887197,-84.4915917,265.53000000000003,0.13384319841861725,186.43475341796875,0.09100000560283661,0.0,1
1679663041.00000191,120041357,0,3,479059000,2254,17,0.62,42.6887194,-84.4915917,265.51,0.14567087590694427,188.68637084960938,0.006000000052154064,0.0,1
1679663041.20011497,120241470,0,3,479059200,2254,17,0.62,42.6887192,-84.4915917,265.51,0.13416408002376556,190.3048553466797,0.09800000488758087,0.0,1
1679663041.40017486,120441530,0,3,479059400,2254,17,0.62,42.6887189,-84.4915917,265.5,0.11837652325630188,171.2538299560547,0.09300000220537186,0.0,1
1679663041.60028982,120641645,0,3,479059600,2254,17,0.62,42.688718699999995,-84.49159159999999,265.49,0.09708244353532791,168.111328125,0.14800000190734863,0.0,1
1679663041.80023479,120841590,0,3,479059800,2254,17,0.62,42.6887186,-84.49159139999999,265.48,0.09372299909591675,140.1944122314453,0.04700000211596489,0.0,1
1679663042.02019095,121061546,0,3,479060000,2254,17,0.62,42.6887184,-84.4915912,265.47,0.12310971319675446,136.9749298095703,0.024000000208616257,0.0,1
1679663042.20049977,121241855,0,3,479060200,2254,17,0.62,42.6887182,-84.49159089999999,265.47,0.16086331009864807,131.21942138671875,0.0430000014603138,0.0,1
1679663042.40030885,121441664,0,3,479060400,2254,17,0.62,42.688718,-84.4915906,265.47,0.19590048491954803,136.0341033935547,0.055000003427267075,0.0,1
1679663042.60014486,121641500,0,3,479060600,2254,17,0.62,42.6887177,-84.49159019999999,265.48,0.21727631986141205,132.5752410888672,0.046000003814697266,0.0,1
1679663042.80020785,121841563,0,3,479060800,2254,17,0.62,42.688717499999996,-84.49158969999999,265.48,0.25284186005592346,125.82744598388672,0.049000002443790436,0.0,1
1679663043.00029397,122041649,0,3,479061000,2254,17,0.62,42.6887171,-84.4915891,265.49,0.3201562464237213,125.07999420166016,0.13100001215934753,0.0,1
1679663043.20038581,122241741,0,3,479061200,2254,17,0.62,42.688716799999995,-84.4915884,265.47,0.3654066324234009,127.21485900878906,0.07300000637769699,0.0,1
1679663043.40069079,122442046,0,3,479061400,2254,17,0.62,42.688716299999996,-84.4915876,265.48,0.4221433699131012,128.363037109375,0.010000000707805157,0.0,1
1679663043.60023594,122641591,0,3,479061600,2254,17,0.62,42.6887158,-84.4915868,265.5,0.4470011591911316,133.7310028076172,0.09300000220537186,0.0,1
1679663043.80007982,122841435,0,3,479061800,2254,17,0.62,42.6887152,-84.49158589999999,265.5,0.46315979957580566,134.73757934570312,0.023000001907348633,0.0,1
1679663044.00017476,123041530,0,3,479062000,2254,17,0.62,42.6887147,-84.4915852,265.5,0.37975916266441345,129.9794158935547,-0.036000002175569534,0.0,1
1679663044.20002079,123241376,0,3,479062200,2254,17,0.62,42.6887143,-84.4915844,265.5,0.3421841859817505,117.68834686279297,0.0860000029206276,0.0,1
1679663044.38002086,123421376,0,3,479062400,2254,17,0.62,42.6887141,-84.49158369999999,265.49,0.2979530394077301,115.01688385009766,0.058000002056360245,0.0,1
1679663044.60006094,123641416,0,3,479062600,2254,17,0.62,42.688713899999996,-84.49158299999999,265.5,0.3080584704875946,88.88398742675781,0.1080000028014183,0.0,1
1679663044.80012178,123841477,0,3,479062800,2254,17,0.62,42.688714,-84.49158229999999,265.5,0.24126750230789185,82.1385726928711,0.0950000062584877,0.0,1
1679663045.00016975,124041525,0,3,479063000,2254,17,0.62,42.688714,-84.49158159999999,265.49,0.2545309364795685,74.27104187011719,0.10200000554323196,0.0,1
1679663045.19995475,124241310,0,3,479063200,2254,17,0.62,42.6887142,-84.49158109999999,265.5,0.21997272968292236,49.79423141479492,0.06300000101327896,0.0,1
1679663045.39999580,124441351,0,3,479063400,2254,17,0.62,42.688714399999995,-84.4915807,265.51,0.21927152574062347,38.33333969116211,0.08500000089406967,0.0,1
1679663045.60029292,124641648,0,3,479063600,2254,17,0.62,42.6887148,-84.49158039999999,265.5,0.23846174776554108,22.69379425048828,0.07800000160932541,0.0,1
1679663045.78119993,124822555,0,3,479063800,2254,17,0.62,42.6887152,-84.4915801,265.49,0.27843132615089417,14.13606071472168,0.14000000059604645,0.0,1
1679663046.02024198,125061597,0,3,479064000,2254,17,0.62,42.688715699999996,-84.49158,265.48,0.2630779445171356,7.206055641174316,0.0560000017285347,0.0,1
1679663046.19995880,125241314,0,3,479064200,2254,17,0.62,42.688716199999995,-84.4915798,265.47,0.27439025044441223,9.016047477722168,0.14500001072883606,0.0,1
1679663046.40001297,125441368,0,3,479064400,2254,17,0.62,42.6887167,-84.4915797,265.46,0.3240385949611664,9.055356979370117,0.10000000149011612,0.0,1
1679663046.60012197,125641477,0,3,479064600,2254,17,0.62,42.6887173,-84.4915795,265.44,0.365317702293396,8.817706108093262,0.08000000566244125,0.0,1
1679663046.80017281,125841528,0,3,479064800,2254,17,0.62,42.688718,-84.4915793,265.43,0.3771153688430786,20.164833068847656,0.18200001120567322,0.0,1
1679663046.98133087,126022686,0,3,479065000,2254,17,0.62,42.6887186,-84.491579,265.39,0.32794055342674255,22.028512954711914,0.06599999964237213,0.0,1
1679663047.17996383,126221319,0,3,479065200,2254,17,0.62,42.6887192,-84.49157869999999,265.39,0.3659781515598297,24.884483337402344,0.09700000286102295,0.0,1
1679663047.37999177,126421347,0,3,479065400,2254,17,0.62,42.6887198,-84.4915784,265.38,0.34198981523513794,14.564484596252441,0.11700000613927841,0.0,1
1679663047.60050392,126641859,0,3,479065600,2254,17,0.62,42.6887203,-84.4915781,265.36,0.3033100664615631,19.450511932373047,0.06100000441074371,0.0,1
1679663047.80043697,126841792,0,3,479065800,2254,17,0.62,42.6887208,-84.4915779,265.36,0.26443904638290405,12.66981315612793,0.13100001215934753,0.0,1
1679663048.00032592,127041681,0,3,479066000,2254,17,0.62,42.6887213,-84.4915778,265.36,0.24132344126701355,14.151411056518555,0.014000000432133675,0.0,1
1679663048.20026493,127241620,0,3,479066200,2254,17,0.62,42.6887216,-84.4915777,265.36,0.17663806676864624,7.808991432189941,0.03400000184774399,0.0,1
1679663048.40035176,127441707,0,3,479066400,2254,17,0.62,42.6887219,-84.4915776,265.36,0.15147607028484344,4.54375696182251,0.06100000441074371,0.0,1
1679663048.60043287,127641788,0,3,479066600,2254,17,0.62,42.6887222,-84.4915776,265.36,0.12576566636562347,9.612114906311035,0.030000001192092896,0.0,1
1679663048.80027986,127841635,0,3,479066800,2254,17,0.62,42.688722399999996,-84.49157749999999,265.37,0.10344564914703369,16.858396530151367,0.017000000923871994,0.0,1
1679663049.00023198,128041587,0,3,479067000,2254,17,0.62,42.6887225,-84.4915774,265.38,0.10312128812074661,19.840696334838867,0.0,0.0,1
1679663049.20029998,128241655,0,3,479067200,2254,17,0.62,42.6887227,-84.4915773,265.39,0.0768439993262291,34.93093490600586,-0.010000000707805157,0.0,1
1679663049.40050387,128441859,0,3,479067400,2254,17,0.62,42.6887228,-84.4915772,265.4,0.06300793588161469,54.03948211669922,-0.07000000029802322,0.0,1
1679663049.60035896,128641714,0,3,479067600,2254,17,0.62,42.688722899999995,-84.4915771,265.42,0.11880236119031906,45.68205642700195,0.03100000135600567,0.0,1
1679663049.78000784,128821363,0,3,479067800,2254,17,0.62,42.6887231,-84.49157679999999,265.43,0.14847558736801147,63.607521057128906,0.08100000023841858,0.0,1
1679663050.00028491,129041640,0,3,479068000,2254,17,0.62,42.6887232,-84.4915764,265.44,0.1578131914138794,70.7613525390625,-0.015000000596046448,0.0,1
1679663050.20040083,129241756,0,3,479068200,2254,17,0.62,42.6887233,-84.4915761,265.45,0.11778370290994644,66.4820327758789,0.03400000184774399,0.0,1
1679663050.40036488,129441720,0,3,479068400,2254,17,0.62,42.6887234,-84.49157579999999,265.46,0.15041610598564148,74.57783508300781,-0.036000002175569534,0.0,1
1679663050.60021591,129641571,0,3,479068600,2254,17,0.62,42.6887234,-84.4915755,265.46,0.13776792585849762,80.8111572265625,-0.01600000075995922,0.0,1
1679663050.80015779,129841513,0,3,479068800,2254,17,0.62,42.688723499999995,-84.491575,265.46,0.2280789613723755,88.49256134033203,0.049000002443790436,0.0,1
1679663051.00023794,130041593,0,3,479069000,2254,17,0.62,42.688723499999995,-84.4915743,265.47,0.32389041781425476,94.24945068359375,0.0690000057220459,0.0,1
1679663051.18130898,130222664,0,3,479069200,2254,17,0.62,42.6887234,-84.4915733,265.46,0.42054373025894165,94.91072082519531,0.046000003814697266,0.0,1
1679663051.40036678,130441722,0,3,479069400,2254,17,0.62,42.6887234,-84.4915723,265.45,0.4071768820285797,91.6888198852539,0.005000000353902578,0.0,1
1679663051.60024381,130641599,0,3,479069600,2254,17,0.62,42.6887234,-84.4915714,265.46,0.35784074664115906,97.22431182861328,0.11700000613927841,0.0,1
1679663051.80003691,130841392,0,3,479069800,2254,17,0.62,42.6887233,-84.4915705,265.46,0.33948490023612976,96.93660736083984,0.12200000882148743,0.0,1
1679663052.02016187,131061517,0,3,479070000,2254,17,0.62,42.6887231,-84.4915697,265.45,0.31340867280960083,109.18650817871094,0.05100000277161598,0.0,1
1679663052.20014882,131241504,0,3,479070200,2254,17,0.62,42.688722899999995,-84.491569,265.44,0.271950364112854,117.60153198242188,0.14600001275539398,0.0,1
1679663052.39995384,131441309,0,3,479070400,2254,17,0.62,42.6887227,-84.49156839999999,265.43,0.2782175540924072,124.6039810180664,0.07400000095367432,0.0,1
1679663052.58110380,131622459,0,3,479070600,2254,17,0.62,42.688722399999996,-84.49156789999999,265.43,0.2433926910161972,136.9978790283203,0.024000000208616257,0.0,1
1679663052.80006695,131841422,0,3,479070800,2254,17,0.62,42.6887221,-84.4915676,265.43,0.2048243284225464,153.30984497070312,0.0650000050663948,0.0,1
1679663053.00015998,132041515,0,3,479071000,2254,17,0.62,42.688721799999996,-84.4915674,265.43,0.2086768001317978,169.22854614257812,0.05300000309944153,0.0,1
1679663053.20002198,132241377,0,3,479071200,2254,17,0.62,42.6887214,-84.4915674,265.43,0.2194470465183258,183.65777587890625,0.03200000151991844,0.0,1
1679663053.39996791,132441323,0,3,479071400,2254,17,0.62,42.688721,-84.4915675,265.44,0.25760823488235474,200.68621826171875,0.012000000104308128,0.0,1
1679663053.60027575,132641631,0,3,479071600,2254,17,0.62,42.688720499999995,-84.4915678,265.45,0.2719191312789917,207.13046264648438,-0.003000000026077032,0.0,1
1679663053.80041790,132841773,0,3,479071800,2254,17,0.62,42.6887202,-84.4915681,265.45,0.22645971179008484,218.18565368652344,0.01900000125169754,0.0,1
1679663053.98011684,133021472,0,3,479072000,2254,17,0.62,42.688719899999995,-84.4915685,265.46,0.23331739008426666,234.9476318359375,0.07200000435113907,0.0,1
1679663054.19996095,133241316,0,3,479072200,2254,17,0.62,42.6887197,-84.491569,265.45,0.2604496479034424,258.2586364746094,-0.046000003814697266,0.0,1
1679663054.39999890,133441354,0,3,479072400,2254,17,0.62,42.6887197,-84.49156959999999,265.45,0.27861982583999634,263.81878662109375,0.009000000543892384,0.0,1
1679663054.60008192,133641437,0,3,479072600,2254,17,0.62,42.6887197,-84.49157029999999,265.46,0.2661202847957611,271.72265625,0.055000003427267075,0.0,1
1679663054.80016780,133841523,0,3,479072800,2254,17,0.62,42.6887197,-84.4915709,265.46,0.2435939460992813,274.0018310546875,0.11800000816583633,0.0,1
1679663055.00002289,134041378,0,3,479073000,2254,17,0.62,42.6887197,-84.49157149999999,265.46,0.21965883672237396,274.438720703125,-0.03100000135600567,0.0,1
1679663055.19995689,134241312,0,3,479073200,2254,17,0.62,42.6887198,-84.4915719,265.46,0.18738463521003723,273.67169189453125,0.012000000104308128,0.0,1
1679663055.40027285,134441628,0,3,479073400,2254,17,0.62,42.688719899999995,-84.4915723,265.46,0.17309246957302094,295.67681884765625,0.029000001028180122,0.0,1
1679663055.60040379,134641759,0,3,479073600,2254,17,0.62,42.688719999999996,-84.4915726,265.45,0.10060318559408188,307.3255310058594,-0.0020000000949949026,0.0,1
1679663055.80045986,134841815,0,3,479073800,2254,17,0.62,42.6887201,-84.4915726,265.45,0.08448076993227005,343.4956359863281,0.007000000216066837,0.0,1
1679663056.00027990,135041635,0,3,479074000,2254,17,0.62,42.6887203,-84.4915726,265.47,0.13038788735866547,23.02549171447754,0.03700000047683716,0.0,1
1679663056.20024991,135241605,0,3,479074200,2254,17,0.62,42.688720599999996,-84.4915723,265.47,0.17259490489959717,50.406944274902344,-0.009000000543892384,0.0,1
1679663056.40030479,135441660,0,3,479074400,2254,17,0.62,42.6887208,-84.4915719,265.47,0.21865271031856537,51.87220764160156,-0.012000000104308128,0.0,1
1679663056.60050797,135641863,0,3,479074600,2254,17,0.62,42.688721099999995,-84.49157149999999,265.47,0.23920702934265137,42.62815475463867,0.046000003814697266,0.0,1
1679663056.80036187,135841717,0,3,479074800,2254,17,0.62,42.6887214,-84.4915712,265.47,0.22182202339172363,26.218505859375,0.052000001072883606,0.0,1
1679663057.00015092,136041506,0,3,479075000,2254,17,0.62,42.688721799999996,-84.491571,265.48,0.30497217178344727,16.771221160888672,0.03100000135600567,0.0,1
1679663057.20026183,136241617,0,3,479075200,2254,17,0.62,42.688722399999996,-84.4915709,265.47,0.28744566440582275,356.8091125488281,0.0860000029206276,0.0,1
1679663057.40037584,136441731,0,3,479075400,2254,17,0.62,42.688722999999996,-84.4915709,265.45,0.3961527645587921,358.40887451171875,0.11300000548362732,0.0,1
1679663057.60041976,136641775,0,3,479075600,2254,17,0.62,42.6887237,-84.491571,265.44,0.3778094947338104,349.9393005371094,0.13500000536441803,0.0,1
1679663057.80027580,136841631,0,3,479075800,2254,17,0.62,42.6887244,-84.4915711,265.44,0.4140881896018982,355.8453674316406,0.07700000703334808,0.0,1
1679663058.00023580,137041591,0,3,479076000,2254,17,0.62,42.6887251,-84.4915712,265.44,0.42100122570991516,354.4112854003906,0.0430000014603138,0.0,1
1679663058.20029688,137241652,0,3,479076200,2254,17,0.62,42.6887259,-84.49157129999999,265.45,0.46518170833587646,354.44873046875,-0.013000000268220901,0.0,1
1679663058.40050888,137441864,0,3,479076400,2254,17,0.62,42.6887267,-84.49157129999999,265.45,0.5070986747741699,358.87005615234375,-0.014000000432133675,0.0,1
1679663058.60036397,137641719,0,3,479076600,2254,17,0.62,42.6887277,-84.49157129999999,265.46,0.5550441145896912,359.2773742675781,0.024000000208616257,0.0,1
1679663058.80026388,137841619,0,3,479076800,2254,17,0.62,42.6887287,-84.4915712,265.46,0.5592897534370422,1.8443071842193604,0.009000000543892384,0.0,1
1679663059.00001287,138041368,0,3,479077000,2254,17,0.62,42.688729599999995,-84.4915712,265.45,0.49212297797203064,358.7192077636719,0.1510000079870224,0.0,1
1679663059.20011997,138241475,0,3,479077200,2254,17,0.62,42.6887305,-84.4915712,265.45,0.5020249485969543,359.4293518066406,0.046000003814697266,0.0,1
1679663059.38126898,138422624,0,3,479077400,2254,17,0.62,42.6887313,-84.49157129999999,265.45,0.3864634335041046,347.2943115234375,0.03100000135600567,0.0,1
1679663059.59995675,138641312,0,3,479077600,2254,17,0.62,42.6887319,-84.49157149999999,265.47,0.3344084620475769,347.9172058105469,0.10600000619888306,0.0,1
1679663059.80001593,138841371,0,3,479077800,2254,17,0.62,42.6887325,-84.4915717,265.46,0.3228885233402252,336.451904296875,0.02200000174343586,0.0,1
1679663060.02030897,139061664,0,3,479078000,2254,17,0.62,42.688733,-84.49157199999999,265.47,0.2831483781337738,328.7239074707031,-0.0020000000949949026,0.0,1
1679663060.20015097,139241506,0,3,479078200,2254,17,0.62,42.6887334,-84.49157249999999,265.48,0.34107184410095215,324.30609130859375,0.030000001192092896,0.0,1
1679663060.40002179,139441377,0,3,479078400,2254,17,0.62,42.688733899999995,-84.491573,265.48,0.33879345655441284,316.3155517578125,0.03400000184774399,0.0,1
1679663060.59997487,139641330,0,3,479078600,2254,17,0.62,42.6887343,-84.4915736,265.48,0.3838658630847931,310.2451171875,0.04200000315904617,0.0,1
1679663060.80004287,139841398,0,3,479078800,2254,17,0.62,42.6887348,-84.49157439999999,265.49,0.4108004570007324,306.7862243652344,0.046000003814697266,0.0,1
1679663061.00034189,140041697,0,3,479079000,2254,17,0.62,42.688735199999996,-84.4915754,265.48,0.4839380383491516,295.7178649902344,0.06000000238418579,0.0,1
1679663061.20040584,140241761,0,3,479079200,2254,17,0.62,42.6887355,-84.49157629999999,265.48,0.41188472509384155,296.6894836425781,0.03200000151991844,0.0,1
1679663061.39995480,140441310,0,3,479079400,2254,17,0.62,42.6887359,-84.4915773,265.5,0.48900106549263,292.7370300292969,-0.04100000113248825,0.0,1
1679663061.59999490,140641350,0,3,479079600,2254,17,0.62,42.6887361,-84.4915784,265.52,0.4470011293888092,279.39910888671875,-0.05000000074505806,0.0,1
1679663061.80008578,140841441,0,3,479079800,2254,17,0.62,42.688736299999995,-84.4915796,265.56,0.5601794719696045,285.4255676269531,-0.0990000069141388,0.0,1
1679663062.00014997,141041505,0,3,479080000,2254,17,0.62,42.6887365,-84.4915809,265.59000000000003,0.601519763469696,275.2461853027344,-0.15200001001358032,0.0,1
1679663062.20001698,141241372,0,3,479080200,2254,17,0.62,42.6887367,-84.4915826,265.63,0.7889765501022339,282.5918273925781,-0.0860000029206276,0.0,1
1679663062.39999890,141441354,0,3,479080400,2254,17,0.62,42.688736999999996,-84.4915845,265.65,0.8178227543830872,280.92523193359375,-0.15600000321865082,0.0,1
1679663062.60003781,141641393,0,3,479080600,2254,17,0.62,42.6887372,-84.4915865,265.68,0.9275624752044678,279.0561218261719,-0.08700000494718552,0.0,1
1679663062.80039096,141841746,0,3,479080800,2254,17,0.62,42.688737599999996,-84.4915888,265.71,0.9727815985679626,281.8643798828125,-0.13100001215934753,0.0,1
1679663063.00042486,142041780,0,3,479081000,2254,17,0.62,42.688738,-84.4915911,265.75,1.028058409690857,282.92779541015625,-0.07200000435113907,0.0,1
1679663063.20038581,142241741,0,3,479081200,2254,17,0.62,42.6887384,-84.4915935,265.76,1.0719870328903198,281.6243896484375,-0.058000002056360245,0.0,1
1679663063.40025377,142441609,0,3,479081400,2254,17,0.62,42.688738799999996,-84.4915961,265.78000000000003,1.1393367052078247,280.00799560546875,-0.007000000216066837,0.0,1
1679663063.60024095,142641596,0,3,479081600,2254,17,0.62,42.6887391,-84.4915989,265.8,1.1998308897018433,278.38671875,-0.1680000126361847,0.0,1
1679663063.80041385,142841769,0,3,479081800,2254,17,0.62,42.6887395,-84.4916018,265.81,1.2418296337127686,277.914794921875,-0.01900000125169754,0.0,1
1679663064.02024388,143061599,0,3,479082000,2254,17,0.62,42.6887398,-84.49160479999999,265.81,1.2774620056152344,278.00958251953125,-0.04400000348687172,0.0,1
1679663064.20015097,143241506,0,3,479082200,2254,17,0.62,42.6887401,-84.49160789999999,265.83,1.313523530960083,278.22882080078125,-0.021000001579523087,0.0,1
1679663064.40023494,143441590,0,3,479082400,2254,17,0.62,42.6887404,-84.4916111,265.83,1.345296025276184,275.5453186035156,0.006000000052154064,0.0,1
1679663064.60030580,143641661,0,3,479082600,2254,17,0.62,42.688740599999996,-84.4916144,265.85,1.3318296670913696,272.0223693847656,-0.11000000685453415,0.0,1
1679663064.78048682,143821842,0,3,479082800,2254,17,0.62,42.688740599999996,-84.4916176,265.87,1.37089204788208,266.2776794433594,-0.05400000140070915,0.0,1
1679663065.00022483,144041580,0,3,479083000,2254,17,0.62,42.6887403,-84.491621,265.89,1.458939790725708,264.019775390625,0.006000000052154064,0.0,1
1679663065.20015788,144241513,0,3,479083200,2254,17,0.62,42.688739899999995,-84.4916245,265.89,1.5151509046554565,257.4588928222656,-0.052000001072883606,0.0,1
1679663065.40047979,144441835,0,3,479083400,2254,17,0.62,42.688739299999995,-84.4916281,265.9,1.5490788221359253,255.83816528320312,0.023000001907348633,0.0,1
1679663065.60015798,144641513,0,3,479083600,2254,17,0.62,42.6887385,-84.4916318,265.9,1.6128004789352417,250.3629150390625,0.0560000017285347,0.0,1
1679663065.80002785,144841383,0,3,479083800,2254,17,0.62,42.688737499999995,-84.49163539999999,265.89,1.570896029472351,248.842041015625,0.029000001028180122,0.0,1
1679663065.99998379,145041339,0,3,479084000,2254,17,0.62,42.688736399999996,-84.4916389,265.89,1.5711796283721924,248.415283203125,0.11700000613927841,0.0,1
1679663066.17997193,145221327,0,3,479084200,2254,17,0.62,42.6887354,-84.4916423,265.86,1.516873836517334,246.49391174316406,0.16700001060962677,0.0,1
1679663066.40014076,145441496,0,3,479084400,2254,17,0.62,42.6887343,-84.4916456,265.84000000000003,1.459343671798706,246.66738891601562,0.12600000202655792,0.0,1
1679663066.60018778,145641543,0,3,479084600,2254,17,0.62,42.688733299999996,-84.4916488,265.81,1.423516869544983,245.95578002929688,0.11000000685453415,0.0,1
1679663066.79995894,145841314,0,3,479084800,2254,17,0.62,42.688732099999996,-84.4916519,265.81,1.4525893926620483,243.8583221435547,0.07500000298023224,0.0,1
1679663066.99999595,146041351,0,3,479085000,2254,17,0.62,42.688731,-84.491655,265.8,1.4069684743881226,243.0343017578125,-0.1080000028014183,0.0,1
1679663067.20005989,146241415,0,3,479085200,2254,17,0.62,42.6887299,-84.491658,265.82,1.3931583166122437,244.07870483398438,0.04100000113248825,0.0,1
1679663067.40015888,146441514,0,3,479085400,2254,17,0.62,42.6887287,-84.491661,265.82,1.3817341327667236,241.56163024902344,-0.027000000700354576,0.0,1
1679663067.58137488,146622730,0,3,479085600,2254,17,0.62,42.6887276,-84.49166389999999,265.83,1.370508074760437,242.35052490234375,-0.10000000149011612,0.0,1
1679663067.80024076,146841596,0,3,479085800,2254,17,0.62,42.6887264,-84.4916667,265.86,1.2579070329666138,238.19256591796875,-0.10500000417232513,0.0,1
1679663068.00026989,147041625,0,3,479086000,2254,17,0.62,42.6887252,-84.49166919999999,265.88,1.2797597646713257,236.8935546875,-0.1900000125169754,0.0,1
1679663068.20012593,147241481,0,3,479086200,2254,17,0.62,42.6887239,-84.4916717,265.91,1.195617437362671,234.2227783203125,-0.06800000369548798,0.0,1
1679663068.40018392,147441539,0,3,479086400,2254,17,0.62,42.6887228,-84.4916739,265.92,1.0858104228973389,235.05120849609375,-0.13500000536441803,0.0,1
1679663068.60000682,147641362,0,3,479086600,2254,17,0.62,42.688721699999995,-84.491676,265.94,1.0132325887680054,234.8041534423828,-0.006000000052154064,0.0,1
1679663068.79996276,147841318,0,3,479086800,2254,17,0.62,42.6887207,-84.4916779,265.94,0.8971917629241943,238.25863647460938,0.02800000086426735,0.0,1
1679663069.00003982,148041395,0,3,479087000,2254,17,0.62,42.688719899999995,-84.49167969999999,265.93,0.8287340402603149,241.4557647705078,0.07000000029802322,0.0,1
1679663069.20015287,148241508,0,3,479087200,2254,17,0.62,42.6887192,-84.49168139999999,265.91,0.7806747555732727,240.28244018554688,0.14900000393390656,0.0,1
1679663069.40007997,148441435,0,3,479087400,2254,17,0.62,42.6887185,-84.491683,265.88,0.7877182364463806,236.91514587402344,0.1550000011920929,0.0,1
1679663069.59995580,148641311,0,3,479087600,2254,17,0.62,42.6887177,-84.4916846,265.85,0.8213093280792236,234.06494140625,0.16200000047683716,0.0,1
1679663069.80003381,148841389,0,3,479087800,2254,17,0.62,42.688716799999995,-84.4916863,265.83,0.8700632452964783,231.72071838378906,0.15600000321865082,0.0,1
1679663070.02037692,149061732,0,3,479088000,2254,17,0.62,42.6887158,-84.491688,265.81,0.9390314817428589,230.44442749023438,0.28200000524520874,0.0,1
1679663070.20043397,149241789,0,3,479088200,2254,17,0.62,42.6887148,-84.4916897,265.76,0.928612470626831,232.83395385742188,0.0950000062584877,0.0,1
1679663070.40027785,149441633,0,3,479088400,2254,17,0.62,42.688713899999996,-84.4916915,265.73,0.8774018883705139,239.37222290039062,0.16600000858306885,0.0,1
1679663070.59998393,149641339,0,3,479088600,2254,17,0.62,42.6887131,-84.4916934,265.69,0.8922740817070007,236.84423828125,0.22700001299381256,0.0,1
