timestamp,TimeUS,C,Roll,Pitch,Yaw,VN,VE,VD,dPD,PN,PE,PD,GX,GY,GZ,OH
1679662993.83974981,72881105,2,0.65,0.35000000000000003,335.95,-0.0587349459528923,-0.03131016716361046,0.023176947608590126,-0.016225259751081467,0.23082201182842255,-0.2809371054172516,1.0780054330825806,-0.15,0.08,0.06,265.88
1679662993.93979788,72981153,2,0.64,0.35000000000000003,335.96,-0.0588529072701931,-0.03098886087536812,0.023528078570961952,0.005190417170524597,0.2298266738653183,-0.27865225076675415,1.0785361528396606,-0.15,0.08,0.06,265.88
1679662994.03977180,73081127,2,0.64,0.34,335.97,-0.058902401477098465,-0.030134987086057663,0.02443782612681389,0.024155236780643463,0.22804580628871918,-0.27684998512268066,1.0807658433914185,-0.15,0.08,0.06,265.88
1679662994.13976383,73181119,2,0.64,0.34,335.97,-0.059754710644483566,-0.028536705300211906,0.026835156604647636,0.047783996909856796,0.2260972410440445,-0.27469897270202637,1.084638237953186,-0.15,0.08,0.06,265.88
1679662994.23970294,73281058,2,0.65,0.35000000000000003,335.99,-0.05911187827587128,-0.026875702664256096,0.028774309903383255,0.051095157861709595,0.22384321689605713,-0.2729286551475525,1.0889087915420532,-0.15,0.08,0.06,265.88
1679662994.33970284,73381058,2,0.64,0.35000000000000003,335.98,-0.0584867037832737,-0.0254653412848711,0.03052609972655773,0.057317592203617096,0.22206169366836548,-0.2707985043525696,1.0938631296157837,-0.15,0.08,0.06,265.88
1679662994.43970680,73481062,2,0.63,0.34,335.99,-0.05692758038640022,-0.02356046251952648,0.031878843903541565,0.04236430674791336,0.22050490975379944,-0.2690105140209198,1.0971242189407349,-0.15,0.08,0.06,265.88
1679662994.53970695,73581062,2,0.63,0.35000000000000003,335.99,-0.05214076116681099,-0.021453462541103363,0.03220908343791962,0.012729148380458355,0.22019074857234955,-0.2667933404445648,1.0984455347061157,-0.15,0.08,0.06,265.88
1679662994.63973498,73681090,2,0.63,0.34,335.99,-0.047470297664403915,-0.020769180729985237,0.03259420394897461,0.006065848283469677,0.22052861750125885,-0.26495087146759033,1.099791169166565,-0.15,0.08,0.06,265.88
1679662994.73973894,73781094,2,0.63,0.33,335.99,-0.04016299918293953,-0.017047002911567688,0.032932180911302567,0.005901734344661236,0.22250553965568542,-0.2627689242362976,1.100889801979065,-0.15,0.08,0.06,265.88
1679662994.83976078,73881116,2,0.62,0.33,335.99,-0.03365243598818779,-0.016666145995259285,0.03341229632496834,0.009999413974583149,0.2244952917098999,-0.26077842712402344,1.102479100227356,-0.15,0.08,0.06,265.88
1679662994.93977380,73981129,2,0.62,0.33,335.99,-0.02814899943768978,-0.014724853448569775,0.03497129678726196,0.022939715534448624,0.22686633467674255,-0.2585923373699188,1.1048623323440552,-0.15,0.08,0.06,265.88
1679662995.03977776,74081133,2,0.61,0.33,335.98,-0.0240338034927845,-0.01350680086761713,0.035632699728012085,0.017253253608942032,0.2291083186864853,-0.25664234161376953,1.106204628944397,-0.15,0.08,0.06,265.88
1679662995.13971496,74181070,2,0.62,0.33,335.98,-0.019900545477867126,-0.012271435000002384,0.03633137047290802,0.0029233149252831936,0.23156122863292694,-0.25453710556030273,1.1065136194229126,-0.15,0.08,0.06,265.88
1679662995.23972487,74281080,2,0.61,0.33,335.97,-0.01633543334901333,-0.01133092399686575,0.037059638649225235,0.0006115129217505455,0.2333637923002243,-0.25270459055900574,1.1070739030838013,-0.15,0.08,0.06,265.88
1679662995.33971882,74381074,2,0.61,0.33,335.96,-0.014379721134901047,-0.010277924127876759,0.036785006523132324,0.003457570681348443,0.2346617728471756,-0.25074005126953125,1.107709527015686,-0.15,0.08,0.06,265.88
1679662995.43971682,74481072,2,0.61,0.34,335.95,-0.012965104542672634,-0.008696150965988636,0.03830690681934357,0.01752581261098385,0.23553870618343353,-0.24866387248039246,1.1099220514297485,-0.15,0.08,0.06,265.88
1679662995.53972292,74581078,2,0.61,0.34,335.93,-0.012755555100739002,-0.008709471672773361,0.03882743418216705,0.03210287168622017,0.23587526381015778,-0.24664747714996338,1.1127439737319946,-0.15,0.08,0.06,265.88
1679662995.63974476,74681100,2,0.6,0.35000000000000003,335.93,-0.011054690927267075,-0.006654219701886177,0.039336711168289185,0.02194029837846756,0.23614004254341125,-0.24490725994110107,1.114261269569397,-0.15,0.08,0.06,265.88
1679662995.73978186,74781137,2,0.59,0.35000000000000003,335.93,-0.009789773263037205,-0.0073746866546571255,0.038925834000110626,0.007734590210020542,0.23679223656654358,-0.24320130050182343,1.11506187915802,-0.15,0.08,0.06,265.88
1679662995.83979392,74881149,2,0.58,0.36,335.93,-0.008743558079004288,-0.006315377075225115,0.03873886168003082,0.005337287671864033,0.23785027861595154,-0.24108918011188507,1.1159626245498657,-0.15,0.08,0.06,265.88
1679662995.93976688,74981122,2,0.58,0.36,335.93,-0.006491811014711857,-0.005431163590401411,0.03968922048807144,0.006535843480378389,0.23882010579109192,-0.23913629353046417,1.1167932748794556,-0.15,0.08,0.06,265.88
1679662996.03971577,75081071,2,0.58,0.36,335.92,-0.0049480232410132885,-0.004152859095484018,0.039814408868551254,0.002838509390130639,0.24004188179969788,-0.2371578812599182,1.117231011390686,-0.15,0.08,0.06,265.88
1679662996.13971782,75181073,2,0.5700000000000001,0.36,335.92,-0.0027488863561302423,-0.0023261772003024817,0.04068480059504509,0.007599691394716501,0.24190713465213776,-0.23462224006652832,1.1183782815933228,-0.15,0.08,0.06,265.88
1679662996.23972487,75281080,2,0.56,0.36,335.90000000000003,-0.0018286434933543205,-0.0030777628999203444,0.04109807685017586,0.008938584476709366,0.2431326061487198,-0.23274071514606476,1.119017243385315,-0.15,0.08,0.06,265.88
1679662996.33973980,75381095,2,0.56,0.36,335.90000000000003,-0.001166076515801251,-0.00408951798453927,0.041246380656957626,-0.005182928405702114,0.24384093284606934,-0.23153969645500183,1.1184889078140259,-0.15,0.08,0.06,265.88
1679662996.43971276,75481068,2,0.56,0.36,335.89,-0.0013983476674184203,-0.005332678556442261,0.04152252525091171,-0.0013070707209408283,0.24453437328338623,-0.23149946331977844,1.1191669702529907,-0.15,0.08,0.06,265.88
1679662996.53975296,75581108,2,0.56,0.36,335.88,-0.0002277104795211926,-0.009806249290704727,0.042311154305934906,0.01661810837686062,0.24549561738967896,-0.2329212874174118,1.1208845376968384,-0.15,0.08,0.06,265.88
1679662996.63980198,75681157,2,0.55,0.35000000000000003,335.87,0.0011877987999469042,-0.012235328555107117,0.04362326115369797,0.022094400599598885,0.24672231078147888,-0.23406682908535004,1.1227713823318481,-0.15,0.08,0.06,265.88
1679662996.73977590,75781131,2,0.54,0.35000000000000003,335.87,0.0013204118004068732,-0.014044019393622875,0.04326224699616432,0.02384631149470806,0.24861398339271545,-0.23443244397640228,1.1248284578323364,-0.15,0.08,0.06,265.88
1679662996.83976793,75881123,2,0.54,0.35000000000000003,335.89,0.006264270283281803,-0.013276173733174801,0.04484051465988159,0.008166477084159851,0.2507297396659851,-0.23358695209026337,1.1248756647109985,-0.15,0.08,0.06,265.88
1679662996.93971276,75981068,2,0.54,0.35000000000000003,335.88,0.0019631311297416687,-0.009462486952543259,0.043232616037130356,-0.013273733668029308,0.25224733352661133,-0.23239122331142426,1.1240230798721313,-0.15,0.08,0.06,265.88
1679662997.03970885,76081064,2,0.51,0.34,335.86,8.225280907936394e-05,4.1698400309542194e-05,0.041305989027023315,-0.015026889741420746,0.2532727122306824,-0.23176780343055725,1.1233116388320923,-0.15,0.08,0.06,265.88
1679662997.13971376,76181069,2,0.48,0.37,335.91,-0.006175800692290068,0.02414925955235958,0.036709051579236984,-0.019512217491865158,0.2532097101211548,-0.23132701218128204,1.122320294380188,-0.15,0.08,0.06,265.88
1679662997.23972178,76281077,2,0.44,0.4,335.84000000000003,0.020896408706903458,-0.016090840101242065,0.04443129524588585,-0.00625182269141078,0.25375792384147644,-0.23077687621116638,1.1223617792129517,-0.15,0.08,0.06,265.88
1679662997.33972979,76381085,2,0.49,0.39,335.77,0.010702264495193958,-0.04810883849859238,0.037700358778238297,0.0059586395509541035,0.2561968266963959,-0.23136183619499207,1.1237188577651978,-0.15,0.08,0.06,265.88
1679662997.43974376,76481099,2,0.48,0.4,335.78000000000003,0.005185636691749096,0.005720664281398058,0.04853437468409538,0.02261466532945633,0.25838637351989746,-0.23238664865493774,1.1255689859390259,-0.15,0.08,0.06,265.88
1679662997.53978086,76581136,2,0.45,0.41000000000000003,335.69,0.02225523628294468,-0.003909427206963301,0.04488394781947136,0.02836155705153942,0.2608824670314789,-0.23304301500320435,1.1282144784927368,-0.15,0.08,0.07,265.88
1679662997.63977981,76681135,2,0.47000000000000003,0.42,335.63,0.007471130229532719,-0.026169460266828537,0.051664356142282486,0.0230877548456192,0.263153076171875,-0.2334032952785492,1.1289921998977661,-0.15,0.08,0.07,265.88
1679662997.73977184,76781127,2,0.45,0.4,335.66,0.002965023275464773,-0.0005982186994515359,0.04434362053871155,-0.024094846099615097,0.26510757207870483,-0.2321653515100479,1.1268645524978638,-0.15,0.08,0.07,265.88
1679662997.83971190,76881067,2,0.42,0.43,335.6,0.003999583888798952,-0.012503081001341343,0.04640161991119385,-0.03485517576336861,0.266276478767395,-0.23112547397613525,1.1245194673538208,-0.15,0.08,0.07,265.88
1679662997.93972683,76981082,2,0.44,0.44,335.54,0.011915572918951511,-0.022810565307736397,0.03826022148132324,-0.05038240924477577,0.26674893498420715,-0.23056304454803467,1.1210557222366333,-0.15,0.08,0.07,265.88
1679662998.03971195,77081067,2,0.42,0.42,335.57,-0.006118209101259708,-0.01890818029642105,0.034485239535570145,-0.039262741804122925,0.266878604888916,-0.23060576617717743,1.1191045045852661,-0.15,0.08,0.07,265.88
1679662998.13975191,77181107,2,0.34,0.52,335.5,-0.015700215473771095,-0.006628292612731457,0.011606913059949875,-0.03361985832452774,0.2654381990432739,-0.2303936928510666,1.1184784173965454,-0.15,0.08,0.07,265.88
1679662998.23971486,77281070,2,0.3,0.97,335.42,-0.04326903820037842,-0.019823512062430382,-0.1409120410680771,-0.17262385785579681,0.2617388069629669,-0.23016931116580963,1.1122041940689087,-0.15,0.08,0.08,265.88
1679662998.33974695,77381102,2,0.22,1.71,335.28000000000003,-0.06564629077911377,-0.01707175374031067,-0.4398013651371002,-0.4723718762397766,0.25585776567459106,-0.22996503114700317,1.0810171365737915,-0.15,0.08,0.08,265.88
1679662998.43978596,77481141,2,-0.09,2.31,335.06,-0.09455530345439911,-0.015106040053069592,-0.6396610140800476,-0.6999396085739136,0.24662594497203827,-0.22982577979564667,1.0181537866592407,-0.15,0.08,0.09,265.88
1679662998.53977585,77581131,2,-0.53,2.83,334.77,-0.13834407925605774,-0.022530829533934593,-0.715286910533905,-0.8128250241279602,0.23312370479106903,-0.22918526828289032,0.9395366907119751,-0.15,0.08,0.09,265.88
1679662998.63977385,77681129,2,-0.99,3.14,334.47,-0.18676704168319702,-0.0467914342880249,-0.6797179579734802,-0.792988121509552,0.2149016559123993,-0.2293720841407776,0.8549810647964478,-0.15,0.08,0.1,265.88
1679662998.73971176,77781067,2,-1.32,3.0300000000000002,334.21,-0.23298980295658112,-0.03372574225068092,-0.6289122700691223,-0.8423639535903931,0.19117875397205353,-0.23073436319828033,0.7694894075393677,-0.15,0.08,0.1,265.88
1679662998.83971286,77881068,2,-1.23,2.07,333.97,-0.2619246244430542,-0.04279599338769913,-0.546393871307373,-0.7341878414154053,0.1648397594690323,-0.23536893725395203,0.6971899271011353,-0.15,0.08,0.1,265.88
1679662998.93971395,77981069,2,-0.29,0.93,333.78000000000003,-0.29629284143447876,-0.07080147415399551,-0.45187556743621826,-0.570661723613739,0.1373470276594162,-0.24371549487113953,0.6381717920303345,-0.15,0.08,0.11,265.88
1679662999.03974390,78081099,2,1.94,0.5700000000000001,333.63,-0.2859824597835541,-0.03711153194308281,-0.3470483124256134,-0.41629722714424133,0.10972721129655838,-0.25163188576698303,0.5916095972061157,-0.15,0.08,0.11,265.88
1679662999.13975382,78181109,2,4.45,0.05,333.5,-0.2526714503765106,-0.020665157586336136,-0.25807008147239685,-0.32142043113708496,0.08508584648370743,-0.25776970386505127,0.550970196723938,-0.15,0.08,0.12,265.88
1679662999.23976088,78281116,2,-2.12,3.83,189.35,-0.2155240774154663,0.010183135978877544,-0.21000491082668304,-0.3463696837425232,0.062066495418548584,-0.26062440872192383,0.5128375291824341,-0.15,0.08,0.12,265.88
1679662999.33977890,78381134,2,-0.96,3.5,189.48,-0.16970381140708923,0.05269232764840126,-0.13002684712409973,-0.28801819682121277,0.043191347271203995,-0.2590811848640442,0.4827512204647064,-0.15,0.09,0.12,265.88
1679662999.43977284,78481128,2,0.51,2.5300000000000002,189.68,-0.1521865725517273,0.04832290858030319,-0.08482446521520615,-0.23608602583408356,0.023747695609927177,-0.2543688118457794,0.4594210088253021,-0.15,0.09,0.12,265.88
1679662999.53977180,78581127,2,1.6,0.45,189.99,-0.17270611226558685,-0.024590466171503067,-0.06442663073539734,-0.19664828479290009,0.0003512112598400563,-0.25595155358314514,0.4384482800960541,-0.15,0.09,0.12,265.88
1679662999.63971090,78681066,2,1.78,-0.74,190.74,-0.20142900943756104,-0.10009607672691345,-0.03329858183860779,-0.1900891661643982,-0.02764379233121872,-0.2642250955104828,0.4180203378200531,-0.15,0.09,0.12,265.88
1679662999.73972487,78781080,2,1.24,-0.5,191.74,-0.25490856170654297,-0.1825002282857895,0.004744496196508408,-0.13160574436187744,-0.06152289733290672,-0.28301042318344116,0.4046543538570404,-0.15,0.09,0.12,265.88
1679662999.83972692,78881082,2,0.46,0.19,192.4,-0.2824946939945221,-0.26593151688575745,0.0023146194871515036,-0.07685191184282303,-0.10066129267215729,-0.3050742447376251,0.3988967835903168,-0.16,0.09,0.12,265.88
1679662999.93972993,78981085,2,-0.05,0.91,192.6,-0.31212568283081055,-0.2812567949295044,0.007270511239767075,-0.04145039618015289,-0.14262036979198456,-0.32765644788742065,0.3920634686946869,-0.16,0.09,0.12,265.88
1679663000.03974581,79081101,2,-0.39,1.6500000000000001,192.52,-0.3133242428302765,-0.2675207257270813,0.02053607441484928,-0.06303635984659195,-0.18139438331127167,-0.3427821099758148,0.38297542929649353,-0.16,0.09,0.12,265.88
1679663000.13975096,79181106,2,-0.63,2.09,192.19,-0.30367377400398254,-0.24625347554683685,0.044311296194791794,-0.06846567243337631,-0.21530812978744507,-0.3481758236885071,0.3729740083217621,-0.16,0.09,0.12,265.88
1679663000.23978090,79281136,2,-0.67,2.04,191.57,-0.2714659571647644,-0.18763484060764313,0.005471223499625921,-0.12388048321008682,-0.24405823647975922,-0.3418528437614441,0.36143288016319275,-0.16,0.09,0.12,265.88
1679663000.33978295,79381138,2,-0.81,1.78,190.85,-0.24662403762340546,-0.13014212250709534,-0.020358426496386528,-0.1372256726026535,-0.26777493953704834,-0.3237595856189728,0.35024842619895935,-0.16,0.09,0.12,265.88
1679663000.43977475,79481130,2,-1.0,1.6300000000000001,190.06,-0.22443948686122894,-0.06666481494903564,-0.03692980110645294,-0.11440621316432953,-0.2872219383716583,-0.2960295081138611,0.34002336859703064,-0.17,0.09,0.12,265.88
1679663000.53971195,79581067,2,-1.09,1.43,189.29,-0.19628100097179413,-0.0013795443810522556,-0.11823654174804688,-0.15727214515209198,-0.30243876576423645,-0.2595549523830414,0.32662972807884216,-0.17,0.09,0.12,265.88
1679663000.63971996,79681075,2,-0.89,1.2,188.67000000000002,-0.1747395396232605,0.0692354366183281,-0.18953874707221985,-0.2220040112733841,-0.31574270129203796,-0.21798032522201538,0.30603083968162537,-0.17,0.09,0.12,265.88
1679663000.73972487,79781080,2,-0.47000000000000003,1.04,188.23,-0.1557394415140152,0.12773941457271576,-0.23735086619853973,-0.2820110321044922,-0.32740193605422974,-0.17317724227905273,0.2775965631008148,-0.17,0.09,0.12,265.88
1679663000.83972692,79881082,2,-0.07,0.98,188.0,-0.1404983103275299,0.17864331603050232,-0.33156177401542664,-0.38590583205223083,-0.3382367491722107,-0.13178271055221558,0.24323567748069763,-0.17,0.09,0.12,265.88
1679663000.93972492,79981080,2,0.28,0.79,187.93,-0.1266719251871109,0.1969260722398758,-0.3916126489639282,-0.4888266921043396,-0.3477768301963806,-0.08645229041576385,0.19625934958457947,-0.17,0.09,0.12,265.88
1679663001.03974795,80081103,2,0.4,0.62,188.0,-0.11614032089710236,0.208452045917511,-0.4476056694984436,-0.594987690448761,-0.3569016456604004,-0.04520496726036072,0.13991054892539978,-0.17,0.09,0.12,265.88
1679663001.13979077,80181146,2,0.53,0.5700000000000001,188.12,-0.1107785776257515,0.22969257831573486,-0.4905133545398712,-0.6460884809494019,-0.36617404222488403,-0.008511744439601898,0.07914004474878311,-0.17,0.09,0.12,265.88
1679663001.23977995,80281135,2,0.39,0.64,188.16,-0.10292951762676239,0.2258237600326538,-0.4911220371723175,-0.5931200385093689,-0.37573549151420593,0.025200461968779564,0.02104029804468155,-0.17,0.09,0.12,265.88
1679663001.33976984,80381125,2,0.27,0.85,187.95000000000002,-0.10116615891456604,0.22273771464824677,-0.520419180393219,-0.5621998906135559,-0.38549116253852844,0.05522188916802406,-0.034096620976924896,-0.17,0.09,0.12,265.88
1679663001.43970990,80481065,2,0.0,0.98,187.51,-0.091227687895298,0.2555244565010071,-0.5185408592224121,-0.5477867722511292,-0.3963099718093872,0.08423087000846863,-0.08990850299596786,-0.17,0.09,0.12,265.88
1679663001.53972197,80581077,2,-0.35000000000000003,0.93,186.88,-0.08637779951095581,0.2641969919204712,-0.49334919452667236,-0.5082300901412964,-0.40872228145599365,0.11346078664064407,-0.14314737915992737,-0.17,0.09,0.12,265.88
1679663001.63970876,80681064,2,-0.52,1.04,186.24,-0.08040668815374374,0.2822800278663635,-0.4964061677455902,-0.5157068967819214,-0.42068392038345337,0.14323878288269043,-0.19560733437538147,-0.17,0.09,0.12,265.88
1679663001.73972893,80781084,2,-0.52,1.05,185.69,-0.07529260218143463,0.30593717098236084,-0.5221408605575562,-0.5400984287261963,-0.4328274130821228,0.1745617687702179,-0.24864521622657776,-0.17,0.09,0.12,265.88
1679663001.83973980,80881095,2,-0.52,1.08,185.22,-0.05966278165578842,0.3258495330810547,-0.5162996053695679,-0.5373055934906006,-0.443345844745636,0.2060113251209259,-0.3032332956790924,-0.17,0.09,0.12,265.88
1679663001.93975091,80981106,2,-0.42,1.04,184.86,-0.048180051147937775,0.3389560282230377,-0.5595470666885376,-0.5812575221061707,-0.4525298774242401,0.2374284267425537,-0.3598703444004059,-0.17,0.09,0.12,265.88
1679663002.03978181,81081137,2,0.0,0.78,184.62,-0.05383915454149246,0.3489758372306824,-0.5416728258132935,-0.5748186707496643,-0.46310317516326904,0.2682231068611145,-0.4173871576786041,-0.17,0.09,0.12,265.88
1679663002.13977695,81181132,2,0.52,0.1,184.43,-0.06240926310420036,0.3553672432899475,-0.5596043467521667,-0.579332709312439,-0.4774562418460846,0.29800859093666077,-0.47449007630348206,-0.17,0.09,0.12,265.88
1679663002.23976994,81281125,2,0.37,-0.13,184.36,-0.07561661303043365,0.356420636177063,-0.5623537302017212,-0.571141242980957,-0.49298858642578125,0.3264187276363373,-0.5320972204208374,-0.17,0.09,0.12,265.88
1679663002.33970976,81381065,2,0.08,0.21,184.33,-0.08041958510875702,0.35080474615097046,-0.5753463506698608,-0.5775555372238159,-0.5109562277793884,0.35171130299568176,-0.5905522108078003,-0.17,0.09,0.12,265.88
1679663002.43970895,81481064,2,-0.04,0.73,184.34,-0.08668550848960876,0.3544335663318634,-0.5781257152557373,-0.6035170555114746,-0.5261324048042297,0.37483954429626465,-0.6508640050888062,-0.17,0.09,0.12,265.88
1679663002.53971291,81581068,2,-0.1,1.02,184.35,-0.08705814182758331,0.35264796018600464,-0.5490916967391968,-0.5781561136245728,-0.537386417388916,0.39391595125198364,-0.7101742029190063,-0.17,0.09,0.12,265.88
1679663002.63975191,81681107,2,-0.19,1.06,184.39000000000001,-0.08164878934621811,0.365313321352005,-0.5092756748199463,-0.5567370653152466,-0.5491211414337158,0.4124448001384735,-0.7676228284835815,-0.17,0.09,0.12,265.88
1679663002.73973894,81781094,2,-0.28,0.99,184.48,-0.07619132846593857,0.3569077253341675,-0.4402804672718048,-0.4892866313457489,-0.5620957612991333,0.4285438656806946,-0.8191756010055542,-0.17,0.09,0.12,265.88
1679663002.83975291,81881108,2,-0.37,1.03,184.58,-0.06960626691579819,0.3582281172275543,-0.4097723364830017,-0.4456874430179596,-0.5750637054443359,0.44566237926483154,-0.8640533685684204,-0.17,0.09,0.12,265.88
1679663002.93979287,81981148,2,-0.45,1.04,184.70000000000002,-0.0680161714553833,0.3577944040298462,-0.35859519243240356,-0.36293062567710876,-0.5889519453048706,0.46214959025382996,-0.9019883871078491,-0.17,0.09,0.12,265.88
1679663003.03978181,82081137,2,-0.54,1.01,184.78,-0.07148456573486328,0.36415019631385803,-0.3158245384693146,-0.33940282464027405,-0.6002765893936157,0.4783814549446106,-0.9390684366226196,-0.17,0.09,0.12,265.88
1679663003.13977098,82181126,2,-0.53,1.0,184.8,-0.0725146159529686,0.3808535933494568,-0.3029821217060089,-0.35735273361206055,-0.6088168621063232,0.49151891469955444,-0.9758521318435669,-0.17,0.09,0.12,265.88
1679663003.23971581,82281071,2,-0.52,1.0,184.81,-0.05842845141887665,0.374867707490921,-0.276417076587677,-0.35657620429992676,-0.6187670826911926,0.5035091638565063,-1.0110589265823364,-0.17,0.09,0.13,265.88
1679663003.33970881,82381064,2,-0.12,1.04,184.8,-0.05619971454143524,0.38652104139328003,-0.23609547317028046,-0.3177879750728607,-0.6313167214393616,0.5107709765434265,-1.0432833433151245,-0.17,0.09,0.13,265.88
1679663003.43970990,82481065,2,0.66,1.11,184.78,-0.057746000587940216,0.36972200870513916,-0.16836951673030853,-0.2705833315849304,-0.642217218875885,0.5185952186584473,-1.0735489130020142,-0.17,0.09,0.13,265.88
1679663003.53975081,82581106,2,1.12,1.1400000000000001,184.69,-0.05083043500781059,0.3380838930606842,-0.1334027796983719,-0.25168436765670776,-0.6517900228500366,0.5234591960906982,-1.099324107170105,-0.17,0.09,0.13,265.88
1679663003.63973498,82681090,2,0.91,1.1400000000000001,184.58,-0.03709377720952034,0.32694587111473083,-0.08534957468509674,-0.19128181040287018,-0.6610324382781982,0.5244905948638916,-1.1178115606307983,-0.17,0.09,0.13,265.88
1679663003.73975086,82781106,2,0.33,1.18,184.46,-0.025703491643071175,0.3099443316459656,-0.015624302439391613,-0.10825829207897186,-0.6688962578773499,0.526735782623291,-1.1321569681167603,-0.17,0.09,0.13,265.88
1679663003.83978081,82881136,2,-0.21,1.26,184.29,-0.020860260352492332,0.3114561140537262,0.005749817471951246,-0.10190923511981964,-0.6763167381286621,0.5289638042449951,-1.14388906955719,-0.17,0.09,0.13,265.88
1679663003.93977785,82981133,2,-0.38,1.26,183.99,-0.020297247916460037,0.31114912033081055,0.06090884283185005,-0.049395158886909485,-0.6842285990715027,0.5290968418121338,-1.1513456106185913,-0.17,0.09,0.13,265.88
1679663004.03976989,83081125,2,-0.47000000000000003,1.4000000000000001,183.58,0.0023853834718465805,0.32668834924697876,0.08505650609731674,-0.02965988591313362,-0.6917689442634583,0.5312509536743164,-1.155582308769226,-0.17,0.09,0.13,265.88
1679663004.13973093,83181086,2,-0.39,1.35,183.23,0.004086023662239313,0.3137393891811371,0.10581883788108826,-0.008067278191447258,-0.7000307440757751,0.5324486494064331,-1.1570018529891968,-0.17,0.09,0.13,265.88
1679663004.23972392,83281079,2,-0.34,1.35,182.95000000000002,0.013986864127218723,0.30817049741744995,0.11174821108579636,0.002830332610756159,-0.7082194089889526,0.5346425175666809,-1.156713843345642,-0.17,0.09,0.13,265.88
1679663004.33971882,83381074,2,-0.25,1.3900000000000001,182.66,0.022374048829078674,0.32099124789237976,0.10768740624189377,0.015937240794301033,-0.7177536487579346,0.5344383716583252,-1.1548510789871216,-0.17,0.09,0.13,265.88
1679663004.43974495,83481100,2,-0.17,1.42,182.42000000000002,0.028062041848897934,0.31130093336105347,0.10884276032447815,0.03373416140675545,-0.7273370623588562,0.5351245403289795,-1.1499289274215698,-0.17,0.09,0.13,265.88
1679663004.53975177,83581107,2,-0.09,1.43,182.26,0.03164156898856163,0.30655238032341003,0.12890946865081787,0.09754376858472824,-0.7387082576751709,0.5326526165008545,-1.1414486169815063,-0.17,0.09,0.13,265.88
1679663004.63980579,83681161,2,-0.03,1.3800000000000001,182.15,0.03407584875822067,0.289336234331131,0.08535607904195786,0.07282199710607529,-0.7500003576278687,0.5292428731918335,-1.1314972639083862,-0.18,0.09,0.13,265.88
1679663004.73979592,83781151,2,0.16,1.34,182.09,0.033448755741119385,0.2945595383644104,0.1208653450012207,0.11778709292411804,-0.7633122801780701,0.5198723673820496,-1.1222161054611206,-0.18,0.09,0.13,265.88
1679663004.83978891,83881144,2,0.65,1.26,182.04,0.04672755300998688,0.26631417870521545,0.053465116769075394,0.02327820472419262,-0.7765851616859436,0.5096882581710815,-1.1167711019515991,-0.18,0.09,0.13,265.88
1679663004.93977380,83981129,2,1.25,1.07,182.01,0.03289579227566719,0.24268150329589844,0.0679614394903183,0.017819741740822792,-0.7925106287002563,0.4929587244987488,-1.1146873235702515,-0.18,0.09,0.13,265.88
1679663005.03971195,84081067,2,1.54,0.9500000000000001,182.03,0.03228234127163887,0.1946096420288086,0.029721390455961227,-0.05662985518574715,-0.8107056021690369,0.4705228805541992,-1.1181224584579468,-0.18,0.1,0.13,265.88
1679663005.13971376,84181069,2,1.67,1.01,182.1,0.03310811147093773,0.15588510036468506,0.006756923161447048,-0.0961456447839737,-0.8274583220481873,0.4484073221683502,-1.1258057355880737,-0.18,0.1,0.13,265.88
1679663005.23972297,84281078,2,1.72,0.8200000000000001,182.16,0.015491516329348087,0.11352277547121048,-0.05674596503376961,-0.14940398931503296,-0.8450302481651306,0.4252062737941742,-1.1375459432601929,-0.18,0.1,0.13,265.88
1679663005.33972192,84381077,2,1.6,0.06,182.26,-0.002253370825201273,0.0802127793431282,-0.13721658289432526,-0.22060415148735046,-0.8667425513267517,0.3963422179222107,-1.1553021669387817,-0.18,0.1,0.13,265.88
1679663005.43972993,84481085,2,1.48,-0.89,182.36,-0.034386057406663895,0.04156620427966118,-0.15828821063041687,-0.25810477137565613,-0.8898293972015381,0.3679180443286896,-1.1801625490188599,-0.19,0.1,0.13,265.88
1679663005.53975296,84581108,2,1.35,-1.49,182.53,-0.07127086073160172,-0.008720522746443748,-0.2514062225818634,-0.3671764135360718,-0.9181084632873535,0.3356926143169403,-1.2117701768875122,-0.19,0.1,0.13,265.88
1679663005.63978076,84681136,2,1.32,-1.31,182.70000000000002,-0.11418478190898895,-0.03338085487484932,-0.2905842065811157,-0.39628639817237854,-0.9481106996536255,0.30596134066581726,-1.246475338935852,-0.19,0.1,0.13,265.88
1679663005.73979187,84781147,2,1.2,0.12,182.9,-0.1387137621641159,-0.049137793481349945,-0.3013925850391388,-0.37107810378074646,-0.9811886548995972,0.27616769075393677,-1.282730221748352,-0.19,0.1,0.13,265.88
1679663005.83978581,84881141,2,1.34,1.45,183.09,-0.14407223463058472,-0.07701530307531357,-0.31758394837379456,-0.37922152876853943,-1.0122276544570923,0.2491222620010376,-1.3208674192428589,-0.19,0.1,0.13,265.88
1679663005.93970990,84981065,2,1.82,1.81,183.28,-0.13899436593055725,-0.10146283358335495,-0.34287574887275696,-0.41297221183776855,-1.041234016418457,0.22192247211933136,-1.3608053922653198,-0.19,0.1,0.13,265.88
1679663006.03971195,85081067,2,2.37,1.71,183.44,-0.13060630857944489,-0.1325550377368927,-0.3250817060470581,-0.41014590859413147,-1.0647763013839722,0.19786684215068817,-1.402720332145691,-0.19,0.1,0.13,265.88
1679663006.13971782,85181073,2,2.5300000000000002,1.05,183.61,-0.12311530113220215,-0.16316358745098114,-0.35908541083335876,-0.4425787329673767,-1.084000825881958,0.17187418043613434,-1.4455899000167847,-0.19,0.1,0.13,265.88
1679663006.23973489,85281090,2,2.56,-0.14,183.71,-0.13095694780349731,-0.1831626296043396,-0.36860018968582153,-0.4440341591835022,-1.1019365787506104,0.1462627351284027,-1.489593267440796,-0.19,0.1,0.13,265.88
1679663006.33974695,85381102,2,1.76,-1.1,187.73,-0.1408843845129013,-0.21765898168087006,-0.3989693820476532,-0.46389859914779663,-1.1209402084350586,0.12001178413629532,-1.5350490808486938,-0.19,0.1,0.13,265.88
1679663006.43976283,85481118,2,0.54,-1.3,187.53,-0.16542115807533264,-0.22250615060329437,-0.4113178551197052,-0.47920289635658264,-1.1418002843856812,0.09602323174476624,-1.582855224609375,-0.19,0.1,0.13,265.88
1679663006.53979683,85581152,2,-0.37,-0.56,186.73,-0.19286946952342987,-0.2084828019142151,-0.42238855361938477,-0.5005396008491516,-1.1652175188064575,0.07511921972036362,-1.6336727142333984,-0.19,0.1,0.13,265.88
1679663006.63978887,85681144,2,-0.56,0.48,185.57,-0.20530103147029877,-0.18435662984848022,-0.4451289772987366,-0.5252113342285156,-1.1874788999557495,0.05985744297504425,-1.6845697164535522,-0.19,0.1,0.13,265.88
1679663006.73977494,85781130,2,-0.19,1.3900000000000001,184.38,-0.18391379714012146,-0.16334028542041779,-0.40547695755958557,-0.4566469192504883,-1.2068285942077637,0.05162956193089485,-1.7320562601089478,-0.19,0.1,0.13,265.88
1679663006.83971381,85881069,2,0.3,1.94,183.6,-0.16634541749954224,-0.12870624661445618,-0.3958386778831482,-0.4451661705970764,-1.2220720052719116,0.0465969443321228,-1.7772512435913086,-0.19,0.1,0.13,265.88
1679663006.93972898,85981084,2,0.64,1.8900000000000001,183.27,-0.1335226446390152,-0.12201802432537079,-0.36073529720306396,-0.3955817222595215,-1.2317266464233398,0.044254954904317856,-1.8191885948181152,-0.19,0.1,0.13,265.88
1679663007.03971577,86081071,2,1.06,1.61,183.37,-0.10083730518817902,-0.11604193598031998,-0.31864407658576965,-0.35755565762519836,-1.2378430366516113,0.04269484430551529,-1.857884407043457,-0.19,0.1,0.13,265.88
1679663007.13974094,86181096,2,1.9100000000000001,1.23,183.75,-0.08760542422533035,-0.10426037758588791,-0.2572421729564667,-0.3021236062049866,-1.2409002780914307,0.040286749601364136,-1.893005609512329,-0.19,0.1,0.13,265.88
1679663007.23974895,86281104,2,2.65,0.86,184.24,-0.06639014184474945,-0.1258636713027954,-0.23865634202957153,-0.2926732897758484,-1.2421729564666748,0.035648975521326065,-1.9242019653320312,-0.19,0.1,0.13,265.88
1679663007.33979678,86381152,2,2.89,0.73,184.66,-0.05231012403964996,-0.15019115805625916,-0.20490577816963196,-0.26116126775741577,-1.2427550554275513,0.027227429673075676,-1.9533543586730957,-0.19,0.1,0.13,265.88
1679663007.43978596,86481141,2,2.65,0.88,185.01,-0.030178546905517578,-0.17577524483203888,-0.19476981461048126,-0.2560180425643921,-1.2435742616653442,0.01585894450545311,-1.978603720664978,-0.19,0.1,0.13,265.88
1679663007.53978181,86581137,2,1.98,1.05,185.23,-0.03623152896761894,-0.19130538403987885,-0.15351054072380066,-0.18459758162498474,-1.245898723602295,0.0022142985835671425,-1.9993207454681396,-0.19,0.1,0.13,265.88
1679663007.63977289,86681128,2,1.1300000000000001,1.21,185.4,-0.024088455364108086,-0.19897055625915527,-0.13516411185264587,-0.16296257078647614,-1.2491581439971924,-0.01022290624678135,-2.016977548599243,-0.19,0.1,0.13,265.88
1679663007.73971486,86781070,2,0.64,1.19,185.36,-0.019765064120292664,-0.19401131570339203,-0.11153750121593475,-0.1338462382555008,-1.2544448375701904,-0.018508657813072205,-2.0310819149017334,-0.19,0.1,0.13,265.88
1679663007.83971786,86881073,2,0.55,0.96,185.26,-0.021352320909500122,-0.1690344512462616,-0.05840771272778511,-0.0954776406288147,-1.2608610391616821,-0.022967850789427757,-2.0426669120788574,-0.19,0.1,0.13,265.88
1679663007.93970990,86981065,2,0.5700000000000001,0.62,185.13,-0.01979512721300125,-0.1461661010980606,-0.024088265374302864,-0.06572176516056061,-1.2698346376419067,-0.020851340144872665,-2.0510060787200928,-0.19,0.1,0.13,265.88
1679663008.03974676,87081102,2,0.74,0.29,184.95000000000002,-0.029819345101714134,-0.12198970466852188,0.018938593566417694,-0.02610774338245392,-1.2791568040847778,-0.015871085226535797,-2.0557374954223633,-0.19,0.1,0.13,265.88
1679663008.13973379,87181089,2,0.9400000000000001,0.48,184.76,-0.03343113139271736,-0.10555501282215118,0.06377606838941574,0.03608645871281624,-1.28896963596344,-0.006511598825454712,-2.0555269718170166,-0.19,0.1,0.13,265.88
1679663008.23975992,87281115,2,1.03,0.92,184.58,-0.049025632441043854,-0.08769062161445618,0.08026188611984253,0.06798160076141357,-1.2983088493347168,0.0032076335046440363,-2.050753593444824,-0.19,0.1,0.13,265.88
1679663008.33977795,87381133,2,0.98,1.23,184.39000000000001,-0.03202827647328377,-0.07465215027332306,0.09329118579626083,0.10671928524971008,-1.3069326877593994,0.013884708285331726,-2.041818380355835,-0.19,0.1,0.13,265.88
1679663008.43977880,87481134,2,0.9500000000000001,1.28,184.24,-0.0319322906434536,-0.05298572778701782,0.12677766382694244,0.13349667191505432,-1.3139243125915527,0.02446819096803665,-2.0308547019958496,-0.19,0.1,0.13,265.88
1679663008.53976893,87581124,2,0.76,1.32,184.06,-0.024001169949769974,-0.04626486077904701,0.14566338062286377,0.1564161777496338,-1.3191479444503784,0.03624355420470238,-2.017307758331299,-0.19,0.1,0.13,265.88
1679663008.63971591,87681071,2,0.65,1.37,183.8,-0.002164464211091399,-0.03145838901400566,0.13478314876556396,0.15532557666301727,-1.3226126432418823,0.048144321888685226,-2.000300884246826,-0.19,0.1,0.13,265.88
1679663008.73972583,87781081,2,0.36,1.19,183.54,-0.0011507655726745725,-0.00986429862678051,0.1459410935640335,0.19743812084197998,-1.3248862028121948,0.06158078461885452,-1.9807155132293701,-0.19,0.1,0.13,265.88
1679663008.83972788,87881083,2,-0.1,1.11,183.26,0.016515877097845078,0.016021786257624626,0.14253020286560059,0.1858436018228531,-1.3267000913619995,0.07581877708435059,-1.9627046585083008,-0.19,0.1,0.13,265.88
1679663008.93974686,87981102,2,-0.34,1.1300000000000001,183.01,0.02147010527551174,0.04317125678062439,0.11884719133377075,0.15139144659042358,-1.328962802886963,0.09238969534635544,-1.9458826780319214,-0.19,0.1,0.13,265.88
1679663009.03974891,88081104,2,-0.42,1.03,182.77,0.018211442977190018,0.07240447402000427,0.10866609215736389,0.12983277440071106,-1.3324486017227173,0.10969879478216171,-1.9311164617538452,-0.19,0.1,0.13,265.88
1679663009.13975596,88181111,2,-0.41000000000000003,0.96,182.54,0.025369590148329735,0.08890986442565918,0.09226967394351959,0.10927954316139221,-1.3385083675384521,0.12871363759040833,-1.9191793203353882,-0.19,0.1,0.13,265.88
1679663009.23978996,88281145,2,-0.29,0.9400000000000001,182.28,0.009740692563354969,0.13848449289798737,0.07762157917022705,0.08100654929876328,-1.3451858758926392,0.14798815548419952,-1.9103924036026,-0.19,0.1,0.13,265.88
1679663009.33979297,88381148,2,-0.29,0.99,182.05,0.016286246478557587,0.14551770687103271,0.029454249888658524,0.03208101913332939,-1.3537380695343018,0.1677522212266922,-1.9038302898406982,-0.19,0.1,0.13,265.88
1679663009.43976784,88481123,2,-0.24,1.09,181.82,0.01074779313057661,0.1635938137769699,0.029346901923418045,0.026651306077837944,-1.3614857196807861,0.1862500160932541,-1.8998973369598389,-0.19,0.1,0.13,265.88
1679663009.53971696,88581072,2,-0.27,1.18,181.59,0.006624969188123941,0.1878766268491745,0.017931561917066574,0.026100337505340576,-1.369066834449768,0.20248568058013916,-1.8968024253845215,-0.19,0.1,0.13,265.88
1679663009.63971782,88681073,2,-0.41000000000000003,1.09,181.42000000000002,0.011049303226172924,0.17440743744373322,-0.005351909901946783,-0.0009325527935288846,-1.3751779794692993,0.21770311892032623,-1.8948748111724854,-0.19,0.1,0.13,265.88
1679663009.73972392,88781079,2,-0.38,0.5,181.33,0.00687304837629199,0.20581869781017303,0.017923742532730103,0.016028795391321182,-1.3808413743972778,0.2309647649526596,-1.8937627077102661,-0.19,0.1,0.13,265.88
1679663009.83973789,88881093,2,-0.27,-0.2,181.3,-0.003958177752792835,0.21561263501644135,0.010364736430346966,-0.0031790812499821186,-1.3867284059524536,0.24260538816452026,-1.8937134742736816,-0.19,0.1,0.13,265.88
1679663009.93973398,88981089,2,-0.09,-0.9,181.37,-0.025364656001329422,0.21215982735157013,-0.0009767385199666023,-0.024374334141612053,-1.3948848247528076,0.2513153553009033,-1.8942322731018066,-0.19,0.1,0.13,265.88
1679663010.03975987,89081115,2,0.06,-1.58,181.47,-0.05982367321848869,0.21353814005851746,0.03249698504805565,0.006004222668707371,-1.4046978950500488,0.25967878103256226,-1.894595980644226,-0.19,0.1,0.13,265.88
1679663010.13977981,89181135,2,0.05,-1.7,181.62,-0.10373318940401077,0.21915188431739807,0.023509053513407707,0.0030079372227191925,-1.4171302318572998,0.2659519910812378,-1.8947252035140991,-0.19,0.1,0.13,265.88
1679663010.23978376,89281139,2,0.0,-1.48,181.76,-0.13550201058387756,0.20447221398353577,0.010723777115345001,-0.0062443711794912815,-1.4299397468566895,0.2714039087295532,-1.8940057754516602,-0.19,0.1,0.13,265.88
1679663010.33977675,89381132,2,0.2,-0.9400000000000001,181.88,-0.15593114495277405,0.20864985883235931,0.020006027072668076,0.023797903209924698,-1.4420220851898193,0.2739037275314331,-1.891987681388855,-0.19,0.1,0.13,265.88
1679663010.43976998,89481125,2,0.37,-0.5,181.98,-0.18159206211566925,0.1953396052122116,0.03804200515151024,0.04045548290014267,-1.4501341581344604,0.274985671043396,-1.8902374505996704,-0.19,0.1,0.13,265.88
1679663010.53972888,89581084,2,0.27,-0.35000000000000003,182.1,-0.180312842130661,0.18656541407108307,0.021206140518188477,0.01856156624853611,-1.454972267150879,0.27532947063446045,-1.8887437582015991,-0.19,0.1,0.13,265.88
1679663010.63972378,89681079,2,0.16,-0.08,182.19,-0.17950518429279327,0.18557068705558777,0.01942349411547184,0.004890344571322203,-1.45549476146698,0.2757144570350647,-1.8883044719696045,-0.19,0.1,0.13,265.88
1679663010.73972988,89781085,2,0.16,0.32,182.3,-0.16032782196998596,0.17051711678504944,0.007913989014923573,-0.027532333508133888,-1.4480746984481812,0.2740188241004944,-1.8903712034225464,-0.19,0.1,0.13,265.88
1679663010.83973193,89881087,2,0.38,0.84,182.43,-0.13713586330413818,0.16436828672885895,0.008963835425674915,-0.0687447339296341,-1.4373561143875122,0.27278032898902893,-1.8965412378311157,-0.19,0.1,0.13,265.88
1679663010.93975282,89981108,2,1.12,1.26,182.55,-0.11201401799917221,0.1437690556049347,0.025705832988023758,-0.08378801494836807,-1.419370412826538,0.26934415102005005,-1.904463529586792,-0.19,0.1,0.13,265.88
1679663011.03978086,90081136,2,2.04,1.52,182.57,-0.07612770050764084,0.12594683468341827,0.018856115639209747,-0.102095827460289,-1.396863579750061,0.26553070545196533,-1.914259672164917,-0.19,0.09,0.13,265.88
1679663011.13979292,90181148,2,2.54,1.52,182.4,-0.031175395473837852,0.07449404895305634,0.015589545480906963,-0.124193474650383,-1.3657804727554321,0.2587500810623169,-1.925470232963562,-0.19,0.09,0.13,265.88
1679663011.23977780,90281133,2,2.63,1.37,182.13,0.009564608335494995,0.042604126036167145,0.020900527015328407,-0.11102069169282913,-1.3332828283309937,0.25053274631500244,-1.935398817062378,-0.19,0.09,0.13,265.88
1679663011.33971786,90381073,2,2.17,1.24,181.74,0.05172417685389519,0.0075678578577935696,0.019837696105241776,-0.0876145139336586,-1.2965798377990723,0.23974090814590454,-1.943562388420105,-0.19,0.09,0.13,265.88
1679663011.43972087,90481076,2,0.85,1.27,181.26,0.08921150118112564,-0.004548728000372648,0.015055808238685131,-0.08513053506612778,-1.2602083683013916,0.23178522288799286,-1.9522106647491455,-0.19,0.09,0.13,265.88
1679663011.53972483,90581080,2,-0.48,1.43,180.79,0.11074480414390564,0.0029111530166119337,0.01746036298573017,-0.09956240653991699,-1.221842885017395,0.22821995615959167,-1.9630308151245117,-0.19,0.09,0.13,265.88
1679663011.63971281,90681068,2,-1.1400000000000001,1.5,180.41,0.1494865119457245,0.03147941827774048,-0.003391146194189787,-0.12996698915958405,-1.1846667528152466,0.22951607406139374,-1.974090576171875,-0.19,0.09,0.13,265.88
1679663011.73974776,90781103,2,-1.1500000000000001,1.54,180.09,0.17597076296806335,0.05347055569291115,0.020414242520928383,-0.07741829007863998,-1.1467328071594238,0.23727472126483917,-1.9817450046539307,-0.19,0.09,0.13,265.88
1679663011.83974695,90881102,2,-0.98,1.62,179.81,0.19888734817504883,0.09374291449785233,0.0011383267119526863,-0.0845479965209961,-1.1087077856063843,0.25210073590278625,-1.9889857769012451,-0.19,0.09,0.13,265.88
1679663011.93978691,90981142,2,-0.8300000000000001,1.75,179.64000000000001,0.23846057057380676,0.13086476922035217,0.030316703021526337,-0.06580830365419388,-1.0706878900527954,0.2724575698375702,-1.9964864253997803,-0.19,0.09,0.13,265.88
1679663012.03978586,91081141,2,-0.76,1.87,179.54,0.26427462697029114,0.15382170677185059,0.013536723330616951,-0.0722409263253212,-1.033387541770935,0.29396316409111023,-2.001969814300537,-0.19,0.09,0.13,265.88
1679663012.13977695,91181132,2,-0.67,1.86,179.54,0.28011229634284973,0.18851138651371002,0.025059325620532036,-0.0376802496612072,-0.9956060647964478,0.31622347235679626,-2.005290985107422,-0.19,0.09,0.13,265.88
1679663012.23971677,91281072,2,-0.72,1.81,179.61,0.3071804940700531,0.2043549120426178,0.033637288957834244,-0.015407370403409004,-0.9586917161941528,0.3377653658390045,-2.007449150085449,-0.19,0.09,0.13,265.88
1679663012.33971691,91381072,2,-0.78,1.82,179.69,0.33682164549827576,0.2233114093542099,0.020534586161375046,-0.030535822734236717,-0.9220382571220398,0.3575599491596222,-2.010585308074951,-0.19,0.09,0.13,265.88
1679663012.43971586,91481071,2,-0.77,1.87,179.79,0.35567882657051086,0.2493893802165985,0.0497126542031765,-0.034192681312561035,-0.8855653405189514,0.37632882595062256,-2.016228675842285,-0.19,0.09,0.13,265.88
1679663012.53974175,91581097,2,-0.77,1.8900000000000001,179.87,0.37218573689460754,0.2622060179710388,0.019505726173520088,-0.07658271491527557,-0.8490578532218933,0.39276254177093506,-2.0221095085144043,-0.19,0.09,0.13,265.88
1679663012.63972783,91681083,2,-0.66,2.04,179.96,0.402936190366745,0.2795428931713104,0.026408907026052475,-0.06782755255699158,-0.8127799034118652,0.40792080760002136,-2.027587652206421,-0.19,0.09,0.13,265.88
1679663012.73974776,91781103,2,-0.42,2.99,180.04,0.4372153580188751,0.29165568947792053,0.04735059663653374,-0.03579559549689293,-0.776054322719574,0.4193806052207947,-2.032946825027466,-0.19,0.09,0.13,265.88
1679663012.83977890,91881134,2,-0.34,4.23,180.13,0.48303988575935364,0.283678263425827,0.017098596319556236,-0.06699004769325256,-0.738541305065155,0.42904791235923767,-2.0392227172851562,-0.19,0.1,0.13,265.88
1679663012.93978286,91981138,2,-0.15,4.55,180.24,0.5341998934745789,0.2872764468193054,0.0062859379686415195,-0.08129996806383133,-0.6998259425163269,0.43434587121009827,-2.04638409614563,-0.19,0.1,0.13,265.88
1679663013.03977275,92081128,2,1.79,3.48,180.37,0.562998354434967,0.24418848752975464,0.018514616414904594,-0.08869405090808868,-0.6599411368370056,0.43597984313964844,-2.0562403202056885,-0.2,0.1,0.13,265.88
1679663013.13971376,92181069,2,6.54,2.11,180.46,0.6069451570510864,0.14034025371074677,0.020673789083957672,-0.10642711073160172,-0.6221510767936707,0.4258435070514679,-2.065688133239746,-0.2,0.1,0.13,265.88
1679663013.23972297,92281078,2,10.66,1.33,180.5,0.6096880435943604,0.01679329387843609,0.03375301510095596,-0.0908060371875763,-0.5888916850090027,0.40434080362319946,-2.0735065937042236,-0.2,0.11,0.12,265.88
1679663013.33971691,92381072,2,12.06,1.16,180.6,0.603221595287323,-0.17513877153396606,0.07060645520687103,-0.05239957571029663,-0.5592339038848877,0.3678867816925049,-2.0809831619262695,-0.2,0.11,0.12,265.88
1679663013.43974590,92481101,2,11.6,1.3,180.77,0.5992029905319214,-0.3664897084236145,0.05548721179366112,-0.05262847989797592,-0.5337156653404236,0.32059434056282043,-2.085089683532715,-0.2,0.11,0.12,265.88
1679663013.53974295,92581098,2,9.25,1.5,181.02,0.5839074850082397,-0.5134001970291138,0.01583515666425228,-0.05596192553639412,-0.516569972038269,0.26257941126823425,-2.0891244411468506,-0.2,0.11,0.12,265.88
1679663013.63974380,92681099,2,4.11,1.68,181.24,0.5839883089065552,-0.6073141694068909,-0.03616151586174965,-0.10659503936767578,-0.5015386939048767,0.21071793138980865,-2.0976641178131104,-0.19,0.12,0.12,265.88
1679663013.73978186,92781137,2,-0.8,1.84,181.56,0.5789258480072021,-0.5936132073402405,-0.03697579726576805,-0.09913161396980286,-0.49384844303131104,0.17687320709228516,-2.107450485229492,-0.19,0.12,0.12,265.88
1679663013.83978176,92881137,2,-3.02,1.83,181.95000000000002,0.5658658742904663,-0.5332741737365723,-0.04600295424461365,-0.10504945367574692,-0.48552000522613525,0.16255824267864227,-2.118704319000244,-0.17,0.12,0.12,265.88
1679663013.93977380,92981129,2,-3.22,1.54,182.27,0.5574788451194763,-0.4185180962085724,0.004499464761465788,-0.06432335823774338,-0.482936829328537,0.18004047870635986,-2.128054618835449,-0.17,0.12,0.11,265.88
1679663014.03971076,93081066,2,-2.7600000000000002,1.12,182.54,0.5402588248252869,-0.29217037558555603,-0.0023266999050974846,-0.08152754604816437,-0.47980639338493347,0.21604812145233154,-2.1352052688598633,-0.16,0.13,0.12,265.88
1679663014.13971376,93181069,2,-2.41,0.77,182.89000000000001,0.5065886378288269,-0.18296749889850616,0.008746274746954441,-0.08078362792730331,-0.4820300340652466,0.2795321047306061,-2.143038034439087,-0.16,0.13,0.12,265.88
1679663014.23971295,93281068,2,-1.93,0.75,183.14000000000001,0.4808836579322815,-0.07125075906515121,0.01888195052742958,-0.09456094354391098,-0.48466044664382935,0.3495270609855652,-2.1521034240722656,-0.15,0.13,0.12,265.88
1679663014.33972383,93381079,2,-1.51,0.8200000000000001,183.32,0.45267629623413086,0.03643660619854927,0.043419305235147476,-0.08847657591104507,-0.49361976981163025,0.43265271186828613,-2.161268472671509,-0.15,0.13,0.12,265.88
1679663014.43973780,93481093,2,-1.33,1.01,183.42000000000002,0.41570618748664856,0.13236196339130402,0.03957188501954079,-0.07914608716964722,-0.5017127990722656,0.5153372287750244,-2.166555881500244,-0.15,0.14,0.12,265.88
1679663014.53976178,93581117,2,-1.19,1.22,183.37,0.4044022858142853,0.20267647504806519,0.05638837069272995,-0.02138756401836872,-0.5146872401237488,0.6030973792076111,-2.168692111968994,-0.15,0.14,0.13,265.88
1679663014.63979578,93681151,2,-1.1400000000000001,1.35,183.29,0.38278183341026306,0.27956435084342957,0.06886956840753555,0.005049045663326979,-0.5280028581619263,0.6899308562278748,-2.1702792644500732,-0.14,0.14,0.13,265.88
1679663014.73978877,93781144,2,-1.42,1.48,183.08,0.3655146062374115,0.33993199467658997,0.04421037808060646,-0.00678439624607563,-0.5402057766914368,0.7756017446517944,-2.1701877117156982,-0.14,0.14,0.13,265.88
1679663014.83977675,93881132,2,-2.38,1.47,182.83,0.35204964876174927,0.40787941217422485,0.03885672241449356,-0.003957383334636688,-0.5534000396728516,0.85887211561203,-2.169834613800049,-0.14,0.15,0.13,265.88
1679663014.93975878,93981114,2,-2.8000000000000003,1.3900000000000001,182.54,0.34728699922561646,0.4842599332332611,0.03511971980333328,0.0008350524003617465,-0.56585294008255,0.9409404397010803,-2.1704652309417725,-0.14,0.15,0.13,265.88
1679663015.03972197,94081077,2,-2.52,1.25,182.23,0.31744271516799927,0.5473769903182983,0.031220439821481705,-0.005690916441380978,-0.5791937112808228,1.0212278366088867,-2.1711597442626953,-0.14,0.15,0.13,265.88
1679663015.13972783,94181083,2,-2.1,1.32,181.9,0.31408774852752686,0.6108275651931763,0.020206481218338013,-0.006270329933613539,-0.5920491218566895,1.10084867477417,-2.1707754135131836,-0.14,0.15,0.13,265.88
1679663015.23973179,94281087,2,-1.9100000000000001,1.2,181.64000000000001,0.2912002205848694,0.671933650970459,0.04284349083900452,0.00948708038777113,-0.6064419150352478,1.1760941743850708,-2.1715962886810303,-0.15,0.16,0.13,265.88
1679663015.33973694,94381092,2,-1.72,0.31,181.44,0.259577214717865,0.7056180834770203,0.017133008688688278,-0.026483014225959778,-0.6217005252838135,1.2482901811599731,-2.1732025146484375,-0.15,0.16,0.13,265.88
1679663015.43976092,94481116,2,-1.56,-1.22,181.28,0.2238364964723587,0.7349429726600647,0.01910717785358429,-0.02914336510002613,-0.6411135792732239,1.3141179084777832,-2.1763522624969482,-0.15,0.16,0.12,265.88
1679663015.53977776,94581133,2,-1.22,-2.36,181.13,0.15464834868907928,0.7591845393180847,0.04193753004074097,-0.0008870111778378487,-0.6648038029670715,1.374866008758545,-2.178419828414917,-0.15,0.16,0.12,265.88
1679663015.63977695,94681132,2,-0.85,-2.71,181.07,0.08709273487329483,0.769054651260376,0.00571691058576107,-0.0243466105312109,-0.6935761570930481,1.429026484489441,-2.179866313934326,-0.16,0.17,0.12,265.88
1679663015.73976994,94781125,2,-0.48,-2.33,181.04,0.02055979333817959,0.7720867395401001,0.011508410796523094,-0.013898740522563457,-0.7269490361213684,1.4781556129455566,-2.1828370094299316,-0.16,0.17,0.12,265.88
1679663015.83971882,94881074,2,-0.27,-1.57,181.04,-0.04331989213824272,0.7597094178199768,-0.017980756238102913,-0.04107927158474922,-0.7625434994697571,1.5204211473464966,-2.186192750930786,-0.16,0.17,0.12,265.88
1679663015.93972278,94981078,2,-0.22,-1.33,181.09,-0.0981438010931015,0.7576770782470703,-0.01164401974529028,-0.03361806645989418,-0.7995190024375916,1.5581297874450684,-2.190877676010132,-0.16,0.17,0.12,265.88
1679663016.03971982,95081075,2,-0.27,-1.45,181.14000000000001,-0.14215344190597534,0.7319704294204712,-0.020965389907360077,-0.05205084756016731,-0.8344317674636841,1.590048909187317,-2.196474552154541,-0.17,0.17,0.11,265.88
1679663016.13974476,95181100,2,-0.25,-1.53,181.16,-0.1761157065629959,0.7246986627578735,-0.030449816957116127,-0.07097303122282028,-0.8676374554634094,1.6184303760528564,-2.202342987060547,-0.17,0.17,0.11,265.88
1679663016.23974490,95281100,2,-0.18,-1.69,181.15,-0.21061472594738007,0.7017735838890076,-0.023461531847715378,-0.06641636043787003,-0.8974833488464355,1.6431375741958618,-2.2079522609710693,-0.18,0.17,0.11,265.88
1679663016.33976889,95381124,2,-0.26,-1.61,181.09,-0.2442580908536911,0.6921886205673218,-0.04002024233341217,-0.09279244393110275,-0.9246534109115601,1.6712782382965088,-2.2148196697235107,-0.18,0.16,0.1,265.88
1679663016.43978286,95481138,2,-0.31,-1.1500000000000001,180.96,-0.2637794017791748,0.6755415201187134,-0.02045292593538761,-0.07755535840988159,-0.9482306838035583,1.6916335821151733,-2.222186326980591,-0.18,0.16,0.1,265.88
1679663016.53977585,95581131,2,-0.43,-0.25,180.85,-0.25817230343818665,0.680594265460968,-0.02101190760731697,-0.059550490230321884,-0.9665201902389526,1.7072359323501587,-2.227861166000366,-0.18,0.16,0.1,265.88
1679663016.63977385,95681129,2,-1.2,1.16,180.75,-0.24411678314208984,0.6787203550338745,-0.03510771319270134,-0.07706188410520554,-0.9786153435707092,1.7248328924179077,-2.235049247741699,-0.19,0.16,0.1,265.88
1679663016.73970985,95781065,2,-2.33,2.2600000000000002,180.61,-0.21156522631645203,0.6745772957801819,-0.05969545245170593,-0.11437121033668518,-0.981813371181488,1.7402392625808716,-2.244600296020508,-0.19,0.16,0.1,265.88
1679663016.83972192,95881077,2,-3.0700000000000003,2.66,180.53,-0.15712280571460724,0.7151036858558655,-0.0508948415517807,-0.12431541830301285,-0.9773768782615662,1.7561912536621094,-2.255793809890747,-0.2,0.15,0.09,265.88
1679663016.93972492,95981080,2,-3.34,2.49,180.55,-0.11366146057844162,0.7328654527664185,-0.030132770538330078,-0.11896847188472748,-0.9658324122428894,1.7756013870239258,-2.2671470642089844,-0.2,0.15,0.09,265.88
1679663017.03972292,96081078,2,-3.1,2.23,180.63,-0.05450630187988281,0.7684712409973145,-0.02386281080543995,-0.10917969793081284,-0.9495921730995178,1.794966220855713,-2.2773001194000244,-0.2,0.15,0.09,265.88
1679663017.13973093,96181086,2,-2.29,1.98,180.79,-0.0134519562125206,0.7781174778938293,0.001024617929942906,-0.06827542185783386,-0.9296240210533142,1.815970540046692,-2.2857630252838135,-0.2,0.15,0.09,265.88
1679663017.23975086,96281106,2,-1.5,1.84,181.05,0.025000259280204773,0.7896414399147034,-0.021696221083402634,-0.07832495123147964,-0.9098156690597534,1.830687165260315,-2.2918994426727295,-0.22,0.15,0.09,265.88
1679663017.33979177,96381147,2,-0.87,1.8,181.33,0.06620313227176666,0.7797456383705139,0.01787177100777626,-0.023990266025066376,-0.890062153339386,1.84092378616333,-2.295757532119751,-0.22,0.15,0.09,265.88
1679663017.43977690,96481132,2,-0.44,1.74,181.66,0.08840595185756683,0.7521761655807495,0.016547605395317078,-0.019326115027070045,-0.8734317421913147,1.8426454067230225,-2.2987585067749023,-0.23,0.16,0.09,265.88
1679663017.53977180,96581127,2,-0.14,1.6400000000000001,182.05,0.10435954481363297,0.7183268666267395,0.026362519711256027,-0.014705928042531013,-0.8588355779647827,1.8379838466644287,-2.3025856018066406,-0.23,0.15,0.08,265.88
1679663017.63971591,96681071,2,0.38,1.6,182.41,0.12896251678466797,0.6722320318222046,-0.006630651652812958,-0.04824521020054817,-0.8476137518882751,1.8239357471466064,-2.3066511154174805,-0.24,0.16,0.08,265.88
1679663017.73972392,96781079,2,0.8300000000000001,1.54,182.72,0.15060816705226898,0.6159944534301758,-0.021753888577222824,-0.04834422841668129,-0.8385971784591675,1.8035696744918823,-2.3102824687957764,-0.24,0.16,0.08,265.88
1679663017.83972692,96881082,2,1.0,1.5,183.03,0.16069234907627106,0.5563634037971497,-0.01747867465019226,-0.03221055120229721,-0.8336487412452698,1.7758898735046387,-2.3135783672332764,-0.25,0.16,0.08,265.88
1679663017.93973994,96981095,2,0.97,1.41,183.23,0.16955305635929108,0.4969354271888733,-0.030448175966739655,-0.033640746027231216,-0.8312827944755554,1.7429590225219727,-2.316880226135254,-0.25,0.16,0.08,265.88
1679663018.03975797,97081113,2,0.9,1.27,183.37,0.18118372559547424,0.43903791904449463,-0.028046252205967903,-0.029180822893977165,-0.8332337737083435,1.704740047454834,-2.320868492126465,-0.26,0.17,0.08,265.88
1679663018.13975787,97181113,2,0.65,0.85,183.42000000000002,0.17311929166316986,0.38003090023994446,-0.028076115995645523,-0.03836126625537872,-0.8381779789924622,1.6638644933700562,-2.325895071029663,-0.26,0.17,0.07,265.88
1679663018.23978281,97281138,2,0.47000000000000003,0.1,183.41,0.15851226449012756,0.33511844277381897,-0.03797941282391548,-0.06794499605894089,-0.848168671131134,1.6201364994049072,-2.3319859504699707,-0.27,0.17,0.07,265.88
1679663018.33978987,97381145,2,0.41000000000000003,-0.8200000000000001,183.29,0.11806219816207886,0.30155041813850403,-0.030942212790250778,-0.07691916823387146,-0.8623875379562378,1.5754016637802124,-2.3391284942626953,-0.27,0.17,0.07,265.88
1679663018.43977594,97481131,2,0.33,-1.47,183.18,0.08267601579427719,0.2560317814350128,-0.004108244087547064,-0.0590180829167366,-0.883544921875,1.5291228294372559,-2.346423387527466,-0.27,0.18,0.07,265.88
1679663018.53971791,97581073,2,0.24,-2.16,183.06,0.029640769585967064,0.22673927247524261,-0.017054101452231407,-0.06878168135881424,-0.9113205671310425,1.4831247329711914,-2.3530454635620117,-0.27,0.18,0.07,265.88
1679663018.63971376,97681069,2,0.1,-2.82,182.97,-0.036171674728393555,0.18609285354614258,-0.010392907075583935,-0.05638173967599869,-0.9453936219215393,1.4355918169021606,-2.358015775680542,-0.28,0.18,0.07,265.88
1679663018.73972297,97781078,2,0.13,-2.97,182.88,-0.10467671602964401,0.15690834820270538,-0.009044724516570568,-0.03777429461479187,-0.9850563406944275,1.3882246017456055,-2.3614439964294434,-0.28,0.18,0.06,265.88
1679663018.83972478,97881080,2,0.29,-2.84,182.87,-0.17314545810222626,0.1240505501627922,0.01668662764132023,0.0034420809242874384,-1.0266668796539307,1.342626690864563,-2.362008810043335,-0.29,0.19,0.06,265.88
1679663018.93974280,97981098,2,0.43,-2.43,182.9,-0.2256249189376831,0.0851655825972557,0.005730439443141222,0.018093958497047424,-1.0725576877593994,1.2909530401229858,-2.360532283782959,-0.29,0.19,0.06,265.88
1679663019.03974295,98081098,2,0.58,-1.27,183.0,-0.26905450224876404,0.052143942564725876,0.008194131776690483,0.006111917085945606,-1.1162598133087158,1.2364696264266968,-2.360614538192749,-0.3,0.18,0.06,265.88
1679663019.13979197,98181147,2,1.12,-0.53,183.13,-0.28886961936950684,0.003522800048813224,0.033678095787763596,0.023282179608941078,-1.1576155424118042,1.179976224899292,-2.3607633113861084,-0.29,0.18,0.06,265.88
1679663019.23977995,98281135,2,1.73,-0.46,183.24,-0.29763978719711304,-0.03872639685869217,0.03958281874656677,0.02909795381128788,-1.1952595710754395,1.124179482460022,-2.3591716289520264,-0.3,0.18,0.06,265.88
1679663019.33976698,98381122,2,1.8800000000000001,-0.74,183.36,-0.3124496042728424,-0.09899894148111343,0.056405067443847656,0.05495302379131317,-1.2290745973587036,1.0617172718048096,-2.3555424213409424,-0.3,0.18,0.05,265.88
1679663019.43974996,98481105,2,1.76,-1.45,183.39000000000001,-0.32915523648262024,-0.14436796307563782,0.05482263118028641,0.06433384120464325,-1.257952332496643,0.9955580830574036,-2.3498497009277344,-0.31,0.18,0.05,265.88
1679663019.53971481,98581070,2,1.57,-2.8000000000000003,183.38,-0.3546886742115021,-0.20226044952869415,0.05330339074134827,0.07784952968358994,-1.2848246097564697,0.9270252585411072,-2.3426504135131836,-0.31,0.18,0.05,265.88
1679663019.63971782,98681073,2,1.46,-3.99,183.33,-0.4127531349658966,-0.2577988803386688,0.04548272490501404,0.06413692981004715,-1.31255304813385,0.8596991896629333,-2.335700035095215,-0.31,0.18,0.04,265.88
1679663019.73974395,98781099,2,2.11,-4.15,183.35,-0.4518220126628876,-0.31581851840019226,0.05226012319326401,0.062365055084228516,-1.341389536857605,0.7867810130119324,-2.329641342163086,-0.31,0.17,0.04,265.88
1679663019.83972692,98881082,2,3.09,-3.68,183.39000000000001,-0.4993741810321808,-0.36431005597114563,0.0660693496465683,0.07558910548686981,-1.3700705766677856,0.711381733417511,-2.322387933731079,-0.31,0.17,0.04,265.88
1679663019.93976593,98981121,2,3.85,-2.81,183.58,-0.5335507392883301,-0.4400289058685303,0.0718245655298233,0.09397981315851212,-1.3992760181427002,0.6329901814460754,-2.3143527507781982,-0.31,0.17,0.04,265.88
1679663020.03977990,99081135,2,4.5600000000000005,-1.29,183.81,-0.5377998948097229,-0.5286829471588135,0.04950287938117981,0.07241881638765335,-1.4210726022720337,0.5530414581298828,-2.306642770767212,-0.32,0.16,0.04,265.88
1679663020.13978481,99181140,2,4.96,0.08,184.04,-0.511137068271637,-0.6126691102981567,0.03706228733062744,0.06769975274801254,-1.4373387098312378,0.4696106016635895,-2.29927134513855,-0.32,0.16,0.03,265.88
1679663020.23977494,99281130,2,5.01,0.5700000000000001,184.21,-0.48396676778793335,-0.7020114660263062,0.04581883177161217,0.07715494185686111,-1.4464802742004395,0.3861333429813385,-2.291834592819214,-0.32,0.15,0.03,265.88
1679663020.33971596,99381071,2,4.9,0.76,184.39000000000001,-0.4278983473777771,-0.7829928398132324,0.01414596475660801,0.05937524512410164,-1.4420527219772339,0.30058014392852783,-2.2841687202453613,-0.32,0.15,0.02,265.88
1679663020.43972492,99481080,2,4.69,0.9,184.49,-0.3771020472049713,-0.8448747396469116,0.03923918679356575,0.07108763605356216,-1.4322208166122437,0.2177564799785614,-2.278191089630127,-0.31,0.14,0.02,265.88
1679663020.53972077,99581076,2,4.13,0.5700000000000001,184.5,-0.3201931416988373,-0.8968802094459534,0.03553854301571846,0.05007106810808182,-1.4123470783233643,0.13828010857105255,-2.2741458415985107,-0.31,0.14,0.01,265.88
1679663020.63974094,99681096,2,3.3200000000000003,0.33,184.48,-0.26557502150535583,-0.932888925075531,0.019325992092490196,0.014169811271131039,-1.388303518295288,0.06610522419214249,-2.2730345726013184,-0.3,0.14,0.01,265.88
1679663020.73976183,99781117,2,2.7,0.56,184.57,-0.22656944394111633,-0.952043354511261,0.000654572737403214,-0.021670570597052574,-1.361450433731079,-0.00040494478889741004,-2.2741856575012207,-0.3,0.14,0.0,265.88
1679663020.83975387,99881109,2,2.48,0.71,184.77,-0.18327099084854126,-0.9490905404090881,-0.010082080028951168,-0.03325275704264641,-1.3325830698013306,-0.05793318152427673,-2.2757182121276855,-0.3,0.13,0.0,265.88
1679663020.93979383,99981149,2,2.5300000000000002,0.58,185.0,-0.14116081595420837,-0.9512835144996643,-0.004406528547406197,-0.021682385355234146,-1.3027485609054565,-0.10822849720716476,-2.277036190032959,-0.3,0.13,0.0,265.88
1679663021.03978181,100081137,2,2.66,0.5,185.25,-0.10942144691944122,-0.9559320211410522,-0.010394364595413208,-0.02230996824800968,-1.2725547552108765,-0.15159454941749573,-2.277214288711548,-0.29,0.13,0.0,265.88
1679663021.13977385,100181129,2,2.87,0.51,185.57,-0.07621604204177856,-0.9428302049636841,-0.0065095084719359875,-0.006782226730138063,-1.2426084280014038,-0.19043171405792236,-2.277026414871216,-0.29,0.13,0.0,265.88
1679663021.23971796,100281073,2,2.96,0.61,185.9,-0.04431017115712166,-0.9425073862075806,0.00869029015302658,0.005982645321637392,-1.213271141052246,-0.2234882414340973,-2.2776010036468506,-0.28,0.13,0.0,265.88
