timestamp,TimeUS,C,Q1,Q2,Q3,Q4
1679662993.83974981,72881105,2,0.9780334830284119,0.006224798038601875,0.001806927495636046,-0.20834706723690033
1679662993.93979788,72981153,2,0.9780587553977966,0.006181159056723118,0.001828178996220231,-0.20822957158088684
1679662994.03977180,73081127,2,0.9780745506286621,0.006153372582048178,0.001804307452403009,-0.20815636217594147
1679662994.13976383,73181119,2,0.9780856370925903,0.006135634612292051,0.001813144888728857,-0.20810475945472717
1679662994.23970294,73281058,2,0.9781076312065125,0.006194597575813532,0.001833138638176024,-0.2079993486404419
1679662994.33970284,73381058,2,0.9781036972999573,0.00611575273796916,0.0018440710846334696,-0.20802004635334015
1679662994.43970680,73481062,2,0.9781063199043274,0.006089567672461271,0.0018236208707094193,-0.20800860226154327
1679662994.53970695,73581062,2,0.9781070351600647,0.006054190453141928,0.0018358021043241024,-0.20800621807575226
1679662994.63973498,73681090,2,0.9781143665313721,0.0060507250018417835,0.0018033931264653802,-0.2079721987247467
1679662994.73973894,73781094,2,0.9781143069267273,0.006020565517246723,0.001752660027705133,-0.20797370374202728
1679662994.83976078,73881116,2,0.9781140089035034,0.005953835789114237,0.0017661636229604483,-0.20797686278820038
1679662994.93977380,73981129,2,0.9781096577644348,0.005946674849838018,0.0017562519060447812,-0.20799778401851654
1679662995.03977776,74081133,2,0.9781008958816528,0.005879265256226063,0.0017516358057036996,-0.20804080367088318
1679662995.13971496,74181070,2,0.9780912399291992,0.005916513502597809,0.0017530352342873812,-0.2080850601196289
1679662995.23972487,74281080,2,0.9780809879302979,0.005862710066139698,0.0017519620014354587,-0.20813491940498352
1679662995.33971882,74381074,2,0.9780573844909668,0.005905560217797756,0.0017613362288102508,-0.20824454724788666
1679662995.43971682,74481072,2,0.978037416934967,0.0058750309981405735,0.0018259012140333652,-0.20833854377269745
1679662995.53972292,74581078,2,0.9780101180076599,0.005867218133062124,0.0018538276199251413,-0.20846666395664215
1679662995.63974476,74681100,2,0.9780009984970093,0.005850931629538536,0.001955796731635928,-0.20850889384746552
1679662995.73978186,74781137,2,0.9780036211013794,0.0057308971881866455,0.001984418835490942,-0.20849967002868652
1679662995.83979392,74881149,2,0.9780125617980957,0.005654547829180956,0.0020235686097294092,-0.20845960080623627
1679662995.93976688,74981122,2,0.978011965751648,0.005643483716994524,0.0020162712316960096,-0.20846274495124817
1679662996.03971577,75081071,2,0.9779956340789795,0.00562106491997838,0.002013792749494314,-0.20853975415229797
1679662996.13971782,75181073,2,0.9779835939407349,0.005570890381932259,0.002100931713357568,-0.20859694480895996
1679662996.23972487,75281080,2,0.9779632091522217,0.005528953392058611,0.002116553485393524,-0.20869329571723938
1679662996.33973980,75381095,2,0.9779478311538696,0.005512728355824947,0.0020756663288921118,-0.20876631140708923
1679662996.43971276,75481068,2,0.9779382944107056,0.005473378114402294,0.0021167146041989326,-0.20881159603595734
1679662996.53975296,75581108,2,0.9779260754585266,0.005452609155327082,0.002054099924862385,-0.20886997878551483
1679662996.63980198,75681157,2,0.977902352809906,0.005381089635193348,0.002024919493123889,-0.20898309350013733
1679662996.73977590,75781131,2,0.9779001474380493,0.0053366790525615215,0.002016096841543913,-0.20899464190006256
1679662996.83976793,75881123,2,0.9779418110847473,0.00527068879455328,0.0020159920677542686,-0.20880135893821716
1679662996.93971276,75981068,2,0.9779248237609863,0.005298646166920662,0.0020179245620965958,-0.2088800072669983
1679662997.03970885,76081064,2,0.9778852462768555,0.005038859322667122,0.0020094646606594324,-0.20907193422317505
1679662997.13971376,76181069,2,0.9779795408248901,0.004826616961508989,0.0023048841394484043,-0.20863211154937744
1679662997.23972178,76281077,2,0.9778509140014648,0.0045622861944139,0.002594164339825511,-0.20923693478107452
1679662997.33972979,76381085,2,0.9777230024337769,0.004931309726089239,0.002450060099363327,-0.2098269909620285
1679662997.43974376,76481099,2,0.9777346849441528,0.004889210686087608,0.0025556113105267286,-0.2097722887992859
1679662997.53978086,76581136,2,0.9775731563568115,0.004664217121899128,0.00272765732370317,-0.21052668988704681
1679662997.63977981,76681135,2,0.977469801902771,0.004862959962338209,0.0027644874062389135,-0.2110011726617813
1679662997.73977184,76781127,2,0.97751784324646,0.0045917583629488945,0.0026560374535620213,-0.21078594028949738
1679662997.83971190,76881067,2,0.9774042963981628,0.004448523744940758,0.0029214394744485617,-0.21131141483783722
1679662997.93972683,76981082,2,0.9773021936416626,0.0045960815623402596,0.0029731031972914934,-0.2117791622877121
1679662998.03971195,77081067,2,0.9773517847061157,0.004439240787178278,0.002869785064831376,-0.21155498921871185
1679662998.13975191,77181107,2,0.9772142767906189,0.003929780796170235,0.0038425573147833347,-0.2121839076280594
1679662998.23971486,77281070,2,0.9770557880401611,0.0044446405954658985,0.007784212939441204,-0.21279476583003998
1679662998.33974695,77381102,2,0.9767199158668518,0.005153678823262453,0.014230911619961262,-0.21398384869098663
1679662998.43978596,77481141,2,0.9762277603149414,0.0035203942097723484,0.019871430471539497,-0.21580559015274048
1679662998.53977585,77581131,2,0.9755905866622925,0.0008294250001199543,0.025154009461402893,-0.21815037727355957
1679662998.63977385,77681129,2,0.9749464988708496,-0.0023957963567227125,0.0287186149507761,-0.22056488692760468
1679662998.73971176,77781067,2,0.974442183971405,-0.0053140344098210335,0.02840462699532509,-0.22277197241783142
1679662998.83971286,77881068,2,0.9741435647010803,-0.006455667782574892,0.020083162933588028,-0.22494299709796906
1679662998.93971395,77981069,2,0.9739174246788025,-0.0006853685481473804,0.008527208119630814,-0.22674134373664856
1679662999.03974390,78081099,2,0.9734750390052795,0.017703965306282043,0.0010215090587735176,-0.22810503840446472
1679662999.13975382,78181109,2,0.9726567268371582,0.03795212134718895,-0.008465356193482876,-0.22896923124790192
1679662999.23976088,78281116,2,0.08210863918066025,0.031796615570783615,0.021208440884947777,-0.995890200138092
1679662999.33977890,78381134,2,0.08286955207586288,0.029781000688672066,0.010951169766485691,-0.9960551261901855
1679662999.43977284,78481128,2,0.08432723581790924,0.022384071722626686,-0.0026252982206642628,-0.9961832165718079
1679662999.53977180,78581127,2,0.08700810372829437,0.0052101933397352695,-0.013581770472228527,-0.9961013793945312
1679662999.63971090,78681066,2,0.09368075430393219,-0.005024351179599762,-0.016095617786049843,-0.9954594969749451
1679662999.73972487,78781080,2,0.10238243639469147,-0.003308547893539071,-0.011254563927650452,-0.9946759343147278
1679662999.83972692,78881082,2,0.10800870507955551,0.0021205812226980925,-0.003868052503094077,-0.9941401481628418
1679662999.93972993,78981085,2,0.1097831055521965,0.007886854000389576,0.0013810333330184221,-0.9939233064651489
1679663000.03974581,79081101,2,0.10914266109466553,0.014010581187903881,0.005032923072576523,-0.9939146041870117
1679663000.13975096,79181106,2,0.10626412183046341,0.017575768753886223,0.007431474514305592,-0.9941548109054565
1679663000.23978090,79281136,2,0.10094631463289261,0.017186231911182404,0.0076884073205292225,-0.9947137236595154
1679663000.33978295,79381138,2,0.09465701133012772,0.014857782050967216,0.008571447804570198,-0.9953621625900269
1679663000.43977475,79481130,2,0.08780201524496078,0.013423421420156956,0.009996446780860424,-0.9959973096847534
1679663000.53971195,79581067,2,0.08114306628704071,0.011714991182088852,0.010498667135834694,-0.9965783357620239
1679663000.63971996,79681075,2,0.07568201422691345,0.009927830658853054,0.008611580356955528,-0.9970453977584839
1679663000.73972487,79781080,2,0.07183320075273514,0.008776075206696987,0.004822705406695604,-0.9973663687705994
1679663000.83972692,79881082,2,0.06983359158039093,0.008525446057319641,0.0012139189057052135,-0.9975214600563049
1679663000.93972492,79981080,2,0.06915934383869171,0.007094427477568388,-0.0019990603905171156,-0.9975783824920654
1679663001.03974795,80081103,2,0.06974202394485474,0.005689305253326893,-0.003144797869026661,-0.9975438714027405
1679663001.13979077,80181146,2,0.07080341130495071,0.005320495460182428,-0.004303597379475832,-0.9974668025970459
1679663001.23977995,80281135,2,0.07114358246326447,0.005865170154720545,-0.0029951296746730804,-0.9974443316459656
1679663001.33976984,80381125,2,0.06935077905654907,0.007568631321191788,-0.0018729747971519828,-0.9975618720054626
1679663001.43970990,80481065,2,0.06549882143735886,0.008605431765317917,0.0004955524345859885,-0.9978154301643372
1679663001.53972197,80581077,2,0.060065437108278275,0.007965556345880032,0.003547188127413392,-0.9981563687324524
1679663001.63970876,80681064,2,0.05454538017511368,0.008831974118947983,0.005035129841417074,-0.99845951795578
1679663001.73972893,80781084,2,0.04970239847898483,0.008928677067160606,0.00503372261300683,-0.9987114667892456
1679663001.83973980,80881095,2,0.04558131471276283,0.009233437478542328,0.0050001428462564945,-0.9989054203033447
1679663001.93975091,80981106,2,0.04245257005095482,0.008974865078926086,0.004102411679923534,-0.999049723148346
1679663002.03978181,81081137,2,0.04033441096544266,0.0068085999228060246,0.00019568651623558253,-0.999163031578064
1679663002.13977695,81181132,2,0.038729991763830185,0.0010565761476755142,-0.004541774280369282,-0.9992388486862183
1679663002.23976994,81281125,2,0.03812578320503235,-0.001068107783794403,-0.0033154210541397333,-0.9992668628692627
1679663002.33970976,81381065,2,0.03781013563275337,0.0019429927924647927,-0.0006394330994226038,-0.9992828369140625
1679663002.43970895,81481064,2,0.0379340760409832,0.0063735125586390495,0.0006033728714101017,-0.9992597103118896
1679663002.53971291,81581068,2,0.03802720457315445,0.00891223456710577,0.0012589808320626616,-0.9992361664772034
1679663002.63975191,81681107,2,0.038389869034290314,0.00922540482133627,0.0021001507993787527,-0.9992180466651917
1679663002.73973894,81781094,2,0.03911743685603142,0.008559679612517357,0.0028185108676552773,-0.9991939663887024
1679663002.83975291,81881108,2,0.040024664252996445,0.008894517086446285,0.003612010506913066,-0.9991526007652283
1679663002.93979287,81981148,2,0.04105854406952858,0.008963034488260746,0.004308664705604315,-0.9991072416305542
1679663003.03978181,82081137,2,0.041827160865068436,0.008667819201946259,0.005164030473679304,-0.9990739226341248
1679663003.13977098,82181126,2,0.04195379838347435,0.00854881014674902,0.005009196698665619,-0.999070405960083
1679663003.23971581,82281071,2,0.04200604185461998,0.008559203706681728,0.004965430591255426,-0.9990683794021606
1679663003.33970881,82381064,2,0.04194701090455055,0.009080929681658745,0.001483369618654251,-0.9990774393081665
1679663003.43970990,82481065,2,0.04165840148925781,0.009995642118155956,-0.005372302141040564,-0.999067485332489
1679663003.53975081,82581106,2,0.04082045331597328,0.010358599945902824,-0.009401068091392517,-0.999068558216095
1679663003.63973498,82681090,2,0.039874982088804245,0.01029092725366354,-0.007578690070658922,-0.9991229176521301
1679663003.73975086,82781106,2,0.03894313797354698,0.010413480922579765,-0.0025057592429220676,-0.9991840124130249
1679663003.83978081,82881136,2,0.03752768412232399,0.010932830162346363,0.0022836436983197927,-0.9992331862449646
1679663003.93977785,82981133,2,0.03485278785228729,0.010940047912299633,0.00371752236969769,-0.9993256330490112
1679663004.03976989,83081125,2,0.031288471072912216,0.012149880640208721,0.0045225112698972225,-0.9994263052940369
1679663004.13973093,83181086,2,0.0282767154276371,0.011713550426065922,0.003804870881140232,-0.9995242357254028
1679663004.23972392,83281079,2,0.025836603716015816,0.011719705536961555,0.003301105694845319,-0.9995920062065125
1679663004.33971882,83381074,2,0.02324051409959793,0.012146602384746075,0.0025293813087046146,-0.9996529221534729
1679663004.43974495,83481100,2,0.021220648661255836,0.012375895865261555,0.001826699124649167,-0.9996965527534485
1679663004.53975177,83581107,2,0.01978495344519615,0.012501226738095284,0.0010543627431616187,-0.9997255206108093
1679663004.63980579,83681161,2,0.018812481313943863,0.012108386494219303,0.0005719457403756678,-0.9997495412826538
1679663004.73979592,83781151,2,0.01822056621313095,0.011747927404940128,-0.001259651849977672,-0.9997642040252686
1679663004.83978891,83881144,2,0.0177807305008173,0.011176376603543758,-0.005544260144233704,-0.999764084815979
1679663004.93977380,83981129,2,0.01745779998600483,0.009581712074577808,-0.010792704299092293,-0.9997434616088867
1679663005.03971195,84081067,2,0.01765313558280468,0.008533441461622715,-0.013364831916987896,-0.999718427658081
1679663005.13971376,84181069,2,0.018255341798067093,0.009097893722355366,-0.014418580569326878,-0.9996879696846008
1679663005.23972297,84281078,2,0.018802404403686523,0.007470006123185158,-0.01487684715539217,-0.9996846318244934
1679663005.33972192,84381077,2,0.019736770540475845,0.0008287415839731693,-0.013966147787868977,-0.9997073411941528
1679663005.43972993,84481085,2,0.020767292007803917,-0.007551043294370174,-0.013148223981261253,-0.9996693730354309
1679663005.53975296,84581108,2,0.022270653396844864,-0.012760943733155727,-0.012119284830987453,-0.9995970726013184
1679663005.63978076,84681136,2,0.02373371832072735,-0.01121437642723322,-0.011794962920248508,-0.9995858073234558
1679663005.73979187,84781147,2,0.025312460958957672,0.0013168001314625144,-0.010509150102734566,-0.9996234774589539
1679663005.83978581,84881141,2,0.026871923357248306,0.013022683560848236,-0.011431184597313404,-0.9994887113571167
1679663005.93970990,84981065,2,0.028364483267068863,0.01625513844192028,-0.015443569980561733,-0.999346137046814
1679663006.03971195,85081067,2,0.029736965894699097,0.015591511502861977,-0.020238682627677917,-0.999231219291687
1679663006.13971782,85181073,2,0.031366799026727676,0.00987725704908371,-0.021861381828784943,-0.9992200136184692
1679663006.23973489,85281090,2,0.03246621787548065,-0.0005292508867569268,-0.02240678295493126,-0.9992215037345886
1679663006.33974695,85381102,2,0.06759606301784515,-0.008593380451202393,-0.016049470752477646,-0.9975466728210449
1679663006.43976283,85481118,2,0.06572810560464859,-0.011019768193364143,-0.005452720448374748,-0.9977618455886841
1679663006.53979683,85581152,2,0.058765970170497894,-0.005148706492036581,0.0029405071400105953,-0.9982541799545288
1679663006.63978887,85681144,2,0.04867440462112427,0.00401161378249526,0.005120951682329178,-0.9987935423851013
1679663006.73977494,85781130,2,0.038307927548885345,0.012080353684723377,0.0021744121331721544,-0.9991905689239502
1679663006.83971381,85881069,2,0.03144652023911476,0.017030520364642143,-0.0021163367200642824,-0.9993581175804138
1679663006.93972898,85981084,2,0.028494972735643387,0.0166704710572958,-0.005116357002407312,-0.9994418025016785
1679663007.03971577,86081071,2,0.029278665781021118,0.014389324933290482,-0.00884554535150528,-0.9994285702705383
1679663007.13974094,86181096,2,0.032540421932935715,0.011353252455592155,-0.01633092761039734,-0.9992725253105164
1679663007.23974895,86281104,2,0.036832209676504135,0.008437573909759521,-0.022857682779431343,-0.9990243911743164
1679663007.33979678,86381152,2,0.04056542366743088,0.0074134645983576775,-0.024956002831459045,-0.9988376498222351
1679663007.43978596,86481141,2,0.043544478714466095,0.008707474917173386,-0.022777946665883064,-0.9987538456916809
1679663007.53978181,86581137,2,0.04553178697824478,0.01001123059540987,-0.016862861812114716,-0.9987703561782837
1679663007.63977289,86681128,2,0.046997860074043274,0.011016318574547768,-0.009371324442327023,-0.9987902641296387
1679663007.73971486,86781070,2,0.04669927805662155,0.010707816109061241,-0.0051580192521214485,-0.9988383054733276
1679663007.83971786,86881073,2,0.0459178127348423,0.008632243610918522,-0.004475902765989304,-0.998897910118103
1679663007.93970990,86981065,2,0.04474780708551407,0.005715627688914537,-0.004791933111846447,-0.9989704489707947
1679663008.03974676,87081102,2,0.0432145819067955,0.0028733350336551666,-0.006418826058506966,-0.9990410804748535
1679663008.13973379,87181089,2,0.041542671620845795,0.00455485051497817,-0.00807904452085495,-0.9990937113761902
1679663008.23975992,87281115,2,0.039942167699337006,0.008399240672588348,-0.008718088269233704,-0.9991286396980286
1679663008.33977795,87381133,2,0.03827369213104248,0.011107297614216805,-0.008206753060221672,-0.9991718530654907
1679663008.43977880,87481134,2,0.036942075937986374,0.011470403522253036,-0.007884570397436619,-0.9992204904556274
1679663008.53976893,87581124,2,0.035369426012039185,0.011806764639914036,-0.006301443558186293,-0.9992846846580505
1679663008.63971591,87681071,2,0.03311875835061073,0.012200905941426754,-0.005269962828606367,-0.9993630647659302
1679663008.73972583,87781081,2,0.030859513208270073,0.01056150533258915,-0.002867824863642454,-0.9994637966156006
1679663008.83972788,87881083,2,0.028519155457615852,0.009720418602228165,0.0011991168139502406,-0.9995452761650085
1679663008.93974686,87981102,2,0.026329994201660156,0.00978979840874672,0.0032369494438171387,-0.9996001124382019
1679663009.03974891,88081104,2,0.0242768581956625,0.008950280956923962,0.003962282557040453,-0.9996573328971863
1679663009.13975596,88181111,2,0.02222288027405739,0.008316361345350742,0.0037816925905644894,-0.999711275100708
1679663009.23978996,88281145,2,0.019952645525336266,0.008214211091399193,0.0027559627778828144,-0.9997633695602417
1679663009.33979297,88381148,2,0.017918793484568596,0.008613240905106068,0.002768048783764243,-0.9997985363006592
1679663009.43976784,88481123,2,0.015913646668195724,0.009516571648418903,0.0022627771832048893,-0.9998255372047424
1679663009.53971696,88581072,2,0.013973033055663109,0.010276762768626213,0.0025005959905683994,-0.9998464584350586
1679663009.63971782,88681073,2,0.012478996068239212,0.009482523426413536,0.003736299928277731,-0.9998701810836792
1679663009.73972392,88781079,2,0.011676969937980175,0.004359416197985411,0.003431611228734255,-0.9999164342880249
1679663009.83973789,88881093,2,0.011344699189066887,-0.0018524730112403631,0.0023513350170105696,-0.9999311566352844
1679663009.93973398,88981089,2,0.01198143046349287,-0.007942171767354012,0.0006990028196014464,-0.9998964071273804
1679663010.03975987,89081115,2,0.012915393337607384,-0.013784656301140785,-0.00073248177068308,-0.9998213052749634
1679663010.13977981,89181135,2,0.014187458902597427,-0.014845376834273338,-0.0006472056265920401,-0.9997889399528503
1679663010.23978376,89281139,2,0.015433577820658684,-0.012958251871168613,-0.00011509788600960746,-0.9997969269752502
1679663010.33977675,89381132,2,0.016473865136504173,-0.00817729439586401,-0.0018842541612684727,-0.9998290538787842
1679663010.43976998,89481125,2,0.01733187586069107,-0.004332811571657658,-0.0033731721341609955,-0.9998347163200378
1679663010.53972888,89581084,2,0.01833827793598175,-0.003091751830652356,-0.002472835825756192,-0.9998239874839783
1679663010.63972378,89681079,2,0.019182272255420685,-0.0007492308504879475,-0.001444571535103023,-0.9998146891593933
1679663010.73972988,89781085,2,0.02010222338140011,0.0029031180310994387,-0.0014085507718846202,-0.9997926950454712
1679663010.83973193,89881087,2,0.0212361179292202,0.007485921494662762,-0.00321026798337698,-0.9997413158416748
1679663010.93975282,89981108,2,0.022147100418806076,0.011291000992059708,-0.009589466266334057,-0.9996449947357178
1679663011.03978086,90081136,2,0.022189244627952576,0.013677708804607391,-0.01753390207886696,-0.999506413936615
1679663011.13979292,90181148,2,0.020705437287688255,0.01380509976297617,-0.021933957934379578,-0.9994496703147888
1679663011.23977780,90281133,2,0.018379582092165947,0.012463388033211231,-0.02278921753168106,-0.9994935989379883
1679663011.33971786,90381073,2,0.014995018020272255,0.011150860227644444,-0.018842218443751335,-0.999647855758667
1679663011.43972087,90481076,2,0.010996191762387753,0.011236133053898811,-0.0073098489083349705,-0.9998496770858765
1679663011.53972483,90581080,2,0.006959215272217989,0.012452331371605396,0.004352702293545008,-0.9998887777328491
1679663011.63971281,90681068,2,0.003780460450798273,0.013111472129821777,0.010005280375480652,-0.9998568296432495
1679663011.73974776,90781103,2,0.0009252727613784373,0.0134951863437891,0.01007115375250578,-0.9998577833175659
1679663011.83974695,90881102,2,-0.0014841227093711495,0.014226806350052357,0.008532248437404633,-0.9998612999916077
1679663011.93978691,90981142,2,-0.0030100373551249504,0.015341787599027157,0.007210413459688425,-0.9998517632484436
1679663012.03978586,91081141,2,-0.0038379868492484093,0.016388051211833954,0.0066229673102498055,-0.9998363852500916
1679663012.13977695,91181132,2,-0.00388301070779562,0.016273221001029015,0.0058232988230884075,-0.9998430609703064
1679663012.23971677,91281072,2,-0.003240579040721059,0.015889117494225502,0.006235583685338497,-0.9998490810394287
1679663012.33971691,91381072,2,-0.002514792140573263,0.01594117097556591,0.006793205626308918,-0.9998466968536377
1679663012.43971586,91481071,2,-0.001694997656159103,0.016369592398405075,0.0067002978175878525,-0.99984210729599
1679663012.53974175,91581097,2,-0.0009598174365237355,0.016535840928554535,0.0067747728899121284,-0.9998398423194885
1679663012.63972783,91681083,2,-0.00021850636403542012,0.017872896045446396,0.0057681165635585785,-0.9998236298561096
1679663012.73974776,91781103,2,0.0004754859546665102,0.026146041229367256,0.0037368806079030037,-0.9996510148048401
1679663012.83977890,91881134,2,0.001316803158260882,0.03695373982191086,0.003027993952855468,-0.9993115067481995
1679663012.93978286,91981138,2,0.0021644579246640205,0.03974856063723564,0.0013990307925269008,-0.9992063641548157
1679663013.03977275,92081128,2,0.0027999288868159056,0.030443770810961723,-0.015575544908642769,-0.9994112253189087
1679663013.13971376,92181069,2,0.0030183347407728434,0.018686361610889435,-0.057020384818315506,-0.9981935620307922
1679663013.23972297,92281078,2,0.0033043292351067066,0.011991521343588829,-0.09290771931409836,-0.9955970048904419
1679663013.33971691,92381072,2,0.004198151174932718,0.010697572492063046,-0.10503628849983215,-0.9944019913673401
1679663013.43974590,92481101,2,0.005615487229079008,0.012055270373821259,-0.1010105237364769,-0.9947964549064636
1679663013.53974295,92581098,2,0.007869052700698376,0.0138335470110178,-0.0805814117193222,-0.9966209530830383
1679663013.63974380,92681099,2,0.01032122690230608,0.015096875838935375,-0.035741545259952545,-0.9991937279701233
1679663013.73978186,92781137,2,0.01376848854124546,0.015970002859830856,0.007220007013529539,-0.999751627445221
1679663013.83978176,92881137,2,0.01750355027616024,0.015556944534182549,0.02663317322731018,-0.9993709325790405
1679663013.93977380,92981129,2,0.020197780802845955,0.012930608354508877,0.028398191556334496,-0.9993089437484741
1679663014.03971076,93081066,2,0.02239433489739895,0.009256417863070965,0.024366620928049088,-0.9994093775749207
1679663014.13971376,93181069,2,0.025371721014380455,0.006219203118234873,0.021259058266878128,-0.9994326829910278
1679663014.23971295,93281068,2,0.027511363849043846,0.00608579907566309,0.017097383737564087,-0.9994567632675171
1679663014.33972383,93381079,2,0.029146231710910797,0.006848681252449751,0.013381962664425373,-0.9994621276855469
1679663014.43973780,93481093,2,0.029942596331238747,0.008466529659926891,0.011883270926773548,-0.9994451403617859
1679663014.53976178,93581117,2,0.029574569314718246,0.01037916075438261,0.010712500661611557,-0.9994512796401978
1679663014.63979578,93681151,2,0.02884998358786106,0.011540409177541733,0.010305019095540047,-0.9994640350341797
1679663014.73978877,93781144,2,0.027109617367386818,0.01258313748985529,0.012800179421901703,-0.9994713068008423
1679663014.83977675,93881132,2,0.02495531551539898,0.012308858335018158,0.021128322929143906,-0.9993894696235657
1679663014.93975878,93981114,2,0.022507842630147934,0.011601768434047699,0.024704383686184883,-0.9993740320205688
1679663015.03972197,94081077,2,0.019767623394727707,0.010536136105656624,0.022206194698810577,-0.999502420425415
1679663015.13972783,94181083,2,0.01687448099255562,0.011233926750719547,0.01853228360414505,-0.9996227025985718
1679663015.23973179,94281087,2,0.014564208686351776,0.010295352898538113,0.01681744121015072,-0.9996994733810425
1679663015.33973694,94381092,2,0.012621096335351467,0.0025940686464309692,0.015110055916011333,-0.999802827835083
1679663015.43976092,94481116,2,0.011025155894458294,-0.01083595585078001,0.013562929816544056,-0.9997885227203369
1679663015.53977776,94581133,2,0.009653435088694096,-0.020769396796822548,0.010493175126612186,-0.999682605266571
1679663015.63977695,94681132,2,0.00919381994754076,-0.023786451667547226,0.0072070830501616,-0.9996488094329834
1679663015.73976994,94781125,2,0.009039702825248241,-0.020445242524147034,0.004032440949231386,-0.9997419714927673
1679663015.83971882,94881074,2,0.009055784903466702,-0.013731604442000389,0.002318205079063773,-0.999862015247345
1679663015.93972278,94981078,2,0.009522776119410992,-0.011678220704197884,0.0018694967729970813,-0.9998847246170044
1679663016.03971982,95081075,2,0.009972643107175827,-0.012732716277241707,0.0022344125900417566,-0.9998667240142822
1679663016.13974476,95181100,2,0.010095647536218166,-0.013429333455860615,0.0020621453877538443,-0.99985671043396
1679663016.23974490,95281100,2,0.010087436996400356,-0.014839885756373405,0.0014928762102499604,-0.9998378753662109
1679663016.33976889,95381124,2,0.009561414830386639,-0.01412387564778328,0.002199933398514986,-0.9998521208763123
1679663016.43978286,95481138,2,0.008432388305664062,-0.010082378052175045,0.0026300011668354273,-0.9999101758003235
1679663016.53977585,95581131,2,0.007435046602040529,-0.00227923016063869,0.0037583212833851576,-0.9999626874923706
1679663016.63977385,95681129,2,0.0067301844246685505,0.010087595321238041,0.010564547963440418,-0.9998706579208374
1679663016.73970985,95781065,2,0.005736419465392828,0.019678307697176933,0.02051793411374092,-0.9995793700218201
1679663016.83972192,95881077,2,0.005248211324214935,0.023081908002495766,0.026899997144937515,-0.9993578195571899
1679663016.93972492,95981080,2,0.0054567186161875725,0.02160877175629139,0.029327554628252983,-0.9993213415145874
1679663017.03972292,96081078,2,0.0060547273606061935,0.01933429203927517,0.027220217511057854,-0.9994240999221802
1679663017.13973093,96181086,2,0.007323677651584148,0.017138369381427765,0.020179715007543564,-0.999622642993927
1679663017.23975086,96281106,2,0.009394821710884571,0.016014326363801956,0.013266736641526222,-0.9997395873069763
1679663017.33979177,96381147,2,0.011794082820415497,0.015688462182879448,0.007811081130057573,-0.9997768402099609
1679663017.43977690,96481132,2,0.014613782055675983,0.015174180269241333,0.00409056106582284,-0.9997696876525879
1679663017.53977180,96581127,2,0.017910385504364967,0.014310904778540134,0.0015096706338226795,-0.9997360110282898
1679663017.63971591,96681071,2,0.021000148728489876,0.014031884260475636,-0.0030657327733933926,-0.9996762871742249
1679663017.73972392,96781079,2,0.023699045181274414,0.01363862119615078,-0.006936873774975538,-0.9996020197868347
1679663017.83972692,96881082,2,0.026324192062020302,0.013357717543840408,-0.008461693301796913,-0.9995284080505371
1679663017.93973994,96981095,2,0.028107747435569763,0.012543083168566227,-0.008170097135007381,-0.9994928240776062
1679663018.03975797,97081113,2,0.02936275117099285,0.011348629370331764,-0.007573102135211229,-0.9994757175445557
1679663018.13975787,97181113,2,0.029804062098264694,0.007616725284606218,-0.005471530370414257,-0.9995117783546448
1679663018.23978281,97281138,2,0.029769256711006165,0.0010563975665718317,-0.004118513781577349,-0.9995477795600891
1679663018.33978987,97381145,2,0.02879110909998417,-0.007076650392264128,-0.003837461583316326,-0.9995530247688293
1679663018.43977594,97481131,2,0.02783649042248726,-0.012793226167559624,-0.0032718211878091097,-0.999525249004364
1679663018.53971791,97581073,2,0.026774970814585686,-0.01882188394665718,-0.002626208821311593,-0.9994608163833618
1679663018.63971376,97681069,2,0.025956816971302032,-0.024650271981954575,-0.0015646397368982434,-0.9993578791618347
1679663018.73972297,97781078,2,0.025203080847859383,-0.025917846709489822,-0.0018744970439001918,-0.9993445873260498
1679663018.83972478,97881080,2,0.025112105533480644,-0.024741625413298607,-0.0032313743140548468,-0.999373197555542
1679663018.93974280,97981098,2,0.02543838694691658,-0.021185321733355522,-0.004337269812822342,-0.999442458152771
1679663019.03974295,98081098,2,0.02624010108411312,-0.010991651564836502,-0.005422132555395365,-0.9995805621147156
1679663019.13979197,98181147,2,0.027394499629735947,-0.004414965398609638,-0.009960755705833435,-0.9995653033256531
1679663019.23977995,98281135,2,0.02835976704955101,-0.0036137672141194344,-0.015264260582625866,-0.9994747042655945
1679663019.33976698,98381122,2,0.029454004019498825,-0.0059995329938828945,-0.016589593142271042,-0.9994104504585266
1679663019.43974996,98481105,2,0.029782140627503395,-0.01219670008867979,-0.0158050786703825,-0.9993570446968079
1679663019.53971481,98581070,2,0.029866714030504227,-0.024052685126662254,-0.014457596465945244,-0.9991598725318909
1679663019.63971782,98681073,2,0.02955191768705845,-0.03448520973324776,-0.013749856501817703,-0.9988735914230347
1679663019.73974395,98781099,2,0.0299446489661932,-0.03570626676082611,-0.019468968734145164,-0.9987238645553589
1679663019.83972692,98881082,2,0.030498633161187172,-0.03136161342263222,-0.02792293019592762,-0.9986523985862732
1679663019.93976593,98981121,2,0.032058313488960266,-0.023491917178034782,-0.03441915661096573,-0.9986168742179871
1679663020.03977990,99081135,2,0.0337403379380703,-0.009930104948580265,-0.04014209657907486,-0.9985747933387756
1679663020.13978481,99181140,2,0.035243257880210876,0.0022634039632976055,-0.04326477646827698,-0.9984392523765564
1679663020.23977494,99281130,2,0.036545220762491226,0.0065766614861786366,-0.04354534298181534,-0.9983611702919006
1679663020.33971596,99381071,2,0.03802770376205444,0.008307740092277527,-0.04246316850185394,-0.9983394742012024
1679663020.43972492,99481080,2,0.03881603851914406,0.009512186050415039,-0.0406552217900753,-0.9983736872673035
1679663020.53972077,99581076,2,0.03912386670708656,0.006446343380957842,-0.035869184881448746,-0.9985695481300354
1679663020.63974094,99681096,2,0.039046578109264374,0.004064119420945644,-0.028895443305373192,-0.9988112449645996
1679663020.73976183,99781117,2,0.03982435166835785,0.005911021493375301,-0.02341684140264988,-0.9989147782325745
1679663020.83975387,99881109,2,0.04148973524570465,0.007157588843256235,-0.021393004804849625,-0.9988842606544495
1679663020.93979383,99981149,2,0.04353024810552597,0.00608885707333684,-0.021850448101758957,-0.9987945556640625
1679663021.03978181,100081137,2,0.04575292393565178,0.005487067624926567,-0.023051371797919273,-0.9986717104911804
1679663021.13977385,100181129,2,0.04847176745533943,0.005703785456717014,-0.024847254157066345,-0.9984991550445557
1679663021.23971796,100281073,2,0.051321323961019516,0.0066658081486821175,-0.02560167759656906,-0.9983317255973816
1679663021.33972096,100381076,2,0.05413905158638954,0.008186259306967258,-0.025190751999616623,-0.9981820583343506
1679663021.43971992,100481075,2,0.05725648254156113,0.011481096968054771,-0.024332217872142792,-0.9979969263076782
1679663021.53974485,100581100,2,0.060440678149461746,0.014431946910917759,-0.023338906466960907,-0.997794508934021
1679663021.63972878,100681084,2,0.06382550299167633,0.016466587781906128,-0.021786212921142578,-0.9975873231887817
1679663021.73973989,100781095,2,0.06747471541166306,0.01850711740553379,-0.019447822123765945,-0.9973597526550293
1679663021.83978176,100881137,2,0.07111038267612457,0.019268803298473358,-0.01572916842997074,-0.9971582889556885
1679663021.93978190,100981137,2,0.07481592148542404,0.01880617067217827,-0.009226533584296703,-0.9969773292541504
1679663022.03977680,101081132,2,0.07831604033708572,0.017397908493876457,-0.0010396236320957541,-0.9967762231826782
1679663022.13971186,101181067,2,0.08094150573015213,0.016422076150774956,0.0036600595340132713,-0.9965768456459045
1679663022.23972797,101281083,2,0.08291693031787872,0.015324894338846207,0.004332918673753738,-0.9964292049407959
1679663022.33972979,101381085,2,0.08415549993515015,0.013944786973297596,0.002578666666522622,-0.9963517189025879
1679663022.43972683,101481082,2,0.08436409384012222,0.012743252329528332,-0.0002856419887393713,-0.9963534474372864
1679663022.53974080,101581096,2,0.08409332484006882,0.011604898609220982,-0.002466881414875388,-0.996387243270874
1679663022.63976884,101681124,2,0.08273927867412567,0.010209903120994568,-0.003677819389849901,-0.9965121150016785
1679663022.73979378,101781149,2,0.08094296604394913,0.00833958014845848,-0.0036187509540468454,-0.9966772794723511
1679663022.83978176,101881137,2,0.07906202226877213,0.00681656738743186,-0.0029112924821674824,-0.9968421459197998
1679663022.93977475,101981130,2,0.07717655599117279,0.005767642520368099,-0.0021167881786823273,-0.9969984889030457
1679663023.03973198,102081087,2,0.07509645074605942,0.005771845579147339,-0.0002173942921217531,-0.9971595406532288
1679663023.13972092,102181076,2,0.0731612890958786,0.007081829477101564,0.0018784020794555545,-0.99729323387146
1679663023.23972583,102281081,2,0.0709189921617508,0.008531114086508751,0.0015980155440047383,-0.9974443316459656
1679663023.33971786,102381073,2,0.0686110258102417,0.009670870378613472,0.0018465218599885702,-0.9975948929786682
1679663023.43973088,102481086,2,0.06600859016180038,0.01015546452254057,0.0014297178713604808,-0.997766375541687
1679663023.53976178,102581117,2,0.06333394348621368,0.010001442395150661,0.0021125886123627424,-0.9979400634765625
1679663023.63980079,102681156,2,0.06045752391219139,0.010070708580315113,0.0014813955640420318,-0.9981188774108887
1679663023.73977876,102781134,2,0.057619232684373856,0.009323537349700928,0.00033794422051869333,-0.9982950091362
1679663023.83976889,102881124,2,0.05469105392694473,0.00890196394175291,7.043602818157524e-05,-0.9984636306762695
1679663023.93971276,102981068,2,0.05214161425828934,0.00971228163689375,-0.0003092729311902076,-0.9985924363136292
1679663024.03971696,103081072,2,0.050025053322315216,0.010841029696166515,-0.0001302296295762062,-0.9986891150474548
1679663024.13972878,103181084,2,0.048545222729444504,0.011122899129986763,-0.0003455362457316369,-0.9987589716911316
1679663024.23972583,103281081,2,0.04781803861260414,0.010561116971075535,-0.000641982420347631,-0.9988000392913818
1679663024.33973598,103381091,2,0.04767739772796631,0.005150577053427696,-0.0016719092382118106,-0.9988480806350708
1679663024.43975282,103481108,2,0.04825363680720329,-0.013297270983457565,-0.0038877155166119337,-0.9987390041351318
1679663024.53979588,103581151,2,0.04933681711554527,-0.037978120148181915,-0.006939139682799578,-0.9980357885360718
1679663024.63977981,103681135,2,0.050974272191524506,-0.05461491644382477,-0.007983716204762459,-0.997173547744751
1679663024.73976684,103781122,2,0.05285298079252243,-0.0581502839922905,-0.006652140989899635,-0.9968855977058411
1679663024.83971691,103881072,2,0.05515877157449722,-0.05529647320508957,-0.0042496598325669765,-0.9969362020492554
1679663024.93972993,103981085,2,0.05742402747273445,-0.05089977756142616,-0.002651125891134143,-0.9970479607582092
1679663025.03972483,104081080,2,0.060192715376615524,-0.04383552074432373,-0.002781653543934226,-0.9972199201583862
1679663025.13973689,104181092,2,0.06364679336547852,-0.03498048707842827,-0.011468733660876751,-0.9972932934761047
1679663025.23975277,104281108,2,0.06729909032583237,-0.031150948256254196,-0.026259006932377815,-0.9969006776809692
1679663025.33978677,104381142,2,0.07044296711683273,-0.030159689486026764,-0.037271056324243546,-0.9963629245758057
1679663025.43977380,104481129,2,0.07329966872930527,-0.02801913395524025,-0.03988904133439064,-0.9961179494857788
1679663025.53979087,104581146,2,0.07570391148328781,-0.02669014222919941,-0.039126209914684296,-0.9960048794746399
1679663025.63977695,104681132,2,0.07786018401384354,-0.024423031136393547,-0.03419850766658783,-0.9960781931877136
1679663025.73971081,104781066,2,0.08015985786914825,-0.014258291572332382,-0.024677826091647148,-0.9963744878768921
1679663025.83971596,104881071,2,0.08308925479650497,0.0020587926264852285,-0.014693155884742737,-0.9964316487312317
1679663025.93971682,104981072,2,0.08580230921506882,0.015258997678756714,-0.01023990847170353,-0.9961426854133606
1679663026.03975892,105081114,2,0.08915167301893234,0.019983971491456032,-0.009504158981144428,-0.9957721829414368
1679663026.13971996,105181075,2,0.09220470488071442,0.017851782962679863,-0.010616119019687176,-0.9955234527587891
1679663026.23974681,105281102,2,0.09554686397314072,0.00883044395595789,-0.011914039961993694,-0.9953144788742065
1679663026.33977294,105381128,2,0.09826117753982544,-0.005827364511787891,-0.014464441686868668,-0.9950384497642517
1679663026.43977284,105481128,2,0.10142087191343307,-0.016899658367037773,-0.01673782244324684,-0.9945592284202576
1679663026.53977275,105581128,2,0.1048065796494484,-0.019101614132523537,-0.01710495539009571,-0.9941620230674744
1679663026.63971496,105681070,2,0.10871728509664536,-0.018349014222621918,-0.01578526198863983,-0.9937779903411865
1679663026.73971581,105781071,2,0.11270081251859665,-0.017884820699691772,-0.01521432027220726,-0.9933515191078186
1679663026.83971786,105881073,2,0.11707033216953278,-0.01761249266564846,-0.01602095738053322,-0.9928382039070129
1679663026.93972683,105981082,2,0.12152576446533203,-0.015536830760538578,-0.016476484015583992,-0.9923298954963684
1679663027.03974080,106081096,2,0.1254977434873581,-0.010655035264790058,-0.015740297734737396,-0.9919118285179138
1679663027.13977885,106181134,2,0.12880460917949677,0.0006961176404729486,-0.011425923556089401,-0.9916039109230042
1679663027.23979092,106281146,2,0.13148273527622223,0.012896308675408363,-0.0033801933750510216,-0.9912288188934326
1679663027.33978581,106381141,2,0.13236115872859955,0.01754976622760296,0.0022123833186924458,-0.9910436868667603
1679663027.43976879,106481124,2,0.13251276314258575,0.017099255695939064,0.0037508143577724695,-0.9910266995429993
1679663027.53971291,106581068,2,0.13162487745285034,0.016098003834486008,0.00543332751840353,-0.9911540150642395
1679663027.63971186,106681067,2,0.12975375354290009,0.015995370224118233,0.004609459545463324,-0.9914065003395081
1679663027.73970985,106781065,2,0.12681958079338074,0.010373284108936787,0.0030158746521919966,-0.991866946220398
1679663027.83973479,106881090,2,0.12356790155172348,-0.00018251298752147704,0.0007282485603354871,-0.992335855960846
1679663027.93972898,106981084,2,0.11982252448797226,-0.006842296104878187,-1.1566196917556226e-05,-0.9927717447280884
1679663028.03974986,107081105,2,0.11635905504226685,-0.009336699731647968,0.001085489522665739,-0.9931627511978149
1679663028.13976979,107181125,2,0.11339758336544037,-0.00971108116209507,0.00412354152649641,-0.9934936761856079
1679663028.23977590,107281131,2,0.11077925562858582,-0.007553245406597853,0.01161400880664587,-0.9937484860420227
1679663028.33977389,107381129,2,0.10835839807987213,-0.004921657498925924,0.020454389974474907,-0.9938892722129822
1679663028.43971086,107481066,2,0.10624370723962784,-0.004022537264972925,0.02377207763493061,-0.9940477609634399
1679663028.53972697,107581082,2,0.10418085753917694,-0.0033452280331403017,0.022115686908364296,-0.9943068027496338
1679663028.63972497,107681080,2,0.1025053933262825,-0.0030539250001311302,0.01878039538860321,-0.9945504665374756
1679663028.73973894,107781094,2,0.10178093612194061,-0.004295405466109514,0.013804791495203972,-0.9947018027305603
1679663028.83974695,107881102,2,0.10092330724000931,-0.006435752846300602,0.010121188126504421,-0.9948219060897827
1679663028.93977594,107981131,2,0.10057730972766876,-0.0042252615094184875,0.015364762395620346,-0.9948016405105591
1679663029.03978395,108081139,2,0.10160204023122787,0.00035897482302971184,0.026416266337037086,-0.9944742918014526
1679663029.13977480,108181130,2,0.104509137570858,0.003789204405620694,0.034406352788209915,-0.9939213395118713
1679663029.23978186,108281137,2,0.108382947742939,0.005534021183848381,0.03878483921289444,-0.9933369159698486
1679663029.33974481,108381100,2,0.11326805502176285,0.005188560113310814,0.03990793973207474,-0.9927490949630737
1679663029.43971992,108481075,2,0.11869458854198456,0.0029978167731314898,0.03944095969200134,-0.9921426177024841
1679663029.53972292,108581078,2,0.12441792339086533,0.0014204280450940132,0.035945456475019455,-0.9915775656700134
1679663029.63971090,108681066,2,0.13000519573688507,0.005112899467349052,0.022233320400118828,-0.9912508130073547
1679663029.73971677,108781072,2,0.13571475446224213,0.0114043103531003,0.005964665208011866,-0.9906643629074097
1679663029.83974886,108881104,2,0.14091341197490692,0.01548389159142971,-0.0031661740504205227,-0.989895761013031
1679663029.93976998,108981125,2,0.14535367488861084,0.014778421260416508,-0.005371070932596922,-0.9892547726631165
1679663030.03978181,109081137,2,0.14792492985725403,0.010426231659948826,-0.0037777067627757788,-0.9889364242553711
1679663030.13977194,109181127,2,0.148440420627594,0.007224617060273886,-0.0019430347019806504,-0.9888930320739746
1679663030.23973083,109281086,2,0.14767199754714966,0.0051654065027832985,-0.0010957523481920362,-0.9890223145484924
1679663030.33973479,109381090,2,0.1473844200372696,0.004042807966470718,0.0009783864952623844,-0.9890705347061157
1679663030.43971896,109481074,2,0.14771100878715515,0.0035823341459035873,0.012042202986776829,-0.988950788974762
1679663030.53973198,109581087,2,0.148045152425766,0.00371413491666317,0.027856549248099327,-0.9885812401771545
1679663030.63973784,109681093,2,0.14782613515853882,0.004657219164073467,0.04104721173644066,-0.9881502389907837
1679663030.73977995,109781135,2,0.146856889128685,0.006285214331001043,0.04977153614163399,-0.9878847599029541
1679663030.83978486,109881140,2,0.14578400552272797,0.005945330020040274,0.05226757749915123,-0.987916886806488
1679663030.93978477,109981140,2,0.1441904604434967,0.004184880759567022,0.05107538402080536,-0.988222062587738
1679663031.03977275,110081128,2,0.14235758781433105,0.0033742727246135473,0.048450496047735214,-0.9886230230331421
1679663031.13975883,110181114,2,0.14010486006736755,0.003475244389846921,0.044227235019207,-0.9891422986984253
1679663031.23973083,110281086,2,0.13765043020248413,0.00390820624306798,0.03792325779795647,-0.9897468686103821
1679663031.33972478,110381080,2,0.13492457568645477,0.005499040707945824,0.026180295273661613,-0.9904946684837341
1679663031.43974090,110481096,2,0.13302919268608093,0.007604643236845732,0.011875366792082787,-0.9910117983818054
1679663031.53974295,110581098,2,0.13188381493091583,0.008028073236346245,0.004678511992096901,-0.9912216067314148
1679663031.63975096,110681106,2,0.1302897334098816,0.007857822813093662,0.005731656216084957,-0.9914282560348511
1679663031.73977494,110781130,2,0.1277666985988617,0.007109927944839001,0.010362296365201473,-0.9917246103286743
1679663031.83977675,110881132,2,0.12508046627044678,0.006119995377957821,0.01456560380756855,-0.9920207858085632
1679663031.93977189,110981127,2,0.1224544420838356,0.005551702808588743,0.017302975058555603,-0.9923077821731567
1679663032.03970885,111081064,2,0.12053680419921875,0.00499072065576911,0.01794756017625332,-0.9925340414047241
1679663032.13971877,111181074,2,0.1190609559416771,0.002824422437697649,0.016908615827560425,-0.9927389621734619
1679663032.23971987,111281075,2,0.11795041710138321,-0.0030498290434479713,0.016016187146306038,-0.9928856492042542
1679663032.33973384,111381089,2,0.11700870841741562,-0.006705912761390209,0.015829412266612053,-0.9929820895195007
1679663032.43972993,111481085,2,0.11650566011667252,-0.006376315839588642,0.01644156500697136,-0.9930334687232971
1679663032.53975582,111581111,2,0.11643729358911514,-0.006205708719789982,0.016752848401665688,-0.9930373430252075
1679663032.63980079,111681156,2,0.11664894968271255,-0.009751349687576294,0.015751417726278305,-0.9930003881454468
1679663032.73978376,111781139,2,0.11684072762727737,-0.023682015016674995,0.01282342430204153,-0.9927854537963867
1679663032.83976984,111881125,2,0.11710453778505325,-0.02879202924668789,0.008311587385833263,-0.9926673769950867
1679663032.93975782,111981113,2,0.11738304048776627,-0.015654142946004868,0.0012824200093746185,-0.9929624795913696
1679663033.03971076,112081066,2,0.11779910326004028,-0.00036364299012348056,-0.0028189215809106827,-0.9930334091186523
1679663033.13971186,112181067,2,0.11836492270231247,0.006791160441935062,-0.003535638563334942,-0.9929406642913818
1679663033.23975992,112281115,2,0.11893268674612045,0.006750643718987703,-0.0018246431136503816,-0.992877721786499
1679663033.33973598,112381091,2,0.11899743974208832,0.0006026169867254794,-0.0015777486842125654,-0.9928930997848511
1679663033.43975782,112481113,2,0.11870523542165756,-0.008903211914002895,-0.0026475568301975727,-0.9928860664367676
1679663033.53979087,112581146,2,0.11847666651010513,-0.014873755164444447,-0.003311727661639452,-0.9928399324417114
1679663033.63978386,112681139,2,0.11877135932445526,-0.013212556950747967,-0.0016734106466174126,-0.9928323030471802
1679663033.73977685,112781132,2,0.1196267306804657,-0.003955557011067867,0.001491679809987545,-0.9928099513053894
1679663033.83971190,112881067,2,0.12068786472082138,0.003525279462337494,0.0052303895354270935,-0.992670476436615
1679663033.93971181,112981067,2,0.1220809668302536,0.005741827189922333,0.007180974818766117,-0.992477536201477
1679663034.03971791,113081073,2,0.12308820337057114,0.006416951771825552,0.00845185574144125,-0.992339015007019
1679663034.13972282,113181078,2,0.12428097426891327,0.00666155107319355,0.00852497573941946,-0.9921880960464478
1679663034.23972988,113281085,2,0.1253078281879425,0.005754474550485611,0.008301162160933018,-0.992066502571106
1679663034.33975291,113381108,2,0.1264873892068863,0.005031397100538015,0.006187755148857832,-0.9919361472129822
1679663034.43977880,113481134,2,0.1275927722454071,0.00493576331064105,0.0032482186798006296,-0.9918090105056763
1679663034.53978777,113581143,2,0.12879528105258942,0.005264984909445047,0.0005035247886553407,-0.9916570782661438
1679663034.63977885,113681134,2,0.13018593192100525,0.0061196815222501755,-0.001846982049755752,-0.9914689660072327
1679663034.73971391,113781069,2,0.13172373175621033,0.007795439101755619,-0.003521854756399989,-0.9912495613098145
1679663034.83972383,113881079,2,0.13359297811985016,0.008830953389406204,-0.005127645563334227,-0.9909836649894714
1679663034.93972588,113981081,2,0.13541318476200104,0.009711015038192272,-0.005308569874614477,-0.990727424621582
1679663035.03973579,114081091,2,0.13721485435962677,0.01018497534096241,-0.004739643074572086,-0.9904776215553284
1679663035.13973880,114181094,2,0.1393086463212967,0.009661382995545864,-0.0037176203913986683,-0.9901949167251587
1679663035.23977494,114281130,2,0.14126038551330566,0.010141955688595772,-0.008985917083919048,-0.9898797273635864
1679663035.33978796,114381143,2,0.14291822910308838,0.01089666597545147,-0.023818721994757652,-0.9893878698348999
1679663035.43978095,114481136,2,0.14426280558109283,0.013480362482368946,-0.04121559485793114,-0.988588809967041
1679663035.53977585,114581131,2,0.14449995756149292,0.016277531161904335,-0.06187983974814415,-0.987433910369873
1679663035.63970995,114681065,2,0.14246656000614166,0.01625889353454113,-0.06826818734407425,-0.9873086810112
1679663035.73972487,114781080,2,0.1382749080657959,0.012029288336634636,-0.05206472799181938,-0.9889512658119202
1679663035.83972096,114881076,2,0.13275906443595886,0.008314009755849838,-0.03542614355683327,-0.9904801249504089
1679663035.93971992,114981075,2,0.12597636878490448,0.006816520355641842,-0.03328142687678337,-0.9914513826370239
1679663036.03971791,115081073,2,0.11841617524623871,0.005159549880772829,-0.03854978084564209,-0.9922020435333252
1679663036.13974786,115181103,2,0.11048106104135513,0.0021054360549896955,-0.04026241600513458,-0.9930601119995117
1679663036.23978186,115281137,2,0.10264573246240616,0.0005843493854627013,-0.03741251677274704,-0.9940139651298523
1679663036.33978677,115381142,2,0.09499785304069519,-0.000653162831440568,-0.03406814485788345,-0.9948941469192505
1679663036.43977189,115481127,2,0.08783713728189468,-0.0024655782617628574,-0.027280105277895927,-0.9957581758499146
1679663036.53973198,115581087,2,0.08135463297367096,-0.004222115036100149,-0.008910756558179855,-0.9966364502906799
1679663036.63971996,115681075,2,0.07584041357040405,-0.005183291621506214,0.00986165925860405,-0.9970577359199524
1679663036.73971796,115781073,2,0.07118162512779236,-0.005343927536159754,0.01519185770303011,-0.9973333477973938
1679663036.83973384,115881089,2,0.06772977113723755,-0.0052108317613601685,0.008110749535262585,-0.9976571202278137
1679663036.93974996,115981105,2,0.06492602825164795,-0.0025500382762402296,-0.010768769308924675,-0.9978287220001221
1679663037.03975391,116081109,2,0.06321116536855698,0.00444827601313591,-0.03853511065244675,-0.9972460269927979
1679663037.13979483,116181150,2,0.06267908215522766,0.01092461310327053,-0.05589477717876434,-0.9964074492454529
1679663037.23978186,116281137,2,0.06310880184173584,0.013643529266119003,-0.05793886259198189,-0.9962300062179565
1679663037.33977079,116381126,2,0.06406461447477341,0.013414568267762661,-0.05401913821697235,-0.9963923692703247
1679663037.43971086,116481066,2,0.0659099891781807,0.013214388862252235,-0.04928049072623253,-0.9965202808380127
1679663037.53971791,116581073,2,0.06827636063098907,0.013489080592989922,-0.045764315873384476,-0.99652498960495
1679663037.63970995,116681065,2,0.07116193324327469,0.014440272003412247,-0.04797040671110153,-0.9962059259414673
1679663037.73973489,116781090,2,0.07471473515033722,0.015927879139780998,-0.054130665957927704,-0.995607316493988
1679663037.83972597,116881081,2,0.07882439345121384,0.018083712086081505,-0.0599297471344471,-0.9949211478233337
1679663037.93975878,116981114,2,0.08268294483423233,0.019494779407978058,-0.05924253538250923,-0.9946224689483643
1679663038.03979397,117081149,2,0.08634530007839203,0.017872747033834457,-0.04015344753861427,-0.9952952861785889
1679663038.13978481,117181140,2,0.08966734260320663,0.015470342710614204,-0.00903220847249031,-0.9958106279373169
1679663038.23977375,117281129,2,0.09271007031202316,0.013644399121403694,0.012428740970790386,-0.9955220818519592
1679663038.33971477,117381070,2,0.09520890563726425,0.011257939040660858,0.0203515887260437,-0.9951855540275574
1679663038.43971682,117481072,2,0.09656522423028946,0.008315297774970531,0.019434507936239243,-0.9951021671295166
1679663038.53972697,117581082,2,0.09721547365188599,0.0045105586759746075,0.016219567507505417,-0.9951209425926208
1679663038.63974977,117681105,2,0.09764368832111359,0.0022953550796955824,0.012222571298480034,-0.995143711566925
1679663038.73972487,117781080,2,0.09670551121234894,0.0022911217529326677,-0.0038457082118839025,-0.9953029751777649
1679663038.83974576,117881101,2,0.09421418607234955,0.0031362574081867933,-0.028713800013065338,-0.9951328635215759
1679663038.93978477,117981140,2,0.09017550945281982,0.005994190461933613,-0.042071178555488586,-0.9950188398361206
1679663039.03977394,118081129,2,0.08486689627170563,0.008141444064676762,-0.04236588254570961,-0.9954578876495361
1679663039.13977981,118181135,2,0.07841218262910843,0.009392624720931053,-0.03838460147380829,-0.9961374998092651
1679663039.23972082,118281076,2,0.07099185138940811,0.009692893363535404,-0.030838467180728912,-0.9969529509544373
1679663039.33972096,118381076,2,0.06304995715618134,0.00902534555643797,-0.01829538494348526,-0.9978018403053284
1679663039.43972182,118481077,2,0.05569809675216675,0.0076412009075284,-0.007409987505525351,-0.9983909130096436
1679663039.53973889,118581094,2,0.04853692650794983,0.006055030040442944,-0.002358445432037115,-0.9988002777099609
1679663039.63974190,118681097,2,0.041894376277923584,0.0049946727231144905,-0.0026227906346321106,-0.9991061091423035
1679663039.73974895,118781104,2,0.03580889478325844,0.00491716293618083,-0.004587158560752869,-0.9993360042572021
1679663039.83977389,118881129,2,0.030645066872239113,-0.0010844006901606917,-0.008018708787858486,-0.9994975924491882
1679663039.93977594,118981131,2,0.025984007865190506,-0.012174633331596851,-0.010451709851622581,-0.9995335936546326
1679663040.03977180,119081127,2,0.02182462252676487,-0.02005019038915634,-0.012080843560397625,-0.9994877576828003
1679663040.13971090,119181066,2,0.017941711470484734,-0.02635929547250271,-0.009896867908537388,-0.9994425177574158
1679663040.23972797,119281083,2,0.014537339098751545,-0.028808103874325752,-0.0020390592981129885,-0.9994771480560303
1679663040.33972979,119381085,2,0.011684036813676357,-0.02454470470547676,0.008676867932081223,-0.9995927810668945
1679663040.43972993,119481085,2,0.009457911364734173,-0.015579608269035816,0.015524197369813919,-0.9997133612632751
1679663040.53973794,119581093,2,0.007810105569660664,-0.005347924306988716,0.01703817769885063,-0.9998100399971008
1679663040.63977480,119681130,2,0.006799573544412851,0.0014455857453867793,0.014007876627147198,-0.9998776912689209
1679663040.73977089,119781126,2,0.006138104945421219,0.0034685074351727962,0.00910053588449955,-0.9999337196350098
1679663040.83977580,119881131,2,0.0058813137002289295,0.0010415477445349097,0.004697506316006184,-0.9999711513519287
1679663040.93978095,119981136,2,0.005949316080659628,-0.0024369503371417522,-9.521173342363909e-05,-0.9999793171882629
1679663041.03971577,120081071,2,0.006154424045234919,-0.007075328379869461,-0.0035566005390137434,-0.9999496936798096
1679663041.13972592,120181081,2,0.006711156107485294,-0.011573972180485725,-0.005068237893283367,-0.9998976588249207
1679663041.23972392,120281079,2,0.007648973260074854,-0.013183039613068104,-0.005712403450161219,-0.9998674988746643
1679663041.33972883,120381084,2,0.009162412025034428,-0.011495904065668583,-0.005439632572233677,-0.9998771548271179
1679663041.43973398,120481089,2,0.011178996413946152,-0.006437672767788172,-0.0036330323200672865,-0.9999101758003235
1679663041.53976083,120581116,2,0.01344288606196642,-0.0006559277535416186,-0.0017052553594112396,-0.9999079704284668
1679663041.63977575,120681131,2,0.016227690503001213,0.002364733722060919,0.00031483033671975136,-0.9998654723167419
1679663041.73978996,120781145,2,0.019420640543103218,0.00362478569149971,0.0004564735572785139,-0.9998047351837158
1679663041.83977580,120881131,2,0.023113910108804703,0.00483803590759635,-0.0005365819088183343,-0.9997209906578064
1679663041.93971896,120981074,2,0.027312006801366806,0.005308855790644884,-0.0012265571858733892,-0.9996120929718018
1679663042.03972483,121081080,2,0.032135967165231705,0.006808130536228418,-0.00013228536408860236,-0.9994603395462036
1679663042.13971877,121181074,2,0.036874815821647644,0.00792223121970892,0.0026550607290118933,-0.9992849826812744
1679663042.23974276,121281098,2,0.04145413264632225,0.008801099844276905,0.0033582053147256374,-0.9990959763526917
1679663042.33974290,121381098,2,0.04594847559928894,0.007686639204621315,0.002866004826501012,-0.998910129070282
1679663042.43974376,121481099,2,0.05024801939725876,0.004354986362159252,-0.0018609182443469763,-0.9987255334854126
1679663042.53977585,121581131,2,0.05456138029694557,0.00036013094359077513,-0.007993406616151333,-0.998478353023529
1679663042.63978195,121681137,2,0.05861779674887657,-0.002996539929881692,-0.01322690024971962,-0.9981883764266968
1679663042.73976898,121781124,2,0.06303656846284866,-0.00234415871091187,-0.01546894758939743,-0.9978885650634766
1679663042.83971381,121881069,2,0.0676952376961708,0.0003366846067365259,-0.014147467911243439,-0.9976056814193726
1679663042.93972278,121981078,2,0.07169906795024872,0.006708292290568352,-0.009327267296612263,-0.997360110282898
1679663043.03972197,122081077,2,0.07535841315984726,0.014983410947024822,-0.0027858365792781115,-0.9970400333404541
1679663043.13972998,122181085,2,0.07811657339334488,0.01952868327498436,0.0026502893306314945,-0.9967494010925293
1679663043.23975396,122281109,2,0.07981710135936737,0.018357258290052414,0.005680356174707413,-0.9966242909431458
1679663043.33975792,122381113,2,0.08033978193998337,0.014544316567480564,0.008153555914759636,-0.9966280460357666
1679663043.43978381,122481139,2,0.08022158592939377,0.009797308593988419,0.00809139758348465,-0.9966960549354553
1679663043.53977680,122581132,2,0.07980173081159592,0.002649852540344,0.007440940942615271,-0.9967794418334961
1679663043.63977194,122681127,2,0.0788123607635498,-0.004771668929606676,0.005076874978840351,-0.9968650937080383
1679663043.73971295,122781068,2,0.07762174308300018,-0.015459489077329636,0.004363876301795244,-0.9968534708023071
1679663043.83972287,122881078,2,0.07616446167230606,-0.026934122666716576,0.0033435113728046417,-0.9967257976531982
1679663043.93972182,122981077,2,0.07490674406290054,-0.031781237572431564,0.003034306922927499,-0.9966793656349182
1679663044.03973579,123081091,2,0.07333414256572723,-0.0286539439111948,0.003084387630224228,-0.9968909621238708
1679663044.13973093,123181086,2,0.07157338410615921,-0.02391238324344158,0.0034420734737068415,-0.9971427321434021
1679663044.23975182,123281107,2,0.0698436051607132,-0.01798558048903942,0.004740829113870859,-0.9973845481872559
1679663044.33978486,123381140,2,0.06794600933790207,-0.01343395747244358,0.006308141630142927,-0.9975786209106445
1679663044.43978095,123481136,2,0.06579840928316116,-0.014378746971487999,0.007563840132206678,-0.9977006316184998
1679663044.53977776,123581133,2,0.06343227624893188,-0.018749304115772247,0.007551528513431549,-0.9977814555168152
1679663044.63973284,123681088,2,0.06089572608470917,-0.01895674131810665,0.006747457664459944,-0.9979413151741028
1679663044.73971987,123781075,2,0.05790972709655762,-0.016349488869309425,0.0065654609352350235,-0.9981663227081299
1679663044.83972692,123881082,2,0.055101871490478516,-0.010616295970976353,0.008350839838385582,-0.9983893632888794
1679663044.93973684,123981092,2,0.05263430252671242,-0.007626329082995653,0.01082055177539587,-0.9985260963439941
1679663045.03973889,124081094,2,0.050485290586948395,-0.009367051534354687,0.013257901184260845,-0.9985928535461426
1679663045.13975382,124181109,2,0.04870575666427612,-0.012921257875859737,0.013630222529172897,-0.9986366033554077
1679663045.23978186,124281137,2,0.047610484063625336,-0.015059220604598522,0.011586672626435757,-0.9986852407455444
1679663045.33977985,124381135,2,0.04719251021742821,-0.014310918748378754,0.007715744897723198,-0.9987534880638123
1679663045.43976688,124481122,2,0.04781365394592285,-0.01162670087069273,0.0044023338705301285,-0.9987788796424866
1679663045.53971696,124581072,2,0.04894871637225151,-0.00853084959089756,0.002269208198413253,-0.998762309551239
1679663045.63971996,124681075,2,0.050637319684028625,-0.006044487003237009,0.0028877370059490204,-0.998694658279419
1679663045.73971796,124781073,2,0.05269749090075493,0.00033381659886799753,0.0052377162501215935,-0.998596727848053
1679663045.83972096,124881076,2,0.054963670670986176,0.004537230357527733,0.006789399776607752,-0.9984549880027771
1679663045.93972898,124981084,2,0.05746220797300339,0.0029111525509506464,0.004486702382564545,-0.9983333349227905
1679663046.03976989,125081125,2,0.0599774494767189,0.002479091752320528,0.0004939470672979951,-0.998196542263031
1679663046.13978791,125181143,2,0.06220925599336624,0.002901297528296709,-0.002273298567160964,-0.9980563521385193
