timestamp,TimeUS,I,Status,GMS,GWk,NSats,HDop,Lat,Lng,Alt,Spd,GCrs,VZ,Yaw,U
1666652507.40000010,407586495,0,3,169325400,2233,11,0.91,42.730868699999995,-84.4903684,210.96,0.025079872459173203,265.42608642578125,0.014000000432133675,0.0,1
1666652507.60062718,407787122,0,3,169325600,2233,11,0.91,42.730868699999995,-84.4903684,210.95000000000002,0.1709064096212387,24.91562843322754,0.029000001028180122,0.0,1
1666652507.80065012,407987145,0,3,169325800,2233,11,0.91,42.730868699999995,-84.4903685,210.91,0.047010637819767,66.1612548828125,0.09400000423192978,0.0,1
1666652508.00066519,408187160,0,3,169326000,2233,11,0.91,42.7308685,-84.4903688,210.87,0.04197618365287781,257.6192626953125,-0.036000002175569534,0.0,1
1666652508.18004727,408366542,0,3,169326200,2233,11,0.91,42.7308683,-84.490369,210.85,0.0495176762342453,46.63657760620117,0.05400000140070915,0.0,1
1666652508.40060019,408587095,0,3,169326400,2233,11,0.91,42.730868199999996,-84.49036919999999,210.84,0.1514892876148224,51.16298294067383,-0.012000000104308128,0.0,1
1666652508.60068226,408787177,0,3,169326600,2233,11,0.91,42.730868099999995,-84.49036939999999,210.82,0.06453681737184525,220.60130310058594,0.0650000050663948,0.0,1
1666652508.80072927,408987224,0,3,169326800,2233,11,0.91,42.7308678,-84.4903697,210.81,0.0836002379655838,233.26718139648438,0.009000000543892384,0.0,1
1666652509.00058222,409187077,0,3,169327000,2233,11,0.91,42.730867599999996,-84.49037,210.79,0.050159744918346405,184.5739288330078,0.04100000113248825,0.0,1
1666652509.20060515,409387100,0,3,169327200,2233,11,0.91,42.730867499999995,-84.4903702,210.76,0.06691038608551025,350.5376892089844,0.09700000286102295,0.0,1
1666652509.40063524,409587130,0,3,169327400,2233,11,0.91,42.7308673,-84.4903705,210.74,0.041109610348939896,184.1849365234375,0.0020000000949949026,0.0,1
1666652509.60061812,409787113,0,3,169327600,2233,11,0.91,42.7308671,-84.49037059999999,210.71,0.05921148881316185,4.844000339508057,-0.06800000369548798,0.0,1
1666652509.80065417,409987149,0,3,169327800,2233,11,0.91,42.730866999999996,-84.4903709,210.67000000000002,0.01603122055530548,3.576334238052368,0.06700000166893005,0.0,1
1666652510.00057721,410187072,0,3,169328000,2233,11,0.91,42.7308668,-84.4903712,210.65,0.05331041291356087,203.1986083984375,0.009000000543892384,0.0,1
1666652510.20059514,410387090,0,3,169328200,2233,11,0.91,42.7308665,-84.4903714,210.62,0.047801677137613297,127.34934997558594,-0.05000000074505806,0.0,1
1666652510.40064025,410587135,0,3,169328400,2233,11,0.91,42.730866299999995,-84.4903715,210.57,0.10269372910261154,112.31942749023438,0.036000002175569534,0.0,1
1666652510.60080409,410787299,0,3,169328600,2233,11,0.91,42.7308662,-84.4903716,210.53,0.11926861107349396,33.023868560791016,-0.030000001192092896,0.0,1
1666652510.80061722,410987112,0,3,169328800,2233,11,0.91,42.7308661,-84.4903719,210.54,0.06661081314086914,234.162353515625,0.030000001192092896,0.0,1
1666652511.00064707,411187142,0,3,169329000,2233,11,0.91,42.7308659,-84.4903722,210.5,0.03920459374785423,84.14397430419922,-0.014000000432133675,0.0,1
1666652511.20059323,411387088,0,3,169329200,2233,11,0.91,42.730865699999995,-84.4903724,210.48000000000002,0.03736308589577675,74.47588348388672,-0.05400000140070915,0.0,1
1666652511.40059328,411587088,0,3,169329400,2233,11,0.91,42.7308654,-84.4903727,210.41,0.07627581804990768,214.31509399414062,-0.023000001907348633,0.0,1
1666652511.60066414,411787159,0,3,169329600,2233,11,0.91,42.7308652,-84.4903731,210.39000000000001,0.015000000596046448,270.0,0.003000000026077032,0.0,1
1666652511.80070019,411987195,0,3,169329800,2233,11,0.91,42.730865,-84.49037349999999,210.34,0.02121320366859436,225.0,-0.014000000432133675,0.0,1
1666652512.00068021,412187175,0,3,169330000,2233,11,0.91,42.7308647,-84.490374,210.31,0.10677547007799149,247.99929809570312,-0.07100000232458115,0.0,1
1666652512.20069718,412387192,0,3,169330200,2233,11,0.91,42.730864499999996,-84.4903744,210.27,0.07424958050251007,205.5297088623047,-0.04800000041723251,0.0,1
1666652512.40068412,412587179,0,3,169330400,2233,11,0.91,42.7308642,-84.49037489999999,210.22,0.11584904044866562,263.05902099609375,-0.05700000375509262,0.0,1
1666652512.60062408,412787119,0,3,169330600,2233,11,0.91,42.730863899999996,-84.4903753,210.17000000000002,0.02121320366859436,315.0,0.010000000707805157,0.0,1
1666652512.80060911,412987104,0,3,169330800,2233,11,0.91,42.7308636,-84.4903757,210.13,0.0814923346042633,209.39605712890625,-0.03500000014901161,0.0,1
1666652513.00058222,413187077,0,3,169331000,2233,11,0.91,42.730863299999996,-84.4903762,210.11,0.04472136124968529,333.4349365234375,-0.05000000074505806,0.0,1
1666652513.20055819,413387053,0,3,169331200,2233,11,0.91,42.7308631,-84.4903765,210.07,0.04257934167981148,350.5376892089844,0.003000000026077032,0.0,1
1666652513.40061927,413587114,0,3,169331400,2233,11,0.91,42.7308628,-84.490377,210.03,0.05980802699923515,249.4439697265625,0.02500000037252903,0.0,1
1666652513.60063815,413787133,0,3,169331600,2233,11,0.91,42.7308625,-84.4903774,209.99,0.03157530725002289,259.04595947265625,-0.0430000014603138,0.0,1
1666652513.80071712,413987212,0,3,169331800,2233,11,0.91,42.7308623,-84.49037779999999,209.98000000000002,0.06870953738689423,291.33685302734375,-0.09600000083446503,0.0,1
1666652514.00063229,414187127,0,3,169332000,2233,11,0.91,42.730861999999995,-84.4903783,209.98000000000002,0.015652475878596306,153.43495178222656,-0.027000000700354576,0.0,1
1666652514.20066023,414387155,0,3,169332200,2233,11,0.91,42.7308618,-84.49037849999999,209.98000000000002,0.06660330295562744,138.6522216796875,-0.01600000075995922,0.0,1
1666652514.40063310,414587128,0,3,169332400,2233,11,0.91,42.730861499999996,-84.4903787,209.98000000000002,0.09047099947929382,76.57816314697266,0.06100000441074371,0.0,1
1666652514.60060215,414787097,0,3,169332600,2233,10,0.99,42.7308613,-84.49037899999999,209.96,0.02402082458138466,272.3859558105469,0.0010000000474974513,0.0,1
1666652514.80055523,414987050,0,3,169332800,2233,11,0.99,42.7308611,-84.49037919999999,209.9,0.08402380347251892,231.7661895751953,0.00800000037997961,0.0,1
1666652515.00061011,415187105,0,3,169333000,2233,12,0.99,42.730860899999996,-84.4903794,209.83,0.04925444349646568,354.17364501953125,0.046000003814697266,0.0,1
1666652515.20077324,415387268,0,3,169333200,2233,11,0.99,42.7308611,-84.49037919999999,209.78,0.08820430934429169,237.0305938720703,0.007000000216066837,0.0,1
1666652515.40066218,415587157,0,3,169333400,2233,11,0.99,42.730861399999995,-84.49037919999999,209.75,0.06706713140010834,272.56378173828125,-0.03500000014901161,0.0,1
1666652515.60062814,415787123,0,3,169333600,2233,11,1.01,42.7308617,-84.4903791,209.73000000000002,0.06100820004940033,269.0608215332031,-0.16300000250339508,0.0,1
1666652515.80066609,415987161,0,3,169333800,2233,11,1.01,42.7308619,-84.4903791,209.74,0.1047377735376358,227.321533203125,-0.07800000160932541,0.0,1
1666652516.00068021,416187175,0,3,169334000,2233,11,1.01,42.7308623,-84.4903789,209.67000000000002,0.16456003487110138,16.232349395751953,-0.08800000697374344,0.0,1
1666652516.20062423,416387119,0,3,169334200,2233,11,1.01,42.7308629,-84.49037849999999,209.67000000000002,0.20240801572799683,36.36035919189453,-0.2680000066757202,0.0,1
1666652516.40070510,416587200,0,3,169334400,2233,10,1.01,42.730864,-84.49037779999999,209.67000000000002,0.055542778223752975,346.4641418457031,-0.26200002431869507,0.0,1
1666652516.60064220,416787137,0,3,169334600,2233,9,1.0,42.730863899999996,-84.4903782,209.65,0.2665576934814453,332.7620544433594,-0.33100003004074097,0.0,1
1666652516.80056715,416987062,0,3,169334800,2233,10,1.0,42.730863299999996,-84.49037899999999,209.68,0.3560926914215088,252.1756591796875,-0.18900001049041748,0.0,1
1666652517.00065923,417187154,0,3,169335000,2233,12,1.0,42.7308636,-84.49037899999999,209.6,0.08646965026855469,354.0256652832031,-0.1860000044107437,0.0,1
1666652517.20063329,417387128,0,3,169335200,2233,12,1.0,42.730863899999996,-84.4903786,209.63,0.014866068959236145,340.34619140625,-0.1290000081062317,0.0,1
1666652517.40064907,417587144,0,3,169335400,2233,12,1.0,42.7308638,-84.4903786,209.72,0.08220097422599792,9.806092262268066,0.07900000363588333,0.0,1
1666652517.60069823,417787193,0,3,169335600,2233,12,0.91,42.7308638,-84.4903794,209.87,0.18665744364261627,303.8603515625,0.07600000500679016,0.0,1
1666652517.80063629,417987131,0,3,169335800,2233,11,0.91,42.730863899999996,-84.49038039999999,210.08,0.18760064244270325,274.58612060546875,-0.010000000707805157,0.0,1
1666652518.00056124,418187056,0,3,169336000,2233,12,0.91,42.7308634,-84.4903822,210.45000000000002,0.39943087100982666,248.2518768310547,-0.07600000500679016,0.0,1
1666652518.20052528,418387020,0,3,169336200,2233,12,0.91,42.730863,-84.49038329999999,210.67000000000002,0.20169532299041748,243.18087768554688,-0.33800002932548523,0.0,1
1666652518.40061021,418587105,0,3,169336400,2233,11,0.91,42.7308625,-84.49038379999999,210.84,0.22649724781513214,176.20274353027344,-0.49900001287460327,0.0,1
1666652518.60064721,418787142,0,3,169336600,2233,11,0.97,42.730861399999995,-84.4903851,211.12,0.08683893084526062,234.8458251953125,-0.2939999997615814,0.0,1
1666652518.80063009,418987125,0,3,169336800,2233,11,0.97,42.7308607,-84.4903865,211.41,0.1935691237449646,348.9803161621094,-0.0860000029206276,0.0,1
1666652519.00068212,419187177,0,3,169337000,2233,11,0.97,42.7308607,-84.4903873,211.51,0.2387572079896927,341.9444885253906,-0.24800001084804535,0.0,1
1666652519.20060515,419387100,0,3,169337200,2233,11,0.97,42.7308611,-84.4903873,211.57,0.06720863282680511,223.19126892089844,-0.09600000083446503,0.0,1
1666652519.40072608,419587221,0,3,169337400,2233,11,0.97,42.7308617,-84.4903865,211.69,0.04726521298289299,173.9275360107422,-0.10500000417232513,0.0,1
1666652519.60075712,419787252,0,3,169337600,2233,11,0.97,42.7308619,-84.4903851,211.87,0.24459150433540344,229.14462280273438,-0.10100000351667404,0.0,1
1666652519.80055618,419987051,0,3,169337800,2233,11,0.97,42.7308624,-84.4903832,212.06,0.027856776490807533,291.0375061035156,-0.052000001072883606,0.0,1
1666652520.00061822,420187113,0,3,169338000,2233,11,0.97,42.7308638,-84.49038159999999,212.11,0.08409518748521805,357.273681640625,-0.0860000029206276,0.0,1
1666652520.20061517,420387110,0,3,169338200,2233,10,0.97,42.7308653,-84.49038039999999,212.13,0.14964626729488373,345.6851806640625,0.07600000500679016,0.0,1
1666652520.40072227,420587217,0,3,169338400,2233,9,0.97,42.7308661,-84.4903801,212.18,0.21828880906105042,16.77466583251953,0.16700001060962677,0.0,1
1666652520.60064816,420787143,0,3,169338600,2233,10,1.12,42.730866299999995,-84.4903799,212.31,0.14577379822731018,345.29644775390625,0.1300000101327896,0.0,1
1666652520.80063224,420987127,0,3,169338800,2233,10,1.12,42.730866899999995,-84.4903793,212.3,0.3271161913871765,4.7345499992370605,0.5750000476837158,0.0,1
1666652521.00065827,421187153,0,3,169339000,2233,9,1.12,42.730867499999995,-84.49037899999999,212.32,0.1131591871380806,273.0393981933594,-0.026000000536441803,0.0,1
1666652521.20063114,421387126,0,3,169339200,2233,9,1.12,42.7308686,-84.4903787,212.37,0.04788528382778168,298.7059631347656,0.01900000125169754,0.0,1
1666652521.40072417,421587219,0,3,169339400,2233,9,1.12,42.7308695,-84.4903784,212.44,0.22832433879375458,341.08892822265625,-0.007000000216066837,0.0,1
1666652521.60063219,421787127,0,3,169339600,2233,10,1.12,42.7308697,-84.4903786,212.58,0.15153877437114716,202.5035400390625,-0.1860000044107437,0.0,1
1666652521.80061316,421987108,0,3,169339800,2233,10,1.12,42.7308702,-84.4903789,212.72,0.25015395879745483,5.505477428436279,0.0820000022649765,0.0,1
1666652522.00061607,422187111,0,3,169340000,2233,10,1.12,42.730871,-84.49037919999999,212.74,0.11078809201717377,329.0362548828125,0.07900000363588333,0.0,1
1666652522.20065308,422387148,0,3,169340200,2233,12,1.12,42.7308716,-84.4903794,212.88,0.21458099782466888,276.95941162109375,-0.01600000075995922,0.0,1
1666652522.40066814,422587163,0,3,169340400,2233,10,1.12,42.7308728,-84.49037779999999,213.21,0.23534230887889862,17.049030303955078,0.09300000220537186,0.0,1
1666652522.60066509,422787160,0,3,169340600,2233,11,0.97,42.7308739,-84.4903767,213.4,0.3130016326904297,0.18305297195911407,0.05900000408291817,0.0,1
1666652522.80057812,422987073,0,3,169340800,2233,12,0.97,42.7308751,-84.4903756,213.38,0.25945326685905457,49.06336212158203,0.06000000238418579,0.0,1
1666652523.00064015,423187135,0,3,169341000,2233,12,0.97,42.7308756,-84.4903753,213.22,0.08700000494718552,46.397178649902344,0.14100000262260437,0.0,1
1666652523.20077109,423387266,0,3,169341200,2233,12,0.97,42.730875499999996,-84.49037679999999,213.21,0.10688779503107071,10.784297943115234,0.07900000363588333,0.0,1
1666652523.40062618,423587121,0,3,169341400,2233,12,0.97,42.7308762,-84.49037659999999,213.12,0.26518672704696655,60.147918701171875,-0.04200000315904617,0.0,1
1666652523.60066223,423787157,0,3,169341600,2233,10,1.04,42.730875499999996,-84.4903765,213.31,0.303026407957077,179.24365234375,0.1550000011920929,0.0,1
1666652523.80058312,423987078,0,3,169341800,2233,11,1.04,42.7308751,-84.4903755,213.35,0.4280432164669037,64.39277648925781,0.08000000566244125,0.0,1
1666652524.00061417,424187109,0,3,169342000,2233,10,1.04,42.730874899999996,-84.4903743,213.31,0.5192157626152039,116.66374969482422,0.11500000208616257,0.0,1
1666652524.20056629,424387061,0,3,169342200,2233,12,1.04,42.7308745,-84.49037349999999,213.39000000000001,0.4216562807559967,168.37026977539062,0.48500001430511475,0.0,1
1666652524.40064621,424587141,0,3,169342400,2233,12,1.04,42.730874,-84.4903741,213.58,0.5108816027641296,56.49656295776367,-0.06000000238418579,0.0,1
1666652524.60075617,424787251,0,3,169342600,2233,10,0.97,42.7308741,-84.49037299999999,213.58,0.5218524932861328,97.81954956054688,0.23200000822544098,0.0,1
1666652524.80060720,424987102,0,3,169342800,2233,12,0.97,42.7308739,-84.49037129999999,213.71,0.7422587275505066,119.1895523071289,-0.3230000138282776,0.0,1
1666652525.00070524,425187200,0,3,169343000,2233,12,0.97,42.7308739,-84.4903696,213.95000000000002,0.8427200317382812,73.73707580566406,-0.8030000329017639,0.0,1
1666652525.20063424,425387129,0,3,169343200,2233,12,0.97,42.730874299999996,-84.4903683,213.92000000000002,0.2857026755809784,135.85086059570312,-0.10000000149011612,0.0,1
1666652525.40063214,425587127,0,3,169343400,2233,12,0.97,42.7308739,-84.4903671,213.94,0.7954351305961609,119.69126892089844,-0.03100000135600567,0.0,1
1666652525.60058022,425787075,0,3,169343600,2233,12,0.91,42.730873599999995,-84.49036509999999,214.0,0.9816007614135742,106.33023834228516,-0.3830000162124634,0.0,1
1666652525.80057025,425987065,0,3,169343800,2233,12,0.91,42.7308738,-84.49036339999999,213.95000000000002,0.5240401029586792,93.61042785644531,-0.08100000023841858,0.0,1
1666652526.00065112,426187146,0,3,169344000,2233,12,0.91,42.7308746,-84.4903618,213.76,0.718616783618927,70.40516662597656,0.22800001502037048,0.0,1
1666652526.20072126,426387216,0,3,169344200,2233,12,0.91,42.730874899999996,-84.4903598,213.73000000000002,0.948992133140564,119.61756134033203,0.3150000274181366,0.0,1
1666652526.40064907,426587144,0,3,169344400,2233,12,0.91,42.730874799999995,-84.490358,213.81,0.6357397437095642,94.23971557617188,-0.22600001096725464,0.0,1
1666652526.60065913,426787154,0,3,169344600,2233,11,0.91,42.730875,-84.4903569,213.74,0.7348340153694153,87.26998138427734,0.17000000178813934,0.0,1
1666652526.80066729,426987162,0,3,169344800,2233,11,0.91,42.7308753,-84.49035599999999,213.81,0.31669703125953674,93.80203247070312,0.08500000089406967,0.0,1
1666652527.00061321,427187108,0,3,169345000,2233,12,0.91,42.7308757,-84.4903549,213.83,0.07161005586385727,54.090274810791016,0.049000002443790436,0.0,1
1666652527.18003917,427366534,0,3,169345200,2233,12,0.91,42.7308759,-84.4903549,213.78,0.18642961978912354,80.7397689819336,-0.10100000351667404,0.0,1
1666652527.40061021,427587105,0,3,169345400,2233,11,0.91,42.730876099999996,-84.4903552,213.87,0.31225791573524475,5.144591808319092,-0.052000001072883606,0.0,1
1666652527.60052919,427787024,0,3,169345600,2233,11,0.91,42.730875999999995,-84.490357,214.32,0.2342669665813446,38.239646911621094,-0.09000000357627869,0.0,1
1666652527.80073023,427987225,0,3,169345800,2233,10,0.91,42.7308764,-84.49035649999999,214.44,0.552277147769928,23.362056732177734,0.013000000268220901,0.0,1
1666652528.00075126,428187246,0,3,169346000,2233,11,0.91,42.7308765,-84.4903558,214.66,0.23696625232696533,16.676082611083984,0.030000001192092896,0.0,1
1666652528.20065308,428387148,0,3,169346200,2233,12,0.91,42.7308756,-84.4903544,215.18,0.15671949088573456,185.49234008789062,-0.2550000250339508,0.0,1
1666652528.40064812,428587143,0,3,169346400,2233,12,0.91,42.730875,-84.490353,215.52,0.2552645802497864,66.4477310180664,-0.14100000262260437,0.0,1
1666652528.60068226,428787177,0,3,169346600,2233,12,0.91,42.730875399999995,-84.49035099999999,215.76,0.2191278338432312,32.89232635498047,-0.09400000423192978,0.0,1
1666652528.80057526,428987070,0,3,169346800,2233,11,0.91,42.7308762,-84.4903503,215.9,0.3998912572860718,6.893985748291016,-0.015000000596046448,0.0,1
1666652529.00063705,429187132,0,3,169347000,2233,12,0.91,42.730877,-84.4903494,216.08,0.11371895670890808,325.7509765625,0.014000000432133675,0.0,1
1666652529.20055127,429387046,0,3,169347200,2233,12,0.91,42.730876699999996,-84.49034929999999,216.49,0.09751410782337189,275.885986328125,-0.06000000238418579,0.0,1
1666652529.40071607,429587211,0,3,169347400,2233,12,0.91,42.730876699999996,-84.4903496,216.72,0.12553884088993073,22.47943115234375,-0.027000000700354576,0.0,1
1666652529.60065818,429787153,0,3,169347600,2233,12,0.91,42.730876699999996,-84.4903495,216.96,0.0824621170759201,292.8336486816406,-0.2639999985694885,0.0,1
1666652529.80063820,429987133,0,3,169347800,2233,10,0.91,42.7308768,-84.4903496,216.94,0.13159407675266266,258.60467529296875,0.06700000166893005,0.0,1
1666652530.00066018,430187155,0,3,169348000,2233,11,0.91,42.730877,-84.49034929999999,217.19,0.5539143085479736,253.1026153564453,-0.39100003242492676,0.0,1
1666652530.20065808,430387153,0,3,169348200,2233,10,0.91,42.730876599999995,-84.4903513,217.5,0.21360009908676147,233.18374633789062,0.026000000536441803,0.0,1
1666652530.40067816,430587173,0,3,169348400,2233,10,0.91,42.7308771,-84.4903516,217.5,0.32469215989112854,297.11749267578125,-0.2070000171661377,0.0,1
1666652530.60061622,430787111,0,3,169348600,2233,10,0.91,42.7308775,-84.4903515,217.61,0.6668021082878113,241.32095336914062,-0.29500001668930054,0.0,1
1666652530.80054307,430987038,0,3,169348800,2233,11,0.91,42.730878499999996,-84.49035099999999,217.52,0.38055354356765747,325.60003662109375,-0.04800000041723251,0.0,1
1666652531.00062227,431187117,0,3,169349000,2233,11,0.91,42.7308796,-84.4903508,217.44,0.2859545648097992,326.6989440917969,0.26100000739097595,0.0,1
1666652531.20063806,431387133,0,3,169349200,2233,10,0.91,42.7308799,-84.4903518,217.54,0.6659924983978271,293.4471130371094,0.09300000220537186,0.0,1
1666652531.40067506,431587170,0,3,169349400,2233,10,0.91,42.7308805,-84.4903526,217.52,0.6645194292068481,308.6463317871094,-0.1510000079870224,0.0,1
1666652531.60064507,431787140,0,3,169349600,2233,10,0.91,42.730880899999995,-84.49035239999999,217.49,0.2974104881286621,285.2044372558594,-0.015000000596046448,0.0,1
1666652531.80062509,431987120,0,3,169349800,2233,11,0.91,42.7308814,-84.4903523,217.29,0.2055261731147766,308.87750244140625,-0.07200000435113907,0.0,1
1666652532.00071716,432187212,0,3,169350000,2233,11,0.91,42.7308816,-84.4903513,217.33,0.39754873514175415,240.7914276123047,0.05100000277161598,0.0,1
1666652532.20075607,432387251,0,3,169350200,2233,11,0.91,42.730882099999995,-84.4903518,217.07,0.7004055976867676,265.24993896484375,0.1850000023841858,0.0,1
1666652532.40060115,432587096,0,3,169350400,2233,12,0.91,42.7308825,-84.4903521,217.05,0.44485169649124146,256.7447509765625,-0.14800000190734863,0.0,1
1666652532.60061026,432787105,0,3,169350600,2233,12,0.91,42.7308831,-84.4903525,217.07,0.24022698402404785,307.7285461425781,0.14900000393390656,0.0,1
1666652532.80063224,432987127,0,3,169350800,2233,12,0.91,42.730883899999995,-84.4903528,217.14000000000001,0.48510003089904785,251.86386108398438,0.1469999998807907,0.0,1
1666652533.00065827,433187153,0,3,169351000,2233,11,0.91,42.7308843,-84.4903538,217.07,0.4823453426361084,274.2802734375,0.2680000066757202,0.0,1
1666652533.20065427,433387149,0,3,169351200,2233,12,0.91,42.730885199999996,-84.4903535,217.03,0.27642178535461426,275.813720703125,0.2550000250339508,0.0,1
1666652533.40065622,433587151,0,3,169351400,2233,11,0.91,42.730885799999996,-84.4903535,216.97,0.16026228666305542,299.1240539550781,0.3400000035762787,0.0,1
1666652533.60059929,433787094,0,3,169351600,2233,11,0.93,42.730885699999995,-84.4903527,217.13,0.24654614925384521,257.8240966796875,0.14900000393390656,0.0,1
1666652533.80065417,433987149,0,3,169351800,2233,12,0.93,42.7308855,-84.4903521,217.18,0.36792391538619995,241.06640625,0.10400000214576721,0.0,1
1666652534.00073314,434187228,0,3,169352000,2233,12,0.93,42.7308866,-84.4903518,217.14000000000001,0.4134078323841095,330.2723083496094,0.10000000149011612,0.0,1
1666652534.20062423,434387119,0,3,169352200,2233,11,0.93,42.730886999999996,-84.49035119999999,217.14000000000001,0.16453875601291656,247.48728942871094,0.03800000250339508,0.0,1
1666652534.40062714,434587122,0,3,169352400,2233,12,0.93,42.7308871,-84.4903489,217.39000000000001,0.24047037959098816,347.7554626464844,0.07500000298023224,0.0,1
1666652534.60059714,434787092,0,3,169352600,2233,12,0.91,42.730888,-84.4903471,217.39000000000001,0.3931832015514374,332.2618103027344,0.13900001347064972,0.0,1
1666652534.80062222,434987117,0,3,169352800,2233,11,0.91,42.7308891,-84.4903471,217.47,0.43545955419540405,267.3675537109375,0.052000001072883606,0.0,1
1666652535.00068212,435187177,0,3,169353000,2233,12,0.91,42.7308893,-84.49034669999999,217.65,0.18309560418128967,291.8014221191406,-0.15800000727176666,0.0,1
1666652535.20066428,435387159,0,3,169353200,2233,12,0.91,42.7308902,-84.49034669999999,217.71,0.20500001311302185,270.0,0.029000001028180122,0.0,1
1666652535.40063524,435587130,0,3,169353400,2233,12,0.91,42.730890699999996,-84.49034639999999,217.72,0.18310926854610443,250.87240600585938,-0.03800000250339508,0.0,1
1666652535.60071707,435787212,0,3,169353600,2233,12,0.91,42.7308903,-84.4903456,217.73000000000002,0.17317332327365875,190.98550415039062,-0.06100000441074371,0.0,1
1666652535.80068421,435987179,0,3,169353800,2233,11,0.91,42.730889999999995,-84.4903454,217.74,0.08261961489915848,308.1182861328125,-0.007000000216066837,0.0,1
1666652536.00063515,436187130,0,3,169354000,2233,12,0.91,42.730889399999995,-84.49034569999999,217.63,0.16191357374191284,205.61549377441406,-0.01600000075995922,0.0,1
1666652536.20065212,436387147,0,3,169354200,2233,12,0.91,42.7308885,-84.4903466,217.57,0.08329465985298157,265.17926025390625,0.0950000062584877,0.0,1
1666652536.40062308,436587118,0,3,169354400,2233,12,0.91,42.7308878,-84.49034809999999,217.42000000000002,0.37356260418891907,252.87472534179688,0.1720000058412552,0.0,1
1666652536.60053825,436787033,0,3,169354600,2233,12,0.91,42.7308866,-84.4903507,216.92000000000002,0.18887563049793243,236.22579956054688,-0.10000000149011612,0.0,1
1666652536.80061913,436987114,0,3,169354800,2233,12,0.91,42.730886399999996,-84.49035099999999,216.71,0.13479243218898773,236.19204711914062,0.1340000033378601,0.0,1
1666652537.00062013,437187115,0,3,169355000,2233,12,0.91,42.7308862,-84.4903527,216.63,0.5844151377677917,257.2478942871094,0.19100001454353333,0.0,1
1666652537.20074129,437387236,0,3,169355200,2233,11,0.91,42.7308866,-84.4903549,216.64000000000001,0.4312969148159027,259.4456481933594,0.2200000137090683,0.0,1
1666652537.40065026,437587145,0,3,169355400,2233,12,0.91,42.7308869,-84.4903568,216.51,0.31520313024520874,257.7275085449219,-0.09000000357627869,0.0,1
1666652537.60069013,437787185,0,3,169355600,2233,10,0.97,42.7308869,-84.4903583,216.6,0.43449512124061584,245.3814239501953,-0.01600000075995922,0.0,1
1666652537.80062413,437987119,0,3,169355800,2233,12,0.97,42.7308872,-84.4903592,216.5,0.4014623463153839,279.46234130859375,-0.16200000047683716,0.0,1
1666652538.00060725,438187102,0,3,169356000,2233,12,0.97,42.7308872,-84.4903599,216.37,0.36639872193336487,209.78369140625,-0.0860000029206276,0.0,1
1666652538.20055819,438387053,0,3,169356200,2233,12,0.97,42.7308872,-84.49036029999999,216.43,0.262922078371048,265.2001647949219,0.09100000560283661,0.0,1
1666652538.40058017,438587075,0,3,169356400,2233,11,0.97,42.7308869,-84.4903611,216.32,0.2462722212076187,227.3037567138672,0.08500000089406967,0.0,1
1666652538.60063720,438787132,0,3,169356600,2233,11,0.97,42.730885699999995,-84.49036249999999,216.25,0.4507083296775818,213.23171997070312,0.0560000017285347,0.0,1
1666652538.80063629,438987131,0,3,169356800,2233,12,0.97,42.730884499999995,-84.490364,216.1,0.22905458509922028,249.82455444335938,-0.017000000923871994,0.0,1
1666652539.00065207,439187147,0,3,169357000,2233,12,0.97,42.730883299999995,-84.49036559999999,216.20000000000002,0.1272006332874298,306.6897277832031,0.14000000059604645,0.0,1
1666652539.20067525,439387170,0,3,169357200,2233,12,0.97,42.7308824,-84.4903667,216.66,0.07017835229635239,237.21572875976562,0.08500000089406967,0.0,1
1666652539.40070128,439587196,0,3,169357400,2233,11,0.97,42.7308812,-84.49036699999999,217.02,0.18471871316432953,222.586669921875,0.09200000762939453,0.0,1
1666652539.60061026,439787105,0,3,169357600,2233,11,0.97,42.7308799,-84.4903676,217.08,0.14527904987335205,176.44825744628906,-0.052000001072883606,0.0,1
1666652539.80061316,439987108,0,3,169357800,2233,11,0.97,42.7308789,-84.4903678,217.03,0.0692603811621666,184.96974182128906,0.11400000751018524,0.0,1
1666652540.00063109,440187126,0,3,169358000,2233,11,0.97,42.7308787,-84.4903681,216.9,0.019235385581851006,207.89727783203125,0.14400000870227814,0.0,1
1666652540.20061517,440387110,0,3,169358200,2233,11,0.97,42.7308788,-84.4903686,216.68,0.1072007492184639,261.4163818359375,0.1380000114440918,0.0,1
1666652540.40076423,440587259,0,3,169358400,2233,11,0.97,42.7308789,-84.49036869999999,216.54,0.30335623025894165,44.599334716796875,-0.2160000056028366,0.0,1
1666652540.60067511,440787170,0,3,169358600,2233,11,0.97,42.7308788,-84.4903679,216.61,0.2852122187614441,66.22108459472656,-0.31200000643730164,0.0,1
1666652540.80067325,440987168,0,3,169358800,2233,11,0.97,42.7308783,-84.4903673,216.70000000000002,0.2804032862186432,26.47366714477539,0.125,0.0,1
1666652541.00064111,441187136,0,3,169359000,2233,11,0.97,42.7308782,-84.49036699999999,216.92000000000002,0.35640567541122437,34.13593673706055,-0.030000001192092896,0.0,1
1666652541.20064807,441387143,0,3,169359200,2233,12,0.97,42.730879099999996,-84.4903665,216.99,0.4240047335624695,359.729736328125,-0.10100000351667404,0.0,1
1666652541.40071511,441587210,0,3,169359400,2233,11,0.97,42.7308795,-84.490366,217.04,0.27734819054603577,12.282326698303223,-0.11000000685453415,0.0,1
1666652541.60052609,441787021,0,3,169359600,2233,9,1.61,42.730879699999996,-84.4903657,217.14000000000001,0.3590891659259796,11.403806686401367,-0.06800000369548798,0.0,1
1666652541.80057406,441987069,0,3,169359800,2233,8,1.61,42.730880299999995,-84.4903659,217.34,0.3881288766860962,338.85650634765625,-0.30400002002716064,0.0,1
1666652542.00061512,442187110,0,3,169360000,2233,11,1.61,42.730880899999995,-84.4903653,217.64000000000001,0.24493469297885895,112.0620346069336,-0.22100001573562622,0.0,1
1666652542.20066929,442387164,0,3,169360200,2233,10,1.61,42.7308825,-84.4903652,217.58,0.14866068959236145,342.783935546875,-0.3190000057220459,0.0,1
1666652542.40064716,442587142,0,3,169360400,2233,11,1.61,42.730883,-84.49036509999999,217.70000000000002,0.19694669544696808,55.34164047241211,-0.03200000151991844,0.0,1
1666652542.60067225,442787167,0,3,169360600,2233,11,1.61,42.7308835,-84.49036439999999,217.74,0.5890136361122131,359.61090087890625,-0.07400000095367432,0.0,1
1666652542.80066729,442987162,0,3,169360800,2233,12,1.61,42.7308849,-84.4903635,217.64000000000001,0.3505709767341614,356.7295227050781,-0.2800000011920929,0.0,1
1666652543.02001715,443206512,0,3,169361000,2233,11,1.61,42.7308859,-84.49036339999999,217.56,0.19770939648151398,27.731544494628906,-0.020000001415610313,0.0,1
1666652543.20061922,443387114,0,3,169361200,2233,12,1.61,42.7308859,-84.4903626,217.71,0.24290946125984192,48.17057800292969,-0.20400001108646393,0.0,1
1666652543.40069008,443587185,0,3,169361400,2233,12,1.61,42.7308847,-84.4903609,217.72,0.3594565689563751,49.17394256591797,-0.09200000762939453,0.0,1
1666652543.60062313,443787118,0,3,169361600,2233,12,1.61,42.730884499999995,-84.4903607,217.26,0.3857097625732422,54.496856689453125,0.27800002694129944,0.0,1
1666652543.80063128,443987126,0,3,169361800,2233,11,1.61,42.730884599999996,-84.4903606,217.13,0.13292479515075684,31.776927947998047,0.1380000114440918,0.0,1
1666652544.00063419,444187129,0,3,169362000,2233,11,1.61,42.7308841,-84.490361,216.89000000000001,0.20915305614471436,55.32217025756836,0.12600000202655792,0.0,1
1666652544.20062423,444387119,0,3,169362200,2233,11,1.61,42.7308835,-84.4903611,216.74,0.46213093400001526,88.63607025146484,-0.2290000170469284,0.0,1
1666652544.40065122,444587146,0,3,169362400,2233,12,1.61,42.7308832,-84.4903619,216.83,0.3142499029636383,322.1090393066406,0.2840000092983246,0.0,1
1666652544.60074520,444787240,0,3,169362600,2233,12,1.61,42.7308831,-84.49036149999999,217.13,0.7149294018745422,35.7798957824707,0.07300000637769699,0.0,1
1666652544.80064917,444987144,0,3,169362800,2233,12,1.61,42.7308824,-84.4903612,217.64000000000001,0.14317820966243744,131.03533935546875,0.013000000268220901,0.0,1
1666652545.00062513,445187120,0,3,169363000,2233,12,1.61,42.730882099999995,-84.49036249999999,217.68,0.3428031802177429,141.15745544433594,-0.020000001415610313,0.0,1
1666652545.20063019,445387125,0,3,169363200,2233,11,1.61,42.7308814,-84.4903637,217.98000000000002,0.1688816249370575,102.30801391601562,0.04000000283122063,0.0,1
1666652545.40063810,445587133,0,3,169363400,2233,11,1.61,42.7308813,-84.49036459999999,218.24,0.1216963455080986,133.00210571289062,0.18800000846385956,0.0,1
1666652545.60069227,445787187,0,3,169363600,2233,11,0.91,42.7308814,-84.4903652,218.54,0.22768840193748474,135.0,0.06200000271201134,0.0,1
1666652545.80061626,445987111,0,3,169363800,2233,11,0.91,42.730881499999995,-84.4903659,218.87,0.11829624325037003,107.20954895019531,0.01900000125169754,0.0,1
1666652546.00065517,446187150,0,3,169364000,2233,12,0.91,42.7308812,-84.49036699999999,219.14000000000001,0.2421920895576477,354.3129577636719,0.1850000023841858,0.0,1
1666652546.20061922,446387114,0,3,169364200,2233,12,0.91,42.730881,-84.4903677,219.71,0.4138175845146179,139.99942016601562,-0.12700000405311584,0.0,1
1666652546.40066910,446587164,0,3,169364400,2233,12,0.91,42.7308813,-84.4903683,220.01,0.11810589581727982,64.95379638671875,-0.0860000029206276,0.0,1
1666652546.60074115,446787236,0,3,169364600,2233,12,0.91,42.730881499999995,-84.4903686,219.93,0.33431127667427063,157.116455078125,-0.01100000087171793,0.0,1
1666652546.80060720,446987102,0,3,169364800,2233,11,0.91,42.730880899999995,-84.49036989999999,219.56,0.09139475226402283,72.1597900390625,0.08300000429153442,0.0,1
1666652547.00062418,447187119,0,3,169365000,2233,10,0.91,42.730881,-84.49037129999999,219.29,0.19379371404647827,133.74554443359375,0.003000000026077032,0.0,1
1666652547.20059729,447387092,0,3,169365200,2233,10,0.91,42.730881,-84.4903707,219.25,0.1755676567554474,132.2297821044922,-0.049000002443790436,0.0,1
1666652547.40062618,447587121,0,3,169365400,2233,10,0.91,42.730881,-84.49037039999999,219.14000000000001,0.05491812154650688,100.49147033691406,0.04800000041723251,0.0,1
1666652547.58006310,447766558,0,3,169365600,2233,10,0.9500000000000001,42.730880899999995,-84.49037039999999,219.15,0.16240999102592468,301.145263671875,0.04100000113248825,0.0,1
1666652547.80060315,447987098,0,3,169365800,2233,10,0.9500000000000001,42.7308807,-84.4903708,219.22,0.48674121499061584,244.96177673339844,0.16200000047683716,0.0,1
1666652548.00064611,448187141,0,3,169366000,2233,10,0.9500000000000001,42.730881499999995,-84.4903714,219.14000000000001,0.14623954892158508,333.61016845703125,-0.05900000408291817,0.0,1
1666652548.20065713,448387152,0,3,169366200,2233,11,0.9500000000000001,42.7308819,-84.4903728,219.66,0.0213775597512722,259.2156982421875,-0.17100000381469727,0.0,1
1666652548.40068507,448587180,0,3,169366400,2233,10,0.9500000000000001,42.7308823,-84.4903748,220.78,0.19636955857276917,210.6134796142578,-0.02800000086426735,0.0,1
1666652548.60062528,448787120,0,3,169366600,2233,11,0.9500000000000001,42.7308831,-84.4903775,221.75,0.07300000637769699,318.8879089355469,0.015000000596046448,0.0,1
1666652548.80062723,448987122,0,3,169366800,2233,11,0.9500000000000001,42.7308835,-84.49037779999999,221.84,0.18400001525878906,0.0,-0.06800000369548798,0.0,1
1666652549.00054312,449187038,0,3,169367000,2233,11,0.9500000000000001,42.730883999999996,-84.49037729999999,222.04,0.15530937910079956,28.875442504882812,-0.03500000014901161,0.0,1
1666652549.20057011,449387065,0,3,169367200,2233,11,0.9500000000000001,42.7308842,-84.49037679999999,222.42000000000002,0.089899942278862,154.29002380371094,-0.06100000441074371,0.0,1
1666652549.40063524,449587130,0,3,169367400,2233,10,0.9500000000000001,42.730883999999996,-84.49037659999999,223.91,0.14558160305023193,5.123165130615234,-0.07700000703334808,0.0,1
1666652549.60072923,449787224,0,3,169367600,2233,12,0.91,42.7308842,-84.4903755,224.72,0.227035254240036,13.240518569946289,-0.07900000363588333,0.0,1
1666652549.80067110,449987166,0,3,169367800,2233,12,0.91,42.7308859,-84.49037589999999,224.91,0.4751642048358917,304.62652587890625,-0.1680000126361847,0.0,1
1666652550.00066328,450187158,0,3,169368000,2233,11,0.91,42.7308877,-84.4903762,225.12,0.11835962533950806,193.68402099609375,-0.0990000069141388,0.0,1
1666652550.20065928,450387154,0,3,169368200,2233,10,0.91,42.730888799999995,-84.4903758,225.39000000000001,0.19163767993450165,21.745887756347656,-0.1550000011920929,0.0,1
1666652550.40059924,450587094,0,3,169368400,2233,11,0.91,42.7308898,-84.4903763,225.32,0.2001599371433258,2.2906100749969482,-0.31700000166893005,0.0,1
1666652550.60061216,450787107,0,3,169368600,2233,12,0.91,42.730890599999995,-84.49037679999999,225.39000000000001,0.2884874641895294,11.19308090209961,-0.10400000214576721,0.0,1
1666652550.80060720,450987102,0,3,169368800,2233,12,0.91,42.7308921,-84.4903777,225.23000000000002,0.4551856815814972,271.6365966796875,-0.23500001430511475,0.0,1
1666652551.00062323,451187118,0,3,169369000,2233,12,0.91,42.7308935,-84.49037849999999,225.16,0.4115884006023407,326.194091796875,-0.039000000804662704,0.0,1
1666652551.20071006,451387205,0,3,169369200,2233,12,0.91,42.730894299999996,-84.49037799999999,225.22,0.20821624994277954,20.52383804321289,-0.03200000151991844,0.0,1
1666652551.40065908,451587154,0,3,169369400,2233,11,0.91,42.730895499999995,-84.4903784,225.04,0.3889601528644562,328.8846740722656,0.20200000703334808,0.0,1
1666652551.60063529,451787130,0,3,169369600,2233,12,0.91,42.7308938,-84.4903758,225.5,0.11595258116722107,192.95758056640625,-0.005000000353902578,0.0,1
1666652551.80059624,451987091,0,3,169369800,2233,12,0.91,42.730890599999995,-84.49037179999999,226.28,0.08987213671207428,47.25457000732422,-0.024000000208616257,0.0,1
1666652552.00071025,452187205,0,3,169370000,2233,11,0.91,42.730890599999995,-84.4903712,226.42000000000002,0.03178049996495247,24.145540237426758,-0.039000000804662704,0.0,1
1666652552.20066524,452387160,0,3,169370200,2233,11,0.91,42.7308908,-84.4903714,226.55,0.04382921755313873,214.77783203125,0.03800000250339508,0.0,1
1666652552.40060711,452587102,0,3,169370400,2233,12,0.91,42.730891,-84.4903719,226.66,0.03220248594880104,154.2306671142578,-0.021000001579523087,0.0,1
1666652552.60053611,452787031,0,3,169370600,2233,12,0.91,42.730891199999995,-84.4903724,226.78,0.04049691557884216,200.22486877441406,0.01100000087171793,0.0,1
1666652552.80061507,452987110,0,3,169370800,2233,11,0.91,42.730891199999995,-84.4903726,226.94,0.03162277862429619,18.434947967529297,0.0010000000474974513,0.0,1
1666652553.00075817,453187253,0,3,169371000,2233,12,0.91,42.730890099999996,-84.490372,227.34,0.041593268513679504,207.18112182617188,-0.08400000631809235,0.0,1
1666652553.20064807,453387143,0,3,169371200,2233,12,0.91,42.7308875,-84.4903712,227.88,0.39828258752822876,177.8416290283203,-0.020000001415610313,0.0,1
1666652553.40061212,453587107,0,3,169371400,2233,10,0.91,42.730885,-84.49037059999999,228.32,0.21414948999881744,182.1409149169922,-0.10500000417232513,0.0,1
1666652553.60063028,453787125,0,3,169371600,2233,11,0.91,42.7308823,-84.49036869999999,228.96,0.20776188373565674,214.6079559326172,-0.10500000417232513,0.0,1
1666652553.80066919,453987164,0,3,169371800,2233,11,0.91,42.7308812,-84.49036799999999,229.23000000000002,0.07147027552127838,342.07208251953125,0.09800000488758087,0.0,1
1666652554.00073528,454187230,0,3,169372000,2233,11,0.91,42.7308824,-84.4903686,229.0,0.012165524996817112,80.53767395019531,-0.2240000069141388,0.0,1
1666652554.20061707,454387112,0,3,169372200,2233,11,0.91,42.730882699999995,-84.49036939999999,228.98000000000002,0.17464250326156616,209.50071716308594,-0.05700000375509262,0.0,1
1666652554.40069818,454587193,0,3,169372400,2233,10,0.91,42.7308824,-84.4903703,228.91,0.40746167302131653,231.07666015625,-0.06599999964237213,0.0,1
1666652554.60061908,454787114,0,3,169372600,2233,11,0.97,42.730882799999996,-84.49037109999999,228.87,0.041880782693624496,56.68936538696289,-0.23400001227855682,0.0,1
1666652554.80064607,454987141,0,3,169372800,2233,12,0.97,42.7308826,-84.490372,228.9,0.14534442126750946,310.8150939941406,0.012000000104308128,0.0,1
1666652555.00061512,455187110,0,3,169373000,2233,12,0.97,42.7308825,-84.49037249999999,228.91,0.10660675913095474,216.22494506835938,-0.09700000286102295,0.0,1
1666652555.20065022,455387145,0,3,169373200,2233,12,0.97,42.730882199999996,-84.4903732,228.89000000000001,0.4150855541229248,184.14463806152344,-0.052000001072883606,0.0,1
1666652555.40069127,455587186,0,3,169373400,2233,12,0.97,42.730882,-84.4903741,228.83,0.26006925106048584,200.2466278076172,-0.07300000637769699,0.0,1
1666652555.60064125,455787136,0,3,169373600,2233,12,0.91,42.730882,-84.4903743,228.93,0.09487360715866089,122.51749420166016,-0.08700000494718552,0.0,1
1666652555.80056429,455987059,0,3,169373800,2233,11,0.91,42.7308818,-84.4903738,229.15,0.0885494276881218,153.14556884765625,-0.017000000923871994,0.0,1
1666652556.00062609,456187121,0,3,169374000,2233,11,0.91,42.7308826,-84.4903736,229.41,0.03324154019355774,164.29135131835938,-0.14800000190734863,0.0,1
1666652556.20062423,456387119,0,3,169374200,2233,11,0.91,42.7308831,-84.49037349999999,229.6,0.2629372775554657,213.20657348632812,-0.1980000138282776,0.0,1
1666652556.40064120,456587136,0,3,169374400,2233,12,0.91,42.730883399999996,-84.4903733,229.62,0.21208488941192627,231.5089569091797,-0.052000001072883606,0.0,1
1666652556.60065627,456787151,0,3,169374600,2233,12,0.91,42.7308838,-84.4903722,229.55,0.16280050575733185,217.01068115234375,-0.0560000017285347,0.0,1
1666652556.80063820,456987133,0,3,169374800,2233,12,0.91,42.7308844,-84.49037009999999,229.61,0.1910497397184372,169.74879455566406,-0.1600000113248825,0.0,1
1666652557.00058627,457187081,0,3,169375000,2233,12,0.91,42.730883999999996,-84.4903697,229.68,0.4461849629878998,224.90921020507812,0.024000000208616257,0.0,1
1666652557.20075011,457387245,0,3,169375200,2233,12,0.91,42.7308841,-84.490369,229.64000000000001,0.1900000125169754,323.1300964355469,0.12700000405311584,0.0,1
1666652557.40080309,457587298,0,3,169375400,2233,12,0.91,42.7308849,-84.4903676,229.41,0.2306729406118393,190.2382049560547,-0.009000000543892384,0.0,1
1666652557.60061216,457787107,0,3,169375600,2233,11,0.97,42.7308843,-84.4903676,229.17000000000002,0.4553602933883667,196.3256378173828,-0.12600000202655792,0.0,1
1666652557.80060506,457987100,0,3,169375800,2233,11,0.97,42.7308838,-84.4903679,228.97,0.10998637229204178,220.20578002929688,0.04500000178813934,0.0,1
1666652558.00061417,458187109,0,3,169376000,2233,11,0.97,42.7308837,-84.490366,228.62,0.2742353081703186,185.4403533935547,0.04800000041723251,0.0,1
1666652558.20069313,458387188,0,3,169376200,2233,11,0.97,42.730883,-84.49036559999999,228.3,0.3186926543712616,194.16705322265625,-0.03800000250339508,0.0,1
1666652558.40064621,458587141,0,3,169376400,2233,11,0.97,42.730883399999996,-84.4903645,228.1,0.06466065347194672,211.72360229492188,0.00800000037997961,0.0,1
1666652558.60060525,458787100,0,3,169376600,2233,11,0.97,42.7308837,-84.49036389999999,227.9,0.2833513915538788,108.94649505615234,0.026000000536441803,0.0,1
1666652558.80064607,458987141,0,3,169376800,2233,11,0.97,42.7308836,-84.4903629,227.8,0.415778785943985,135.0,0.3410000205039978,0.0,1
1666652559.00067019,459187165,0,3,169377000,2233,10,0.97,42.7308841,-84.4903593,227.46,0.12323961406946182,41.71075439453125,0.08000000566244125,0.0,1
1666652559.20073318,459387228,0,3,169377200,2233,10,0.97,42.730883999999996,-84.4903588,227.44,0.19946178793907166,349.30975341796875,0.16900001466274261,0.0,1
1666652559.40063429,459587129,0,3,169377400,2233,12,0.97,42.730883,-84.4903594,227.46,0.20500977337360382,157.9390869140625,0.3800000250339508,0.0,1
1666652559.60058713,459787082,0,3,169377600,2233,12,0.97,42.730882099999995,-84.4903595,227.46,0.1322762370109558,136.53160095214844,0.026000000536441803,0.0,1
1666652559.80060816,459987103,0,3,169377800,2233,11,0.97,42.730881499999995,-84.49036,227.36,0.12880994379520416,154.2306671142578,0.2150000035762787,0.0,1
1666652560.00060916,460187104,0,3,169378000,2233,11,0.97,42.7308816,-84.4903602,227.15,0.32233214378356934,346.1793212890625,0.4000000059604645,0.0,1
1666652560.20059609,460387091,0,3,169378200,2233,12,0.97,42.7308816,-84.4903599,226.98000000000002,0.16502425074577332,153.7454833984375,0.11600000411272049,0.0,1
1666652560.40062618,460587121,0,3,169378400,2233,12,0.97,42.7308811,-84.4903598,226.89000000000001,0.32739272713661194,158.68605041503906,0.07500000298023224,0.0,1
1666652560.60070109,460787196,0,3,169378600,2233,12,0.91,42.7308807,-84.4903597,226.83,0.1354178786277771,142.19923400878906,-0.0020000000949949026,0.0,1
1666652560.80063915,460987134,0,3,169378800,2233,11,0.91,42.730881,-84.4903599,226.70000000000002,0.13507406413555145,262.769775390625,0.24800001084804535,0.0,1
1666652561.00069427,461187189,0,3,169379000,2233,11,0.91,42.7308816,-84.49036009999999,226.53,0.0690072551369667,270.830322265625,0.3660000264644623,0.0,1
1666652561.20057821,461387073,0,3,169379200,2233,10,0.91,42.7308819,-84.4903599,226.49,0.1487346738576889,318.2704772949219,0.07600000500679016,0.0,1
1666652561.40066528,461587160,0,3,169379400,2233,11,0.91,42.7308823,-84.49036,226.39000000000001,0.1156027689576149,300.1137390136719,0.0950000062584877,0.0,1
1666652561.60055113,461787046,0,3,169379600,2233,11,0.91,42.7308826,-84.4903604,226.27,0.11237882822751999,299.3022155761719,0.1980000138282776,0.0,1
1666652561.80059314,461987088,0,3,169379800,2233,11,0.91,42.7308826,-84.4903609,226.19,0.034669872373342514,326.7682800292969,0.09700000286102295,0.0,1
1666652562.00065112,462187146,0,3,169380000,2233,11,0.91,42.7308825,-84.4903617,226.06,0.03860051929950714,196.5570831298828,0.11700000613927841,0.0,1
1666652562.20074010,462387235,0,3,169380200,2233,11,0.91,42.730882099999995,-84.490363,225.99,0.09940322488546371,323.5912170410156,0.21000000834465027,0.0,1
1666652562.40070319,462587198,0,3,169380400,2233,11,0.91,42.730882099999995,-84.49036439999999,225.86,0.21029742062091827,335.2629089355469,0.20800000429153442,0.0,1
1666652562.60063624,462787131,0,3,169380600,2233,12,0.91,42.7308817,-84.49036509999999,225.79,0.09884331375360489,281.08258056640625,0.2070000171661377,0.0,1
1666652562.80070424,462987199,0,3,169380800,2233,12,0.91,42.7308814,-84.49036559999999,225.70000000000002,0.19285228848457336,310.7946472167969,0.24300001561641693,0.0,1
1666652563.00059509,463187090,0,3,169381000,2233,12,0.91,42.7308816,-84.49036629999999,225.51,0.28461378812789917,347.6240539550781,0.33400002121925354,0.0,1
1666652563.20054507,463387040,0,3,169381200,2233,12,0.91,42.7308824,-84.4903672,225.20000000000002,0.6853276491165161,343.46893310546875,0.36000001430511475,0.0,1
1666652563.40062213,463587117,0,3,169381400,2233,12,0.91,42.730883299999995,-84.4903683,224.96,0.6154186129570007,348.9456787109375,0.33900001645088196,0.0,1
1666652563.60059428,463787089,0,3,169381600,2233,12,0.91,42.7308835,-84.4903691,224.81,0.23436084389686584,303.6900634765625,0.12200000882148743,0.0,1
1666652563.80064106,463987136,0,3,169381800,2233,11,0.91,42.730883299999995,-84.4903696,224.69,0.06767570227384567,235.84030151367188,0.14900000393390656,0.0,1
1666652564.00060511,464187100,0,3,169382000,2233,11,0.91,42.730882699999995,-84.49037,224.56,0.08588364720344543,242.241455078125,0.11900000274181366,0.0,1
1666652564.20062709,464387122,0,3,169382200,2233,11,0.91,42.7308816,-84.4903709,224.37,0.14047063887119293,208.02450561523438,0.10900000482797623,0.0,1
1666652564.40064311,464587138,0,3,169382400,2233,11,0.91,42.7308807,-84.4903721,223.96,0.16037768125534058,327.99462890625,0.22800001502037048,0.0,1
1666652564.60063910,464787134,0,3,169382600,2233,11,0.97,42.73088,-84.49037299999999,223.32,0.08713208884000778,301.865966796875,0.21800000965595245,0.0,1
1666652564.80058122,464987076,0,3,169382800,2233,11,0.97,42.7308799,-84.4903736,222.76,0.25223204493522644,296.86981201171875,0.3440000116825104,0.0,1
1666652565.00061512,465187110,0,3,169383000,2233,11,0.97,42.730880299999995,-84.4903738,222.48000000000002,0.3019205331802368,353.5340576171875,0.0650000050663948,0.0,1
1666652565.20062113,465387116,0,3,169383200,2233,10,0.97,42.7308802,-84.4903739,222.23000000000002,0.3717324435710907,163.27122497558594,0.1730000078678131,0.0,1
1666652565.40063620,465587131,0,3,169383400,2233,10,0.97,42.730879,-84.4903738,221.89000000000001,0.8250151872634888,143.4773406982422,0.04000000283122063,0.0,1
1666652565.60071015,465787205,0,3,169383600,2233,10,0.9500000000000001,42.7308776,-84.4903728,221.68,0.07690253853797913,102.77123260498047,0.23100000619888306,0.0,1
1666652565.80064011,465987135,0,3,169383800,2233,12,0.9500000000000001,42.730876699999996,-84.4903715,221.35,0.15657906234264374,31.152019500732422,0.09800000488758087,0.0,1
1666652566.00062728,466187122,0,3,169384000,2233,12,0.9500000000000001,42.7308751,-84.49037,221.18,0.20376703143119812,78.96578979492188,0.320000022649765,0.0,1
1666652566.20066309,466387158,0,3,169384200,2233,11,0.9500000000000001,42.7308723,-84.49036749999999,221.21,0.23555254936218262,43.45183563232422,0.05400000140070915,0.0,1
1666652566.40071726,466587212,0,3,169384400,2233,12,0.9500000000000001,42.7308707,-84.4903666,221.12,0.13631215691566467,107.50446319580078,0.07800000160932541,0.0,1
1666652566.58006907,466766564,0,3,169384600,2233,12,0.91,42.730870599999996,-84.4903655,221.08,0.07621680200099945,51.927215576171875,0.10200000554323196,0.0,1
1666652566.80064917,466987144,0,3,169384800,2233,11,0.91,42.7308707,-84.490364,221.03,0.14173920452594757,57.094749450683594,0.14300000667572021,0.0,1
1666652567.00065017,467187145,0,3,169385000,2233,11,0.91,42.730870499999995,-84.4903628,220.83,0.17933489382266998,26.850811004638672,0.1810000091791153,0.0,1
1666652567.20061922,467387114,0,3,169385200,2233,11,0.91,42.7308701,-84.4903618,220.71,0.1265740990638733,44.67991256713867,0.15200001001358032,0.0,1
1666652567.40065026,467587145,0,3,169385400,2233,9,0.91,42.7308707,-84.4903612,221.17000000000002,0.31726646423339844,177.65164184570312,0.09700000286102295,0.0,1
1666652567.60066414,467787159,0,3,169385600,2233,10,1.04,42.730871799999996,-84.4903609,221.59,0.13532553613185883,210.16500854492188,0.11300000548362732,0.0,1
1666652567.80053926,467987034,0,3,169385800,2233,10,1.04,42.7308729,-84.490361,221.85,0.1673589050769806,208.55581665039062,0.13500000536441803,0.0,1
1666652568.00073910,468187234,0,3,169386000,2233,11,1.04,42.7308733,-84.4903611,221.65,0.11303982138633728,271.5207824707031,0.08700000494718552,0.0,1
1666652568.20072913,468387224,0,3,169386200,2233,11,1.04,42.730872999999995,-84.4903616,221.36,0.28485962748527527,202.0628662109375,0.12300000339746475,0.0,1
1666652568.40071726,468587212,0,3,169386400,2233,10,1.04,42.7308727,-84.49036029999999,221.58,0.11399123072624207,146.44932556152344,-0.10400000214576721,0.0,1
1666652568.60062218,468787117,0,3,169386600,2233,11,0.97,42.7308726,-84.4903598,221.48000000000002,0.30048128962516785,176.75669860839844,0.029000001028180122,0.0,1
1666652568.80060410,468987099,0,3,169386800,2233,11,0.97,42.7308721,-84.49035959999999,221.44,0.33135026693344116,188.15457153320312,0.052000001072883606,0.0,1
1666652569.00060415,469187099,0,3,169387000,2233,11,0.97,42.7308717,-84.4903599,221.21,0.31529828906059265,186.9221649169922,0.3960000276565552,0.0,1
1666652569.20064616,469387141,0,3,169387200,2233,11,0.97,42.7308719,-84.4903609,220.78,0.4570175111293793,179.49850463867188,-0.32500001788139343,0.0,1
1666652569.40063024,469587125,0,3,169387400,2233,12,0.97,42.730871,-84.4903621,220.72,1.1999684572219849,190.46714782714844,-0.5760000348091125,0.0,1
1666652569.60062027,469787115,0,3,169387600,2233,11,0.93,42.730869999999996,-84.49036249999999,220.70000000000002,0.46050626039505005,188.869140625,-0.2630000114440918,0.0,1
1666652569.80075216,469987247,0,3,169387800,2233,12,0.93,42.730868099999995,-84.4903638,220.33,1.2246832847595215,167.3595428466797,-0.24700000882148743,0.0,1
1666652570.00070524,470187200,0,3,169388000,2233,12,0.93,42.7308667,-84.4903641,220.28,0.6229903697967529,218.28636169433594,0.0950000062584877,0.0,1
1666652570.20062613,470387121,0,3,169388200,2233,12,0.93,42.7308647,-84.490363,220.66,0.5426472425460815,198.36817932128906,-0.19500000774860382,0.0,1
1666652570.40062428,470587119,0,3,169388400,2233,11,0.93,42.730864,-84.4903638,220.5,0.7934841513633728,197.68141174316406,0.16900001466274261,0.0,1
1666652570.60058022,470787075,0,3,169388600,2233,11,0.97,42.7308642,-84.4903643,220.65,0.2478911131620407,175.14036560058594,-0.3110000193119049,0.0,1
1666652570.80066109,470987156,0,3,169388800,2233,11,0.97,42.730864,-84.4903638,220.78,0.5291200280189514,163.75711059570312,0.09600000083446503,0.0,1
1666652571.00062609,471187121,0,3,169389000,2233,12,0.97,42.730862699999996,-84.490364,220.82,0.6699470281600952,204.4227294921875,-0.20400001108646393,0.0,1
1666652571.20060706,471387102,0,3,169389200,2233,11,0.97,42.7308617,-84.49036459999999,220.91,0.261047899723053,91.09748077392578,-0.1990000158548355,0.0,1
1666652571.40067124,471587166,0,3,169389400,2233,12,0.97,42.730860199999995,-84.4903631,221.25,0.13038405776023865,175.60128784179688,-0.046000003814697266,0.0,1
1666652571.60064721,471787142,0,3,169389600,2233,12,0.97,42.730860299999996,-84.4903631,221.22,0.16541160643100739,109.42081451416016,-0.1550000011920929,0.0,1
1666652571.80066109,471987156,0,3,169389800,2233,11,0.97,42.730860799999995,-84.4903637,221.11,0.23482973873615265,220.33665466308594,-0.13199999928474426,0.0,1
1666652572.00064516,472187140,0,3,169390000,2233,10,0.97,42.7308604,-84.49036389999999,221.07,0.05456189438700676,221.2847137451172,0.023000001907348633,0.0,1
1666652572.20059419,472387089,0,3,169390200,2233,10,0.97,42.730859699999996,-84.4903631,221.07,0.22144977748394012,196.79837036132812,0.07700000703334808,0.0,1
1666652572.40063524,472587130,0,3,169390400,2233,10,0.97,42.7308588,-84.490363,220.97,0.46360546350479126,197.96597290039062,0.09300000220537186,0.0,1
1666652572.60068321,472787178,0,3,169390600,2233,11,0.97,42.7308577,-84.49036249999999,220.95000000000002,0.14057739078998566,171.4087677001953,0.2970000207424164,0.0,1
1666652572.80064511,472987140,0,3,169390800,2233,12,0.97,42.7308577,-84.4903628,220.81,0.28821173310279846,219.93284606933594,0.11700000613927841,0.0,1
1666652573.00070524,473187200,0,3,169391000,2233,12,0.97,42.7308582,-84.4903633,220.67000000000002,0.2335294634103775,208.10134887695312,0.03700000047683716,0.0,1
1666652573.20066428,473387159,0,3,169391200,2233,12,0.97,42.7308588,-84.4903637,220.49,0.07964923232793808,141.11549377441406,-0.15700000524520874,0.0,1
1666652573.40069509,473587190,0,3,169391400,2233,12,0.97,42.7308586,-84.4903643,220.34,0.37500137090682983,180.15280151367188,0.02800000086426735,0.0,1
1666652573.60068011,473787175,0,3,169391600,2233,12,0.97,42.7308581,-84.4903643,220.32,0.5995215177536011,177.61007690429688,-0.26500001549720764,0.0,1
1666652573.80056906,473987064,0,3,169391800,2233,12,0.97,42.7308585,-84.49036439999999,220.22,0.0894986093044281,256.4295654296875,-0.1720000058412552,0.0,1
1666652574.00065017,474187145,0,3,169392000,2233,12,0.97,42.7308601,-84.4903647,220.13,0.1655566394329071,219.36245727539062,0.020000001415610313,0.0,1
1666652574.20065928,474387154,0,3,169392200,2233,12,0.97,42.7308613,-84.49036459999999,220.01,0.1696142852306366,121.25341796875,0.04100000113248825,0.0,1
1666652574.40060806,474587103,0,3,169392400,2233,12,0.97,42.730861499999996,-84.4903652,219.71,0.06685058027505875,124.64094543457031,-0.052000001072883606,0.0,1
1666652574.60060620,474787101,0,3,169392600,2233,12,0.91,42.7308616,-84.49036509999999,219.58,0.21472075581550598,161.81817626953125,0.05100000277161598,0.0,1
1666652574.80066228,474987157,0,3,169392800,2233,11,0.91,42.7308622,-84.49036439999999,219.52,0.14305593073368073,128.47215270996094,-0.055000003427267075,0.0,1
1666652575.00072217,475187217,0,3,169393000,2233,11,0.91,42.7308624,-84.49036439999999,219.36,0.2504156529903412,216.22923278808594,0.06200000271201134,0.0,1
1666652575.20064425,475387139,0,3,169393200,2233,11,0.91,42.7308624,-84.4903649,219.08,0.0779871866106987,220.84036254882812,0.19300000369548798,0.0,1
1666652575.40066814,475587163,0,3,169393400,2233,11,0.91,42.7308619,-84.4903664,218.5,0.03298484534025192,104.0362319946289,0.04100000113248825,0.0,1
1666652575.60053110,475787026,0,3,169393600,2233,11,0.91,42.7308618,-84.49036799999999,217.85,0.15891192853450775,186.14112854003906,0.08000000566244125,0.0,1
1666652575.80059814,475987093,0,3,169393800,2233,11,0.91,42.7308617,-84.4903683,217.64000000000001,0.03765634074807167,79.28687286376953,0.10900000482797623,0.0,1
1666652576.00054026,476187035,0,3,169394000,2233,11,0.91,42.7308618,-84.4903684,217.65,0.09353609383106232,61.24287414550781,0.026000000536441803,0.0,1
1666652576.20066619,476387161,0,3,169394200,2233,11,0.91,42.730863,-84.4903686,217.47,0.10820813477039337,133.87669372558594,0.06800000369548798,0.0,1
1666652576.40065217,476587147,0,3,169394400,2233,11,0.91,42.7308644,-84.4903683,217.38,0.03661966696381569,34.99201965332031,-0.024000000208616257,0.0,1
1666652576.60063529,476787130,0,3,169394600,2233,11,0.97,42.7308662,-84.4903678,217.27,0.1336001604795456,149.40399169921875,-0.04100000113248825,0.0,1
1666652576.80063319,476987128,0,3,169394800,2233,10,0.97,42.730867599999996,-84.4903669,217.13,0.022360680624842644,153.43495178222656,0.08300000429153442,0.0,1
1666652577.00062609,477187121,0,3,169395000,2233,10,0.97,42.7308691,-84.490366,217.01,0.04123105853796005,194.0362548828125,-0.2720000147819519,0.0,1
1666652577.20066428,477387159,0,3,169395200,2233,9,0.97,42.7308708,-84.4903647,217.11,0.14832733571529388,289.2900390625,-0.055000003427267075,0.0,1
1666652577.40047312,477586968,0,3,169395400,2233,9,0.97,42.7308727,-84.4903633,217.08,0.0434165894985199,345.3236083984375,-0.09600000083446503,0.0,1
1666652577.60043216,477786927,0,3,169395600,2233,10,1.04,42.7308747,-84.4903614,217.14000000000001,0.12000416964292526,89.52253723144531,0.0010000000474974513,0.0,1
1666652577.80052209,477987017,0,3,169395800,2233,10,1.04,42.730876599999995,-84.4903597,217.08,0.09037698805332184,65.13629913330078,0.005000000353902578,0.0,1
1666652578.00053310,478187028,0,3,169396000,2233,10,1.04,42.730878499999996,-84.4903585,217.03,0.10824047774076462,242.4879913330078,-0.04800000041723251,0.0,1
1666652578.20061612,478387111,0,3,169396200,2233,10,1.04,42.7308804,-84.4903574,216.93,0.09265527874231339,251.7606201171875,-0.04500000178813934,0.0,1
1666652578.40056324,478587058,0,3,169396400,2233,10,1.04,42.7308825,-84.4903566,216.84,0.07741447538137436,174.06846618652344,0.003000000026077032,0.0,1
1666652578.60061216,478787107,0,3,169396600,2233,10,1.04,42.7308844,-84.49035549999999,216.8,0.03939543291926384,66.03750610351562,0.15400001406669617,0.0,1
1666652578.80054212,478987037,0,3,169396800,2233,10,1.04,42.7308862,-84.4903542,216.76,0.021095024421811104,354.5596618652344,-0.0430000014603138,0.0,1
1666652579.00070906,479187204,0,3,169397000,2233,10,1.04,42.7308878,-84.4903531,216.79,0.08521150052547455,274.0377197265625,0.05100000277161598,0.0,1
1666652579.20057821,479387073,0,3,169397200,2233,10,1.04,42.7308892,-84.4903521,216.82,0.04704253748059273,272.4366455078125,0.02500000037252903,0.0,1
1666652579.40060019,479587095,0,3,169397400,2233,10,1.04,42.7308904,-84.4903509,216.95000000000002,0.020000001415610313,233.13009643554688,0.12000000476837158,0.0,1
1666652579.60058117,479787076,0,3,169397600,2233,10,1.04,42.7308915,-84.4903499,216.99,0.11000000685453415,233.130126953125,0.06700000166893005,0.0,1
1666652579.80059719,479987092,0,3,169397800,2233,10,1.04,42.7308929,-84.4903491,217.06,0.050447992980480194,39.36931228637695,0.10000000149011612,0.0,1
1666652580.00064516,480187140,0,3,169398000,2233,10,1.04,42.7308944,-84.4903482,217.06,0.14058449864387512,50.194427490234375,0.03400000184774399,0.0,1
1666652580.20058727,480387082,0,3,169398200,2233,10,1.04,42.7308959,-84.4903471,217.03,0.09835141152143478,47.06010818481445,0.09100000560283661,0.0,1
1666652580.40059829,480587093,0,3,169398400,2233,10,1.04,42.730897299999995,-84.4903461,216.98000000000002,0.07294519245624542,326.7456359863281,0.07200000435113907,0.0,1
1666652580.60063815,480787133,0,3,169398600,2233,10,1.04,42.730898599999996,-84.4903452,216.96,0.019646884873509407,345.2564392089844,0.09400000423192978,0.0,1
1666652580.80066824,480987163,0,3,169398800,2233,10,1.04,42.730899699999995,-84.4903444,216.91,0.07494664937257767,211.35708618164062,0.10400000214576721,0.0,1
1666652581.00058627,481187081,0,3,169399000,2233,10,1.04,42.7309008,-84.4903436,216.91,0.00806225836277008,262.875,0.04000000283122063,0.0,1
1666652581.20059013,481387085,0,3,169399200,2233,10,1.04,42.7309018,-84.4903427,216.93,0.08766413480043411,64.31185913085938,0.017000000923871994,0.0,1
1666652581.40061212,481587107,0,3,169399400,2233,10,1.04,42.7309029,-84.49034189999999,216.94,0.13038405776023865,20.65890884399414,-0.0860000029206276,0.0,1
1666652581.60059118,481787086,0,3,169399600,2233,10,1.04,42.730903999999995,-84.490341,216.93,0.0832165852189064,32.735225677490234,-0.03400000184774399,0.0,1
1666652581.80059218,481987087,0,3,169399800,2233,10,1.04,42.730905,-84.4903403,216.91,0.036124784499406815,265.2363586425781,-0.030000001192092896,0.0,1
1666652582.00059628,482187091,0,3,169400000,2233,10,1.04,42.730906,-84.4903396,216.87,0.07655064016580582,70.14478302001953,-0.0010000000474974513,0.0,1
1666652582.20061827,482387113,0,3,169400200,2233,10,1.04,42.730907099999996,-84.49033879999999,216.82,0.08888757228851318,72.99205017089844,-0.0010000000474974513,0.0,1
1666652582.40069818,482587193,0,3,169400400,2233,10,1.04,42.730908199999995,-84.4903379,216.79,0.10761506110429764,33.24706268310547,0.02800000086426735,0.0,1
1666652582.60062909,482787124,0,3,169400600,2233,10,1.04,42.7309092,-84.4903372,216.73000000000002,0.06161980703473091,48.289241790771484,-0.0430000014603138,0.0,1
1666652582.80058908,482987084,0,3,169400800,2233,11,1.04,42.7309099,-84.4903369,216.65,0.07119691371917725,150.55458068847656,0.013000000268220901,0.0,1
1666652583.00060010,483187095,0,3,169401000,2233,11,1.04,42.7309105,-84.49033659999999,216.56,0.14035668969154358,4.085616588592529,-0.029000001028180122,0.0,1
