timestamp,TimeUS,Lat,Lng,Alt,RelHomeAlt,RelOriginAlt
1666652507.36122108,407547716,42.730869399999996,-84.4903695,217.08999633789062,0.007002821192145348,-1.9029971361160278
1666652507.38034415,407566839,42.730869399999996,-84.4903695,217.08999633789062,0.008039107546210289,-1.901960849761963
1666652507.42026329,407606758,42.730869399999996,-84.4903695,217.08999633789062,0.009887566789984703,-1.9001123905181885
1666652507.46086812,407647363,42.730869399999996,-84.4903695,217.09999084472656,0.011029472574591637,-1.8989704847335815
1666652507.46105528,407647550,42.730869399999996,-84.4903695,217.09999084472656,0.011029472574591637,-1.8989704847335815
1666652507.50073814,407687233,42.730869399999996,-84.4903695,217.09999084472656,0.012820592150092125,-1.897179365158081
1666652507.54042125,407726916,42.730869399999996,-84.4903695,217.09999084472656,0.014540066942572594,-1.8954598903656006
1666652507.56084418,407747339,42.730869399999996,-84.4903695,217.09999084472656,0.015272965654730797,-1.8947269916534424
1666652507.58026314,407766758,42.730869399999996,-84.4903695,217.09999084472656,0.016374459490180016,-1.8936254978179932
1666652507.62030721,407806802,42.7308695,-84.4903695,217.09999084472656,0.01778530143201351,-1.8922146558761597
1666652507.66086721,407847362,42.7308695,-84.4903695,217.09999084472656,0.01800011657178402,-1.8919998407363892
1666652507.66099524,407847490,42.7308695,-84.4903695,217.09999084472656,0.01800011657178402,-1.8919998407363892
1666652507.70103025,407887525,42.7308695,-84.4903695,217.09999084472656,0.01904999278485775,-1.8909499645233154
1666652507.74038315,407926878,42.7308695,-84.4903695,217.11000061035156,0.02024339698255062,-1.8897565603256226
1666652507.76080012,407947295,42.7308696,-84.4903695,217.11000061035156,0.02069663070142269,-1.8893033266067505
1666652507.78031921,407966814,42.7308696,-84.4903695,217.11000061035156,0.02159821055829525,-1.888401746749878
1666652507.82030606,408006801,42.7308696,-84.4903695,217.11000061035156,0.022310247644782066,-1.8876897096633911
1666652507.86080909,408047304,42.7308696,-84.49036939999999,217.11000061035156,0.02090238593518734,-1.8890975713729858
1666652507.86094522,408047440,42.7308696,-84.49036939999999,217.11000061035156,0.02090238593518734,-1.8890975713729858
1666652507.90104818,408087543,42.7308696,-84.49036939999999,217.11000061035156,0.020854463800787926,-1.8891454935073853
1666652507.94038820,408126883,42.7308696,-84.49036939999999,217.11000061035156,0.020969143137335777,-1.8890308141708374
1666652507.96080208,408147297,42.7308696,-84.49036939999999,217.11000061035156,0.02077280543744564,-1.8892271518707275
1666652507.98036814,408166863,42.7308696,-84.49036939999999,217.11000061035156,0.02133249305188656,-1.8886674642562866
1666652508.02035117,408206846,42.7308697,-84.49036939999999,217.11000061035156,0.021579613909125328,-1.8884203433990479
1666652508.06101227,408247507,42.7308697,-84.49036939999999,217.11000061035156,0.020985236391425133,-1.889014720916748
1666652508.06117821,408247673,42.7308697,-84.49036939999999,217.11000061035156,0.020985236391425133,-1.889014720916748
1666652508.10094714,408287442,42.7308697,-84.49036939999999,217.11000061035156,0.021475782617926598,-1.8885241746902466
1666652508.14039326,408326888,42.7308697,-84.49036939999999,217.11000061035156,0.022170772776007652,-1.8878291845321655
1666652508.16078210,408347277,42.7308697,-84.49036939999999,217.11000061035156,0.02237962745130062,-1.8876203298568726
1666652508.18039322,408366888,42.7308697,-84.49036939999999,217.11000061035156,0.023081889376044273,-1.886918067932129
1666652508.22042322,408406918,42.7308697,-84.49036939999999,217.11000061035156,0.022672763094305992,-1.8873271942138672
1666652508.26086020,408447355,42.7308697,-84.49036939999999,217.11000061035156,0.021791329607367516,-1.8882086277008057
1666652508.26097417,408447469,42.7308697,-84.49036939999999,217.11000061035156,0.021791329607367516,-1.8882086277008057
1666652508.30085206,408487347,42.7308697,-84.49036939999999,217.11000061035156,0.022042741999030113,-1.887957215309143
1666652508.34031725,408526812,42.7308697,-84.49036939999999,217.11000061035156,0.022537222132086754,-1.8874627351760864
1666652508.36088324,408547378,42.7308697,-84.49036939999999,217.11000061035156,0.022572627291083336,-1.8874273300170898
1666652508.38038826,408566883,42.7308697,-84.49036939999999,217.11000061035156,0.02316366694867611,-1.886836290359497
1666652508.42037606,408606871,42.7308697,-84.49036939999999,217.11000061035156,0.023589840158820152,-1.886410117149353
1666652508.46081710,408647312,42.7308697,-84.49036939999999,217.11000061035156,0.023094763979315758,-1.8869051933288574
1666652508.46092415,408647419,42.7308697,-84.49036939999999,217.11000061035156,0.023094763979315758,-1.8869051933288574
1666652508.50083613,408687331,42.7308698,-84.49036939999999,217.11000061035156,0.023358097299933434,-1.8866418600082397
1666652508.54031825,408726813,42.7308698,-84.4903693,217.11000061035156,0.0233913566917181,-1.886608600616455
1666652508.56084323,408747338,42.7308698,-84.4903693,217.11000061035156,0.023177137598395348,-1.8868228197097778
1666652508.58037329,408766868,42.7308698,-84.4903693,217.11000061035156,0.023680081591010094,-1.886319875717163
1666652508.62042022,408806915,42.7308698,-84.4903693,217.11000061035156,0.02346443198621273,-1.8865355253219604
1666652508.66084313,408847338,42.7308698,-84.4903693,217.11000061035156,0.02119552157819271,-1.8888044357299805
1666652508.66097522,408847470,42.7308698,-84.4903693,217.11000061035156,0.02119552157819271,-1.8888044357299805
1666652508.70091414,408887409,42.7308698,-84.4903693,217.11000061035156,0.020314564928412437,-1.8896853923797607
1666652508.74034619,408926841,42.7308698,-84.4903693,217.09999084472656,0.019638409838080406,-1.8903615474700928
1666652508.76089907,408947394,42.7308698,-84.4903693,217.09999084472656,0.01902245543897152,-1.8909775018692017
1666652508.78034425,408966839,42.7308698,-84.4903693,217.09999084472656,0.019262423738837242,-1.890737533569336
1666652508.82037210,409006867,42.7308698,-84.4903693,217.09999084472656,0.018771877512335777,-1.8912280797958374
1666652508.86089706,409047392,42.7308697,-84.4903693,217.09999084472656,0.017067423090338707,-1.8929325342178345
1666652508.86100006,409047495,42.7308697,-84.4903693,217.09999084472656,0.017067423090338707,-1.8929325342178345
1666652508.90106225,409087557,42.7308697,-84.4903693,217.09999084472656,0.01657961867749691,-1.8934203386306763
1666652508.94038606,409126881,42.7308697,-84.4903693,217.09999084472656,0.01636134646832943,-1.8936386108398438
1666652508.96092224,409147417,42.7308697,-84.4903693,217.09999084472656,0.01604532264173031,-1.8939546346664429
1666652508.98037124,409166866,42.7308697,-84.4903693,217.09999084472656,0.016340365633368492,-1.8936595916748047
1666652509.02033329,409206828,42.7308697,-84.49036939999999,217.09999084472656,0.015889635309576988,-1.8941103219985962
1666652509.06098509,409247480,42.7308696,-84.49036939999999,217.09999084472656,0.013638487085700035,-1.8963614702224731
1666652509.06110620,409247601,42.7308696,-84.49036939999999,217.09999084472656,0.013638487085700035,-1.8963614702224731
1666652509.10106421,409287559,42.7308696,-84.49036939999999,217.09999084472656,0.012634744867682457,-1.8973652124404907
1666652509.14035821,409326853,42.7308695,-84.49036939999999,217.09999084472656,0.011683812364935875,-1.8983161449432373
1666652509.16089821,409347393,42.7308695,-84.49036939999999,217.09999084472656,0.010946264490485191,-1.899053692817688
1666652509.18029022,409366785,42.7308695,-84.49036939999999,217.09999084472656,0.011013498529791832,-1.8989864587783813
1666652509.22029018,409406785,42.7308695,-84.49036939999999,217.08999633789062,0.0095436479896307,-1.9004563093185425
1666652509.26102829,409447523,42.7308695,-84.49036939999999,217.08999633789062,0.005361786112189293,-1.9046381711959839
1666652509.26111627,409447611,42.7308695,-84.49036939999999,217.08999633789062,0.005361786112189293,-1.9046381711959839
1666652509.30096722,409487462,42.7308695,-84.49036939999999,217.08999633789062,0.0030503179877996445,-1.9069496393203735
1666652509.34041905,409526914,42.7308695,-84.49036939999999,217.08999633789062,0.001111617311835289,-1.908888339996338
1666652509.36079717,409547292,42.7308695,-84.49036939999999,217.0800018310547,-0.00018502213060855865,-1.9101849794387817
1666652509.38033128,409566826,42.7308695,-84.4903695,217.0800018310547,-0.0004633758217096329,-1.9104633331298828
1666652509.42028117,409606776,42.7308695,-84.4903695,217.0800018310547,-0.002303609624505043,-1.9123035669326782
1666652509.46086311,409647358,42.7308695,-84.4903695,217.0800018310547,-0.005325088277459145,-1.9153250455856323
1666652509.46100426,409647499,42.7308695,-84.4903695,217.0800018310547,-0.005325088277459145,-1.9153250455856323
1666652509.50101113,409687506,42.7308695,-84.4903695,217.0800018310547,-0.007157931104302406,-1.9171578884124756
1666652509.54039717,409726892,42.730869399999996,-84.4903695,217.0800018310547,-0.009248504415154457,-1.9192484617233276
1666652509.56081510,409747310,42.730869399999996,-84.4903696,217.0699920654297,-0.010612139478325844,-1.920612096786499
1666652509.58035707,409766852,42.730869399999996,-84.4903696,217.0699920654297,-0.0109641645103693,-1.9209641218185425
1666652509.62034726,409806842,42.730869399999996,-84.4903696,217.0699920654297,-0.012161860242486,-1.9221618175506592
1666652509.66087914,409847374,42.730869399999996,-84.4903696,217.0699920654297,-0.013061175122857094,-1.9230611324310303
1666652509.66102624,409847521,42.730869399999996,-84.4903696,217.0699920654297,-0.013061175122857094,-1.9230611324310303
1666652509.70093226,409887427,42.730869399999996,-84.4903696,217.0699920654297,-0.013293156400322914,-1.923293113708496
1666652509.74042416,409926919,42.730869399999996,-84.4903696,217.0699920654297,-0.013485440984368324,-1.9234853982925415
1666652509.76080227,409947297,42.730869399999996,-84.4903696,217.0699920654297,-0.013694653287529945,-1.9236946105957031
1666652509.78041029,409966905,42.730869399999996,-84.4903696,217.0699920654297,-0.013522634282708168,-1.9235225915908813
1666652509.82036328,410006858,42.730869399999996,-84.4903697,217.0699920654297,-0.014145145192742348,-1.9241451025009155
1666652509.86086822,410047363,42.730869399999996,-84.4903697,217.0699920654297,-0.016706714406609535,-1.9267066717147827
1666652509.86097312,410047468,42.730869399999996,-84.4903697,217.0699920654297,-0.016706714406609535,-1.9267066717147827
1666652509.90092826,410087423,42.730869299999995,-84.4903697,217.0699920654297,-0.018244275823235512,-1.9282442331314087
1666652509.94035506,410126850,42.730869299999995,-84.4903697,217.0699920654297,-0.019845733419060707,-1.9298456907272339
1666652509.96085906,410147354,42.730869299999995,-84.4903697,217.05999755859375,-0.02090204693377018,-1.9309020042419434
1666652509.98048115,410166976,42.730869299999995,-84.4903697,217.05999755859375,-0.021176228299736977,-1.9311761856079102
1666652510.02041721,410206912,42.730869299999995,-84.4903698,217.05999755859375,-0.022604594007134438,-1.9326045513153076
1666652510.06132507,410247820,42.7308692,-84.49036989999999,217.05999755859375,-0.024908432736992836,-1.934908390045166
1666652510.06142521,410247920,42.7308692,-84.49036989999999,217.05999755859375,-0.024908432736992836,-1.934908390045166
1666652510.10082912,410287324,42.7308692,-84.49036989999999,217.05999755859375,-0.02616322971880436,-1.9361631870269775
1666652510.14027429,410326769,42.7308692,-84.49036989999999,217.05999755859375,-0.02728785015642643,-1.9372878074645996
1666652510.16088223,410347377,42.7308692,-84.49036989999999,217.05999755859375,-0.028018483892083168,-1.9380184412002563
1666652510.18035913,410366854,42.7308692,-84.49036989999999,217.05999755859375,-0.028184065595269203,-1.9381840229034424
1666652510.22044110,410406936,42.7308692,-84.49036989999999,217.05999755859375,-0.028722891584038734,-1.938722848892212
1666652510.26090717,410447402,42.7308692,-84.49036989999999,217.05999755859375,-0.028910765424370766,-1.938910722732544
1666652510.26103306,410447528,42.7308692,-84.49036989999999,217.05999755859375,-0.028910765424370766,-1.938910722732544
1666652510.30089808,410487393,42.7308691,-84.49036989999999,217.05999755859375,-0.028887400403618813,-1.938887357711792
1666652510.34028006,410526775,42.7308691,-84.49036989999999,217.05999755859375,-0.02898920513689518,-1.9389891624450684
1666652510.36094117,410547436,42.7308691,-84.49036989999999,217.05999755859375,-0.02909172512590885,-1.939091682434082
1666652510.38029027,410566785,42.7308691,-84.49036989999999,217.05999755859375,-0.02896965481340885,-1.938969612121582
1666652510.42049026,410606985,42.730869,-84.49036989999999,217.05999755859375,-0.029238710179924965,-1.9392386674880981
1666652510.46092224,410647417,42.730869,-84.49036989999999,217.04998779296875,-0.03053797222673893,-1.940537929534912
1666652510.46104622,410647541,42.730869,-84.49036989999999,217.04998779296875,-0.03053797222673893,-1.940537929534912
1666652510.50093412,410687429,42.730869,-84.49036989999999,217.04998779296875,-0.031295426189899445,-1.9412953853607178
1666652510.54034615,410726841,42.7308689,-84.49036989999999,217.04998779296875,-0.03207731992006302,-1.9420772790908813
1666652510.56092906,410747424,42.7308689,-84.49036989999999,217.04998779296875,-0.032607682049274445,-1.9426076412200928
1666652510.58042812,410766923,42.7308689,-84.49036989999999,217.04998779296875,-0.032720573246479034,-1.9427205324172974
1666652510.62028027,410806775,42.7308689,-84.49036989999999,217.04998779296875,-0.03337455540895462,-1.943374514579773
1666652510.66085815,410847353,42.7308689,-84.49036989999999,217.04998779296875,-0.034104473888874054,-1.9441044330596924
1666652510.66099215,410847487,42.7308689,-84.49036989999999,217.04998779296875,-0.034104473888874054,-1.9441044330596924
1666652510.70095229,410887447,42.730868799999996,-84.49036989999999,217.04998779296875,-0.03453756123781204,-1.9445375204086304
1666652510.74043918,410926934,42.730868799999996,-84.49036989999999,217.04998779296875,-0.035123951733112335,-1.9451239109039307
1666652510.76090312,410947398,42.730868799999996,-84.49036989999999,217.04998779296875,-0.03549671918153763,-1.945496678352356
1666652510.78037524,410966870,42.730868799999996,-84.49036989999999,217.04998779296875,-0.0355689600110054,-1.9455689191818237
1666652510.82027316,411006768,42.730868799999996,-84.49036989999999,217.04998779296875,-0.03621590882539749,-1.9462158679962158
1666652510.86076427,411047259,42.730868799999996,-84.49036989999999,217.04998779296875,-0.037805087864398956,-1.9478050470352173
1666652510.86091208,411047407,42.730868799999996,-84.49036989999999,217.04998779296875,-0.037805087864398956,-1.9478050470352173
1666652510.90100718,411087502,42.730868699999995,-84.49036989999999,217.04998779296875,-0.038721807301044464,-1.9487217664718628
1666652510.94042325,411126918,42.730868699999995,-84.49036989999999,217.04998779296875,-0.03961504250764847,-1.9496150016784668
1666652510.96095514,411147450,42.730868699999995,-84.49036989999999,217.0399932861328,-0.04015041142702103,-1.9501503705978394
1666652510.98034406,411166839,42.730868699999995,-84.49036989999999,217.0399932861328,-0.04030228406190872,-1.950302243232727
1666652511.02025127,411206746,42.730868699999995,-84.49037,217.0399932861328,-0.040896542370319366,-1.9508965015411377
1666652511.06126714,411247762,42.7308686,-84.49037009999999,217.0399932861328,-0.04149950295686722,-1.9514994621276855
1666652511.06136823,411247863,42.7308686,-84.49037009999999,217.0399932861328,-0.04149950295686722,-1.9514994621276855
1666652511.10108423,411287579,42.7308686,-84.49037009999999,217.0399932861328,-0.0417487695813179,-1.9517487287521362
1666652511.14049411,411326989,42.7308686,-84.49037009999999,217.0399932861328,-0.04196620732545853,-1.9519661664962769
1666652511.16086507,411347360,42.7308686,-84.49037009999999,217.0399932861328,-0.04211605340242386,-1.9521160125732422
1666652511.18034410,411366839,42.7308686,-84.49037009999999,217.0399932861328,-0.042119868099689484,-1.9521198272705078
1666652511.22033310,411406828,42.7308686,-84.4903702,217.0399932861328,-0.04175020009279251,-1.9517501592636108
1666652511.26085019,411447345,42.7308685,-84.4903702,217.0399932861328,-0.04032517224550247,-1.9503251314163208
1666652511.26096106,411447456,42.7308685,-84.4903702,217.0399932861328,-0.04032517224550247,-1.9503251314163208
1666652511.30093622,411487431,42.7308685,-84.4903702,217.04998779296875,-0.03925836831331253,-1.9492583274841309
1666652511.34043121,411526926,42.7308685,-84.4903702,217.04998779296875,-0.03817034512758255,-1.9481703042984009
1666652511.36082411,411547319,42.7308685,-84.4903702,217.04998779296875,-0.03752065449953079,-1.9475206136703491
1666652511.38039207,411566887,42.7308685,-84.4903702,217.04998779296875,-0.03714335709810257,-1.947143316268921
1666652511.42043328,411606928,42.7308684,-84.4903702,217.04998779296875,-0.03591681271791458,-1.945916771888733
1666652511.46087122,411647366,42.7308684,-84.4903702,217.04998779296875,-0.03416920453310013,-1.9441691637039185
1666652511.46098113,411647476,42.7308684,-84.4903702,217.04998779296875,-0.03416920453310013,-1.9441691637039185
1666652511.50091910,411687414,42.7308684,-84.4903702,217.04998779296875,-0.03287244588136673,-1.942872405052185
1666652511.54026914,411726764,42.7308683,-84.4903702,217.04998779296875,-0.03166211396455765,-1.941662073135376
1666652511.56081319,411747308,42.7308683,-84.4903703,217.04998779296875,-0.0309149120002985,-1.9409148693084717
1666652511.58045506,411766950,42.7308683,-84.4903703,217.04998779296875,-0.03048444725573063,-1.9404844045639038
1666652511.62040520,411806900,42.7308683,-84.4903703,217.05999755859375,-0.02959371544420719,-1.9395936727523804
1666652511.66084218,411847337,42.730868199999996,-84.49037039999999,217.05999755859375,-0.028898248448967934,-1.9388982057571411
1666652511.66094327,411847438,42.730868199999996,-84.49037039999999,217.05999755859375,-0.028898248448967934,-1.9388982057571411
1666652511.70090222,411887397,42.730868199999996,-84.49037039999999,217.05999755859375,-0.028207549825310707,-1.9382075071334839
1666652511.74030828,411926803,42.730868199999996,-84.49037039999999,217.05999755859375,-0.02731228806078434,-1.9373122453689575
1666652511.76083422,411947329,42.730868099999995,-84.49037039999999,217.05999755859375,-0.02676130272448063,-1.9367612600326538
1666652511.78036308,411966858,42.730868099999995,-84.4903705,217.05999755859375,-0.02643931843340397,-1.9364392757415771
1666652511.82039118,412006886,42.730868099999995,-84.4903705,217.05999755859375,-0.02577115036547184,-1.935771107673645
1666652511.86092114,412047416,42.730868099999995,-84.49037059999999,217.05999755859375,-0.025013336911797523,-1.9350132942199707
1666652511.86103511,412047530,42.730868099999995,-84.49037059999999,217.05999755859375,-0.025013336911797523,-1.9350132942199707
1666652511.90091228,412087407,42.730868,-84.49037059999999,217.05999755859375,-0.02454114891588688,-1.93454110622406
1666652511.94029212,412126787,42.730868,-84.4903707,217.05999755859375,-0.024260172620415688,-1.9342601299285889
1666652511.96099329,412147488,42.730868,-84.4903707,217.05999755859375,-0.024110445752739906,-1.934110403060913
1666652511.98038411,412166879,42.730868,-84.4903707,217.05999755859375,-0.0239719245582819,-1.933971881866455
1666652512.02037311,412206868,42.7308679,-84.4903707,217.05999755859375,-0.023401746526360512,-1.9334017038345337
1666652512.06112528,412247620,42.7308678,-84.490371,217.05999755859375,-0.021868834272027016,-1.9318687915802002
1666652512.06122613,412247721,42.7308678,-84.490371,217.05999755859375,-0.021868834272027016,-1.9318687915802002
1666652512.10091329,412287408,42.7308678,-84.490371,217.05999755859375,-0.02086986042559147,-1.9308698177337646
1666652512.14034319,412326838,42.7308678,-84.49037109999999,217.05999755859375,-0.020129213109612465,-1.9301291704177856
1666652512.16085720,412347352,42.7308678,-84.49037109999999,217.0699920654297,-0.01971186138689518,-1.9297118186950684
1666652512.18032908,412366824,42.7308677,-84.4903712,217.0699920654297,-0.019445309415459633,-1.9294452667236328
1666652512.22042012,412406915,42.7308677,-84.4903712,217.0699920654297,-0.018811950460076332,-1.9288119077682495
1666652512.26095319,412447448,42.730867599999996,-84.4903712,217.0699920654297,-0.017687568441033363,-1.9276875257492065
1666652512.26105118,412447546,42.730867599999996,-84.4903712,217.0699920654297,-0.017687568441033363,-1.9276875257492065
1666652512.30093813,412487433,42.730867599999996,-84.49037129999999,217.0699920654297,-0.01693309284746647,-1.9269330501556396
1666652512.34037924,412526874,42.730867499999995,-84.4903714,217.0699920654297,-0.0163883063942194,-1.9263882637023926
1666652512.36080217,412547297,42.730867499999995,-84.4903714,217.0699920654297,-0.01607097126543522,-1.9260709285736084
1666652512.38034821,412566843,42.730867499999995,-84.4903714,217.0699920654297,-0.015861401334404945,-1.9258613586425781
1666652512.42037916,412606874,42.730867499999995,-84.4903715,217.0699920654297,-0.01503206230700016,-1.9250320196151733
1666652512.46082115,412647316,42.7308674,-84.4903716,217.0699920654297,-0.013279566541314125,-1.9232795238494873
1666652512.46095014,412647445,42.7308674,-84.4903716,217.0699920654297,-0.013279566541314125,-1.9232795238494873
1666652512.50104713,412687542,42.7308674,-84.4903717,217.0699920654297,-0.01205957867205143,-1.9220595359802246
1666652512.54040313,412726898,42.7308673,-84.49037179999999,217.0699920654297,-0.010945329442620277,-1.9209452867507935
1666652512.56081915,412747314,42.7308673,-84.49037179999999,217.0699920654297,-0.010275730863213539,-1.9202756881713867
1666652512.58042121,412766916,42.7308673,-84.4903719,217.0800018310547,-0.009898552671074867,-1.919898509979248
1666652512.62028527,412806780,42.7308672,-84.4903719,217.0800018310547,-0.008765468373894691,-1.9187654256820679
1666652512.66075110,412847246,42.7308672,-84.490372,217.0800018310547,-0.007594117894768715,-1.917594075202942
1666652512.66085911,412847354,42.7308672,-84.490372,217.0800018310547,-0.007594117894768715,-1.917594075202942
1666652512.70092320,412887418,42.7308671,-84.4903721,217.0800018310547,-0.006904492154717445,-1.9169044494628906
1666652512.74045825,412926953,42.7308671,-84.4903722,217.0800018310547,-0.006527671590447426,-1.9165276288986206
1666652512.76089811,412947393,42.7308671,-84.4903722,217.0800018310547,-0.006336340680718422,-1.9163362979888916
1666652512.78035212,412966847,42.7308671,-84.49037229999999,217.0800018310547,-0.00618196465075016,-1.9161819219589233
1666652512.82033420,413006829,42.730866999999996,-84.49037229999999,217.0800018310547,-0.005927572026848793,-1.915927529335022
1666652512.86079526,413047290,42.730866999999996,-84.4903724,217.0800018310547,-0.005462536588311195,-1.9154624938964844
1666652512.86089706,413047392,42.730866999999996,-84.4903724,217.0800018310547,-0.005462536588311195,-1.9154624938964844
1666652512.90097809,413087473,42.730866899999995,-84.49037249999999,217.0800018310547,-0.005133757367730141,-1.9151337146759033
1666652512.94048119,413126976,42.730866899999995,-84.4903726,217.0800018310547,-0.004939684644341469,-1.9149396419525146
1666652512.96085215,413147347,42.7308668,-84.4903726,217.0800018310547,-0.004861244931817055,-1.9148612022399902
1666652512.98044229,413166937,42.7308668,-84.4903727,217.0800018310547,-0.004743585363030434,-1.9147435426712036
1666652513.02033710,413206832,42.7308668,-84.4903727,217.0800018310547,-0.004282483831048012,-1.9142824411392212
1666652513.06100726,413247502,42.7308667,-84.4903729,217.0800018310547,-0.0031665656715631485,-1.9131665229797363
1666652513.06118417,413247679,42.7308667,-84.4903729,217.0800018310547,-0.0031665656715631485,-1.9131665229797363
1666652513.10092926,413287424,42.7308667,-84.4903729,217.0800018310547,-0.0023604724556207657,-1.912360429763794
1666652513.14030123,413326796,42.7308666,-84.49037299999999,217.0800018310547,-0.0016790721565485,-1.9116790294647217
1666652513.16084814,413347343,42.7308666,-84.49037299999999,217.0800018310547,-0.0012760255485773087,-1.9112759828567505
1666652513.18038416,413366879,42.7308666,-84.49037299999999,217.0800018310547,-0.0010156724601984024,-1.9110156297683716
1666652513.22045517,413406950,42.7308666,-84.4903731,217.0800018310547,-0.0006859395653009415,-1.9106858968734741
1666652513.26091123,413447406,42.7308665,-84.4903732,217.0800018310547,-0.000590810552239418,-1.9105907678604126
1666652513.26098514,413447480,42.7308665,-84.4903732,217.0800018310547,-0.000590810552239418,-1.9105907678604126
1666652513.30097723,413487472,42.7308665,-84.4903733,217.0800018310547,-0.00032115913927555084,-1.9103211164474487
1666652513.34025908,413526754,42.7308665,-84.4903733,217.08999633789062,0.00019144080579280853,-1.9098085165023804
1666652513.36085415,413547349,42.7308665,-84.4903734,217.08999633789062,0.000496378168463707,-1.9095035791397095
1666652513.38032413,413566819,42.7308664,-84.4903734,217.08999633789062,0.0006819870322942734,-1.909317970275879
1666652513.42043328,413606928,42.7308664,-84.49037349999999,217.08999633789062,0.0010676290839910507,-1.9089323282241821
1666652513.46094227,413647437,42.7308664,-84.4903736,217.08999633789062,0.0010744240134954453,-1.9089255332946777
1666652513.46106219,413647557,42.7308664,-84.4903736,217.08999633789062,0.0010744240134954453,-1.9089255332946777
1666652513.50097108,413687466,42.730866299999995,-84.4903736,217.08999633789062,0.0012545492500066757,-1.9087454080581665
1666652513.54029512,413726790,42.730866299999995,-84.49037369999999,217.08999633789062,0.0017253067344427109,-1.9082746505737305
1666652513.56091928,413747414,42.730866299999995,-84.49037369999999,217.08999633789062,0.0019820835441350937,-1.908017873764038
1666652513.58034825,413766843,42.730866299999995,-84.4903738,217.08999633789062,0.002128472551703453,-1.9078714847564697
1666652513.62037420,413806869,42.7308662,-84.4903738,217.08999633789062,0.0027217771857976913,-1.9072781801223755
1666652513.66096616,413847461,42.7308662,-84.4903739,217.08999633789062,0.003969302400946617,-1.9060306549072266
1666652513.66109228,413847587,42.7308662,-84.4903739,217.08999633789062,0.003969302400946617,-1.9060306549072266
1666652513.70099425,413887489,42.7308661,-84.490374,217.08999633789062,0.004899969324469566,-1.9050999879837036
1666652513.74033308,413926828,42.7308661,-84.4903741,217.08999633789062,0.005879631265997887,-1.9041203260421753
1666652513.76087117,413947366,42.7308661,-84.4903741,217.08999633789062,0.0064386036247015,-1.9035613536834717
1666652513.78035927,413966854,42.730866,-84.49037419999999,217.08999633789062,0.0067467596381902695,-1.903253197669983
1666652513.82031417,414006809,42.730866,-84.49037419999999,217.08999633789062,0.008504381403326988,-1.9014955759048462
1666652513.86089826,414047393,42.730866,-84.4903743,217.09999084472656,0.012400379404425621,-1.8975995779037476
1666652513.86103225,414047527,42.730866,-84.4903743,217.09999084472656,0.012400379404425621,-1.8975995779037476
1666652513.90098119,414087476,42.7308659,-84.4903744,217.09999084472656,0.015170803293585777,-1.8948291540145874
1666652513.94043708,414126932,42.7308659,-84.4903745,217.09999084472656,0.01788901351392269,-1.8921109437942505
1666652513.96086025,414147355,42.7308659,-84.4903745,217.09999084472656,0.01951860450208187,-1.8904813528060913
1666652513.98037219,414166867,42.7308659,-84.4903746,217.11000061035156,0.02035759948194027,-1.889642357826233
1666652514.02038407,414206879,42.7308658,-84.4903746,217.11000061035156,0.022977342829108238,-1.887022614479065
1666652514.06096411,414247459,42.7308658,-84.49037469999999,217.11000061035156,0.026535501703619957,-1.8834644556045532
1666652514.06110024,414247595,42.7308658,-84.49037469999999,217.11000061035156,0.026535501703619957,-1.8834644556045532
1666652514.10102606,414287521,42.730865699999995,-84.4903748,217.11000061035156,0.02908586524426937,-1.8809140920639038
1666652514.14040923,414326904,42.730865699999995,-84.49037489999999,217.1199951171875,0.031665556132793427,-1.878334403038025
1666652514.16085124,414347346,42.730865699999995,-84.49037489999999,217.1199951171875,0.0332028791308403,-1.876797080039978
1666652514.18036318,414366858,42.730865699999995,-84.49037489999999,217.1199951171875,0.03399764746427536,-1.876002311706543
1666652514.22035527,414406850,42.7308656,-84.490375,217.1199951171875,0.03661870211362839,-1.87338125705719
1666652514.26082516,414447320,42.7308656,-84.490375,217.1199951171875,0.03997551649808884,-1.8700244426727295
1666652514.26096416,414447459,42.7308656,-84.490375,217.1199951171875,0.03997551649808884,-1.8700244426727295
1666652514.30093813,414487433,42.7308655,-84.4903751,217.12998962402344,0.04237972944974899,-1.8676202297210693
1666652514.34041309,414526908,42.7308655,-84.4903751,217.12998962402344,0.044574491679668427,-1.86542546749115
1666652514.36090612,414547401,42.7308655,-84.4903751,217.12998962402344,0.045872561633586884,-1.8641273975372314
1666652514.38044620,414566941,42.7308654,-84.4903751,217.12998962402344,0.046567074954509735,-1.8634328842163086
1666652514.42039728,414606892,42.7308654,-84.4903752,217.12998962402344,0.04858791083097458,-1.8614120483398438
1666652514.46081114,414647306,42.7308653,-84.4903752,217.13999938964844,0.05003785341978073,-1.8599621057510376
1666652514.46092510,414647420,42.7308653,-84.4903752,217.13999938964844,0.05003785341978073,-1.8599621057510376
1666652514.50099826,414687493,42.7308653,-84.4903752,217.13999938964844,0.05141686648130417,-1.8585830926895142
1666652514.54037714,414726872,42.7308653,-84.4903753,217.13999938964844,0.0533217117190361,-1.8566782474517822
1666652514.56087828,414747373,42.7308653,-84.4903753,217.13999938964844,0.0543668195605278,-1.8556331396102905
1666652514.58041906,414766914,42.7308652,-84.4903753,217.13999938964844,0.05497895926237106,-1.8550209999084473
1666652514.62033510,414806830,42.7308652,-84.4903753,217.13999938964844,0.057614319026470184,-1.8523856401443481
1666652514.66088724,414847382,42.730865099999995,-84.49037539999999,217.14999389648438,0.061043016612529755,-1.8489569425582886
1666652514.66099024,414847485,42.730865099999995,-84.49037539999999,217.14999389648438,0.061043016612529755,-1.8489569425582886
1666652514.70095825,414887453,42.730865099999995,-84.49037539999999,217.14999389648438,0.06364821642637253,-1.8463517427444458
1666652514.74040914,414926904,42.730865099999995,-84.4903755,217.14999389648438,0.06638192385435104,-1.8436180353164673
1666652514.76088214,414947377,42.730865,-84.4903755,217.14999389648438,0.06796371191740036,-1.842036247253418
1666652514.78042507,414966920,42.730865,-84.4903755,217.14999389648438,0.06883608549833298,-1.8411638736724854
1666652514.82036829,415006863,42.730865,-84.4903755,217.1599884033203,0.0717918798327446,-1.8382080793380737
1666652514.86085820,415047353,42.7308649,-84.4903756,217.1599884033203,0.07527314871549606,-1.8347268104553223
1666652514.86096025,415047455,42.7308649,-84.4903756,217.1599884033203,0.07527314871549606,-1.8347268104553223
1666652514.90094829,415087443,42.7308649,-84.4903757,217.1599884033203,0.07814633101224899,-1.8318536281585693
1666652514.94036722,415126862,42.7308648,-84.4903757,217.1699981689453,0.08165764063596725,-1.828342318534851
1666652514.96089506,415147390,42.7308648,-84.4903758,217.1699981689453,0.08369206637144089,-1.8263078927993774
1666652514.98034811,415166843,42.7308648,-84.4903758,217.1699981689453,0.08476518839597702,-1.8252347707748413
1666652515.02040720,415206902,42.7308648,-84.49037589999999,217.1699981689453,0.08784138411283493,-1.8221585750579834
1666652515.06107521,415247570,42.7308647,-84.49037589999999,217.17999267578125,0.09069954603910446,-1.8193004131317139
1666652515.06117725,415247672,42.7308647,-84.49037589999999,217.17999267578125,0.09069954603910446,-1.8193004131317139
1666652515.10094929,415287444,42.7308647,-84.490376,217.17999267578125,0.0932835265994072,-1.8167164325714111
1666652515.14033413,415326829,42.7308646,-84.49037609999999,217.17999267578125,0.09662031382322311,-1.8133796453475952
1666652515.16083813,415347333,42.7308646,-84.49037609999999,217.17999267578125,0.09855901449918747,-1.8114409446716309
1666652515.18031025,415366805,42.7308646,-84.49037609999999,217.17999267578125,0.09958790987730026,-1.810412049293518
1666652515.22037625,415406871,42.7308646,-84.4903762,217.19000244140625,0.1032627746462822,-1.8067371845245361
1666652515.26088619,415447381,42.730864499999996,-84.4903763,217.19000244140625,0.10776590555906296,-1.8022340536117554
1666652515.26099014,415447485,42.730864499999996,-84.4903763,217.19000244140625,0.10776590555906296,-1.8022340536117554
1666652515.30098414,415487479,42.730864499999996,-84.4903763,217.1999969482422,0.1114576980471611,-1.7985422611236572
1666652515.34037018,415526865,42.7308644,-84.4903764,217.1999969482422,0.11603306978940964,-1.7939668893814087
1666652515.36091614,415547411,42.7308644,-84.4903764,217.1999969482422,0.11871480196714401,-1.7912851572036743
1666652515.38036227,415566857,42.7308644,-84.4903765,217.20999145507812,0.12009381502866745,-1.7899061441421509
1666652515.42039323,415606888,42.7308643,-84.4903765,217.20999145507812,0.12566791474819183,-1.784332036972046
1666652515.46091223,415647407,42.7308643,-84.49037659999999,217.22000122070312,0.13337813317775726,-1.7766218185424805
1666652515.46105313,415647548,42.7308643,-84.49037659999999,217.22000122070312,0.13337813317775726,-1.7766218185424805
1666652515.50099015,415687485,42.7308643,-84.4903767,217.22000122070312,0.13932310044765472,-1.770676851272583
1666652515.54065418,415727149,42.7308642,-84.49037679999999,217.22999572753906,0.1461263746023178,-1.76387357711792
1666652515.56080508,415747300,42.7308642,-84.49037679999999,217.239990234375,0.15012238919734955,-1.7598775625228882
1666652515.58044314,415766938,42.7308642,-84.49037679999999,217.239990234375,0.15219233930110931,-1.7578076124191284
1666652515.62037516,415806870,42.7308642,-84.4903769,217.25,0.16066084802150726,-1.7493391036987305
1666652515.66082907,415847324,42.7308641,-84.490377,217.25999450683594,0.17367468774318695,-1.7363252639770508
1666652515.66096210,415847457,42.7308641,-84.490377,217.25999450683594,0.17367468774318695,-1.7363252639770508
1666652515.70090318,415887398,42.7308641,-84.490377,217.26998901367188,0.1837395280599594,-1.7262604236602783
1666652515.74043918,415926934,42.7308641,-84.49037709999999,217.27999877929688,0.19505642354488373,-1.714943528175354
1666652515.76083612,415947331,42.7308641,-84.49037709999999,217.2899932861328,0.20192669332027435,-1.7080732583999634
1666652515.78044629,415966941,42.7308641,-84.4903772,217.2899932861328,0.20568440854549408,-1.7043155431747437
1666652515.82038021,416006875,42.730864,-84.4903772,217.29998779296875,0.21826396882534027,-1.6917359828948975
1666652515.86082315,416047318,42.730864,-84.49037729999999,217.3199920654297,0.23481594026088715,-1.6751840114593506
1666652515.86090612,416047401,42.730864,-84.49037729999999,217.3199920654297,0.23481594026088715,-1.6751840114593506
1666652515.90094709,416087442,42.730864,-84.4903774,217.3300018310547,0.2492114156484604,-1.6607885360717773
1666652515.94046021,416126955,42.730864,-84.4903774,217.34999084472656,0.266363263130188,-1.643636703491211
1666652515.96085906,416147354,42.730864,-84.4903775,217.36000061035156,0.2764538526535034,-1.6335461139678955
1666652515.98043323,416166928,42.730863899999996,-84.4903775,217.3699951171875,0.2832432985305786,-1.6267566680908203
1666652516.02028918,416206784,42.730863899999996,-84.4903775,217.38999938964844,0.3026149272918701,-1.6073850393295288
1666652516.06090426,416247399,42.730864,-84.4903776,217.4099884033203,0.32599592208862305,-1.5840040445327759
1666652516.06105614,416247551,42.730864,-84.4903776,217.4099884033203,0.32599592208862305,-1.5840040445327759
1666652516.10095310,416287448,42.730864,-84.4903776,217.42999267578125,0.34648895263671875,-1.5635110139846802
1666652516.14037228,416326867,42.730864,-84.4903777,217.4499969482422,0.36848628520965576,-1.5415136814117432
1666652516.16088820,416347383,42.730864,-84.4903777,217.47000122070312,0.3808584213256836,-1.5291415452957153
1666652516.18046522,416366960,42.730864,-84.4903777,217.47999572753906,0.3901132345199585,-1.5198867321014404
1666652516.22042608,416406921,42.730864,-84.4903777,217.5,0.4139382839202881,-1.4960616827011108
1666652516.26081228,416447307,42.7308641,-84.4903777,217.52999877929688,0.4419975280761719,-1.468002438545227
1666652516.26091409,416447409,42.7308641,-84.4903777,217.52999877929688,0.4419975280761719,-1.468002438545227
1666652516.30089617,416487391,42.7308641,-84.4903777,217.54998779296875,0.4664947986602783,-1.4435051679611206
1666652516.34036517,416526860,42.7308641,-84.4903777,217.5800018310547,0.49281108379364014,-1.4171888828277588
1666652516.36091709,416547412,42.7308642,-84.4903777,217.58999633789062,0.5068548917770386,-1.4031450748443604
1666652516.38036108,416566856,42.7308642,-84.49037779999999,217.59999084472656,0.5183107852935791,-1.3916891813278198
1666652516.42041111,416606906,42.7308642,-84.49037779999999,217.62998962402344,0.5495644807815552,-1.3604354858398438
1666652516.46099019,416647485,42.7308642,-84.4903777,217.6699981689453,0.585985541343689,-1.32401442527771
1666652516.46107221,416647567,42.7308642,-84.4903777,217.6699981689453,0.585985541343689,-1.32401442527771
1666652516.50131726,416687812,42.7308642,-84.4903777,217.70999145507812,0.6203995943069458,-1.2896003723144531
1666652516.54062724,416727122,42.7308642,-84.4903777,217.75,0.6604208946228027,-1.2495790719985962
1666652516.56092429,416747419,42.7308642,-84.4903777,217.76998901367188,0.6825650930404663,-1.2274348735809326
1666652516.58036709,416766862,42.7308642,-84.4903777,217.77999877929688,0.6982510089874268,-1.2117489576339722
1666652516.62043524,416806930,42.7308642,-84.4903777,217.8300018310547,0.7411504983901978,-1.1688494682312012
1666652516.66091824,416847413,42.7308643,-84.4903777,217.87998962402344,0.7900403738021851,-1.1199595928192139
1666652516.66105008,416847545,42.7308643,-84.4903777,217.87998962402344,0.7900403738021851,-1.1199595928192139
1666652516.70096922,416887464,42.7308643,-84.4903777,217.9199981689453,0.8323168754577637,-1.0776830911636353
1666652516.74033213,416926827,42.7308643,-84.4903777,217.95999145507812,0.8783060312271118,-1.031693935394287
1666652516.76093411,416947429,42.7308643,-84.4903777,217.989990234375,0.9037333726882935,-1.0062665939331055
1666652516.78034210,416966837,42.7308644,-84.4903777,218.00999450683594,0.9205793738365173,-0.9894205927848816
1666652516.82034206,417006837,42.7308644,-84.4903777,218.04998779296875,0.9654293656349182,-0.9445706009864807
1666652516.86088324,417047378,42.7308644,-84.49037779999999,218.09999084472656,1.0138667821884155,-0.8961331248283386
1666652516.86104107,417047536,42.7308644,-84.49037779999999,218.09999084472656,1.0138667821884155,-0.8961331248283386
1666652516.90107608,417087571,42.7308644,-84.49037779999999,218.13999938964844,1.0522674322128296,-0.8577325344085693
1666652516.94039512,417126890,42.730864499999996,-84.49037779999999,218.1699981689453,1.0892149209976196,-0.8207850456237793
1666652516.96088123,417147376,42.730864499999996,-84.49037779999999,218.19000244140625,1.1093884706497192,-0.8006114959716797
1666652516.98032618,417166821,42.730864499999996,-84.49037779999999,218.20999145507812,1.123077154159546,-0.786922812461853
1666652517.02036214,417206857,42.730864499999996,-84.49037779999999,218.239990234375,1.153283715248108,-0.756716251373291
1666652517.06096125,417247456,42.7308646,-84.4903779,218.26998901367188,1.1820712089538574,-0.7279286980628967
1666652517.06109023,417247585,42.7308646,-84.4903779,218.26998901367188,1.1820712089538574,-0.7279286980628967
1666652517.10099816,417287493,42.7308646,-84.49037779999999,218.2899932861328,1.2046452760696411,-0.7053546905517578
1666652517.14040923,417326904,42.7308647,-84.49037779999999,218.30999755859375,1.225217342376709,-0.6847825646400452
1666652517.16080713,417347302,42.7308647,-84.49037779999999,218.3199920654297,1.2359763383865356,-0.6740236282348633
1666652517.18034410,417366839,42.7308648,-84.4903777,218.3300018310547,1.243842601776123,-0.6661573052406311
1666652517.22033620,417406831,42.7308648,-84.4903777,218.33999633789062,1.2573294639587402,-0.6526704430580139
1666652517.26085114,417447346,42.7308648,-84.4903777,218.34999084472656,1.2661024332046509,-0.643897533416748
1666652517.26098728,417447482,42.7308648,-84.4903777,218.34999084472656,1.2661024332046509,-0.643897533416748
1666652517.30102706,417487522,42.7308649,-84.4903776,218.36000061035156,1.2722442150115967,-0.6377556920051575
1666652517.34039307,417526888,42.7308649,-84.4903776,218.36000061035156,1.2732691764831543,-0.6367307901382446
1666652517.36084509,417547340,42.7308649,-84.4903776,218.36000061035156,1.2728052139282227,-0.6371946930885315
1666652517.38038826,417566883,42.730865,-84.4903776,218.36000061035156,1.2745425701141357,-0.6354573965072632
1666652517.42037225,417606867,42.730865,-84.4903775,218.36000061035156,1.2699933052062988,-0.6400066018104553
1666652517.46085811,417647353,42.730865,-84.4903775,218.33999633789062,1.256886601448059,-0.6531133055686951
1666652517.46104527,417647540,42.730865,-84.4903775,218.33999633789062,1.256886601448059,-0.6531133055686951
1666652517.50094509,417687440,42.730865,-84.4903775,218.3300018310547,1.2484296560287476,-0.6615703105926514
1666652517.54058027,417727075,42.730865,-84.4903775,218.3199920654297,1.2379155158996582,-0.672084391117096
1666652517.56079125,417747286,42.730865,-84.4903775,218.3199920654297,1.230926513671875,-0.6790734529495239
1666652517.58047819,417766973,42.730865099999995,-84.4903775,218.30999755859375,1.2297431230545044,-0.6802568435668945
1666652517.62044907,417806944,42.730865099999995,-84.4903775,218.29998779296875,1.219314694404602,-0.6906852722167969
1666652517.66082907,417847324,42.730865099999995,-84.4903775,218.2899932861328,1.2020385265350342,-0.70796138048172
1666652517.66093707,417847432,42.730865099999995,-84.4903775,218.2899932861328,1.2020385265350342,-0.70796138048172
1666652517.70086718,417887362,42.730865099999995,-84.4903775,218.27999877929688,1.193153977394104,-0.7168459892272949
1666652517.74037719,417926872,42.730865099999995,-84.4903776,218.26998901367188,1.1849942207336426,-0.7250056862831116
1666652517.76089025,417947385,42.730865099999995,-84.4903776,218.25999450683594,1.179233431816101,-0.7307665348052979
1666652517.78046012,417966955,42.730865099999995,-84.4903776,218.25999450683594,1.1799139976501465,-0.7300859689712524
1666652517.82034826,418006843,42.730865099999995,-84.4903776,218.25999450683594,1.1762875318527222,-0.7337124347686768
1666652517.86082220,418047317,42.730865,-84.4903777,218.25,1.1695600748062134,-0.7404398918151855
1666652517.86092520,418047420,42.730865,-84.4903777,218.25,1.1695600748062134,-0.7404398918151855
1666652517.90095615,418087451,42.730865,-84.49037779999999,218.25999450683594,1.1703237295150757,-0.7396761775016785
1666652517.94046116,418126956,42.730865,-84.49037779999999,218.25999450683594,1.1713311672210693,-0.7386687994003296
1666652517.96092010,418147415,42.730865,-84.49037779999999,218.25999450683594,1.1707723140716553,-0.7392276525497437
1666652517.98052216,418167017,42.730865,-84.4903779,218.25999450683594,1.1758211851119995,-0.7341787219047546
1666652518.02036929,418206864,42.730865,-84.4903779,218.26998901367188,1.1802476644515991,-0.7297523021697998
1666652518.06088424,418247379,42.7308649,-84.4903781,218.26998901367188,1.1812827587127686,-0.7287171483039856
1666652518.06098628,418247481,42.7308649,-84.4903781,218.26998901367188,1.1812827587127686,-0.7287171483039856
1666652518.10098720,418287482,42.7308649,-84.4903782,218.26998901367188,1.1896910667419434,-0.7203088998794556
1666652518.14041209,418326907,42.7308648,-84.4903783,218.2899932861328,1.2002500295639038,-0.7097498774528503
1666652518.16093421,418347429,42.7308648,-84.4903784,218.2899932861328,1.2047672271728516,-0.7052327394485474
1666652518.18040419,418366899,42.7308648,-84.4903784,218.29998779296875,1.2133156061172485,-0.6966843605041504
1666652518.22040606,418406901,42.7308648,-84.49037849999999,218.30999755859375,1.2275235652923584,-0.6824764013290405
1666652518.26089025,418447385,42.7308647,-84.4903786,218.3199920654297,1.239500880241394,-0.6704990267753601
1666652518.26098919,418447484,42.7308647,-84.4903786,218.3199920654297,1.239500880241394,-0.6704990267753601
1666652518.30102229,418487517,42.7308646,-84.4903787,218.33999633789062,1.2556997537612915,-0.6543001532554626
1666652518.34038520,418526880,42.7308646,-84.4903788,218.36000061035156,1.272528886795044,-0.637471079826355
1666652518.36084509,418547340,42.7308646,-84.4903789,218.36000061035156,1.279577612876892,-0.6304223537445068
1666652518.38029718,418566792,42.7308646,-84.4903789,218.3699951171875,1.2894231081008911,-0.6205768585205078
1666652518.42037320,418606868,42.730864499999996,-84.49037899999999,218.38999938964844,1.3050161600112915,-0.6049838066101074
1666652518.46096110,418647456,42.730864499999996,-84.49037919999999,218.39999389648438,1.3164453506469727,-0.5935545563697815
1666652518.46108127,418647576,42.730864499999996,-84.49037919999999,218.39999389648438,1.3164453506469727,-0.5935545563697815
1666652518.50105429,418687549,42.7308644,-84.4903793,218.4199981689453,1.3314673900604248,-0.5785325169563293
1666652518.54038620,418726881,42.7308643,-84.4903794,218.42999267578125,1.3459765911102295,-0.5640233755111694
1666652518.56095409,418747449,42.7308643,-84.4903794,218.44000244140625,1.3525316715240479,-0.5574682354927063
1666652518.58032107,418766816,42.7308643,-84.4903794,218.4499969482422,1.361734390258789,-0.5482655763626099
1666652518.62035012,418806845,42.7308642,-84.4903795,218.45999145507812,1.3754090070724487,-0.5345909595489502
1666652518.66080928,418847304,42.7308641,-84.49037969999999,218.47000122070312,1.3836663961410522,-0.5263335108757019
1666652518.66094613,418847441,42.7308641,-84.49037969999999,218.47000122070312,1.3836663961410522,-0.5263335108757019
1666652518.70109320,418887588,42.730864,-84.4903798,218.47999572753906,1.3959938287734985,-0.5140061378479004
1666652518.74035406,418926849,42.730863899999996,-84.4903799,218.489990234375,1.4073299169540405,-0.5026700496673584
1666652518.76081610,418947311,42.730863899999996,-84.4903799,218.5,1.41215980052948,-0.49784016609191895
1666652518.78038311,418966878,42.730863899999996,-84.49038,218.5,1.4194666147232056,-0.49053332209587097
1666652518.82028627,419006781,42.7308638,-84.49038,218.50999450683594,1.4296573400497437,-0.4803425967693329
1666652518.86085510,419047350,42.7308637,-84.49038019999999,218.51998901367188,1.4341341257095337,-0.4758658707141876
1666652518.86100125,419047496,42.7308637,-84.49038019999999,218.51998901367188,1.4341341257095337,-0.4758658707141876
1666652518.90091729,419087412,42.7308637,-84.4903803,218.52999877929688,1.4430816173553467,-0.46691828966140747
1666652518.94041514,419126910,42.7308636,-84.49038039999999,218.5399932861328,1.4511950016021729,-0.45880499482154846
1666652518.96083617,419147331,42.7308636,-84.49038039999999,218.5399932861328,1.4541707038879395,-0.4558292329311371
1666652518.98048711,419166982,42.7308635,-84.4903805,218.5399932861328,1.4599508047103882,-0.45004913210868835
1666652519.02038407,419206879,42.7308635,-84.4903806,218.54998779296875,1.466852068901062,-0.44314783811569214
1666652519.06090522,419247400,42.7308634,-84.4903808,218.55999755859375,1.469990611076355,-0.44000938534736633
1666652519.06103206,419247527,42.7308634,-84.4903808,218.55999755859375,1.469990611076355,-0.44000938534736633
1666652519.10108209,419287577,42.7308634,-84.49038089999999,218.55999755859375,1.4761333465576172,-0.43386656045913696
1666652519.14046526,419326960,42.7308634,-84.490381,218.5699920654297,1.4823851585388184,-0.4276147484779358
1666652519.16082621,419347321,42.730863299999996,-84.490381,218.5699920654297,1.4843456745147705,-0.4256542921066284
1666652519.18046117,419366956,42.730863299999996,-84.4903811,218.5699920654297,1.4886678457260132,-0.42133206129074097
1666652519.22039628,419406891,42.730863299999996,-84.4903812,218.5800018310547,1.49392569065094,-0.416074275970459
1666652519.26082826,419447323,42.730863199999995,-84.4903813,218.5800018310547,1.4955649375915527,-0.4144349694252014
1666652519.26092911,419447424,42.730863199999995,-84.4903813,218.5800018310547,1.4955649375915527,-0.4144349694252014
1666652519.30093908,419487434,42.730863199999995,-84.49038139999999,218.58999633789062,1.5000072717666626,-0.40999269485473633
1666652519.34033918,419526834,42.7308631,-84.49038159999999,218.58999633789062,1.5043895244598389,-0.40561044216156006
1666652519.36087608,419547371,42.7308631,-84.49038159999999,218.58999633789062,1.5054621696472168,-0.40453773736953735
1666652519.38048911,419566984,42.7308631,-84.49038159999999,218.58999633789062,1.5086978673934937,-0.4013020396232605
1666652519.42046309,419606958,42.730863,-84.4903817,218.59999084472656,1.5114229917526245,-0.398576945066452
1666652519.46089220,419647387,42.7308629,-84.4903819,218.59999084472656,1.5105412006378174,-0.39945876598358154
1666652519.46096516,419647460,42.7308629,-84.4903819,218.59999084472656,1.5105412006378174,-0.39945876598358154
1666652519.50090814,419687403,42.7308629,-84.490382,218.59999084472656,1.5127586126327515,-0.39724138379096985
1666652519.54046011,419726955,42.7308628,-84.49038209999999,218.59999084472656,1.5148969888687134,-0.39510297775268555
1666652519.56095123,419747446,42.7308628,-84.49038209999999,218.59999084472656,1.515288233757019,-0.39471176266670227
1666652519.58037210,419766867,42.7308628,-84.49038209999999,218.59999084472656,1.517469882965088,-0.39253008365631104
1666652519.62037206,419806867,42.730862699999996,-84.4903822,218.59999084472656,1.5198277235031128,-0.39017221331596375
1666652519.66090918,419847404,42.730862599999995,-84.4903824,218.61000061035156,1.5203773975372314,-0.3896225392818451
1666652519.66102910,419847524,42.730862599999995,-84.4903824,218.61000061035156,1.5203773975372314,-0.3896225392818451
1666652519.70092821,419887423,42.730862599999995,-84.4903825,218.61000061035156,1.5224194526672363,-0.3875804543495178
1666652519.74032927,419926824,42.7308625,-84.49038259999999,218.61000061035156,1.5244026184082031,-0.3855973482131958
1666652519.76095319,419947448,42.7308625,-84.49038259999999,218.61000061035156,1.5248228311538696,-0.3851770758628845
1666652519.78042221,419966917,42.7308625,-84.4903827,218.61000061035156,1.5264304876327515,-0.3835694193840027
1666652519.82045412,420006949,42.7308624,-84.4903827,218.61000061035156,1.5282611846923828,-0.3817387819290161
1666652519.86092329,420047418,42.7308624,-84.49038279999999,218.61000061035156,1.5285431146621704,-0.3814568817615509
1666652519.86104012,420047535,42.7308624,-84.49038279999999,218.61000061035156,1.5285431146621704,-0.3814568817615509
1666652519.90098214,420087477,42.7308623,-84.4903829,218.61000061035156,1.5298898220062256,-0.3801101744174957
1666652519.94035411,420126849,42.7308623,-84.4903829,218.6199951171875,1.5312364101409912,-0.37876349687576294
1666652519.96102023,420147515,42.7308622,-84.490383,218.6199951171875,1.531559705734253,-0.3784402310848236
1666652519.98038411,420166879,42.7308622,-84.490383,218.6199951171875,1.532392144203186,-0.3776078224182129
1666652520.02028418,420206779,42.7308622,-84.490383,218.6199951171875,1.5332647562026978,-0.37673524022102356
1666652520.06098413,420247479,42.7308622,-84.490383,218.6199951171875,1.533245325088501,-0.37675464153289795
1666652520.06110811,420247603,42.7308622,-84.490383,218.6199951171875,1.533245325088501,-0.37675464153289795
1666652520.10104227,420287537,42.7308622,-84.4903831,218.6199951171875,1.533401370048523,-0.376598596572876
1666652520.14035821,420326853,42.7308622,-84.4903831,218.6199951171875,1.5331053733825684,-0.37689462304115295
1666652520.16086006,420347355,42.7308622,-84.4903831,218.6199951171875,1.5325852632522583,-0.377414733171463
1666652520.18034029,420366835,42.7308622,-84.4903831,218.6199951171875,1.5325229167938232,-0.3774770200252533
1666652520.22030115,420406796,42.7308622,-84.4903831,218.6199951171875,1.531248927116394,-0.3787510097026825
1666652520.26084018,420447335,42.7308622,-84.4903831,218.61000061035156,1.5285009145736694,-0.3814990520477295
1666652520.26096416,420447459,42.7308622,-84.4903831,218.61000061035156,1.5285009145736694,-0.3814990520477295
1666652520.30103517,420487530,42.7308622,-84.4903831,218.61000061035156,1.5266740322113037,-0.3833259344100952
1666652520.34037924,420526874,42.7308623,-84.4903831,218.61000061035156,1.5248960256576538,-0.38510391116142273
1666652520.36080813,420547303,42.7308623,-84.4903831,218.61000061035156,1.5237873792648315,-0.386212557554245
1666652520.38033128,420566826,42.7308623,-84.4903831,218.61000061035156,1.5231622457504272,-0.3868376612663269
1666652520.42033219,420606827,42.7308623,-84.4903831,218.61000061035156,1.5212211608886719,-0.3887787461280823
1666652520.46084809,420647343,42.7308624,-84.4903831,218.59999084472656,1.5182631015777588,-0.3917368948459625
1666652520.46098208,420647477,42.7308624,-84.4903831,218.59999084472656,1.5182631015777588,-0.3917368948459625
1666652520.50107718,420687572,42.7308625,-84.4903831,218.59999084472656,1.5159379243850708,-0.3940620422363281
1666652520.54040718,420726902,42.7308625,-84.4903831,218.59999084472656,1.5138388872146606,-0.39616110920906067
1666652520.56083226,420747327,42.730862599999995,-84.490383,218.59999084472656,1.51274836063385,-0.39725154638290405
1666652520.58040714,420766902,42.730862599999995,-84.490383,218.59999084472656,1.5119547843933105,-0.39804521203041077
1666652520.62036824,420806863,42.730862599999995,-84.490383,218.59999084472656,1.5100468397140503,-0.399953156709671
1666652520.66090226,420847397,42.730862699999996,-84.490383,218.58999633789062,1.5074728727340698,-0.4025270342826843
1666652520.66103411,420847529,42.730862699999996,-84.490383,218.58999633789062,1.5074728727340698,-0.4025270342826843
1666652520.70086813,420887363,42.730862699999996,-84.490383,218.58999633789062,1.5055557489395142,-0.40444424748420715
1666652520.74035907,420926854,42.7308628,-84.4903829,218.58999633789062,1.50395929813385,-0.40604063868522644
1666652520.76082826,420947323,42.7308628,-84.4903829,218.58999633789062,1.5031962394714355,-0.4068036675453186
1666652520.78042221,420966917,42.7308628,-84.4903829,218.58999633789062,1.5025520324707031,-0.4074479639530182
1666652520.82043314,421006928,42.7308629,-84.4903829,218.58999633789062,1.500108003616333,-0.4098919928073883
1666652520.86091423,421047409,42.730863,-84.49038279999999,218.5800018310547,1.4945024251937866,-0.4154975116252899
1666652520.86102009,421047515,42.730863,-84.49038279999999,218.5800018310547,1.4945024251937866,-0.4154975116252899
1666652520.90089726,421087392,42.7308631,-84.49038279999999,218.5800018310547,1.4907617568969727,-0.4192381501197815
1666652520.94029927,421126794,42.730863199999995,-84.4903827,218.5699920654297,1.4873692989349365,-0.42263063788414
1666652520.96091127,421147406,42.730863299999996,-84.4903827,218.5699920654297,1.4853993654251099,-0.42460063099861145
1666652520.98040915,421166904,42.730863299999996,-84.4903827,218.5699920654297,1.4844533205032349,-0.4255465865135193
1666652521.02044511,421206940,42.7308634,-84.4903827,218.5699920654297,1.4820460081100464,-0.42795389890670776
1666652521.06087518,421247370,42.7308636,-84.49038259999999,218.55999755859375,1.4798790216445923,-0.43012097477912903
1666652521.06097507,421247470,42.7308636,-84.49038259999999,218.55999755859375,1.4798790216445923,-0.43012097477912903
1666652521.10087514,421287370,42.7308637,-84.49038259999999,218.55999755859375,1.4789257049560547,-0.43107420206069946
1666652521.14034724,421326842,42.7308638,-84.49038259999999,218.55999755859375,1.478702425956726,-0.43129751086235046
1666652521.16089416,421347389,42.7308638,-84.4903825,218.55999755859375,1.478598952293396,-0.4314010441303253
1666652521.18037510,421366870,42.7308638,-84.4903825,218.55999755859375,1.4787505865097046,-0.43124932050704956
1666652521.22045612,421406951,42.730863899999996,-84.4903825,218.55999755859375,1.4791923761367798,-0.43080753087997437
1666652521.26089215,421447387,42.730864,-84.4903825,218.55999755859375,1.4797977209091187,-0.4302022159099579
1666652521.26100612,421447501,42.730864,-84.4903825,218.55999755859375,1.4797977209091187,-0.4302022159099579
1666652521.30092716,421487422,42.730864,-84.4903824,218.5699920654297,1.4808348417282104,-0.42916515469551086
1666652521.34032512,421526820,42.730864,-84.4903824,218.5699920654297,1.4823042154312134,-0.42769575119018555
1666652521.36092520,421547420,42.7308641,-84.4903824,218.5699920654297,1.4831446409225464,-0.42685526609420776
1666652521.38050723,421567002,42.7308641,-84.4903824,218.5699920654297,1.484009027481079,-0.4259909391403198
1666652521.42035317,421606848,42.7308642,-84.4903824,218.5699920654297,1.4863404035568237,-0.4236595034599304
1666652521.46093607,421647431,42.7308643,-84.4903823,218.5699920654297,1.4891403913497925,-0.42085951566696167
1666652521.46105909,421647554,42.7308643,-84.4903823,218.5699920654297,1.4891403913497925,-0.42085951566696167
1666652521.50107312,421687568,42.7308644,-84.4903823,218.5800018310547,1.4920979738235474,-0.4179019331932068
1666652521.54038310,421726878,42.730864499999996,-84.4903823,218.5800018310547,1.495470404624939,-0.41452959179878235
1666652521.56094408,421747439,42.7308646,-84.4903822,218.5800018310547,1.4974290132522583,-0.4125709533691406
1666652521.58038425,421766879,42.7308646,-84.4903822,218.5800018310547,1.4990609884262085,-0.4109390079975128
1666652521.62030220,421806797,42.7308647,-84.4903822,218.58999633789062,1.5033626556396484,-0.4066373407840729
1666652521.66104817,421847543,42.7308648,-84.4903822,218.58999633789062,1.5090899467468262,-0.400909960269928
1666652521.66112113,421847616,42.7308648,-84.4903822,218.58999633789062,1.5090899467468262,-0.400909960269928
1666652521.70101714,421887512,42.7308648,-84.49038209999999,218.59999084472656,1.513712763786316,-0.3962871730327606
1666652521.74041224,421926907,42.7308649,-84.49038209999999,218.59999084472656,1.5183534622192383,-0.39164653420448303
1666652521.76091623,421947411,42.7308649,-84.49038209999999,218.61000061035156,1.5209541320800781,-0.389045774936676
1666652521.78032923,421966824,42.7308649,-84.49038209999999,218.61000061035156,1.5226457118988037,-0.3873542547225952
1666652521.82029414,422006789,42.730865,-84.49038209999999,218.61000061035156,1.5262231826782227,-0.3837767243385315
1666652521.86084318,422047338,42.7308652,-84.49038209999999,218.61000061035156,1.5286473035812378,-0.3813526928424835
1666652521.86097622,422047471,42.7308652,-84.49038209999999,218.61000061035156,1.5286473035812378,-0.3813526928424835
1666652521.90099525,422087490,42.7308653,-84.490382,218.6199951171875,1.5306719541549683,-0.3793279528617859
1666652521.94049311,422126988,42.7308654,-84.490382,218.6199951171875,1.532288908958435,-0.3777110278606415
1666652521.96079516,422147290,42.7308654,-84.490382,218.6199951171875,1.5329277515411377,-0.37707218527793884
1666652521.98035216,422166847,42.7308655,-84.490382,218.6199951171875,1.5333280563354492,-0.3766719102859497
1666652522.02034116,422206836,42.7308655,-84.4903819,218.6199951171875,1.5335865020751953,-0.376413494348526
1666652522.06087112,422247366,42.7308658,-84.4903818,218.6199951171875,1.5324485301971436,-0.37755146622657776
1666652522.06100106,422247496,42.7308658,-84.4903818,218.6199951171875,1.5324485301971436,-0.37755146622657776
1666652522.10095620,422287451,42.7308659,-84.4903818,218.6199951171875,1.5311918258666992,-0.3788081407546997
1666652522.14040422,422326899,42.730866,-84.4903817,218.61000061035156,1.5296483039855957,-0.38035163283348083
1666652522.16077113,422347266,42.730866,-84.4903817,218.61000061035156,1.5285537242889404,-0.3814461827278137
