timestamp,TimeUS,C,Q1,Q2,Q3,Q4
1666652507.35966611,407546161,1,0.9914275407791138,0.00036852911580353975,0.0003461871237959713,-0.13065671920776367
1666652507.37964106,407566136,1,0.9914265871047974,0.0003638762282207608,0.0003423830203246325,-0.13066406548023224
1666652507.41964626,407606141,1,0.991424560546875,0.000367808184819296,0.00035911533632315695,-0.13067951798439026
1666652507.45966625,407646161,1,0.9914215207099915,0.00038004425005055964,0.00034283805871382356,-0.130702406167984
1666652507.49965119,407686146,1,0.9914215803146362,0.0003702658286783844,0.00034984498051926494,-0.13070182502269745
1666652507.53967929,407726174,1,0.9914184808731079,0.00036471738712862134,0.00034679111558943987,-0.13072538375854492
1666652507.55963707,407746132,1,0.9914188385009766,0.00037694774800911546,0.00034182716626673937,-0.13072261214256287
1666652507.57963014,407766125,1,0.9914184212684631,0.0003682604292407632,0.000338789657689631,-0.13072584569454193
1666652507.61964417,407806139,1,0.9914177656173706,0.000374485767679289,0.00032949657179415226,-0.13073097169399261
1666652507.65963817,407846133,1,0.991416335105896,0.0003731504548341036,0.00031874337582848966,-0.13074186444282532
1666652507.69965816,407886153,1,0.9914116263389587,0.000373244023649022,0.00032661700970493257,-0.13077741861343384
1666652507.73965311,407926148,1,0.9914102554321289,0.000373898190446198,0.0003139359469059855,-0.13078786432743073
1666652507.75963521,407946130,1,0.9914098978042603,0.00040243766852654517,0.00031309484620578587,-0.1307906210422516
1666652507.77967715,407966172,1,0.9914114475250244,0.0004141995159443468,0.00030119207804091275,-0.1307787299156189
1666652507.81963515,408006130,1,0.9914089441299438,0.0004191993793938309,0.0002807204145938158,-0.13079769909381866
1666652507.85961223,408046107,1,0.9914054870605469,0.0004367147630546242,0.000293057004455477,-0.13082392513751984
1666652507.89964128,408086136,1,0.9914054274559021,0.0004402959020808339,0.00029591875500045717,-0.13082431256771088
1666652507.93966126,408126156,1,0.9914029240608215,0.0004467199614737183,0.0002958382829092443,-0.13084346055984497
1666652507.95963812,408146133,1,0.9914047718048096,0.0004433287831488997,0.000285896472632885,-0.13082914054393768
1666652507.97967219,408166167,1,0.9914042949676514,0.00043938870658166707,0.0002745288657024503,-0.13083304464817047
1666652508.01965809,408206153,1,0.9914052486419678,0.00043256799108348787,0.0002615510020405054,-0.13082563877105713
1666652508.05965018,408246145,1,0.9914061427116394,0.000446214311523363,0.0002479141694493592,-0.1308189332485199
1666652508.09963727,408286132,1,0.9914064407348633,0.0004675735835917294,0.0002413317997707054,-0.13081645965576172
1666652508.13961720,408326112,1,0.9914091229438782,0.00048109935596585274,0.00024399532412644476,-0.13079628348350525
1666652508.15962029,408346115,1,0.9914113283157349,0.00047030666610226035,0.0002373340103076771,-0.13077972829341888
1666652508.17964911,408366144,1,0.9914124011993408,0.0004619333194568753,0.00023357434838544577,-0.13077157735824585
1666652508.21967721,408406172,1,0.9914145469665527,0.0004663158324547112,0.0002513712679501623,-0.13075503706932068
1666652508.25963712,408446132,1,0.991415798664093,0.00045544555177912116,0.0002496160741429776,-0.13074564933776855
1666652508.29963708,408486132,1,0.9914152026176453,0.00044013382284902036,0.0002572671219240874,-0.13075041770935059
1666652508.33962107,408526116,1,0.9914172887802124,0.00044501255615614355,0.0002585511247161776,-0.1307343989610672
1666652508.35966706,408546162,1,0.9914178252220154,0.00044891040306538343,0.0002553342783357948,-0.13073031604290009
1666652508.37966108,408566156,1,0.9914166331291199,0.0004520475631579757,0.00025918777100741863,-0.13073953986167908
1666652508.41964006,408606135,1,0.9914159178733826,0.00046133127762004733,0.00027692221920005977,-0.13074469566345215
1666652508.45968509,408646180,1,0.9914186000823975,0.0004939590580761433,0.0002629890223033726,-0.1307244896888733
1666652508.49961424,408686109,1,0.9914210438728333,0.00048754719318822026,0.00025678242673166096,-0.13070575892925262
1666652508.53963423,408726129,1,0.9914225339889526,0.0004933468881063163,0.00026558383251540363,-0.13069462776184082
1666652508.55967617,408746171,1,0.991423487663269,0.0004936543991789222,0.000264761911239475,-0.1306874006986618
1666652508.57963729,408766132,1,0.9914247393608093,0.0004672487557400018,0.00027039143606089056,-0.1306779384613037
1666652508.61966228,408806157,1,0.9914236068725586,0.00048630067612975836,0.00026213491219095886,-0.13068629801273346
1666652508.65963006,408846125,1,0.9914268851280212,0.0004975307965651155,0.0002867667062673718,-0.1306615024805069
1666652508.69967628,408886171,1,0.9914288520812988,0.0004883973742835224,0.00029344522044993937,-0.1306466907262802
1666652508.73965311,408926148,1,0.9914318919181824,0.000490461359731853,0.00028902513440698385,-0.1306234747171402
1666652508.75966215,408946157,1,0.9914339184761047,0.00047929357970133424,0.00028871954418718815,-0.1306079477071762
1666652508.77961516,408966110,1,0.9914355874061584,0.00047673823428340256,0.00028840743470937014,-0.13059529662132263
1666652508.81963825,409006133,1,0.9914350509643555,0.0004885655362159014,0.0002874653146136552,-0.13059940934181213
1666652508.85965919,409046154,1,0.9914335012435913,0.00047906479449011385,0.0002765654062386602,-0.13061121106147766
1666652508.89968324,409086178,1,0.9914331436157227,0.0004718505369964987,0.00024675714666955173,-0.13061410188674927
1666652508.93965816,409126153,1,0.9914323687553406,0.00047420882037840784,0.00024274851602967829,-0.1306198537349701
1666652508.95966411,409146159,1,0.9914318323135376,0.0004825991054531187,0.00024058720737230033,-0.1306239813566208
1666652508.97966027,409166155,1,0.991433322429657,0.00047889334382489324,0.0002526988391764462,-0.13061287999153137
1666652509.01963711,409206132,1,0.9914335012435913,0.0004665430460590869,0.0002478632377460599,-0.13061127066612244
1666652509.05966520,409246160,1,0.9914373159408569,0.00046602447400800884,0.0002573593519628048,-0.1305822730064392
1666652509.09966326,409286158,1,0.9914369583129883,0.00047602670383639634,0.00026974332286044955,-0.13058516383171082
1666652509.13968110,409326176,1,0.9914370775222778,0.0004884952795691788,0.00027333194157108665,-0.1305839717388153
1666652509.15963507,409346130,1,0.9914364814758301,0.0004967055283486843,0.00024924916215240955,-0.13058842718601227
1666652509.17962623,409366121,1,0.991437554359436,0.0005036816583015025,0.00025906137307174504,-0.13058026134967804
1666652509.21963525,409406130,1,0.9914379119873047,0.0004906171816401184,0.000272745470283553,-0.13057762384414673
1666652509.25965214,409446147,1,0.9914378523826599,0.0004789113299921155,0.000266766786808148,-0.13057813048362732
1666652509.29966307,409486158,1,0.9914389848709106,0.0004719820572063327,0.0002653406700119376,-0.13056960701942444
1666652509.33966708,409526162,1,0.9914376735687256,0.0004827474185731262,0.0002459217212162912,-0.13057945668697357
1666652509.35962224,409546117,1,0.991435706615448,0.00048356555635109544,0.00025043587083928287,-0.13059471547603607
1666652509.37966514,409566160,1,0.9914345145225525,0.0004703370213974267,0.000260228494880721,-0.1306035965681076
1666652509.41965127,409606146,1,0.9914346933364868,0.00045594468247145414,0.00025653032935224473,-0.13060231506824493
1666652509.45964622,409646141,1,0.9914341568946838,0.00044558726949617267,0.00024641791242174804,-0.13060638308525085
1666652509.49963927,409686134,1,0.9914357662200928,0.0004580457753036171,0.00023690555826760828,-0.13059429824352264
1666652509.53966808,409726163,1,0.9914366006851196,0.000441551033873111,0.00024357908114325255,-0.13058792054653168
1666652509.55964327,409746138,1,0.9914384484291077,0.00045078390394337475,0.00024250464048236609,-0.130574032664299
1666652509.57964206,409766137,1,0.991439700126648,0.0004483612428884953,0.00024298153584823012,-0.13056425750255585
1666652509.61966109,409806156,1,0.9914422631263733,0.0004386315122246742,0.00024578048032708466,-0.13054494559764862
1666652509.65965724,409846152,1,0.9914418458938599,0.00045695059816353023,0.00023777259048074484,-0.13054807484149933
1666652509.69961023,409886105,1,0.9914416074752808,0.000449123268481344,0.0002523787843529135,-0.13054993748664856
1666652509.73963928,409926134,1,0.9914426207542419,0.00044446662650443614,0.0002681358018890023,-0.13054226338863373
1666652509.75964928,409946144,1,0.9914430975914001,0.0004375208809506148,0.0002701488556340337,-0.13053865730762482
1666652509.77967525,409966170,1,0.9914441704750061,0.000431812833994627,0.0002654949785210192,-0.13053059577941895
1666652509.81968713,410006182,1,0.9914438724517822,0.00041318743024021387,0.00023539457470178604,-0.1305328607559204
1666652509.85965419,410046149,1,0.9914453625679016,0.0004164307320024818,0.00024877232499420643,-0.1305214911699295
1666652509.89962626,410086121,1,0.9914456009864807,0.000425857724621892,0.0002370721340412274,-0.13051944971084595
1666652509.93964219,410126137,1,0.9914458394050598,0.00043884493061341345,0.0002583653840702027,-0.13051776587963104
1666652509.95969820,410146193,1,0.9914456009864807,0.0004231576167512685,0.0002645072527229786,-0.1305195838212967
1666652509.97966528,410166160,1,0.9914461374282837,0.00042220193427056074,0.00027483829762786627,-0.1305154412984848
1666652510.01966906,410206164,1,0.9914465546607971,0.00041192147182300687,0.0002719731710385531,-0.13051250576972961
1666652510.05968213,410246177,1,0.9914465546607971,0.00041728653013706207,0.0002847893047146499,-0.13051225244998932
1666652510.09962320,410286118,1,0.9914469718933105,0.00041452975710853934,0.00028007684159092605,-0.1305093765258789
1666652510.13964820,410326143,1,0.9914460182189941,0.00041162772686220706,0.00026597484247758985,-0.13051649928092957
1666652510.15968728,410346182,1,0.9914441704750061,0.0003980741312261671,0.00023507025616709143,-0.1305306851863861
1666652510.17963910,410366134,1,0.9914486408233643,0.0003971081168856472,0.0002518060791771859,-0.13049684464931488
1666652510.21966529,410406160,1,0.9914506673812866,0.00039564407779835165,0.00024332221073564142,-0.13048119843006134
1666652510.25964713,410446142,1,0.9914560317993164,0.0003791934868786484,0.0002708044776227325,-0.13044042885303497
1666652510.29968619,410486181,1,0.9914584755897522,0.000416106719058007,0.00023215166584122926,-0.13042177259922028
1666652510.33964109,410526136,1,0.9914541840553284,0.0004064509703312069,0.00024248112458735704,-0.13045434653759003
1666652510.35966516,410546160,1,0.9914523363113403,0.0003907463396899402,0.0002632997930049896,-0.13046875596046448
1666652510.37961626,410566111,1,0.9914510846138,0.000427932565798983,0.0002658720768522471,-0.1304781138896942
1666652510.41965222,410606147,1,0.9914451837539673,0.00042179282172583044,0.00025241519324481487,-0.13052259385585785
1666652510.45967317,410646168,1,0.9914452433586121,0.0004306840128265321,0.0002889270253945142,-0.13052205741405487
1666652510.49968314,410686178,1,0.9914466142654419,0.0004584637063089758,0.0002923979773186147,-0.1305117905139923
1666652510.53965807,410726153,1,0.9914491772651672,0.0004503401287365705,0.00030588163645006716,-0.1304924190044403
1666652510.55967212,410746167,1,0.9914525747299194,0.00044005303061567247,0.0002883313864003867,-0.1304667443037033
1666652510.57965612,410766151,1,0.9914559125900269,0.0004497043846640736,0.0002829224686138332,-0.13044115900993347
1666652510.61964011,410806135,1,0.991455614566803,0.00041466893162578344,0.0002464274293743074,-0.1304437667131424
1666652510.65967011,410846165,1,0.9914580583572388,0.0003585475205909461,0.000209227335290052,-0.1304251253604889
1666652510.69966912,410886164,1,0.9914554357528687,0.0005004259292036295,0.0002121197321685031,-0.13044485449790955
1666652510.73967528,410926170,1,0.9914579391479492,0.0004440387710928917,0.0002422281395411119,-0.13042575120925903
1666652510.75964808,410946143,1,0.9914609789848328,0.0005040948162786663,7.954697503009811e-05,-0.13040272891521454
1666652510.77965117,410966146,1,0.9914587736129761,0.0005102679133415222,0.00011643730249488726,-0.13041943311691284
1666652510.81963420,411006129,1,0.9914590716362,0.0004235470842104405,0.00017591066716704518,-0.13041728734970093
1666652510.85962415,411046119,1,0.9914631247520447,0.0005160272703506052,0.00026561549748294055,-0.13038623332977295
1666652510.89966917,411086164,1,0.9914697408676147,0.0005121611175127327,0.00023567529569845647,-0.13033591210842133
1666652510.93967128,411126166,1,0.9914680123329163,0.0004520529182627797,0.00024395599029958248,-0.13034899532794952
1666652510.95964026,411146135,1,0.9914738535881042,0.0005085786688141525,0.00031316353124566376,-0.13030435144901276
1666652510.97968221,411166177,1,0.9914705157279968,0.00031199853401631117,0.00034510850673541427,-0.13033024966716766
1666652511.01962924,411206124,1,0.9914653897285461,0.00045950128696858883,0.0002074600924970582,-0.1303693950176239
1666652511.05963922,411246134,1,0.9914683699607849,0.00018861085118260235,0.00023509871971327811,-0.13034692406654358
1666652511.09964323,411286138,1,0.9914742112159729,0.0003983738424722105,0.00024143212067428976,-0.1303022801876068
1666652511.13966322,411326158,1,0.9914774298667908,0.0003974352148361504,0.000234170351177454,-0.13027764856815338
1666652511.15965128,411346146,1,0.9914754033088684,0.0006170652923174202,0.00019734555098693818,-0.13029241561889648
1666652511.17968225,411366177,1,0.9914769530296326,0.0005566474865190685,0.0001733036187943071,-0.13028110563755035
1666652511.21967125,411406166,1,0.9914782047271729,0.0004142228572163731,0.0002373649476794526,-0.13027195632457733
1666652511.25965428,411446149,1,0.9914777278900146,0.0005653847474604845,0.00017800043860916048,-0.13027513027191162
1666652511.29964709,411486142,1,0.9914835095405579,0.00022005981008987874,0.00024743747781030834,-0.1302320510149002
1666652511.33970428,411526199,1,0.9914835691452026,0.0002902582928072661,0.0002807667478919029,-0.1302313208580017
1666652511.35965514,411546150,1,0.991487443447113,0.00027538015274330974,0.00025336063117720187,-0.13020163774490356
1666652511.37966919,411566164,1,0.991482675075531,0.00037319009425118566,0.00016704932204447687,-0.13023801147937775
1666652511.41968608,411606181,1,0.991478681564331,0.0004523304523900151,0.00026107265148311853,-0.1302679479122162
1666652511.45967317,411646168,1,0.9914804100990295,0.00033236181479878724,0.00017589365597814322,-0.13025550544261932
1666652511.49964428,411686139,1,0.9914771318435669,0.0004943127860315144,0.00017352607392240316,-0.13027958571910858
1666652511.53963614,411726131,1,0.9914802312850952,0.0004200007242616266,0.00018005578021984547,-0.13025645911693573
1666652511.55967808,411746173,1,0.9914852976799011,0.00031805961043573916,0.00019879324827343225,-0.13021816313266754
1666652511.57967424,411766169,1,0.9914827346801758,0.0002855123020708561,0.00018726210691966116,-0.13023796677589417
1666652511.61966324,411806158,1,0.9914910793304443,0.00028026310610584915,0.0002235491556348279,-0.13017398118972778
1666652511.65967607,411846171,1,0.9914954304695129,0.00043185061076655984,0.00017935814685188234,-0.13014046847820282
1666652511.69967818,411886173,1,0.9914959073066711,0.00039791452581994236,0.00021748460130766034,-0.1301368921995163
1666652511.73964620,411926141,1,0.9915036559104919,0.00041017041075974703,0.00022036432346794754,-0.13007792830467224
1666652511.75965714,411946152,1,0.9914999008178711,0.0004313848912715912,0.0001543505786685273,-0.13010679185390472
1666652511.77964115,411966136,1,0.991500735282898,0.0005241578328423202,0.00017418531933799386,-0.130099818110466
1666652511.81967211,412006167,1,0.991512656211853,0.00015294807963073254,0.00021576792642008513,-0.13000978529453278
1666652511.85966420,412046159,1,0.9915061593055725,0.00031656146165914834,0.000237671920331195,-0.1300591677427292
1666652511.89969516,412086190,1,0.9915133118629456,0.00045819563092663884,0.00015408654871862382,-0.13000425696372986
1666652511.93965507,412126150,1,0.9915123581886292,0.0003195407334715128,0.0001965482224477455,-0.1300119012594223
1666652511.95966721,412146162,1,0.9915099143981934,0.0003159823245368898,0.0001972076133824885,-0.13003061711788177
1666652511.97964716,412166142,1,0.9915087223052979,0.00033915197127498686,0.00020591412612702698,-0.13003937900066376
1666652512.01964521,412206140,1,0.9915173053741455,0.0003967518568970263,0.00011911219917237759,-0.1299741566181183
1666652512.05966520,412246160,1,0.9915156960487366,0.000263115216512233,0.00017188824131153524,-0.1299866884946823
1666652512.09963608,412286131,1,0.9915250539779663,0.00025817970163188875,0.00025706872111186385,-0.12991490960121155
1666652512.13964415,412326139,1,0.99151611328125,0.0004262304864823818,0.00010313758684787899,-0.1299830973148346
1666652512.15966606,412346161,1,0.9915196895599365,0.00043904740596190095,0.0001348072983091697,-0.12995585799217224
1666652512.17966127,412366156,1,0.991519033908844,0.0003044999612029642,0.0002197489666286856,-0.12996113300323486
1666652512.21962023,412406115,1,0.9915148615837097,0.00037086912197992206,0.00019183607946615666,-0.12999284267425537
1666652512.25964618,412446141,1,0.9915182590484619,0.00039715078310109675,0.00019566371338441968,-0.1299666464328766
1666652512.29966521,412486160,1,0.9915180802345276,0.00014314222789835185,0.00028764139278791845,-0.12996847927570343
1666652512.33966017,412526155,1,0.9915169477462769,0.00047036397154442966,0.00018292009190190583,-0.1299765706062317
1666652512.35964012,412546135,1,0.9915177822113037,0.00037307001184672117,0.00019602007523644716,-0.1299702674150467
1666652512.37966013,412566155,1,0.9915109276771545,0.00037065843935124576,0.00023150847118813545,-0.13002268970012665
1666652512.41965318,412606148,1,0.9915034174919128,0.00025965762324631214,0.00026679603615775704,-0.13008004426956177
1666652512.45964408,412646139,1,0.9915088415145874,0.0003868314961437136,0.0001467594556743279,-0.13003861904144287
1666652512.49966908,412686164,1,0.99149489402771,0.0003796182863879949,0.0002580731234047562,-0.13014458119869232
1666652512.53966522,412726160,1,0.9915035963058472,0.0002125218597939238,0.00022491213167086244,-0.1300787478685379
1666652512.55961418,412746109,1,0.9915033578872681,0.00032074772752821445,0.0002118228585459292,-0.13008055090904236
1666652512.57969427,412766189,1,0.9914999604225159,0.0003466157359071076,0.00022894323046784848,-0.1301061362028122
1666652512.61962509,412806120,1,0.991498589515686,0.00044253707164898515,0.00020842258527409285,-0.1301165372133255
1666652512.65964127,412846136,1,0.9915018677711487,0.0004353281401563436,0.00023336081358138472,-0.13009129464626312
1666652512.69961524,412886110,1,0.9915056824684143,0.00039540097350254655,0.00020009379659313709,-0.13006249070167542
1666652512.73966813,412926163,1,0.9915109276771545,0.00041647080797702074,0.0001643404975766316,-0.13002263009548187
1666652512.75966525,412946160,1,0.9915095567703247,0.00025907045346684754,0.0001810011308407411,-0.1300332248210907
1666652512.77968812,412966183,1,0.9915157556533813,0.000162621567142196,0.00024247006513178349,-0.12998642027378082
1666652512.81968427,413006179,1,0.9915215969085693,0.000268213712843135,0.00022233159688767046,-0.12994159758090973
1666652512.85961318,413046108,1,0.9915234446525574,0.00045501094427891076,0.0001669485354796052,-0.1299268901348114
1666652512.89966321,413086158,1,0.991520345211029,0.00035755985300056636,0.0002366959524806589,-0.12995094060897827
1666652512.93964815,413126143,1,0.9915180206298828,0.0003546247899066657,0.00022193198674358428,-0.12996840476989746
1666652512.95965028,413146145,1,0.9915159940719604,0.00044680520659312606,0.00015660151257179677,-0.12998399138450623
1666652512.97970128,413166196,1,0.9915179014205933,0.00047238421393558383,0.00018600405019242316,-0.12996917963027954
1666652513.01967716,413206172,1,0.9915178418159485,0.00019568396965041757,0.00022777380945626646,-0.12997037172317505
1666652513.05968118,413246176,1,0.9915186166763306,0.0003603263176046312,0.00020252431568223983,-0.12996414303779602
1666652513.09963417,413286129,1,0.9915216565132141,0.0003758755046874285,0.00015823171997908503,-0.12994103133678436
1666652513.13964224,413326137,1,0.9915179014205933,0.0005140012362971902,0.000187837184057571,-0.1299690306186676
1666652513.15967822,413346173,1,0.991520881652832,0.0003716796054504812,0.00019912725838366896,-0.12994657456874847
1666652513.17965722,413366152,1,0.9915189146995544,0.0004661498824134469,0.00016511614376213402,-0.12996172904968262
1666652513.21969914,413406194,1,0.9915171265602112,0.00037368814810179174,0.00018894167442340404,-0.1299755871295929
1666652513.25969219,413446187,1,0.9915223121643066,0.0002343488740734756,0.00015734357293695211,-0.1299363523721695
1666652513.29965520,413486150,1,0.9915257692337036,0.00044594809878617525,0.0002863775007426739,-0.12990885972976685
1666652513.33961821,413526113,1,0.9915269613265991,0.0004229539481457323,0.00024119911540765315,-0.12990009784698486
1666652513.35967326,413546168,1,0.991531252861023,0.0005226136418059468,0.0002309139963472262,-0.12986712157726288
1666652513.37964225,413566137,1,0.9915298223495483,0.0005056302761659026,0.00023395393509417772,-0.12987783551216125
1666652513.41967106,413606166,1,0.9915317893028259,0.00034629786387085915,0.00023344936198554933,-0.1298636943101883
1666652513.45966721,413646162,1,0.9915304183959961,0.000404326623538509,0.0002678818709682673,-0.12987367808818817
1666652513.49969220,413686187,1,0.9915289282798767,0.00037193024763837457,0.0002188017824664712,-0.12988527119159698
1666652513.53962207,413726117,1,0.9915347099304199,0.0003125373332295567,0.0002507868339307606,-0.1298413872718811
1666652513.55967712,413746172,1,0.9915329813957214,0.0002783038071356714,0.00024963804753497243,-0.12985466420650482
1666652513.57965016,413766145,1,0.9915332794189453,0.00030620646430179477,0.000293114862870425,-0.1298520416021347
1666652513.61964107,413806136,1,0.9915319085121155,0.0005692600971087813,0.00021363675477914512,-0.12986205518245697
1666652513.65966725,413846162,1,0.9915343523025513,0.0004530040896497667,0.00019118626369163394,-0.12984375655651093
1666652513.69966006,413886155,1,0.9915322661399841,0.0004745580372400582,0.00024782316177152097,-0.1298593282699585
1666652513.73965406,413926149,1,0.991540789604187,0.00036887178430333734,0.0002368786808801815,-0.12979461252689362
1666652513.75966811,413946163,1,0.9915419816970825,0.000384307379135862,0.00019711839559022337,-0.12978550791740417
1666652513.77966428,413966159,1,0.9915381669998169,0.0005095525993965566,0.00015629180415999144,-0.1298142522573471
1666652513.81964827,414006143,1,0.9915421605110168,0.0004691429203376174,0.00019505410455167294,-0.12978379428386688
1666652513.85964227,414046137,1,0.991534948348999,0.0005608787178061903,0.00015625846572220325,-0.12983882427215576
1666652513.89967918,414086174,1,0.9915386438369751,0.00048086897004395723,0.00017079003737308085,-0.12981079518795013
1666652513.93963313,414126128,1,0.9915364980697632,0.0004616151563823223,0.00019126133702229708,-0.12982749938964844
1666652513.95964527,414146140,1,0.9915359616279602,0.0004951289156451821,0.00015670536959078163,-0.12983117997646332
1666652513.97966027,414166155,1,0.9915370941162109,0.0005622719181701541,0.00020257299183867872,-0.1298225224018097
1666652514.01965618,414206151,1,0.9915379285812378,0.0004786693025380373,0.00017737451707944274,-0.12981641292572021
1666652514.05962920,414246124,1,0.9915406703948975,0.0005082510178908706,0.0001599734678165987,-0.1297951340675354
1666652514.09967613,414286171,1,0.9915417432785034,0.0005546940956264734,0.00018514484690967947,-0.12978670001029968
1666652514.13966513,414326160,1,0.9915367960929871,0.000652591057587415,0.00011018336226698011,-0.1298242062330246
1666652514.15962315,414346118,1,0.9915351867675781,0.0006908423383720219,0.00011796278704423457,-0.1298365592956543
1666652514.17968822,414366183,1,0.9915364980697632,0.0006391730858013034,0.00021423866564873606,-0.12982657551765442
1666652514.21966720,414406162,1,0.9915233850479126,0.0005556903197430074,0.00013366391067393124,-0.12992723286151886
1666652514.25964522,414446140,1,0.9915154576301575,0.00036055422970093787,5.3857642342336476e-05,-0.1299881786108017
1666652514.29964519,414486140,1,0.9915116429328918,0.0006399748963303864,0.00014005479170009494,-0.13001644611358643
1666652514.33966517,414526160,1,0.9915044903755188,0.0006162066711112857,6.524424679810181e-05,-0.13007119297981262
1666652514.35965323,414546148,1,0.9915010929107666,0.0007014696602709591,0.00010550814477028325,-0.1300962269306183
1666652514.37966514,414566160,1,0.9914992451667786,0.0007303465972654521,4.65709381387569e-05,-0.13011038303375244
1666652514.41969109,414606186,1,0.9915011525154114,0.0007950969156809151,0.00014267931692302227,-0.13009536266326904
1666652514.45961928,414646114,1,0.991504430770874,0.0005063651478849351,0.00018289107538294047,-0.13007202744483948
1666652514.49963808,414686133,1,0.9914976358413696,0.00017171552462968975,0.00010529503924772143,-0.13012437522411346
1666652514.53964210,414726137,1,0.9915069341659546,0.0009661271469667554,-5.520255217561498e-05,-0.1300501972436905
1666652514.55966020,414746155,1,0.9915058612823486,0.0005422332906164229,-9.072104148799554e-05,-0.13006064295768738
1666652514.57967925,414766174,1,0.991515040397644,0.00035720266168937087,0.00018523902690503746,-0.12999120354652405
1666652514.61963606,414806131,1,0.9915181994438171,0.0011827166890725493,-0.0001418452156940475,-0.12996229529380798
1666652514.65967822,414846173,1,0.9915097951889038,0.0008833061438053846,-4.7561416067765094e-06,-0.1300291270017624
1666652514.69964623,414886141,1,0.9915346503257751,0.00041463508387096226,0.00017744158685673028,-0.12984172999858856
1666652514.73963308,414926128,1,0.9915283918380737,0.0006460698205046356,-6.940047023817897e-05,-0.1298886239528656
1666652514.75968313,414946178,1,0.9915309548377991,0.0006700421217828989,-8.495134534314275e-05,-0.12986890971660614
1666652514.77964306,414966138,1,0.9915277361869812,0.0008324048249050975,2.0871144442935474e-05,-0.12989245355129242
1666652514.81966805,415006163,1,0.9915244579315186,0.0011346240062266588,0.00011560373241081834,-0.129915252327919
1666652514.85967827,415046173,1,0.9915382862091064,0.0010207820450887084,6.743740232195705e-05,-0.12981060147285461
1666652514.89967728,415086172,1,0.9915544986724854,0.000930534559302032,-6.81007222738117e-05,-0.1296873241662979
1666652514.93965125,415126146,1,0.9915772676467896,0.0011506855953484774,-2.057315214187838e-05,-0.12951146066188812
1666652514.95966625,415146161,1,0.9915915131568909,0.0012724982807412744,-5.122491711517796e-05,-0.12940113246440887
1666652514.97964215,415166137,1,0.9915920495986938,0.001294420682825148,-8.574664389016107e-05,-0.12939657270908356
1666652515.01968026,415206175,1,0.9916175603866577,0.0012130382237955928,-0.0002751585270743817,-0.12920162081718445
1666652515.05967021,415246165,1,0.9916366338729858,0.001027883612550795,2.800982110784389e-05,-0.12905701994895935
1666652515.09968209,415286177,1,0.9916632175445557,0.0003692987374961376,7.219441613415256e-05,-0.1288563311100006
1666652515.13964725,415326142,1,0.9917129278182983,0.0013461842900142074,-0.00013961276272311807,-0.1284666210412979
1666652515.15966415,415346159,1,0.9917312860488892,0.0007672390202060342,-9.331427281722426e-05,-0.12832953035831451
1666652515.17964506,415366140,1,0.9917526245117188,0.0005020348471589386,-0.00012881416478194296,-0.1281655728816986
1666652515.21963406,415406129,1,0.9917904138565063,0.0008100975537672639,2.709021373448195e-06,-0.1278715580701828
1666652515.25966716,415446162,1,0.9918397665023804,0.0008018686785362661,-5.420295929070562e-05,-0.12748795747756958
1666652515.29966927,415486164,1,0.9918767213821411,0.0011623908067122102,-0.0002857226936612278,-0.1271970421075821
1666652515.33968210,415526177,1,0.9919351935386658,0.0008399724029004574,-6.201673386385664e-05,-0.12674319744110107
1666652515.35968518,415546180,1,0.9919410943984985,0.000927964982111007,-2.3101409169612452e-05,-0.12669646739959717
1666652515.37966323,415566158,1,0.9919682741165161,0.0008305825758725405,-4.823384006158449e-05,-0.12648412585258484
1666652515.41966414,415606159,1,0.9920246005058289,0.0004624805005732924,-0.00013940711505711079,-0.1260433793067932
1666652515.45961809,415646113,1,0.9920551776885986,0.001341817551292479,-0.0002593527897261083,-0.12579606473445892
1666652515.49967122,415686166,1,0.9920949339866638,0.0012201317586004734,-0.0003907608042936772,-0.1254831701517105
1666652515.53965425,415726149,1,0.9921295642852783,0.0003602112701628357,-0.0004463670775294304,-0.12521404027938843
1666652515.55962110,415746116,1,0.9921507835388184,0.0015445257304236293,-0.0007795224082656205,-0.12503544986248016
1666652515.57970309,415766198,1,0.9921566247940063,0.0008632984245195985,-0.0007618556264787912,-0.12499544769525528
1666652515.61963129,415806126,1,0.992181122303009,0.001966182142496109,-0.0012002821313217282,-0.12478518486022949
1666652515.65964818,415846143,1,0.9921881556510925,0.0007331545930355787,-0.0012052085949108005,-0.12474237382411957
1666652515.69964218,415886137,1,0.9922356605529785,0.0017639604629948735,-0.001905938028357923,-0.12434472888708115
1666652515.73966813,415926163,1,0.9922633171081543,0.001466191839426756,-0.0023064264096319675,-0.12412121891975403
1666652515.75965309,415946148,1,0.992287278175354,0.002068221103399992,-0.0022200560197234154,-0.12392248213291168
1666652515.77967620,415966171,1,0.9923219680786133,0.0014185431646183133,-0.0027633190620690584,-0.12364231050014496
1666652515.81966615,416006161,1,0.9923701286315918,0.0018963947659358382,-0.0032778389286249876,-0.12323617190122604
1666652515.85962415,416046119,1,0.9923920035362244,0.00237373192794621,-0.0035179797559976578,-0.12304532527923584
1666652515.89965129,416086146,1,0.992417573928833,0.002910097362473607,-0.003970319405198097,-0.12281343340873718
1666652515.93962407,416126119,1,0.9924378395080566,0.0034806241746991873,-0.004210117273032665,-0.12262662500143051
1666652515.95966029,416146155,1,0.9924353361129761,0.004125385079532862,-0.004918450023978949,-0.12260040640830994
1666652515.97966123,416166156,1,0.9924561381340027,0.0036457981914281845,-0.004432069603353739,-0.12246590852737427
1666652516.01965308,416206148,1,0.9924609065055847,0.004274322651326656,-0.004682986997067928,-0.12239747494459152
1666652516.05965424,416246149,1,0.9924711585044861,0.0046304925344884396,-0.005211756564676762,-0.12228001654148102
1666652516.09964228,416286137,1,0.9924576282501221,0.005106483586132526,-0.005467272829264402,-0.12235962599515915
1666652516.13964224,416326137,1,0.9924697875976562,0.005117357242852449,-0.005435739643871784,-0.12226203083992004
1666652516.15969110,416346186,1,0.9924342632293701,0.006364271976053715,-0.00532651087269187,-0.12249642610549927
1666652516.17966723,416366162,1,0.9924582839012146,0.005182384047657251,-0.005254135001450777,-0.12236028164625168
1666652516.21965122,416406146,1,0.9924432039260864,0.005278225988149643,-0.004584390204399824,-0.12250562757253647
1666652516.25966406,416446159,1,0.9924315810203552,0.005242242012172937,-0.003558154683560133,-0.12263543903827667
1666652516.29965210,416486147,1,0.9924294948577881,0.004440378397703171,-0.002256798092275858,-0.12271478772163391
1666652516.33964229,416526137,1,0.9924305081367493,0.0024501371663063765,-0.0008142239530570805,-0.12278032302856445
1666652516.35968709,416546182,1,0.9924178719520569,0.002601615386083722,-0.00033511780202388763,-0.12288148701190948
1666652516.37964106,416566136,1,0.9924269914627075,0.0002863106201402843,0.0008514843648299575,-0.12283246219158173
1666652516.41966629,416606161,1,0.9924057126045227,-0.0013246445450931787,0.002209624508395791,-0.12298058718442917
1666652516.45967317,416646168,1,0.9924197793006897,-0.0025904246140271425,0.0030806714203208685,-0.12282843142747879
1666652516.49966216,416686157,1,0.15773867070674896,0.011096538044512272,0.013361707329750061,0.9873281121253967
1666652516.53963709,416726132,1,0.15794865787029266,0.007830002345144749,0.010894830338656902,0.9873561859130859
1666652516.55967212,416746167,1,0.1580955535173416,0.005516070872545242,0.009795020334422588,0.9873598217964172
1666652516.57965112,416766146,1,0.15808312594890594,0.00324013689532876,0.006514994893223047,0.9873989820480347
1666652516.61964107,416806136,1,0.15808901190757751,-0.001988212810829282,0.001418674597516656,0.9874218702316284
1666652516.65966320,416846158,1,0.1580727994441986,-0.006559024564921856,-0.0047134822234511375,0.9873944520950317
1666652516.69968224,416886177,1,0.15802636742591858,-0.00928440224379301,-0.009315908886492252,0.9873473048210144
1666652516.73966026,416926155,1,0.16012093424797058,-0.010800822637975216,-0.012398448772728443,0.9869604110717773
1666652516.75966811,416946163,1,0.1612042486667633,-0.01162703800946474,-0.012722078710794449,0.9867705702781677
1666652516.77966928,416966164,1,0.16211365163326263,-0.011372378095984459,-0.014120238833129406,0.9866055250167847
1666652516.81962228,417006117,1,0.1635987013578415,-0.01195269264280796,-0.014937148429453373,0.9863414764404297
1666652516.85967708,417046172,1,0.16430620849132538,-0.012536128982901573,-0.01526477187871933,0.9862115979194641
1666652516.89966726,417086162,1,0.16494105756282806,-0.012291193939745426,-0.015075260773301125,0.9861116409301758
1666652516.93970513,417126200,1,0.16536587476730347,-0.01116986945271492,-0.013584049418568611,0.9860754609107971
1666652516.95969915,417146194,1,0.16562382876873016,-0.010861566290259361,-0.01091424748301506,0.9860687851905823
1666652516.97965217,417166147,1,0.16570095717906952,-0.008981125429272652,-0.010893026366829872,0.9860749840736389
1666652517.01963711,417206132,1,0.16650058329105377,-0.0076858531683683395,-0.008816481567919254,0.985971987247467
1666652517.05964708,417246142,1,0.16770696640014648,-0.005634532310068607,-0.006620327010750771,0.9857985377311707
1666652517.09966612,417286161,1,0.16899427771568298,-0.0030873315408825874,-0.004118217155337334,0.9856035709381104
1666652517.13968205,417326177,1,0.17024701833724976,-0.0012307839933782816,-0.0029722328763455153,0.985396146774292
1666652517.15963507,417346130,1,0.17100314795970917,-0.0004080398066435009,-0.0015800308901816607,0.9852691292762756
1666652517.17965126,417366146,1,0.1714097261428833,0.000251211371505633,-0.0012865313328802586,0.985198974609375
1666652517.21963406,417406129,1,0.17290517687797546,0.001449720817618072,0.0014961498090997338,0.9849362969398499
1666652517.25963426,417446129,1,0.17435024678707123,0.0024168770760297775,0.004476943053305149,0.9846705794334412
1666652517.29964519,417486140,1,0.1756482720375061,0.0031978655606508255,0.006113647483289242,0.9844288229942322
1666652517.33966422,417526159,1,0.17749634385108948,0.003765420289710164,0.006063039414584637,0.984095573425293
1666652517.35963225,417546127,1,0.17852264642715454,0.005110038444399834,0.0069620655849576,0.9838979244232178
1666652517.37963223,417566127,1,0.17925333976745605,0.005315021611750126,0.006378242280334234,0.9837679266929626
1666652517.41968012,417606175,1,0.18074160814285278,0.006773276720196009,0.006552181206643581,0.9834854602813721
1666652517.45965719,417646152,1,0.1820017695426941,0.007349497638642788,0.006167472340166569,0.9832513928413391
1666652517.49964714,417686142,1,0.18299902975559235,0.00760510191321373,0.005925012286752462,0.9830658435821533
1666652517.53967524,417726170,1,0.18350668251514435,0.007164719980210066,0.005735561717301607,0.9829756021499634
1666652517.55964017,417746135,1,0.1837039589881897,0.006777179893106222,0.0052766092121601105,0.9829440712928772
1666652517.57966614,417766161,1,0.183732271194458,0.006465844810009003,0.006392183713614941,0.982934296131134
1666652517.61967516,417806170,1,0.18366198241710663,0.00591150252148509,0.007095695473253727,0.9829460978507996
1666652517.65965414,417846149,1,0.18337519466876984,0.005119848996400833,0.007544038351625204,0.9830006957054138
1666652517.69965219,417886147,1,0.18304389715194702,0.004487022757530212,0.006323645822703838,0.9830741882324219
1666652517.73964024,417926135,1,0.18200232088565826,0.0043279933743178844,0.006156331393867731,0.9832692742347717
1666652517.75968909,417946184,1,0.18130619823932648,0.004263061564415693,0.00634247250854969,0.9833970069885254
1666652517.77965617,417966151,1,0.18082860112190247,0.004486307967454195,0.0071898167952895164,0.9834781289100647
1666652517.81967807,418006173,1,0.17934779822826385,0.004521362949162722,0.006828824989497662,0.983751654624939
1666652517.85968518,418046180,1,0.17753592133522034,0.004526752047240734,0.006682879291474819,0.9840812087059021
1666652517.89964914,418086144,1,0.1758616715669632,0.0041091241873800755,0.007594765163958073,0.9843770265579224
1666652517.93965411,418126149,1,0.17366091907024384,0.0029402596410363913,0.008085280656814575,0.9847679138183594
1666652517.95968628,418146181,1,0.17259778082370758,0.0020516174845397472,0.00857763271778822,0.9849529266357422
1666652517.97968316,418166178,1,0.17160628736019135,0.0008831884479150176,0.009036404080688953,0.9851237535476685
1666652518.01966619,418206161,1,0.1695830374956131,-0.00036712951259687543,0.008909326046705246,0.9854755401611328
1666652518.05967021,418246165,1,0.16757413744926453,-0.0007087585981935263,0.008997693657875061,0.9858181476593018
1666652518.09969616,418286191,1,0.16572348773479462,-5.585017061093822e-05,0.007682248018682003,0.9861423373222351
1666652518.13965416,418326149,1,0.16390615701675415,0.00029062197427265346,0.006707643158733845,0.986453115940094
1666652518.15966415,418346159,1,0.1630270928144455,0.0006458752322942019,0.0074593015015125275,0.9865931868553162
1666652518.17963409,418366129,1,0.16216060519218445,0.0008772244909778237,0.00698105338960886,0.9867392778396606
1666652518.21964121,418406136,1,0.16036729514598846,0.0008441717945970595,0.00686806533485651,0.9870331287384033
1666652518.25966311,418446158,1,0.15843260288238525,0.00019446815713308752,0.006354947108775377,0.9873493313789368
1666652518.29962206,418486117,1,0.15650324523448944,-0.0001523738174000755,0.004300999920815229,0.9876680970191956
1666652518.33965421,418526149,1,0.15478214621543884,0.000266559625742957,0.0029084777925163507,0.9879443049430847
1666652518.35966420,418546159,1,0.15376707911491394,-3.816921525867656e-05,0.0009882260346785188,0.9881066083908081
1666652518.37965727,418566152,1,0.15311382710933685,0.0007474659942090511,0.0013221425469964743,0.9882073998451233
1666652518.41964316,418606138,1,0.15158063173294067,0.001254867296665907,-0.0004581210087053478,0.9884439706802368
1666652518.45967507,418646170,1,0.15022346377372742,0.001697020255960524,-0.0012997351586818695,0.9886497855186462
1666652518.49968815,418686183,1,0.14896145462989807,0.001976725412532687,-0.001879816991277039,0.9888392686843872
1666652518.53970623,418726201,1,0.14780211448669434,0.002373608760535717,-0.0018958481959998608,0.9890123009681702
1666652518.55964327,418746138,1,0.14727464318275452,0.003146811155602336,-0.0011185257462784648,0.9890900254249573
1666652518.57965326,418766148,1,0.14668303728103638,0.003028672654181719,-0.0021344025153666735,0.9891766309738159
1666652518.61967611,418806171,1,0.1458270102739334,0.003461461281403899,-0.0019952196162194014,0.9893020391464233
1666652518.65964127,418846136,1,0.14517554640769958,0.0034493375569581985,-0.0020737710874527693,0.9893977046012878
1666652518.69972920,418886224,1,0.1446930468082428,0.0035363328643143177,-0.0017143463483080268,0.9894688129425049
1666652518.73966622,418926161,1,0.14447060227394104,0.0036269372794777155,-0.0010378200095146894,0.9895018935203552
1666652518.75961924,418946114,1,0.14441914856433868,0.0036307598929852247,-0.0005898901727050543,0.9895097613334656
1666652518.77968526,418966180,1,0.14444930851459503,0.003673314582556486,-0.000458533875644207,0.9895052909851074
1666652518.81964612,419006141,1,0.1445615440607071,0.0035123401321470737,7.555589399999008e-05,0.9894895553588867
1666652518.85965014,419046145,1,0.14480078220367432,0.0037449789233505726,0.0008618810097686946,0.9894533753395081
1666652518.89964414,419086139,1,0.14509224891662598,0.004082191735506058,0.0012037644628435373,0.9894089698791504
1666652518.93967009,419126165,1,0.14564666152000427,0.004340211860835552,0.0015064999461174011,0.989326000213623
1666652518.95964622,419146141,1,0.1457947939634323,0.004460184369236231,0.001319772913120687,0.9893039464950562
1666652518.97965717,419166152,1,0.14614662528038025,0.004694490693509579,0.0017305281944572926,0.9892503023147583
1666652519.01968813,419206183,1,0.14670614898204803,0.004827078431844711,0.001957446336746216,0.9891663789749146
1666652519.05964422,419246139,1,0.147298663854599,0.004754210822284222,0.00243428535759449,0.989077627658844
1666652519.09966207,419286157,1,0.14787600934505463,0.004489486571401358,0.0024800843093544245,0.9889926314353943
1666652519.13964915,419326144,1,0.14855614304542542,0.00408934336155653,0.0021777809597551823,0.9888931512832642
1666652519.15963221,419346127,1,0.14899860322475433,0.003839869052171707,0.0019680934492498636,0.9888280034065247
1666652519.17967319,419366168,1,0.1492159515619278,0.0038547746371477842,0.0015233235899358988,0.9887959361076355
1666652519.21967816,419406173,1,0.14986103773117065,0.003701014444231987,0.0013747442280873656,0.988699197769165
1666652519.25966811,419446163,1,0.15037792921066284,0.0031441038008779287,0.001342465286143124,0.9886226654052734
1666652519.29966307,419486158,1,0.15079225599765778,0.0026662051677703857,0.00098506361246109,0.9885613918304443
1666652519.33962226,419526117,1,0.1510363668203354,0.0022807433269917965,0.0007207494345493615,0.9885253310203552
1666652519.35967708,419546172,1,0.15116244554519653,0.0024255458265542984,0.0014334471197798848,0.988504946231842
1666652519.37961912,419566114,1,0.15122881531715393,0.0017671264940872788,0.0010077578481286764,0.988496720790863
1666652519.41967010,419606165,1,0.15133945643901825,0.0012334780767560005,0.001225968124344945,0.9884803295135498
1666652519.45968914,419646184,1,0.15153944492340088,0.0008264770731329918,0.0011853406904265285,0.9884501695632935
1666652519.49965405,419686149,1,0.1515333205461502,0.0005414597108028829,0.001042092451825738,0.9884514808654785
1666652519.53965926,419726154,1,0.15158629417419434,0.0006881309091113508,0.0009429565980099142,0.9884433150291443
1666652519.55964208,419746137,1,0.15156276524066925,0.0006019308930262923,0.0014247343642637134,0.9884464144706726
1666652519.57962918,419766124,1,0.1514604687690735,0.0008670471142977476,0.0008437704527750611,0.9884625673294067
1666652519.61966515,419806160,1,0.1514514684677124,0.0010250837076455355,0.001078439294360578,0.9884635806083679
1666652519.65965629,419846151,1,0.15144068002700806,0.0009627649560570717,0.0012797522358596325,0.9884650707244873
1666652519.69967723,419886172,1,0.15129274129867554,0.0010042509529739618,0.0013434443389996886,0.9884876012802124
1666652519.73962212,419926117,1,0.15119799971580505,0.0011427438585087657,0.0015477518318220973,0.9885016083717346
1666652519.75966716,419946162,1,0.15113666653633118,0.0012657522456720471,0.0021970984525978565,0.9885096549987793
1666652519.77963710,419966132,1,0.15098749101161957,0.0014507642481476068,0.0017261713510379195,0.988533079624176
1666652519.81964922,420006144,1,0.15069390833377838,0.001796234748326242,0.002368962625041604,0.9885759949684143
1666652519.85966420,420046159,1,0.15030856430530548,0.001709814416244626,0.0024719831999391317,0.9886345863342285
1666652519.89965725,420086152,1,0.14983806014060974,0.0018287255661562085,0.0021576685830950737,0.9887065291404724
1666652519.93965912,420126154,1,0.149139866232872,0.0021412931382656097,0.002626503352075815,0.9888103008270264
1666652519.95967221,420146167,1,0.14874953031539917,0.0018781627295538783,0.003030636114999652,0.9888684749603271
1666652519.97965527,420166150,1,0.14838780462741852,0.0024791115429252386,0.0030725656542927027,0.9889213442802429
1666652520.01962709,420206122,1,0.14755204319953918,0.0019161589443683624,0.003066618926823139,0.9890477061271667
1666652520.05964327,420246138,1,0.14658361673355103,0.0017610291251912713,0.0030026379972696304,0.9891921281814575
1666652520.09965611,420286151,1,0.14553453028202057,0.0014581730356439948,0.003383174305781722,0.9893463253974915
1666652520.13967919,420326174,1,0.1445775181055069,0.001136039150878787,0.0028749238699674606,0.9894886612892151
1666652520.15964723,420346142,1,0.14405232667922974,0.0009531812975183129,0.0018297674832865596,0.9895679354667664
1666652520.17966413,420366159,1,0.14359085261821747,0.0008314979495480657,0.002896407386288047,0.9896325469017029
1666652520.21962118,420406116,1,0.14264871180057526,0.0006802937132306397,0.002741460921242833,0.9897693395614624
1666652520.25964117,420446136,1,0.14166690409183502,0.0007461947971023619,0.00263238325715065,0.9899106025695801
1666652520.29966617,420486161,1,0.14072197675704956,0.0002304435329278931,0.002400171710178256,0.9900462031364441
1666652520.33966923,420526164,1,0.139693945646286,-0.000328992580762133,0.001827229280024767,0.9901930093765259
1666652520.35963011,420546125,1,0.13939650356769562,-0.0002715208102017641,0.0025686712469905615,0.990233302116394
1666652520.37968016,420566175,1,0.1387682408094406,-0.0009244134416803718,0.0021177842281758785,0.9903221726417542
1666652520.41963029,420606125,1,0.13784390687942505,-0.0015913518145680428,0.0020236317068338394,0.9904506206512451
1666652520.45961809,420646113,1,0.13703927397727966,-0.0015042738523334265,0.0013755440013483167,0.9905635118484497
1666652520.49964929,420686144,1,0.13616131246089935,-0.0011720428010448813,0.001161494292318821,0.9906852841377258
1666652520.53967214,420726167,1,0.13537271320819855,-0.0008193801622837782,0.0012612343998625875,0.9907935857772827
1666652520.55965328,420746148,1,0.13503216207027435,-0.001390585908666253,0.0016385000199079514,0.990838885307312
1666652520.57967019,420766165,1,0.13462387025356293,-0.0006982540944591165,0.0011961699929088354,0.9908958077430725
1666652520.61968422,420806179,1,0.13394959270954132,-0.0006456936243921518,0.0007290394860319793,0.9909876585006714
1666652520.65963507,420846130,1,0.13341249525547028,-0.0011211213422939181,0.0007143312250263989,0.9910597205162048
1666652520.69964623,420886141,1,0.13285520672798157,-0.001322838943451643,0.0010281482245773077,0.9911340475082397
1666652520.73964310,420926138,1,0.13250185549259186,-0.001201743958517909,0.0011843679239973426,0.9911813139915466
1666652520.75964117,420946136,1,0.13212087750434875,-0.0008763583609834313,0.00041716385749168694,0.9912331104278564
1666652520.77966809,420966163,1,0.13206923007965088,-0.0004153991467319429,0.0011249422095716,0.9912397861480713
1666652520.81963229,421006127,1,0.131812185049057,0.0004329367948230356,0.0008340823114849627,0.9912742376327515
1666652520.85967612,421046171,1,0.1314205378293991,0.0010664615547284484,0.0006461009033955634,0.9913259148597717
1666652520.89965415,421086149,1,0.13105295598506927,0.0014792095171287656,0.0009908289648592472,0.9913737773895264
1666652520.93964314,421126138,1,0.13075250387191772,0.0015321493847295642,0.0010816886788234115,0.9914132952690125
1666652520.95968819,421146183,1,0.13054731488227844,0.0016136383637785912,0.0001252505899174139,0.9914407730102539
1666652520.97967410,421166169,1,0.1304817497730255,0.001887541264295578,0.0014563655713573098,0.9914478659629822
1666652521.01966619,421206161,1,0.13028033077716827,0.001979096094146371,0.0015532554825767875,0.9914740324020386
1666652521.05968523,421246180,1,0.13027457892894745,0.0024133692495524883,0.0018766403663903475,0.9914732575416565
1666652521.09966207,421286157,1,0.13020138442516327,0.002670151414349675,0.0021352223120629787,0.9914816617965698
1666652521.13964009,421326135,1,0.1302967220544815,0.0027546670753508806,0.0026986240409314632,0.9914675354957581
1666652521.15966821,421346163,1,0.13028119504451752,0.00260919495485723,0.0023315814323723316,0.9914709329605103
1666652521.17964125,421366136,1,0.13028676807880402,0.0025171523448079824,0.0027760218363255262,0.9914692640304565
1666652521.21968627,421406181,1,0.13042880594730377,0.0021127888467162848,0.0026425037067383528,0.9914519190788269
1666652521.25966120,421446156,1,0.13041138648986816,0.0016467076493427157,0.002278717001900077,0.9914559721946716
1666652521.29968905,421486184,1,0.13054324686527252,0.0012696817284449935,0.0017192866653203964,0.9914402961730957
1666652521.33965111,421526146,1,0.13068921864032745,0.0013547124108299613,0.0013636084040626884,0.9914215207099915
1666652521.35967016,421546165,1,0.13089706003665924,0.0018361263209953904,0.002564589260146022,0.9913909435272217
1666652521.37974906,421566244,1,0.1308853030204773,0.0015030123759061098,0.001761934719979763,0.9913948178291321
1666652521.41965008,421606145,1,0.13105261325836182,0.001722241984680295,0.001942128292284906,0.9913719892501831
1666652521.45966721,421646162,1,0.13136784732341766,0.0017384971724823117,0.0022286945022642612,0.9913296699523926
1666652521.49966121,421686156,1,0.13164332509040833,0.001855755690485239,0.0023107114247977734,0.9912927150726318
1666652521.53968406,421726179,1,0.13202953338623047,0.0019083519000560045,0.002684199484065175,0.9912403225898743
1666652521.55966711,421746162,1,0.13221892714500427,0.0012749236775562167,0.0033231074921786785,0.9912141561508179
1666652521.57965422,421766149,1,0.1323460340499878,0.002035209909081459,0.002675608964636922,0.9911978840827942
1666652521.61962628,421806121,1,0.1327778697013855,0.0020430334843695164,0.0026647818740457296,0.9911401271820068
1666652521.65964627,421846141,1,0.13314850628376007,0.001927595236338675,0.002584825037047267,0.9910908341407776
1666652521.69966626,421886161,1,0.1336231231689453,0.0016546890838071704,0.0026497063226997852,0.991027295589447
1666652521.73967624,421926171,1,0.1339845359325409,0.0014284171629697084,0.002791029866784811,0.990978479385376
1666652521.75961614,421946111,1,0.13401027023792267,0.0015481867594644427,0.001861180062405765,0.9909769892692566
1666652521.77965117,421966146,1,0.13438373804092407,0.0014054938219487667,0.0027692646253854036,0.9909244775772095
1666652521.81961823,422006113,1,0.13457117974758148,0.0017333212308585644,0.0029417427722364664,0.990898072719574
1666652521.85964108,422046136,1,0.13483363389968872,0.0018929698271676898,0.0030807401053607464,0.9908616542816162
1666652521.89967513,422086170,1,0.13501723110675812,0.001975737512111664,0.003107481636106968,0.9908363819122314
1666652521.93966818,422126163,1,0.1352260857820511,0.0019356007687747478,0.00329843838699162,0.9908074140548706
1666652521.95962024,422146115,1,0.1353391408920288,0.0012773675844073296,0.0013563494430854917,0.9907975792884827
1666652521.97968411,422166179,1,0.13535557687282562,0.001993417739868164,0.0026637520641088486,0.9907914996147156
1666652522.01964927,422206144,1,0.13560965657234192,0.0015046352054923773,0.002270743250846863,0.9907585978507996
1666652522.05961609,422246111,1,0.1358366757631302,0.001495878677815199,0.001940905931405723,0.9907281994819641
1666652522.09964418,422286139,1,0.13582809269428253,0.0018917316338047385,0.0017555085942149162,0.990729033946991
1666652522.13966823,422326163,1,0.1360236257314682,0.001864591147750616,0.001609607134014368,0.9907025098800659
1666652522.15961814,422346113,1,0.13602587580680847,0.0014249456580728292,0.0005351821891963482,0.9907041192054749
1666652522.17966819,422366163,1,0.13610093295574188,0.0021193299908190966,0.001552957808598876,0.9906914830207825
1666652522.21967721,422406172,1,0.1362845003604889,0.002335504861548543,0.0018527185311540961,0.9906652569770813
1666652522.25964928,422446144,1,0.13630349934101105,0.0017805893439799547,0.0019642640836536884,0.9906635880470276
1666652522.29964828,422486143,1,0.136559396982193,0.0014315416337922215,0.0012443356681615114,0.9906300902366638
1666652522.33964610,422526141,1,0.13660773634910583,0.001475952798500657,0.0005599313299171627,0.990623950958252
1666652522.35966015,422546155,1,0.13669534027576447,0.0020794691517949104,0.0009203546796925366,0.9906105399131775
1666652522.37967825,422566173,1,0.1366734802722931,0.0014799467753618956,0.00013076074537821114,0.9906150102615356
1666652522.41967106,422606166,1,0.13673263788223267,0.001381910522468388,0.0002940083504654467,0.990606963634491
1666652522.45966816,422646163,1,0.13664670288562775,0.0016787440981715918,0.0004950842703692615,0.9906182885169983
1666652522.49962020,422686115,1,0.1364929974079132,0.0015486966585740447,0.0007374592823907733,0.9906395673751831
1666652522.53964806,422726143,1,0.13655948638916016,0.0013940662611275911,0.000668469350785017,0.9906306862831116
1666652522.55968809,422746183,1,0.13661764562129974,0.0019985560793429613,0.002809002296999097,0.9906178712844849
1666652522.57964706,422766142,1,0.13660097122192383,0.0016602264950051904,0.001926739583723247,0.990622878074646
1666652522.61966515,422806160,1,0.1367187201976776,0.0023502737749367952,0.005904668476432562,0.9905894994735718
1666652522.65967917,422846174,1,0.1367373913526535,0.002782928990200162,0.01012082677334547,0.9905517101287842
1666652522.69968510,422886180,1,0.1366848200559616,0.003041068557649851,0.014085150323808193,0.9905098080635071
1666652522.73965526,422926150,1,0.1366245001554489,0.0033673092257231474,0.01802559196949005,0.9904531836509705
1666652522.75966811,422946163,1,0.13665388524532318,0.002616744488477707,0.018300427123904228,0.9904463291168213
1666652522.77965212,422966147,1,0.13652147352695465,0.0032840161584317684,0.0204607043415308,0.9904203414916992
1666652522.81967211,423006167,1,0.13646216690540314,0.003186985617503524,0.02225065790116787,0.9903902411460876
1666652522.85966611,423046161,1,0.13643339276313782,0.0035712644457817078,0.024519097059965134,0.9903393387794495
1666652522.89968109,423086176,1,0.13643929362297058,0.003920723684132099,0.02744084596633911,0.9902605414390564
1666652522.93965721,423126152,1,0.1361890435218811,0.00417756661772728,0.031049244105815887,0.9901873469352722
1666652522.95967007,423146165,1,0.13605627417564392,0.004579141736030579,0.033125728368759155,0.9901365637779236
1666652522.97965908,423166154,1,0.13594596087932587,0.004440669436007738,0.034697819501161575,0.9900984764099121
1666652523.01965213,423206147,1,0.13573071360588074,0.004850886296480894,0.039221931248903275,0.9899572134017944
1666652523.05966926,423246164,1,0.13546635210514069,0.004918977618217468,0.042177360504865646,0.9898715615272522
1666652523.09967518,423286170,1,0.13537351787090302,0.00552972499281168,0.04380948841571808,0.9898101687431335
1666652523.13965511,423326150,1,0.13499295711517334,0.005639246664941311,0.04462624713778496,0.9898250102996826
1666652523.15965319,423346148,1,0.13482442498207092,0.006003900431096554,0.04609164223074913,0.9897786974906921
1666652523.17965722,423366152,1,0.1348021924495697,0.0057237520813941956,0.04493435472249985,0.9898366332054138
1666652523.21964526,423406140,1,0.1344911903142929,0.005934868007898331,0.045756399631500244,0.989840030670166
1666652523.25964618,423446141,1,0.13405776023864746,0.006439911667257547,0.046709753572940826,0.9898511171340942
1666652523.29967213,423486167,1,0.13376177847385406,0.006644630338996649,0.04730195552110672,0.9898616671562195
1666652523.33965111,423526146,1,0.13327349722385406,0.006604225840419531,0.04746019467711449,0.9899202585220337
1666652523.35964513,423546140,1,0.13302864134311676,0.006544507574290037,0.047032345086336136,0.9899740219116211
1666652523.37968206,423566177,1,0.13289226591587067,0.0068101175129413605,0.046879012137651443,0.9899978041648865
1666652523.41967320,423606168,1,0.13241630792617798,0.007034303154796362,0.04591601341962814,0.990105152130127
1666652523.45965219,423646147,1,0.1320844292640686,0.006891830824315548,0.04496335610747337,0.9901942014694214
1666652523.49964309,423686138,1,0.13176366686820984,0.00643882853910327,0.04433361068367958,0.990268349647522
1666652523.53967023,423726165,1,0.13136693835258484,0.006103031802922487,0.04309793561697006,0.9903777241706848
1666652523.55964208,423746137,1,0.13118742406368256,0.005575816612690687,0.04258542135357857,0.990426778793335
1666652523.57969213,423766187,1,0.13087129592895508,0.005899548064917326,0.042190104722976685,0.9904836416244507
1666652523.61965919,423806154,1,0.13044895231723785,0.0057654185220599174,0.04136215150356293,0.9905750751495361
1666652523.65965509,423846150,1,0.1299516260623932,0.005924219731241465,0.04044255614280701,0.9906774759292603
1666652523.69961905,423886114,1,0.1297457367181778,0.006146344821900129,0.03993482515215874,0.990723729133606
1666652523.73967028,423926165,1,0.12944850325584412,0.006268056575208902,0.03856910765171051,0.9908159375190735
1666652523.75965929,423946154,1,0.12937025725841522,0.006285153329372406,0.03905437886714935,0.990807056427002
1666652523.77968025,423966175,1,0.12932993471622467,0.005920936819165945,0.03742799162864685,0.9908773303031921
1666652523.81968307,424006178,1,0.129171684384346,0.005372242070734501,0.036157842725515366,0.9909482598304749
1666652523.85962415,424046119,1,0.12905089557170868,0.005188897717744112,0.03489309176802635,0.991010308265686
1666652523.89966822,424086163,1,0.1288643628358841,0.0054605561308562756,0.033862777054309845,0.9910688400268555
1666652523.93965507,424126150,1,0.1286042034626007,0.005940095987170935,0.03334639593958855,0.9911174178123474
1666652523.95966411,424146159,1,0.12850581109523773,0.005921910982578993,0.03271123021841049,0.9911514520645142
1666652523.97966623,424166161,1,0.1285044252872467,0.005977231543511152,0.03285473957657814,0.9911465048789978
1666652524.01966524,424206160,1,0.12841035425662994,0.005939558148384094,0.03262973949313164,0.9911664128303528
1666652524.05968523,424246180,1,0.12853500247001648,0.005694103892892599,0.03194050118327141,0.9911741018295288
1666652524.09964323,424286138,1,0.12866151332855225,0.005607218947261572,0.03150925785303116,0.9911720156669617
1666652524.13962626,424326121,1,0.1287233680486679,0.0056844959035515785,0.031353168189525604,0.9911684989929199
1666652524.15968513,424346180,1,0.12884454429149628,0.006047945469617844,0.0309474915266037,0.9911633133888245
1666652524.17964220,424366137,1,0.12877300381660461,0.006457993295043707,0.03126159682869911,0.9911602139472961
1666652524.21967816,424406173,1,0.12895141541957855,0.006691200193017721,0.031297001987695694,0.9911343455314636
1666652524.25966311,424446158,1,0.12924274802207947,0.006478339433670044,0.031594324856996536,0.9910883903503418
1666652524.29965520,424486150,1,0.12972500920295715,0.006034508813172579,0.032212965190410614,0.9910082221031189
1666652524.33965206,424526147,1,0.13008716702461243,0.00592142716050148,0.03266945108771324,0.9909465312957764
1666652524.35965919,424546154,1,0.1302921324968338,0.006554501596838236,0.032159507274627686,0.990932285785675
1666652524.37964010,424566135,1,0.1304558366537094,0.006102966144680977,0.0326886884868145,0.9908962845802307
1666652524.41965508,424606150,1,0.13054180145263672,0.006422359962016344,0.032880499958992004,0.9908766150474548
1666652524.45967126,424646166,1,0.13079574704170227,0.006823936011642218,0.033595602959394455,0.9908164739608765
1666652524.49968910,424686184,1,0.13109959661960602,0.0074254609644412994,0.035031870007514954,0.9907222390174866
1666652524.53966022,424726155,1,0.1314612478017807,0.007750915829092264,0.035732701420784,0.9906467795372009
1666652524.55967927,424746174,1,0.1317259967327118,0.007461429573595524,0.03626898303627968,0.9905943274497986
1666652524.57963920,424766134,1,0.131880521774292,0.007476114202290773,0.035841017961502075,0.9905892610549927
1666652524.61964107,424806136,1,0.13225048780441284,0.0073709250427782536,0.03462069109082222,0.990584135055542
1666652524.65966821,424846163,1,0.1326235830783844,0.007051561493426561,0.03129824250936508,0.9906470775604248
1666652524.69966006,424886155,1,0.13290098309516907,0.006277060601860285,0.025541305541992188,0.9907802939414978
