timestamp,TimeUS,C,Roll,Pitch,Yaw,VN,VE,VD,dPD,PN,PE,PD,GX,GY,GZ,OH
1666652507.35966611,407546161,1,0.03,0.04,344.98,0.014320045709609985,-0.00758913392201066,-0.0889114961028099,-0.037842005491256714,11.54912281036377,-4.177953720092773,1.8933615684509277,0.17,0.02,-0.09,219.01
1666652507.37964106,407566136,1,0.03,0.04,344.98,0.014224983751773834,-0.007961796596646309,-0.08893999457359314,-0.037811025977134705,11.54955005645752,-4.178051948547363,1.8920691013336182,0.17,0.02,-0.09,219.01
1666652507.41964626,407606141,1,0.03,0.04,344.98,0.01373746432363987,-0.008192061446607113,-0.08856909722089767,-0.03958681970834732,11.55048942565918,-4.178211212158203,1.8899524211883545,0.17,0.02,-0.09,219.01
1666652507.45966625,407646161,1,0.03,0.04,344.97,0.01372137013822794,-0.008174736052751541,-0.08811064064502716,-0.042034246027469635,11.551362037658691,-4.178470611572266,1.8879766464233398,0.17,0.02,-0.09,219.01
1666652507.49965119,407686146,1,0.03,0.04,344.97,0.013591788709163666,-0.008592014200985432,-0.08728363364934921,-0.04185707867145538,11.552233695983887,-4.1787614822387695,1.8865145444869995,0.17,0.02,-0.09,219.01
1666652507.53967929,407726174,1,0.03,0.04,344.97,0.013336255215108395,-0.008990650065243244,-0.08687703311443329,-0.04303046315908432,11.552957534790039,-4.17907190322876,1.8844417333602905,0.17,0.02,-0.09,219.01
1666652507.55963707,407746132,1,0.03,0.04,344.97,0.01329098828136921,-0.00921450462192297,-0.08671129494905472,-0.04375765100121498,11.553266525268555,-4.179234027862549,1.8832217454910278,0.17,0.02,-0.09,219.01
1666652507.57963014,407766125,1,0.03,0.04,344.97,0.01321899238973856,-0.009307833388447762,-0.08656559884548187,-0.04466237500309944,11.55362319946289,-4.179393291473389,1.8823460340499878,0.17,0.02,-0.09,219.01
1666652507.61964417,407806139,1,0.03,0.04,344.97,0.013352510519325733,-0.009572498500347137,-0.08629994094371796,-0.045651137828826904,11.555057525634766,-4.179234504699707,1.8806211948394775,0.17,0.02,-0.09,219.01
1666652507.65963817,407846133,1,0.03,0.04,344.97,0.014730040915310383,-0.008401313796639442,-0.08534596115350723,-0.036956146359443665,11.55794620513916,-4.178172588348389,1.8795615434646606,0.17,0.02,-0.09,219.01
1666652507.69965816,407886153,1,0.03,0.04,344.97,0.01681598648428917,-0.007844981737434864,-0.08449947834014893,-0.02968381531536579,11.561261177062988,-4.176843166351318,1.878906488418579,0.17,0.02,-0.09,219.01
1666652507.73965311,407926148,1,0.03,0.04,344.96,0.017784973606467247,-0.007408179808408022,-0.08374981582164764,-0.026158496737480164,11.56368637084961,-4.176050662994385,1.8774305582046509,0.17,0.02,-0.09,219.01
1666652507.75963521,407946130,1,0.04,0.04,344.96,0.018048010766506195,-0.007258307188749313,-0.0837823748588562,-0.02665890008211136,11.564579963684082,-4.175853252410889,1.876338243484497,0.17,0.02,-0.09,219.01
1666652507.77967715,407966172,1,0.04,0.04,344.97,0.018950561061501503,-0.006841693539172411,-0.08348692953586578,-0.02775394544005394,11.565961837768555,-4.17534065246582,1.8757604360580444,0.17,0.02,-0.09,219.01
1666652507.81963515,408006130,1,0.04,0.03,344.96,0.01996534690260887,-0.006524714641273022,-0.08320710062980652,-0.029900789260864258,11.56812858581543,-4.1744065284729,1.874760389328003,0.17,0.02,-0.09,219.01
1666652507.85961223,408046107,1,0.04,0.03,344.96,0.0204323660582304,-0.005407859571278095,-0.08217638731002808,-0.014688383787870407,11.570198059082031,-4.172994136810303,1.8749589920043945,0.17,0.02,-0.09,219.01
1666652507.89964128,408086136,1,0.04,0.04,344.96,0.020993124693632126,-0.003851216519251466,-0.0813482254743576,-0.0017378025222569704,11.57249641418457,-4.171231269836426,1.8757810592651367,0.17,0.02,-0.09,219.01
1666652507.93966126,408126156,1,0.04,0.04,344.96,0.021525250747799873,-0.002866310765966773,-0.08023937046527863,0.005091237369924784,11.574308395385742,-4.170060157775879,1.875272512435913,0.17,0.02,-0.09,219.01
1666652507.95963812,408146133,1,0.04,0.03,344.96,0.022011708468198776,-0.0024141145404428244,-0.0800991877913475,0.005078982096165419,11.575037956237793,-4.169703483581543,1.8745204210281372,0.17,0.02,-0.09,219.01
1666652507.97967219,408166167,1,0.04,0.03,344.96,0.022211147472262383,-0.002095384756103158,-0.07979828864336014,0.003496419172734022,11.576031684875488,-4.168968200683594,1.8745195865631104,0.17,0.02,-0.09,219.01
1666652508.01965809,408206153,1,0.04,0.03,344.96,0.022260446101427078,-0.0016020018374547362,-0.07953611016273499,-0.0015974445268511772,11.577424049377441,-4.168281555175781,1.8738995790481567,0.17,0.02,-0.09,219.01
1666652508.05965018,408246145,1,0.04,0.03,344.96,0.022316748276352882,-0.0017902260879054666,-0.07879442721605301,-0.0021785947028547525,11.578261375427246,-4.168256759643555,1.873504638671875,0.17,0.02,-0.09,219.01
1666652508.09963727,408286132,1,0.04,0.03,344.96,0.02208382450044155,-0.0023941178806126118,-0.07768134027719498,-0.004468550905585289,11.579061508178711,-4.168217658996582,1.8735597133636475,0.17,0.02,-0.09,219.01
1666652508.13961720,408326112,1,0.05,0.03,344.96,0.02192239835858345,-0.0027070094365626574,-0.07721380144357681,-0.009534946642816067,11.57986068725586,-4.168230056762695,1.8725101947784424,0.17,0.02,-0.09,219.01
1666652508.15962029,408346115,1,0.04,0.03,344.97,0.022015083581209183,-0.0032328718807548285,-0.0771045982837677,-0.013153607957065105,11.580269813537598,-4.168262958526611,1.8715955018997192,0.17,0.02,-0.09,219.01
1666652508.17964911,408366144,1,0.04,0.03,344.97,0.021964892745018005,-0.003467919072136283,-0.07689746469259262,-0.01715169847011566,11.580642700195312,-4.168277263641357,1.8712337017059326,0.17,0.02,-0.09,219.01
1666652508.21967721,408406172,1,0.04,0.03,344.97,0.022057941183447838,-0.0029464266262948513,-0.07610774040222168,-0.014888257719576359,11.581351280212402,-4.1678996086120605,1.871442198753357,0.17,0.02,-0.09,219.01
1666652508.25963712,408446132,1,0.04,0.03,344.97,0.02224925346672535,-0.0025320511776953936,-0.07498730719089508,-0.00669139577075839,11.582075119018555,-4.167556285858154,1.8712489604949951,0.17,0.02,-0.09,219.01
1666652508.29963708,408486132,1,0.04,0.03,344.97,0.02238297089934349,-0.0018941264133900404,-0.07409629225730896,-0.0038939672522246838,11.582743644714355,-4.167094707489014,1.8715693950653076,0.17,0.02,-0.09,219.01
1666652508.33962107,408526116,1,0.04,0.03,344.97,0.02223796769976616,-0.0014170159120112658,-0.07323254644870758,-0.005080617498606443,11.583468437194824,-4.1667890548706055,1.8707739114761353,0.17,0.02,-0.09,219.01
1666652508.35966706,408546162,1,0.04,0.03,344.97,0.02230888605117798,-0.001529364031739533,-0.07299993187189102,-0.007666491437703371,11.58385944366455,-4.166700839996338,1.8699713945388794,0.17,0.02,-0.09,219.01
1666652508.37966108,408566156,1,0.04,0.03,344.97,0.022507213056087494,-0.001405320130288601,-0.07255758345127106,-0.01062180008739233,11.584211349487305,-4.166502475738525,1.8697220087051392,0.17,0.02,-0.09,219.01
1666652508.41964006,408606135,1,0.04,0.03,344.97,0.023491011932492256,-0.00015726978017482907,-0.07171523571014404,-0.015991803258657455,11.585321426391602,-4.165550708770752,1.8689769506454468,0.17,0.02,-0.09,219.01
1666652508.45968509,408646180,1,0.05,0.03,344.97,0.025148680433630943,0.003015086753293872,-0.07068503648042679,-0.013392657972872257,11.587152481079102,-4.163279056549072,1.868668556213379,0.17,0.02,-0.09,219.01
1666652508.49961424,408686109,1,0.05,0.03,344.97,0.026923302561044693,0.006153969559818506,-0.06982532143592834,-0.011665266938507557,11.58922290802002,-4.160429000854492,1.8689796924591064,0.17,0.02,-0.09,219.01
1666652508.53963423,408726129,1,0.05,0.03,344.98,0.028021255508065224,0.008740449324250221,-0.06914249062538147,-0.007846309803426266,11.591019630432129,-4.158321857452393,1.8686549663543701,0.17,0.02,-0.09,219.01
1666652508.55967617,408746171,1,0.05,0.03,344.98,0.028720850124955177,0.009575234726071358,-0.06908091902732849,-0.0068633039481937885,11.59181022644043,-4.157560348510742,1.8680256605148315,0.17,0.02,-0.09,219.01
1666652508.57963729,408766132,1,0.04,0.03,344.98,0.029593363404273987,0.011282671242952347,-0.06885313987731934,-0.006716405041515827,11.592823028564453,-4.156236171722412,1.8680535554885864,0.17,0.02,-0.09,219.01
1666652508.61966228,408806157,1,0.05,0.03,344.98,0.030077742412686348,0.01286090724170208,-0.06856731325387955,-0.007233185227960348,11.593802452087402,-4.154829025268555,1.8679430484771729,0.17,0.02,-0.09,219.01
1666652508.65963006,408846125,1,0.05,0.04,344.98,0.028398647904396057,0.012973482720553875,-0.06764113903045654,0.007193422876298428,11.593151092529297,-4.154727935791016,1.8690327405929565,0.17,0.02,-0.09,219.01
1666652508.69967628,408886171,1,0.05,0.04,344.98,0.026912840083241463,0.013306445442140102,-0.06645233929157257,0.019287096336483955,11.59212875366211,-4.154635906219482,1.870796799659729,0.17,0.02,-0.09,219.01
1666652508.73965311,408926148,1,0.05,0.04,344.98,0.026013633236289024,0.013447146862745285,-0.06542304158210754,0.025413427501916885,11.591763496398926,-4.154358386993408,1.8711861371994019,0.17,0.02,-0.09,219.01
1666652508.75966215,408946157,1,0.05,0.03,344.99,0.02566659450531006,0.013349735178053379,-0.06550534069538116,0.024927005171775818,11.591842651367188,-4.1541643142700195,1.870774745941162,0.17,0.02,-0.09,219.01
1666652508.77961516,408966110,1,0.04,0.03,344.99,0.025020232424139977,0.013128997758030891,-0.06513307988643646,0.02355102077126503,11.59147834777832,-4.154055118560791,1.871237874031067,0.17,0.02,-0.09,219.01
1666652508.81963825,409006133,1,0.05,0.03,344.99,0.02292877808213234,0.012506508268415928,-0.06419479846954346,0.017797939479351044,11.590448379516602,-4.154586315155029,1.8714467287063599,0.17,0.02,-0.09,219.01
1666652508.85965919,409046154,1,0.05,0.03,344.99,0.019894499331712723,0.009710551239550114,-0.06333116441965103,0.019300324842333794,11.587965965270996,-4.156708717346191,1.8721115589141846,0.17,0.02,-0.09,219.01
1666652508.89968324,409086178,1,0.04,0.03,344.98,0.016889892518520355,0.007683032192289829,-0.061845969408750534,0.019528614357113838,11.584709167480469,-4.159420013427734,1.873338222503662,0.17,0.02,-0.09,219.01
1666652508.93965816,409126153,1,0.05,0.03,344.98,0.014563721604645252,0.005286986939609051,-0.06128689646720886,0.015837734565138817,11.5826416015625,-4.161216735839844,1.8732926845550537,0.17,0.02,-0.09,219.01
1666652508.95966411,409146159,1,0.05,0.03,344.98,0.013864091597497463,0.004747387487441301,-0.061117153614759445,0.012372207827866077,11.582083702087402,-4.161762237548828,1.8727829456329346,0.17,0.02,-0.09,219.01
1666652508.97966027,409166155,1,0.05,0.03,344.99,0.012311737984418869,0.0039515504613518715,-0.06082563102245331,0.00866234116256237,11.58071231842041,-4.16292142868042,1.8729771375656128,0.17,0.02,-0.09,219.01
1666652509.01963711,409206132,1,0.04,0.03,344.99,0.010431134141981602,0.002198227448388934,-0.05981624871492386,0.0026958391536027193,11.578164100646973,-4.164830207824707,1.8732144832611084,0.17,0.02,-0.09,219.01
1666652509.05966520,409246160,1,0.04,0.03,344.99,0.007245825603604317,0.00029574159998446703,-0.058631833642721176,0.01260442566126585,11.574362754821777,-4.167182445526123,1.8744134902954102,0.17,0.02,-0.09,219.01
1666652509.09966326,409286158,1,0.05,0.03,344.99,0.0033713141456246376,-0.0016724008601158857,-0.057354893535375595,0.021579325199127197,11.569623947143555,-4.1700639724731445,1.8763446807861328,0.17,0.02,-0.09,219.01
1666652509.13968110,409326176,1,0.05,0.03,344.99,0.0009887766791507602,-0.003560983343049884,-0.056375324726104736,0.02761666290462017,11.566388130187988,-4.172060966491699,1.877078652381897,0.17,0.02,-0.09,219.01
1666652509.15963507,409346130,1,0.05,0.03,344.99,2.594066972960718e-05,-0.0038302121683955193,-0.05601537227630615,0.028023235499858856,11.565354347229004,-4.172728061676025,1.876876950263977,0.17,0.02,-0.09,219.01
1666652509.17962623,409366121,1,0.05,0.03,344.99,-0.0017503976123407483,-0.0046265642158687115,-0.055563680827617645,0.027089623734354973,11.563344955444336,-4.173941135406494,1.877488136291504,0.17,0.02,-0.09,219.01
1666652509.21963525,409406130,1,0.05,0.03,344.99,-0.003307114588096738,-0.0053917719051241875,-0.05414256826043129,0.02562565729022026,11.560805320739746,-4.176046848297119,1.8787342309951782,0.17,0.02,-0.09,219.01
1666652509.25965214,409446147,1,0.05,0.03,344.99,-0.0031015940476208925,-0.007340540643781424,-0.052711594849824905,0.044795699417591095,11.559127807617188,-4.1786675453186035,1.8815925121307373,0.17,0.02,-0.09,219.01
1666652509.29966307,409486158,1,0.04,0.03,344.99,-0.0029556788504123688,-0.008465795777738094,-0.05075351521372795,0.06186296418309212,11.557196617126465,-4.181751728057861,1.8852449655532837,0.17,0.02,-0.09,219.01
1666652509.33966708,409526162,1,0.05,0.03,344.99,-0.0031651859171688557,-0.009543653577566147,-0.049541912972927094,0.06912548094987869,11.555907249450684,-4.183928966522217,1.8869982957839966,0.17,0.02,-0.09,219.01
1666652509.35962224,409546117,1,0.05,0.03,344.99,-0.0029888988938182592,-0.009928233921527863,-0.049137964844703674,0.0681006982922554,11.555495262145996,-4.184678077697754,1.8871933221817017,0.17,0.02,-0.09,219.01
1666652509.37966514,409566160,1,0.04,0.03,344.99,-0.0027378862723708153,-0.010380595922470093,-0.048379167914390564,0.0654766783118248,11.55478286743164,-4.185939311981201,1.8883905410766602,0.17,0.02,-0.09,219.01
1666652509.41965127,409606146,1,0.04,0.03,344.99,-0.0032006362453103065,-0.01086642686277628,-0.04746329039335251,0.057662270963191986,11.553112983703613,-4.188114166259766,1.890025019645691,0.17,0.02,-0.09,219.01
1666652509.45964622,409646141,1,0.04,0.03,344.99,-0.004662902094423771,-0.011632689274847507,-0.046142030507326126,0.05718106031417847,11.550288200378418,-4.190673351287842,1.8920044898986816,0.17,0.02,-0.09,219.01
1666652509.49963927,409686134,1,0.04,0.03,344.99,-0.006247799377888441,-0.012107576243579388,-0.0444825254380703,0.0546451136469841,11.54699993133545,-4.193568706512451,1.8949204683303833,0.17,0.02,-0.09,219.01
1666652509.53966808,409726163,1,0.04,0.03,344.99,-0.007845943793654442,-0.012860576622188091,-0.042986370623111725,0.05583067610859871,11.544727325439453,-4.195645332336426,1.8967987298965454,0.17,0.02,-0.09,219.01
1666652509.55964327,409746138,1,0.04,0.03,344.99,-0.008040686137974262,-0.012898189015686512,-0.04259581118822098,0.05557536706328392,11.543961524963379,-4.196376323699951,1.8970810174942017,0.17,0.02,-0.09,219.01
1666652509.57964206,409766137,1,0.04,0.03,344.99,-0.008642143569886684,-0.01304872240871191,-0.041909970343112946,0.05430269241333008,11.54263973236084,-4.197543144226074,1.8983135223388672,0.17,0.02,-0.09,219.01
1666652509.61966109,409806156,1,0.04,0.03,344.99,-0.008777803741395473,-0.013490434736013412,-0.04126396030187607,0.04740718752145767,11.5408935546875,-4.1995015144348145,1.8993942737579346,0.17,0.02,-0.09,219.01
1666652509.65965724,409846152,1,0.04,0.03,344.99,-0.007757606450468302,-0.013358037918806076,-0.04029906168580055,0.03447969630360603,11.539681434631348,-4.2016777992248535,1.8998684883117676,0.17,0.02,-0.09,219.01
1666652509.69961023,409886105,1,0.04,0.03,344.99,-0.0072778137400746346,-0.012815677560865879,-0.03957929462194443,0.019658194854855537,11.538420677185059,-4.204059600830078,1.9007072448730469,0.17,0.02,-0.09,219.01
1666652509.73963928,409926134,1,0.04,0.03,344.99,-0.0067876954562962055,-0.01241378951817751,-0.039159856736660004,0.008251347579061985,11.537569999694824,-4.2057342529296875,1.9008070230484009,0.17,0.02,-0.09,219.01
1666652509.75964928,409946144,1,0.04,0.03,344.99,-0.006928741931915283,-0.012068338692188263,-0.038727693259716034,0.003694777609780431,11.537267684936523,-4.206337928771973,1.9005156755447388,0.17,0.02,-0.09,219.01
1666652509.77967525,409966170,1,0.04,0.03,344.99,-0.006588269025087357,-0.01197053212672472,-0.03864835575222969,-0.0005952513893134892,11.536846160888672,-4.207236289978027,1.9006774425506592,0.17,0.02,-0.09,219.01
1666652509.81968713,410006182,1,0.04,0.03,344.99,-0.006279979832470417,-0.011663815006613731,-0.03788302466273308,-0.004864605143666267,11.535951614379883,-4.2088704109191895,1.9012404680252075,0.17,0.02,-0.09,219.01
1666652509.85965419,410046149,1,0.04,0.03,345.0,-0.005941021256148815,-0.01189855020493269,-0.03639551252126694,0.011073902249336243,11.534661293029785,-4.210891246795654,1.9030871391296387,0.17,0.02,-0.09,219.01
1666652509.89962626,410086121,1,0.04,0.03,345.0,-0.006041816435754299,-0.011343533173203468,-0.03493477776646614,0.02643529139459133,11.533304214477539,-4.213092803955078,1.9056390523910522,0.17,0.02,-0.09,219.01
1666652509.93964219,410126137,1,0.04,0.03,345.0,-0.0061547718942165375,-0.010530509054660797,-0.03359517827630043,0.03912714496254921,11.532397270202637,-4.214618682861328,1.9072299003601074,0.17,0.02,-0.09,219.01
1666652509.95969820,410146193,1,0.04,0.03,345.0,-0.006035080645233393,-0.010752384550869465,-0.033108144998550415,0.042741335928440094,11.532079696655273,-4.215160369873047,1.9074491262435913,0.17,0.02,-0.09,219.01
1666652509.97966528,410166160,1,0.04,0.03,345.0,-0.00598086416721344,-0.010809279046952724,-0.0324888676404953,0.04429364949464798,11.531617164611816,-4.2159743309021,1.9084899425506592,0.17,0.02,-0.09,219.01
1666652510.01966906,410206164,1,0.04,0.03,345.0,-0.0062047941610217094,-0.010655763559043407,-0.031113997101783752,0.044486694037914276,11.530116081237793,-4.217748165130615,1.9099069833755493,0.17,0.02,-0.09,219.01
1666652510.05968213,410246177,1,0.04,0.03,345.0,-0.007598085328936577,-0.010795929469168186,-0.030018609017133713,0.04710208252072334,11.527191162109375,-4.220368385314941,1.9116052389144897,0.17,0.02,-0.09,219.01
1666652510.09962320,410286118,1,0.04,0.03,345.0,-0.008862785995006561,-0.011284180916845798,-0.02889389358460903,0.04627770930528641,11.523822784423828,-4.223292350769043,1.9137992858886719,0.17,0.02,-0.09,219.01
1666652510.13964820,410326143,1,0.04,0.03,345.0,-0.010137670673429966,-0.012182044796645641,-0.02822636067867279,0.04297427088022232,11.521488189697266,-4.225347518920898,1.9149115085601807,0.17,0.02,-0.09,219.01
1666652510.15968728,410346182,1,0.04,0.03,344.99,-0.011351419612765312,-0.01215385366231203,-0.02792167104780674,0.04009099677205086,11.52066707611084,-4.2260823249816895,1.9150230884552002,0.17,0.02,-0.09,219.01
1666652510.17963910,410366134,1,0.04,0.03,345.0,-0.011332100257277489,-0.012749481946229935,-0.027274487540125847,0.03701765835285187,11.519303321838379,-4.227226734161377,1.9157586097717285,0.17,0.02,-0.09,219.01
1666652510.21966529,410406160,1,0.04,0.03,345.0,-0.012682751752436161,-0.013415488414466381,-0.027215560898184776,0.02814994379878044,11.5166597366333,-4.229002952575684,1.9162919521331787,0.17,0.02,-0.09,219.01
1666652510.25964713,410446142,1,0.03,0.03,345.0,-0.012398378923535347,-0.011576402932405472,-0.02666376903653145,0.016757555305957794,11.512919425964355,-4.230768203735352,1.9164026975631714,0.17,0.02,-0.09,219.01
1666652510.29968619,410486181,1,0.04,0.03,345.01,-0.017585942521691322,-0.01290183886885643,-0.025900961831212044,0.005825487431138754,11.508651733398438,-4.232586860656738,1.916747808456421,0.17,0.02,-0.09,219.01
1666652510.33964109,410526136,1,0.04,0.03,345.0,-0.015537132509052753,-0.009180707857012749,-0.027005743235349655,-0.0017494660569354892,11.505577087402344,-4.233883380889893,1.9168262481689453,0.17,0.02,-0.09,219.01
1666652510.35966516,410546160,1,0.04,0.03,345.0,-0.01806042529642582,-0.013180090114474297,-0.026979215443134308,-0.003928775899112225,11.504487037658691,-4.234360694885254,1.916617751121521,0.17,0.02,-0.09,219.01
1666652510.37961626,410566111,1,0.04,0.03,345.0,-0.019792411476373672,-0.011827917769551277,-0.026142455637454987,-0.004917423706501722,11.502710342407227,-4.235038757324219,1.916707992553711,0.17,0.02,-0.09,219.01
1666652510.41965222,410606147,1,0.04,0.03,345.0,-0.018910543993115425,-0.010249854996800423,-0.02699151821434498,-0.008023327216506004,11.499367713928223,-4.235637664794922,1.916926383972168,0.17,0.02,-0.09,219.01
1666652510.45967317,410646168,1,0.04,0.03,345.0,-0.021594440564513206,-0.0068199364468455315,-0.025755150243639946,0.001381592475809157,11.49488353729248,-4.235391616821289,1.9177955389022827,0.17,0.02,-0.09,219.01
1666652510.49968314,410686178,1,0.04,0.04,345.0,-0.022757351398468018,-0.006777504459023476,-0.025761667639017105,0.008974083699285984,11.489791870117188,-4.234777450561523,1.9190748929977417,0.17,0.02,-0.09,219.01
1666652510.53965807,410726153,1,0.04,0.04,345.0,-0.022905126214027405,-0.0014912019250914454,-0.025129394605755806,0.015964893624186516,11.48613452911377,-4.234254360198975,1.9197674989700317,0.17,0.02,-0.09,219.01
1666652510.55967212,410746167,1,0.04,0.03,345.0,-0.023983212187886238,-0.003218643832951784,-0.02463606931269169,0.01816301792860031,11.484810829162598,-4.234076499938965,1.919777512550354,0.17,0.02,-0.09,219.01
1666652510.57965612,410766151,1,0.04,0.03,345.0,-0.02507813833653927,-0.0021386065054684877,-0.02444099448621273,0.019014671444892883,11.482728958129883,-4.233662128448486,1.9202479124069214,0.17,0.02,-0.09,219.01
1666652510.61964011,410806135,1,0.04,0.03,345.0,-0.025294918566942215,-0.000637128425296396,-0.02379257045686245,0.018941503018140793,11.479981422424316,-4.233055591583252,1.9208132028579712,0.17,0.02,-0.09,219.01
1666652510.65967011,410846165,1,0.03,0.02,345.01,-0.020110076293349266,0.001328786602243781,-0.023250222206115723,0.018048342317342758,11.478389739990234,-4.232585430145264,1.9212901592254639,0.17,0.02,-0.09,219.01
1666652510.69966912,410886164,1,0.05,0.03,345.0,-0.022426320239901543,0.002891113981604576,-0.023701215162873268,0.013787289150059223,11.476820945739746,-4.231714725494385,1.9220216274261475,0.17,0.02,-0.09,219.01
1666652510.73967528,410926170,1,0.04,0.03,345.01,-0.01932758279144764,0.005904196761548519,-0.029421471059322357,0.007021736353635788,11.475617408752441,-4.230963706970215,1.922491431236267,0.17,0.02,-0.09,219.01
1666652510.75964808,410946143,1,0.05,0.01,345.01,-0.023443885147571564,0.004847540054470301,-0.024349547922611237,0.011575485579669476,11.475146293640137,-4.2306389808654785,1.9224570989608765,0.17,0.02,-0.09,219.01
1666652510.77965117,410966146,1,0.05,0.02,345.01,-0.021098382771015167,0.006570711731910706,-0.0281326025724411,0.006916382350027561,11.47453784942627,-4.230086803436279,1.9227678775787354,0.17,0.02,-0.09,219.01
1666652510.81963420,411006129,1,0.04,0.02,345.01,-0.01927599124610424,0.012580805458128452,-0.02041599527001381,0.012935332022607327,11.472768783569336,-4.2302446365356445,1.9233109951019287,0.17,0.02,-0.09,219.01
1666652510.85962415,411046119,1,0.05,0.03,345.01,-0.023883096873760223,0.0019779717549681664,-0.020185494795441628,0.01932065561413765,11.469744682312012,-4.2324910163879395,1.9244630336761475,0.17,0.02,-0.09,219.01
1666652510.89966917,411086164,1,0.05,0.03,345.02,-0.026310810819268227,0.010358077473938465,-0.021235190331935883,0.02296239510178566,11.466374397277832,-4.235030651092529,1.9259090423583984,0.17,0.02,-0.09,219.01
1666652510.93967128,411126166,1,0.04,0.03,345.02,-0.014244978316128254,0.007805315311998129,-0.027561651542782784,0.018707191571593285,11.46399974822998,-4.236697673797607,1.926690936088562,0.17,0.02,-0.09,219.01
1666652510.95964026,411146135,1,0.05,0.04,345.02,-0.023365136235952377,0.005416980013251305,-0.018985025584697723,0.026851985603570938,11.463126182556152,-4.237119197845459,1.9267547130584717,0.17,0.02,-0.09,219.01
1666652510.97968221,411166177,1,0.03,0.04,345.02,-0.028158802539110184,0.004938205238431692,-0.011269716545939445,0.03328578174114227,11.461814880371094,-4.238099575042725,1.927219033241272,0.17,0.02,-0.09,219.01
1666652511.01962924,411206124,1,0.04,0.03,345.01,-0.020583143457770348,0.00020004126417916268,-0.02233874797821045,0.01845051720738411,11.459461212158203,-4.2396721839904785,1.9277697801589966,0.17,0.02,-0.09,219.01
1666652511.05963922,411246134,1,0.01,0.02,345.02,-0.024046771228313446,0.0034101386554539204,-0.021071741357445717,0.01643550395965576,11.45656967163086,-4.241490840911865,1.928312063217163,0.17,0.02,-0.09,219.01
1666652511.09964323,411286138,1,0.04,0.03,345.02,-0.016968438401818275,0.00992104783654213,-0.011831233277916908,0.021390091627836227,11.453381538391113,-4.24369478225708,1.9289803504943848,0.17,0.02,-0.09,219.01
1666652511.13966322,411326158,1,0.04,0.03,345.02,-0.024003075435757637,0.003672932041808963,-0.015284447930753231,0.01374618336558342,11.451069831848145,-4.244995594024658,1.9292442798614502,0.17,0.02,-0.09,219.01
1666652511.15965128,411346146,1,0.06,0.03,345.02,-0.02444334328174591,0.0070416731759905815,-0.022277651354670525,0.004663636442273855,11.450139999389648,-4.245314598083496,1.9292067289352417,0.17,0.02,-0.09,219.01
1666652511.17968225,411366177,1,0.06,0.02,345.02,-0.023728197440505028,0.0038703694008290768,-0.019972365349531174,0.0048407819122076035,11.448837280273438,-4.246085166931152,1.9294147491455078,0.17,0.02,-0.09,219.01
1666652511.21967125,411406166,1,0.04,0.03,345.02,-0.024269675835967064,0.00373562122695148,-0.011647525243461132,0.007326964288949966,11.446483612060547,-4.247562408447266,1.929013729095459,0.17,0.02,-0.09,219.01
1666652511.25965428,411446149,1,0.06,0.02,345.02,-0.024449944496154785,0.008847471326589584,-0.017212243750691414,-0.013165922835469246,11.443483352661133,-4.249577045440674,1.9277995824813843,0.17,0.02,-0.09,219.01
1666652511.29964709,411486142,1,0.02,0.03,345.03000000000003,-0.017513027414679527,0.006398106925189495,-0.019092505797743797,-0.02907983586192131,11.440319061279297,-4.251965522766113,1.9264096021652222,0.17,0.02,-0.09,219.01
1666652511.33970428,411526199,1,0.02,0.03,345.03000000000003,-0.02723417803645134,0.00543137826025486,-0.009438364766538143,-0.028920695185661316,11.43793773651123,-4.253298282623291,1.9251775741577148,0.17,0.02,-0.09,219.01
1666652511.35965514,411546150,1,0.02,0.03,345.03000000000003,-0.022217394784092903,0.005002813879400492,-0.011017914861440659,-0.03342166170477867,11.437033653259277,-4.253687858581543,1.9246641397476196,0.17,0.02,-0.09,219.01
1666652511.37966919,411566164,1,0.03,0.02,345.03000000000003,-0.0207681767642498,0.0008888939628377557,-0.018099132925271988,-0.042267706245183945,11.435832977294922,-4.254531383514404,1.9239863157272339,0.17,0.02,-0.09,219.01
1666652511.41968608,411606181,1,0.04,0.03,345.02,-0.024162283167243004,0.008366785012185574,-0.020230300724506378,-0.046134743839502335,11.432950973510742,-4.256568431854248,1.9226977825164795,0.17,0.02,-0.09,219.01
1666652511.45967317,411646168,1,0.03,0.02,345.03000000000003,-0.025624705478549004,0.0010097753256559372,-0.010180920362472534,-0.03657442331314087,11.428476333618164,-4.2603044509887695,1.9214180707931519,0.17,0.02,-0.09,219.01
1666652511.49964428,411686139,1,0.05,0.02,345.02,-0.026644302532076836,-0.0014438899233937263,-0.02436073124408722,-0.04979255050420761,11.423531532287598,-4.264626502990723,1.9199762344360352,0.17,0.02,-0.09,219.01
1666652511.53963614,411726131,1,0.04,0.02,345.03000000000003,-0.027896396815776825,0.00020213690004311502,-0.013898820616304874,-0.03775676339864731,11.419870376586914,-4.267390727996826,1.918756365776062,0.17,0.02,-0.09,219.01
1666652511.55967808,411746173,1,0.03,0.02,345.03000000000003,-0.02447529137134552,0.003629165468737483,-0.013981996104121208,-0.036890048533678055,11.418572425842285,-4.268291473388672,1.9182339906692505,0.17,0.02,-0.09,219.01
1666652511.57967424,411766169,1,0.02,0.02,345.03000000000003,-0.025891253724694252,0.005025041755288839,-0.01804342120885849,-0.0399295799434185,11.41659164428711,-4.269914150238037,1.9175485372543335,0.17,0.02,-0.09,219.01
1666652511.61966324,411806158,1,0.02,0.02,345.04,-0.02956104278564453,-0.004320390988141298,-0.014426118694245815,-0.03304455429315567,11.412939071655273,-4.272850036621094,1.9166260957717896,0.17,0.02,-0.1,219.01
1666652511.65967607,411846171,1,0.04,0.02,345.04,-0.02910708263516426,-0.002372964285314083,-0.01632595993578434,-0.02735663577914238,11.408769607543945,-4.2769999504089355,1.9160487651824951,0.17,0.02,-0.1,219.01
1666652511.69967818,411886173,1,0.04,0.03,345.04,-0.032748688012361526,-0.0033386109862476587,-0.017235495150089264,-0.021354403346776962,11.404046058654785,-4.281744480133057,1.9153497219085693,0.17,0.02,-0.09,219.01
1666652511.73964620,411926141,1,0.04,0.03,345.05,-0.03157118707895279,-0.005845687352120876,-0.01767830178141594,-0.020130790770053864,11.400568008422852,-4.284934043884277,1.914433479309082,0.17,0.02,-0.09,219.01
1666652511.75965714,411946152,1,0.04,0.02,345.04,-0.034713588654994965,-0.006701898295432329,-0.013940228149294853,-0.016747519373893738,11.399274826049805,-4.285933494567871,1.91400945186615,0.17,0.02,-0.09,219.01
1666652511.77964115,411966136,1,0.05,0.02,345.04,-0.032098472118377686,0.000789283774793148,-0.014357903972268105,-0.01782114803791046,11.397366523742676,-4.287712097167969,1.9135181903839111,0.17,0.02,-0.09,219.01
1666652511.81967211,412006167,1,0.01,0.02,345.05,-0.030768785625696182,-0.003311046864837408,-0.013860155828297138,-0.01752353087067604,11.393757820129395,-4.291068077087402,1.9128705263137817,0.17,0.02,-0.09,219.01
1666652511.85966420,412046159,1,0.03,0.03,345.05,-0.03500211238861084,-0.007698904722929001,-0.013748514465987682,-0.014536712318658829,11.389396667480469,-4.295530319213867,1.912359595298767,0.17,0.02,-0.09,219.01
1666652511.89969516,412086190,1,0.04,0.02,345.06,-0.035852182656526566,-0.00814000703394413,-0.014123751781880856,-0.01239185594022274,11.384509086608887,-4.300725936889648,1.9119828939437866,0.17,0.02,-0.09,219.01
1666652511.93965507,412126150,1,0.03,0.02,345.05,-0.03303892910480499,-0.0054885512217879295,-0.01768203265964985,-0.011869506910443306,11.380927085876465,-4.304224014282227,1.9117358922958374,0.17,0.02,-0.09,219.01
1666652511.95966721,412146162,1,0.03,0.02,345.05,-0.036352306604385376,-0.009541884064674377,-0.013326035812497139,-0.005741540342569351,11.379549980163574,-4.3053412437438965,1.911543369293213,0.17,0.02,-0.09,219.01
1666652511.97964716,412166142,1,0.03,0.02,345.05,-0.03849055990576744,-0.01181227620691061,-0.01089993491768837,-0.0019863073248416185,11.377561569213867,-4.307340621948242,1.9114365577697754,0.17,0.02,-0.09,219.01
1666652512.01964521,412206140,1,0.04,0.01,345.06,-0.03652086481451988,-0.00913923792541027,-0.01419366616755724,-0.00445945281535387,11.373645782470703,-4.311626434326172,1.9109058380126953,0.17,0.02,-0.09,219.01
1666652512.05966520,412246160,1,0.02,0.02,345.06,-0.035772476345300674,-0.010242411866784096,-0.016622701659798622,-0.013804816640913486,11.36853313446045,-4.318227291107178,1.9097923040390015,0.17,0.02,-0.09,219.01
1666652512.09963608,412286131,1,0.02,0.03,345.07,-0.038955625146627426,-0.01586446724832058,-0.011679088696837425,-0.016671372577548027,11.362837791442871,-4.325942039489746,1.9086840152740479,0.17,0.02,-0.1,219.01
1666652512.13964415,412326139,1,0.04,0.01,345.06,-0.0398450568318367,-0.01713397353887558,-0.013869588263332844,-0.021576587110757828,11.358628273010254,-4.3311920166015625,1.9079794883728027,0.17,0.02,-0.1,219.01
1666652512.15966606,412346161,1,0.04,0.02,345.06,-0.038279153406620026,-0.016682829707860947,-0.019074242562055588,-0.026770344004034996,11.357002258300781,-4.3329925537109375,1.907654047012329,0.17,0.02,-0.1,219.01
1666652512.17966127,412366156,1,0.03,0.02,345.06,-0.03910934552550316,-0.01985706202685833,-0.017334826290607452,-0.02466760016977787,11.354670524597168,-4.336082458496094,1.9072721004486084,0.17,0.02,-0.1,219.01
1666652512.21962023,412406115,1,0.03,0.02,345.06,-0.04239485040307045,-0.020190510898828506,-0.011883844621479511,-0.017477314919233322,11.350137710571289,-4.3413848876953125,1.9066460132598877,0.17,0.02,-0.09,219.01
1666652512.25964618,412446141,1,0.04,0.02,345.06,-0.04039192199707031,-0.017934691160917282,-0.01653595082461834,-0.0221025962382555,11.344147682189941,-4.3479509353637695,1.9057711362838745,0.17,0.02,-0.09,219.01
1666652512.29966521,412486160,1,0.01,0.03,345.06,-0.043604884296655655,-0.025847207754850388,-0.012654888443648815,-0.01927938126027584,11.337424278259277,-4.3555073738098145,1.904901146888733,0.17,0.02,-0.09,219.01
1666652512.33966017,412526155,1,0.05,0.02,345.06,-0.04858541861176491,-0.030418457463383675,-0.014607645571231842,-0.019683577120304108,11.332470893859863,-4.360817909240723,1.9043225049972534,0.17,0.02,-0.09,219.01
1666652512.35964012,412546135,1,0.03,0.02,345.06,-0.045568689703941345,-0.02909114770591259,-0.014745761640369892,-0.01863729953765869,11.330581665039062,-4.362705230712891,1.904033899307251,0.17,0.02,-0.09,219.01
1666652512.37966013,412566155,1,0.03,0.03,345.05,-0.04466435685753822,-0.02609698660671711,-0.017692947760224342,-0.020506978034973145,11.327798843383789,-4.365751266479492,1.9037303924560547,0.17,0.02,-0.09,219.01
1666652512.41965318,412606148,1,0.02,0.03,345.05,-0.04925796017050743,-0.029276154935359955,-0.01132465060800314,-0.013304119929671288,11.32291316986084,-4.371730327606201,1.9029021263122559,0.17,0.02,-0.09,219.01
1666652512.45964408,412646139,1,0.04,0.02,345.05,-0.05037536844611168,-0.03373180702328682,-0.01448214054107666,-0.021267501637339592,11.31729793548584,-4.380066871643066,1.901637077331543,0.17,0.02,-0.09,219.01
1666652512.49966908,412686164,1,0.03,0.03,345.04,-0.049127161502838135,-0.03473886102437973,-0.019079938530921936,-0.031251586973667145,11.311138153076172,-4.389585494995117,1.9002702236175537,0.17,0.02,-0.1,219.01
1666652512.53966522,412726160,1,0.02,0.02,345.05,-0.052908338606357574,-0.03795941546559334,-0.01284116506576538,-0.027678735554218292,11.306412696838379,-4.396382808685303,1.8991777896881104,0.17,0.02,-0.1,219.01
1666652512.55961418,412746109,1,0.03,0.02,345.05,-0.05270654708147049,-0.04365245997905731,-0.01750258356332779,-0.03281307592988014,11.304557800292969,-4.398787021636963,1.898687481880188,0.17,0.02,-0.1,219.01
1666652512.57969427,412766189,1,0.03,0.03,345.04,-0.05084545910358429,-0.04264741763472557,-0.014484108425676823,-0.02986839972436428,11.302020072937012,-4.402646541595459,1.898084044456482,0.17,0.02,-0.1,219.01
1666652512.61962509,412806120,1,0.04,0.03,345.04,-0.055024854838848114,-0.042923059314489365,-0.019469382241368294,-0.03479449450969696,11.297584533691406,-4.409121036529541,1.8970222473144531,0.17,0.02,-0.1,219.01
1666652512.65964127,412846136,1,0.04,0.03,345.05,-0.05138964578509331,-0.045058682560920715,-0.017020011320710182,-0.029296036809682846,11.29282283782959,-4.4163408279418945,1.8962304592132568,0.17,0.02,-0.1,219.01
1666652512.69961524,412886110,1,0.04,0.02,345.05,-0.05322641134262085,-0.04666953161358833,-0.01563202403485775,-0.024105949327349663,11.287796020507812,-4.4244465827941895,1.8956115245819092,0.17,0.02,-0.1,219.01
1666652512.73966813,412926163,1,0.04,0.02,345.05,-0.05052543431520462,-0.04311650991439819,-0.016107682138681412,-0.017483919858932495,11.283842086791992,-4.430326461791992,1.8953019380569458,0.17,0.02,-0.1,219.01
1666652512.75966525,412946160,1,0.02,0.02,345.05,-0.05009974539279938,-0.0454799048602581,-0.018975388258695602,-0.016848744824528694,11.28226375579834,-4.432494163513184,1.8950899839401245,0.17,0.02,-0.1,219.01
1666652512.77968812,412966183,1,0.01,0.02,345.06,-0.05155431106686592,-0.04999575763940811,-0.01509718969464302,-0.010081115178763866,11.280193328857422,-4.435786247253418,1.8949652910232544,0.17,0.02,-0.1,219.01
1666652512.81968427,413006179,1,0.02,0.02,345.06,-0.05571885406970978,-0.051081582903862,-0.014800380915403366,-0.004954924341291189,11.275672912597656,-4.441715717315674,1.8947526216506958,0.17,0.02,-0.1,219.01
1666652512.85961318,413046108,1,0.04,0.02,345.06,-0.054193638265132904,-0.05321339890360832,-0.016751328483223915,-0.003908682148903608,11.26961898803711,-4.448853492736816,1.8944835662841797,0.17,0.02,-0.1,219.01
1666652512.89966321,413086158,1,0.03,0.03,345.06,-0.05720275267958641,-0.048146240413188934,-0.015476344153285027,-0.0022472916170954704,11.262951850891113,-4.456797122955322,1.894332766532898,0.17,0.02,-0.1,219.01
1666652512.93964815,413126143,1,0.03,0.03,345.06,-0.05852946639060974,-0.05778825655579567,-0.013804719783365726,0.0003138890315312892,11.2578706741333,-4.462586879730225,1.8941807746887207,0.17,0.02,-0.1,219.01
1666652512.95965028,413146145,1,0.04,0.02,345.06,-0.057339780032634735,-0.05395255237817764,-0.015117889270186424,-0.000660870224237442,11.255857467651367,-4.464817523956299,1.8940192461013794,0.17,0.02,-0.1,219.01
1666652512.97970128,413166196,1,0.05,0.02,345.06,-0.058430492877960205,-0.05261635407805443,-0.018981993198394775,-0.004465137608349323,11.253107070922852,-4.468020915985107,1.8939520120620728,0.17,0.02,-0.1,219.01
1666652513.01967716,413206172,1,0.01,0.02,345.06,-0.05676327273249626,-0.05505943298339844,-0.014889238402247429,-0.0017955623334273696,11.24836254119873,-4.473781585693359,1.8935158252716064,0.17,0.02,-0.1,219.01
1666652513.05968118,413246176,1,0.03,0.02,345.06,-0.058971114456653595,-0.056374505162239075,-0.01113901101052761,-0.004023404326289892,11.243590354919434,-4.480571269989014,1.8927340507507324,0.17,0.02,-0.1,219.01
1666652513.09963417,413286129,1,0.04,0.02,345.06,-0.059758372604846954,-0.05822621285915375,-0.013849039562046528,-0.012935402803122997,11.23844051361084,-4.487973213195801,1.8919345140457153,0.17,0.02,-0.1,219.01
1666652513.13964224,413326137,1,0.05,0.02,345.06,-0.05779416486620903,-0.0616210512816906,-0.016469847410917282,-0.019017940387129784,11.234414100646973,-4.493564605712891,1.8912951946258545,0.17,0.02,-0.1,219.01
1666652513.15967822,413346173,1,0.03,0.02,345.06,-0.059597160667181015,-0.058669690042734146,-0.012468289583921432,-0.015867041423916817,11.2327299118042,-4.495746612548828,1.8909717798233032,0.17,0.02,-0.1,219.01
1666652513.17965722,413366152,1,0.05,0.02,345.06,-0.0615924634039402,-0.05912702530622482,-0.01491288747638464,-0.018840979784727097,11.230576515197754,-4.4987382888793945,1.8906238079071045,0.17,0.02,-0.1,219.01
1666652513.21969914,413406194,1,0.03,0.02,345.06,-0.0572567842900753,-0.05808992311358452,-0.011881423182785511,-0.014751553535461426,11.226770401000977,-4.5041680335998535,1.8903287649154663,0.17,0.02,-0.1,219.01
1666652513.25969219,413446187,1,0.02,0.02,345.06,-0.05812473222613335,-0.06000896170735359,-0.017024831846356392,-0.013461587950587273,11.2228364944458,-4.5103960037231445,1.890292763710022,0.17,0.02,-0.1,219.01
1666652513.29965520,413486150,1,0.04,0.03,345.07,-0.05701502785086632,-0.06308386474847794,-0.01062683667987585,-0.0015620695194229484,11.218801498413086,-4.517050743103027,1.8901969194412231,0.17,0.02,-0.1,219.01
1666652513.33961821,413526113,1,0.04,0.03,345.07,-0.0584891177713871,-0.06400250643491745,-0.016609685495495796,-0.00748081412166357,11.215508460998535,-4.522244930267334,1.8896735906600952,0.17,0.02,-0.1,219.01
1666652513.35967326,413546168,1,0.05,0.03,345.07,-0.06004226580262184,-0.06431461125612259,-0.015281676314771175,-0.00738496845588088,11.214031219482422,-4.524282932281494,1.8893810510635376,0.17,0.02,-0.1,219.01
1666652513.37964225,413566137,1,0.05,0.03,345.07,-0.058871790766716,-0.0621124766767025,-0.013716069050133228,-0.007317760493606329,11.212316513061523,-4.527013301849365,1.8891147375106812,0.17,0.02,-0.1,219.01
1666652513.41967106,413606166,1,0.03,0.03,345.07,-0.05652027204632759,-0.06238142400979996,-0.013208173215389252,-0.00963964406400919,11.208654403686523,-4.532540321350098,1.888674259185791,0.17,0.02,-0.1,219.01
1666652513.45966721,413646162,1,0.04,0.03,345.07,-0.060194551944732666,-0.06632616370916367,-0.014903733506798744,-0.009215718135237694,11.203824043273926,-4.539367198944092,1.888582468032837,0.17,0.02,-0.1,219.01
1666652513.49969220,413686187,1,0.03,0.03,345.07,-0.05644230544567108,-0.06371971219778061,-0.012585137039422989,-0.00406125420704484,11.198779106140137,-4.546850681304932,1.8884574174880981,0.17,0.02,-0.1,219.01
1666652513.53962207,413726117,1,0.03,0.03,345.07,-0.05901222676038742,-0.06445572525262833,-0.01482513826340437,-0.0076710195280611515,11.19472885131836,-4.552547931671143,1.8878957033157349,0.17,0.02,-0.1,219.01
1666652513.55967712,413746172,1,0.02,0.03,345.07,-0.05914831534028053,-0.06934846937656403,-0.014236868359148502,-0.008693698793649673,11.19301986694336,-4.554814338684082,1.8876135349273682,0.17,0.02,-0.1,219.01
1666652513.57965016,413766145,1,0.03,0.03,345.07,-0.057621151208877563,-0.0707341805100441,-0.009940393269062042,-0.00610031234100461,11.190921783447266,-4.557923316955566,1.8873436450958252,0.17,0.02,-0.1,219.01
1666652513.61964107,413806136,1,0.06,0.03,345.07,-0.06052573770284653,-0.06414537876844406,-0.012563836760818958,-0.011550714261829853,11.18676471710205,-4.563687801361084,1.8866689205169678,0.17,0.02,-0.1,219.01
1666652513.65966725,413846162,1,0.04,0.02,345.07,-0.058825213462114334,-0.07146752625703812,-0.012207545340061188,-0.016736609861254692,11.181657791137695,-4.570492744445801,1.8857035636901855,0.17,0.02,-0.1,219.01
1666652513.69966006,413886155,1,0.05,0.03,345.07,-0.059334896504879,-0.0686614066362381,-0.01374584436416626,-0.02310057543218136,11.176383018493652,-4.577858924865723,1.8846170902252197,0.17,0.02,-0.1,219.01
1666652513.73965406,413926149,1,0.03,0.03,345.08,-0.05962114781141281,-0.07149960100650787,-0.010344219394028187,-0.023701569065451622,11.172122955322266,-4.583509922027588,1.8835972547531128,0.17,0.02,-0.1,219.01
1666652513.75966811,413946163,1,0.04,0.02,345.08,-0.05775691568851471,-0.07561223953962326,-0.013869556598365307,-0.02855594828724861,11.17038631439209,-4.585872173309326,1.8831874132156372,0.17,0.02,-0.1,219.01
1666652513.77966428,413966159,1,0.05,0.02,345.08,-0.05639759078621864,-0.06987415254116058,-0.013876097276806831,-0.029373737052083015,11.16826057434082,-4.588881492614746,1.8826384544372559,0.17,0.02,-0.1,219.01
1666652513.81964827,414006143,1,0.05,0.02,345.08,-0.06037118658423424,-0.07201476395130157,-0.012335853651165962,-0.030990831553936005,11.16421890258789,-4.594857692718506,1.8808902502059937,0.17,0.02,-0.1,219.01
1666652513.85964227,414046137,1,0.06,0.02,345.07,-0.05533554032444954,-0.07416075468063354,-0.013193396851420403,-0.049395184963941574,11.160152435302734,-4.602349281311035,1.8780543804168701,0.17,0.02,-0.1,219.01
1666652513.89967918,414086174,1,0.05,0.02,345.08,-0.06268313527107239,-0.07626590132713318,-0.014493648894131184,-0.06598910689353943,11.155776023864746,-4.610424995422363,1.874674677848816,0.17,0.02,-0.1,219.01
1666652513.93963313,414126128,1,0.04,0.02,345.08,-0.053750839084386826,-0.07467351108789444,-0.01621110364794731,-0.07826981693506241,11.15229320526123,-4.616697311401367,1.872025728225708,0.17,0.02,-0.1,219.01
1666652513.95964527,414146140,1,0.05,0.02,345.08,-0.0578145757317543,-0.07373260706663132,-0.015158114023506641,-0.07973682880401611,11.150839805603027,-4.619165420532227,1.871087908744812,0.17,0.02,-0.1,219.01
1666652513.97966027,414166155,1,0.06,0.03,345.08,-0.05997277423739433,-0.07549337297677994,-0.01630995236337185,-0.0817137360572815,11.149012565612793,-4.622458457946777,1.8695791959762573,0.17,0.02,-0.1,219.01
1666652514.01965618,414206151,1,0.05,0.02,345.08,-0.055632613599300385,-0.07781477272510529,-0.018807897344231606,-0.08297120034694672,11.145277976989746,-4.6282219886779785,1.867012619972229,0.17,0.02,-0.1,219.01
1666652514.05962920,414246124,1,0.05,0.02,345.08,-0.057563189417123795,-0.07673878967761993,-0.015486912801861763,-0.07882361859083176,11.140613555908203,-4.633993148803711,1.8643670082092285,0.17,0.02,-0.1,219.01
1666652514.09967613,414286171,1,0.06,0.02,345.08,-0.056447822600603104,-0.07470253854990005,-0.014439391903579235,-0.07457022368907928,11.135754585266113,-4.640145778656006,1.8612873554229736,0.17,0.02,-0.1,219.01
1666652514.13966513,414326160,1,0.07,0.02,345.08,-0.05726882442831993,-0.07456454634666443,-0.009174629114568233,-0.0672772005200386,11.131780624389648,-4.6451945304870605,1.8587372303009033,0.17,0.02,-0.1,219.01
1666652514.15962315,414346118,1,0.07,0.02,345.07,-0.057056769728660583,-0.07406516373157501,-0.01468625571578741,-0.07150552421808243,11.130197525024414,-4.64727783203125,1.857811689376831,0.17,0.02,-0.1,219.01
1666652514.17968822,414366183,1,0.06,0.03,345.08,-0.05791672691702843,-0.07564094662666321,-0.011010313406586647,-0.06602474302053452,11.128137588500977,-4.649905681610107,1.8563674688339233,0.17,0.02,-0.1,219.01
1666652514.21966720,414406162,1,0.06,0.02,345.06,-0.05773262307047844,-0.07903465628623962,-0.012624663300812244,-0.06493072956800461,11.123726844787598,-4.65419864654541,1.8537784814834595,0.17,0.02,-0.1,219.01
1666652514.25964522,414446140,1,0.04,0.01,345.06,-0.06042185798287392,-0.08010327816009521,-0.013383395038545132,-0.06503907591104507,11.117835998535156,-4.658052921295166,1.8512507677078247,0.17,0.02,-0.1,219.01
1666652514.29964519,414486140,1,0.07,0.02,345.05,-0.056841347366571426,-0.0805409625172615,-0.02018461376428604,-0.06908353418111801,11.111363410949707,-4.661755084991455,1.8483564853668213,0.17,0.02,-0.1,219.01
1666652514.33966517,414526160,1,0.06,0.01,345.05,-0.054632943123579025,-0.0740407258272171,-0.024030206725001335,-0.0692274197936058,11.1063871383667,-4.665158748626709,1.8461936712265015,0.17,0.02,-0.1,219.01
1666652514.35965323,414546148,1,0.07,0.02,345.04,-0.061043500900268555,-0.07843998819589615,-0.014039536006748676,-0.056929104030132294,11.104448318481445,-4.666684150695801,1.8453941345214844,0.17,0.02,-0.1,219.01
1666652514.37966514,414566160,1,0.08,0.01,345.04,-0.05936488136649132,-0.06912561506032944,-0.02083832398056984,-0.06110266596078873,11.101788520812988,-4.668273448944092,1.8442233800888062,0.17,0.02,-0.1,219.01
1666652514.41969109,414606186,1,0.08,0.02,345.04,-0.06075987219810486,-0.07287881523370743,-0.018513286486268044,-0.05491027235984802,11.097091674804688,-4.671079158782959,1.8423030376434326,0.17,0.02,-0.1,219.01
1666652514.45961928,414646114,1,0.05,0.02,345.05,-0.06011737510561943,-0.07983200997114182,-0.011760919354856014,-0.0367044098675251,11.092010498046875,-4.673355579376221,1.8413922786712646,0.17,0.02,-0.1,219.01
1666652514.49963808,414686133,1,0.01,0.01,345.04,-0.05152060464024544,-0.06703373789787292,-0.03376667946577072,-0.04614685848355293,11.086642265319824,-4.67527437210083,1.8401261568069458,0.17,0.02,-0.1,219.01
1666652514.53964210,414726137,1,0.11,0.0,345.05,-0.06180468574166298,-0.06487288326025009,-0.0269117783755064,-0.03744005411863327,11.082442283630371,-4.677265167236328,1.8383899927139282,0.17,0.02,-0.1,219.01
1666652514.55966020,414746155,1,0.06,0.0,345.05,-0.05320141837000847,-0.059813521802425385,-0.026504995301365852,-0.03840835392475128,11.080692291259766,-4.678414821624756,1.8377463817596436,0.17,0.02,-0.1,219.01
1666652514.57967925,414766174,1,0.03,0.02,345.06,-0.053385380655527115,-0.06110921874642372,-0.0068763140588998795,-0.020417768508195877,11.078454971313477,-4.679281234741211,1.8368141651153564,0.17,0.02,-0.1,219.01
1666652514.61963606,414806131,1,0.13,0.0,345.06,-0.06313534080982208,-0.07586201280355453,-0.015056964010000229,-0.036334700882434845,11.074211120605469,-4.681906700134277,1.8342760801315308,0.17,0.02,-0.1,219.01
1666652514.65967822,414846173,1,0.1,0.01,345.05,-0.06102297827601433,-0.05974002182483673,-0.01729717291891575,-0.05178848281502724,11.069258689880371,-4.685769557952881,1.8317748308181763,0.17,0.02,-0.1,219.01
1666652514.69964623,414886141,1,0.04,0.02,345.07,-0.05452977865934372,-0.06002736836671829,-0.018877126276493073,-0.06120186671614647,11.064046859741211,-4.689655780792236,1.8286911249160767,0.17,0.02,-0.1,219.01
1666652514.73963308,414926128,1,0.07,0.0,345.07,-0.06369985640048981,-0.0649360790848732,-0.019312625750899315,-0.0700213685631752,11.059948921203613,-4.692838668823242,1.8259342908859253,0.17,0.02,-0.1,219.01
1666652514.75968313,414946178,1,0.07,0.0,345.07,-0.059964049607515335,-0.06235000863671303,-0.012578369118273258,-0.06643489748239517,11.058221817016602,-4.694278240203857,1.8249425888061523,0.17,0.02,-0.1,219.01
1666652514.77964306,414966138,1,0.09,0.01,345.07,-0.05385785549879074,-0.05991610139608383,-0.010775555856525898,-0.06650064885616302,11.056087493896484,-4.695827007293701,1.8233695030212402,0.17,0.02,-0.1,219.01
1666652514.81966805,415006163,1,0.12,0.03,345.07,-0.05684501677751541,-0.06856381893157959,-0.017496386542916298,-0.07703596353530884,11.05147933959961,-4.69976806640625,1.820292353630066,0.17,0.02,-0.1,219.01
1666652514.85967827,415046173,1,0.11,0.02,345.08,-0.061780694872140884,-0.06269415467977524,-0.01810205914080143,-0.0827358290553093,11.045445442199707,-4.705428123474121,1.81733238697052,0.17,0.02,-0.1,219.01
1666652514.89967728,415086172,1,0.1,0.0,345.09000000000003,-0.0595678985118866,-0.06307516992092133,-0.017227500677108765,-0.08159781992435455,11.03893756866455,-4.7114715576171875,1.813561201095581,0.17,0.02,-0.1,219.01
1666652514.93965125,415126146,1,0.13,0.01,345.11,-0.057127173990011215,-0.06202661991119385,-0.01620185375213623,-0.08775313943624496,11.033954620361328,-4.716120719909668,1.8098971843719482,0.17,0.02,-0.1,219.01
1666652514.95966625,415146161,1,0.14,0.01,345.13,-0.05753738433122635,-0.06529750674962997,-0.020312590524554253,-0.09502437710762024,11.031942367553711,-4.718038082122803,1.8086421489715576,0.17,0.02,-0.1,219.01
1666652514.97964215,415166137,1,0.14,0.0,345.13,-0.05881407484412193,-0.06561346352100372,-0.02101653628051281,-0.09763120114803314,11.029276847839355,-4.720491886138916,1.8065927028656006,0.17,0.02,-0.1,219.01
1666652515.01968026,415206175,1,0.14,-0.01,345.15000000000003,-0.06530537456274033,-0.061308566480875015,-0.020742587745189667,-0.09784362465143204,11.024621963500977,-4.725275993347168,1.8034071922302246,0.17,0.02,-0.1,219.01
1666652515.05967021,415246165,1,0.11,0.01,345.16,-0.06413880735635757,-0.05940708518028259,-0.008647111244499683,-0.07643500715494156,11.01991081237793,-4.730906009674072,1.8011282682418823,0.17,0.02,-0.1,219.01
1666652515.09968209,415286177,1,0.04,0.01,345.19,-0.05856923758983612,-0.05964438617229462,-0.02133811265230179,-0.07529988139867783,11.015035629272461,-4.736899375915527,1.798126220703125,0.17,0.02,-0.1,219.01
1666652515.13964725,415326142,1,0.15,0.0,345.23,-0.05991687253117561,-0.06212732940912247,-0.019390732049942017,-0.07351458817720413,11.011163711547852,-4.741572856903076,1.7947986125946045,0.17,0.02,-0.1,219.01
1666652515.15966415,415346159,1,0.08,0.0,345.25,-0.06316779553890228,-0.06365340948104858,-0.013129081577062607,-0.06935801357030869,11.009511947631836,-4.743514060974121,1.7936418056488037,0.17,0.02,-0.1,219.01
1666652515.17964506,415366140,1,0.05,0.0,345.27,-0.05958728864789009,-0.06231635436415672,-0.019417041912674904,-0.07734479755163193,11.007505416870117,-4.745975971221924,1.7918307781219482,0.17,0.02,-0.1,219.01
1666652515.21963406,415406129,1,0.09,0.01,345.3,-0.06029358506202698,-0.06121426820755005,-0.014137109741568565,-0.07654409110546112,11.00324535369873,-4.750987529754639,1.788221836090088,0.17,0.02,-0.11,219.01
1666652515.25966716,415446162,1,0.09,0.0,345.35,-0.06334928423166275,-0.06685028225183487,-0.015378493815660477,-0.0849497839808464,10.99769401550293,-4.757543563842773,1.784708023071289,0.17,0.02,-0.11,219.01
1666652515.29966927,415486164,1,0.13,-0.01,345.38,-0.060086820274591446,-0.06148163974285126,-0.022985398769378662,-0.09401414543390274,10.991809844970703,-4.764549732208252,1.7801417112350464,0.17,0.02,-0.11,219.01
1666652515.33968210,415526177,1,0.09,0.0,345.43,-0.058663807809352875,-0.0694466158747673,-0.025394491851329803,-0.10939449071884155,10.987244606018066,-4.769948482513428,1.7755017280578613,0.17,0.02,-0.11,219.01
1666652515.35968518,415546180,1,0.1,0.01,345.44,-0.05722218006849289,-0.05603059381246567,-0.006540827918797731,-0.09665397554636002,10.985431671142578,-4.77205228805542,1.7739219665527344,0.17,0.02,-0.11,219.01
1666652515.37966323,415566158,1,0.09,0.0,345.46,-0.05971163511276245,-0.06715506315231323,-0.0340312160551548,-0.12882304191589355,10.98299789428711,-4.774921894073486,1.77130126953125,0.17,0.02,-0.11,219.01
1666652515.41966414,415606159,1,0.05,0.0,345.51,-0.05825871601700783,-0.06215963885188103,-0.02627922035753727,-0.13193070888519287,10.978702545166016,-4.780420303344727,1.7656291723251343,0.17,0.02,-0.11,219.01
1666652515.45961809,415646113,1,0.15,-0.01,345.54,-0.05707758665084839,-0.07070013880729675,-0.03822581470012665,-0.16513919830322266,10.974258422851562,-4.7870564460754395,1.7594975233078003,0.17,0.02,-0.11,219.01
1666652515.49967122,415686166,1,0.14,-0.02,345.58,-0.05233578011393547,-0.06096833199262619,-0.01922086626291275,-0.1561381220817566,10.969646453857422,-4.79437255859375,1.7518892288208008,0.17,0.02,-0.11,219.01
1666652515.53965425,415726149,1,0.04,-0.04,345.61,-0.049131426960229874,-0.06285437196493149,-0.01782967522740364,-0.1704109162092209,10.966062545776367,-4.799978256225586,1.7450648546218872,0.17,0.02,-0.11,219.01
1666652515.55962110,415746116,1,0.18,-0.06,345.63,-0.050940778106451035,-0.06205178424715996,-0.018496761098504066,-0.17626982927322388,10.964612007141113,-4.802118301391602,1.7428034543991089,0.17,0.02,-0.11,219.01
1666652515.57970309,415766198,1,0.1,-0.07,345.63,-0.053706780076026917,-0.07753222435712814,-0.03516076132655144,-0.19539977610111237,10.96274185180664,-4.805086135864258,1.7389558553695679,0.17,0.02,-0.11,219.01
1666652515.61963129,415806126,1,0.24,-0.1,345.66,-0.05382514372467995,-0.07191693037748337,-0.014923389069736004,-0.18288351595401764,10.959494590759277,-4.81038761138916,1.7305711507797241,0.17,0.02,-0.11,219.01
1666652515.65964818,415846143,1,0.1,-0.12,345.66,-0.04953710362315178,-0.050058141350746155,-0.04656112194061279,-0.2486376315355301,10.956201553344727,-4.816372871398926,1.7206515073776245,0.17,0.02,-0.11,219.01
1666652515.69964218,415886137,1,0.22,-0.19,345.71,-0.04292895272374153,-0.0426044762134552,-0.028874393552541733,-0.2503780126571655,10.95287036895752,-4.822856426239014,1.708163857460022,0.17,0.02,-0.12,219.01
1666652515.73966813,415926163,1,0.19,-0.24,345.73,-0.0429181344807148,-0.05028760805726051,-0.055834341794252396,-0.3061819076538086,10.950154304504395,-4.8278326988220215,1.6970415115356445,0.17,0.02,-0.12,219.01
1666652515.75965309,415946148,1,0.26,-0.22,345.76,-0.04790492728352547,-0.07178546488285065,-0.04866618290543556,-0.30858418345451355,10.949033737182617,-4.829721450805664,1.6931672096252441,0.17,0.02,-0.12,219.01
1666652515.77967620,415966171,1,0.2,-0.29,345.79,-0.03425990045070648,-0.046324457973241806,-0.05225103721022606,-0.3164443373680115,10.947750091552734,-4.832325458526611,1.686626672744751,0.17,0.02,-0.12,219.01
1666652515.81966615,416006161,1,0.26,-0.34,345.84000000000003,-0.025947412475943565,-0.05240964889526367,-0.08181197941303253,-0.3495790660381317,10.945173263549805,-4.836885452270508,1.6741846799850464,0.17,0.02,-0.12,219.01
1666652515.85962415,416046119,1,0.31,-0.36,345.86,-0.023149775341153145,-0.059853654354810715,-0.12091401219367981,-0.3995612859725952,10.941914558410645,-4.842257499694824,1.6606671810150146,0.17,0.02,-0.12,219.01
1666652515.89965129,416086146,1,0.38,-0.41000000000000003,345.88,-0.023508232086896896,-0.05298248305916786,-0.14749909937381744,-0.42080938816070557,10.938580513000488,-4.848062515258789,1.643169641494751,0.17,0.02,-0.12,219.01
1666652515.93962407,416126119,1,0.45,-0.42,345.91,-0.01957167498767376,-0.04614190384745598,-0.17525166273117065,-0.46147122979164124,10.936193466186523,-4.852365016937256,1.6259247064590454,0.17,0.02,-0.12,219.01
1666652515.95966029,416146155,1,0.53,-0.5,345.91,-0.023695388808846474,-0.055439967662096024,-0.1935204416513443,-0.4845273792743683,10.935399055480957,-4.853979587554932,1.6190274953842163,0.17,0.02,-0.12,219.01
1666652515.97966123,416166156,1,0.47000000000000003,-0.45,345.92,-0.014831813052296638,-0.035231366753578186,-0.20373356342315674,-0.49505123496055603,10.934224128723145,-4.8562912940979,1.609040379524231,0.17,0.02,-0.12,219.01
1666652516.01965308,416206148,1,0.55,-0.47000000000000003,345.93,-0.004923911299556494,-0.03127117455005646,-0.22078709304332733,-0.5108743906021118,10.933465003967285,-4.859851360321045,1.5898255109786987,0.17,0.02,-0.12,219.01
1666652516.05965424,416246149,1,0.59,-0.52,345.94,-0.0019365045009180903,-0.027103273198008537,-0.24177038669586182,-0.5366678237915039,10.934710502624512,-4.862779140472412,1.569893479347229,0.17,0.02,-0.12,219.01
1666652516.09964228,416286137,1,0.65,-0.55,345.93,0.0014406974660232663,-0.025601830333471298,-0.2619462311267853,-0.5461365580558777,10.936574935913086,-4.865575790405273,1.5464966297149658,0.17,0.02,-0.12,219.01
1666652516.13964224,416326137,1,0.65,-0.54,345.95,0.013372586108744144,-0.01757952943444252,-0.29773858189582825,-0.5801578760147095,10.9381103515625,-4.867766857147217,1.5247076749801636,0.17,0.02,-0.12,219.01
1666652516.15969110,416346186,1,0.79,-0.51,345.92,0.00661834143102169,-0.04478314518928528,-0.3108902871608734,-0.5900281667709351,10.938730239868164,-4.868631839752197,1.515196681022644,0.17,0.02,-0.12,219.01
1666652516.17966723,416366162,1,0.66,-0.52,345.93,0.018900297582149506,-0.022746998816728592,-0.3387448489665985,-0.611374020576477,10.939750671386719,-4.8697428703308105,1.5030908584594727,0.17,0.02,-0.12,219.01
1666652516.21965122,416406146,1,0.66,-0.44,345.92,0.029550446197390556,-0.008762209676206112,-0.3728301227092743,-0.6324219107627869,10.942495346069336,-4.8707475662231445,1.4794939756393433,0.17,0.02,-0.13,219.01
1666652516.25966406,416446159,1,0.64,-0.33,345.90000000000003,0.03493262827396393,-0.015236028470098972,-0.39802905917167664,-0.6587693095207214,10.947157859802246,-4.870264053344727,1.4547491073608398,0.17,0.02,-0.13,219.01
1666652516.29965210,416486147,1,0.53,-0.19,345.90000000000003,0.04392256215214729,-0.006081878207623959,-0.41612526774406433,-0.6689577698707581,10.952885627746582,-4.869186878204346,1.4264780282974243,0.17,0.02,-0.13,219.01
1666652516.33964229,416526137,1,0.29,-0.05,345.89,0.041539907455444336,-0.01366342417895794,-0.4387085735797882,-0.6956644058227539,10.957308769226074,-4.868609428405762,1.400229573249817,0.17,0.02,-0.13,219.01
1666652516.35968709,416546182,1,0.3,0.0,345.88,0.039160821586847305,-0.03414849936962128,-0.45032867789268494,-0.7068445086479187,10.959090232849121,-4.868444442749023,1.3887709379196167,0.17,0.02,-0.13,219.01
1666652516.37964106,416566136,1,0.02,0.1,345.88,0.041885942220687866,-0.015856461599469185,-0.43805357813835144,-0.6905717849731445,10.96162223815918,-4.868035793304443,1.3748852014541626,0.17,0.02,-0.13,219.01
1666652516.41966629,416606161,1,-0.18,0.23,345.87,0.0495065413415432,-0.0018207504181191325,-0.45547014474868774,-0.7214134335517883,10.966171264648438,-4.867711067199707,1.3432196378707886,0.17,0.02,-0.13,219.01
1666652516.45967317,416646168,1,-0.33,0.31,345.88,0.05298079922795296,0.004088863730430603,-0.4726739823818207,-0.7909724116325378,10.97109603881836,-4.867648601531982,1.3109182119369507,0.17,0.02,-0.13,219.01
1666652516.49966216,416686157,1,1.71,-1.01,161.83,0.04116656258702278,-0.044786471873521805,-0.48181384801864624,-0.8258557319641113,10.976521492004395,-4.867332458496094,1.27229642868042,0.17,0.02,-0.13,219.01
1666652516.53963709,416726132,1,1.37,-0.68,161.81,0.03446105495095253,-0.043496642261743546,-0.4805305004119873,-0.9114665389060974,10.980667114257812,-4.867408275604248,1.2323068380355835,0.17,0.02,-0.13,219.01
1666652516.55967212,416746167,1,1.2,-0.44,161.8,0.05037887766957283,-0.011948352679610252,-0.4884762167930603,-0.9602184295654297,10.982306480407715,-4.867586135864258,1.2162010669708252,0.17,0.02,-0.13,219.01
1666652516.57965112,416766146,1,0.79,-0.24,161.8,0.04171326756477356,-0.02507515624165535,-0.494441419839859,-0.9966500997543335,10.984688758850098,-4.867151737213135,1.1946020126342773,0.17,0.02,-0.13,219.01
1666652516.61964107,416806136,1,0.12,0.25,161.8,0.041087523102760315,0.0037870374508202076,-0.5005773901939392,-1.0536028146743774,10.989275932312012,-4.867541313171387,1.152104377746582,0.17,0.02,-0.13,219.01
