timestamp,TimeUS,I,Status,GMS,GWk,NSats,HDop,Lat,Lng,Alt,Spd,GCrs,VZ,Yaw,U
1676238288.99900007,145687601,0,3,78306999,2249,15,0.72,42.687967199999996,-84.4915503,277.85,0.04609772562980652,12.528807640075684,0.10100000351667404,0.0,1
1676238289.17915106,145867752,0,3,78307199,2249,15,0.72,42.6879671,-84.4915503,277.86,0.032557643949985504,227.48956298828125,0.018000001087784767,0.0,1
1676238289.37908888,146067690,0,3,78307399,2249,15,0.72,42.6879671,-84.4915503,277.88,0.01702938787639141,273.366455078125,0.020000001415610313,0.0,1
1676238289.57908297,146267684,0,3,78307599,2249,15,0.72,42.687967,-84.4915503,277.90000000000003,0.022135945037007332,288.4349365234375,0.05900000408291817,0.0,1
1676238289.77892089,146467522,0,3,78307799,2249,15,0.72,42.6879669,-84.4915503,277.93,0.05922837182879448,348.3106384277344,0.09800000488758087,0.0,1
1676238289.97897792,146667579,0,3,78307999,2249,15,0.72,42.6879668,-84.49155019999999,277.93,0.015132746659219265,352.4053649902344,-0.003000000026077032,0.0,1
1676238290.17905498,146867656,0,3,78308199,2249,15,0.72,42.6879668,-84.49155019999999,277.95,0.07564391195774078,335.8067932128906,0.02500000037252903,0.0,1
1676238290.37907791,147067679,0,3,78308399,2249,15,0.72,42.6879668,-84.49155019999999,277.97,0.034669872373342514,33.23170852661133,-0.024000000208616257,0.0,1
1676238290.57925892,147267860,0,3,78308599,2249,15,0.72,42.6879668,-84.4915501,277.99,0.06841053068637848,322.1250305175781,0.09100000560283661,0.0,1
1676238290.77889895,147467500,0,3,78308799,2249,15,0.72,42.6879667,-84.4915501,278.01,0.01835756003856659,29.35775375366211,0.05000000074505806,0.0,1
1676238290.97897696,147667578,0,3,78308999,2249,15,0.72,42.687966599999996,-84.49154999999999,278.02,0.0187882948666811,64.79887390136719,0.05400000140070915,0.0,1
1676238291.17906189,147867663,0,3,78309199,2249,15,0.72,42.687966499999995,-84.4915498,278.05,0.013341664336621761,12.994616508483887,0.039000000804662704,0.0,1
1676238291.37908006,148067681,0,3,78309399,2249,15,0.72,42.6879664,-84.4915497,278.08,0.04000000283122063,0.0,0.010000000707805157,0.0,1
1676238291.57889891,148267500,0,3,78309599,2249,15,0.72,42.6879664,-84.4915497,278.09000000000003,0.02140093594789505,307.4053649902344,0.03100000135600567,0.0,1
1676238291.77896690,148467568,0,3,78309799,2249,15,0.72,42.6879663,-84.4915496,278.09000000000003,0.023000001907348633,180.0,0.05300000309944153,0.0,1
1676238291.97926593,148667867,0,3,78309999,2249,15,0.72,42.6879662,-84.49154949999999,278.11,0.059033893048763275,26.130998611450195,0.05100000277161598,0.0,1
1676238292.17926288,148867864,0,3,78310199,2249,15,0.72,42.6879661,-84.4915494,278.11,0.02163330838084221,213.69007873535156,0.03400000184774399,0.0,1
1676238292.37891507,149067516,0,3,78310399,2249,15,0.72,42.6879661,-84.4915494,278.11,0.020124612376093864,296.5650634765625,0.036000002175569534,0.0,1
1676238292.57887697,149267478,0,3,78310599,2249,15,0.72,42.687965999999996,-84.4915493,278.12,0.0403112918138504,352.8749694824219,0.07000000029802322,0.0,1
1676238292.77915692,149467758,0,3,78310799,2249,15,0.72,42.687965899999995,-84.4915492,278.14,0.02385372295975685,33.02386474609375,0.07500000298023224,0.0,1
1676238292.97909808,149667699,0,3,78310999,2249,15,0.72,42.6879658,-84.4915492,278.15000000000003,0.016763055697083473,162.64596557617188,-0.06300000101327896,0.0,1
1676238293.19889188,149887493,0,3,78311199,2249,15,0.72,42.6879657,-84.4915491,278.18,0.029966648668050766,115.70995330810547,-0.04000000283122063,0.0,1
1676238293.37889695,150067498,0,3,78311399,2249,15,0.72,42.6879656,-84.49154899999999,278.18,0.015620499849319458,50.194427490234375,-0.01900000125169754,0.0,1
1676238293.57897806,150267579,0,3,78311599,2249,15,0.72,42.6879656,-84.49154879999999,278.19,0.048020828515291214,148.62698364257812,-0.01900000125169754,0.0,1
1676238293.77924609,150467847,0,3,78311799,2249,15,0.72,42.6879655,-84.49154879999999,278.21,0.03298484534025192,345.9637451171875,0.02800000086426735,0.0,1
1676238293.99894500,150687546,0,3,78311999,2249,15,0.72,42.6879655,-84.4915487,278.21,0.018110770732164383,276.3402099609375,-0.0020000000949949026,0.0,1
1676238294.17946100,150868062,0,3,78312199,2249,15,0.72,42.687965399999996,-84.49154879999999,278.22,0.04162931814789772,335.89776611328125,0.06599999964237213,0.0,1
1676238294.37887788,151067479,0,3,78312399,2249,15,0.72,42.687965299999995,-84.4915487,278.24,0.019723083823919296,59.534454345703125,0.058000002056360245,0.0,1
1676238294.57895899,151267560,0,3,78312599,2249,15,0.72,42.687965299999995,-84.4915486,278.24,0.0442831814289093,154.59228515625,0.017000000923871994,0.0,1
1676238294.77925706,151467858,0,3,78312799,2249,15,0.72,42.6879652,-84.4915486,278.23,0.033060550689697266,183.46823120117188,0.014000000432133675,0.0,1
1676238294.97911692,151667718,0,3,78312999,2249,15,0.72,42.6879651,-84.4915485,278.24,0.06958448886871338,7.431407451629639,0.03800000250339508,0.0,1
1676238295.17890286,151867504,0,3,78313199,2249,15,0.72,42.6879652,-84.4915485,278.26,0.04949747771024704,8.130102157592773,0.046000003814697266,0.0,1
1676238295.37897110,152067572,0,3,78313399,2249,15,0.72,42.6879651,-84.4915484,278.27,0.05824946239590645,145.49147033691406,-0.015000000596046448,0.0,1
1676238295.57924795,152267849,0,3,78313599,2249,15,0.72,42.687965,-84.4915484,278.28000000000003,0.02942787855863571,279.78240966796875,0.10100000351667404,0.0,1
1676238295.77907491,152467676,0,3,78313799,2249,15,0.72,42.6879649,-84.4915484,278.28000000000003,0.03584690019488335,329.8586120605469,0.03100000135600567,0.0,1
1676238295.97893500,152667536,0,3,78313999,2249,15,0.72,42.6879649,-84.4915484,278.28000000000003,0.036400552839040756,307.1847229003906,0.07700000703334808,0.0,1
1676238296.17910695,152867708,0,3,78314199,2249,15,0.72,42.687965,-84.4915484,278.28000000000003,0.09588535130023956,352.2079162597656,0.07900000363588333,0.0,1
1676238296.37895298,153067554,0,3,78314399,2249,15,0.72,42.6879649,-84.4915484,278.28000000000003,0.06530696898698807,168.5179901123047,0.01600000075995922,0.0,1
1676238296.57908106,153267682,0,3,78314599,2249,15,0.72,42.687964799999996,-84.49154829999999,278.3,0.025806978344917297,35.53767395019531,0.07600000500679016,0.0,1
1676238296.77909803,153467699,0,3,78314799,2249,15,0.72,42.687964699999995,-84.4915482,278.31,0.03313608467578888,354.8055725097656,0.015000000596046448,0.0,1
1676238296.97889495,153667496,0,3,78314999,2249,15,0.72,42.687964699999995,-84.4915482,278.33,0.01345362514257431,311.9872131347656,-0.0010000000474974513,0.0,1
1676238297.17897606,153867577,0,3,78315199,2249,15,0.72,42.6879646,-84.4915482,278.35,0.0014142136787995696,135.0,-0.027000000700354576,0.0,1
1676238297.37906504,154067666,0,3,78315399,2249,15,0.72,42.6879645,-84.4915481,278.36,0.03935733810067177,297.21612548828125,0.0650000050663948,0.0,1
1676238297.57925987,154267861,0,3,78315599,2249,15,0.72,42.6879645,-84.4915481,278.37,0.046861499547958374,309.8055725097656,0.029000001028180122,0.0,1
1676238297.77890801,154467509,0,3,78315799,2249,15,0.72,42.6879645,-84.4915481,278.38,0.028301943093538284,327.99462890625,-0.06100000441074371,0.0,1
1676238297.97889709,154667498,0,3,78315999,2249,15,0.72,42.6879645,-84.4915481,278.40000000000003,0.04729693755507469,346.5513916015625,0.017000000923871994,0.0,1
1676238298.17897797,154867579,0,3,78316199,2249,15,0.72,42.6879645,-84.491548,278.40000000000003,0.03354102000594139,190.3048553466797,0.021000001579523087,0.0,1
1676238298.37908697,155067688,0,3,78316399,2249,15,0.72,42.6879645,-84.491548,278.42,0.03400000184774399,0.0,0.08300000429153442,0.0,1
1676238298.57907104,155267672,0,3,78316599,2249,15,0.72,42.6879645,-84.4915479,278.40000000000003,0.03138471022248268,22.47943115234375,0.07400000095367432,0.0,1
1676238298.77890396,155467505,0,3,78316799,2249,15,0.72,42.6879645,-84.49154779999999,278.40000000000003,0.02376973070204258,22.249021530151367,0.005000000353902578,0.0,1
1676238298.97917199,155667773,0,3,78316999,2249,15,0.72,42.6879645,-84.4915477,278.42,0.037643060088157654,219.61068725585938,0.02800000086426735,0.0,1
1676238299.17934299,155867944,0,3,78317199,2249,15,0.72,42.6879645,-84.4915477,278.43,0.0650000050663948,0.0,0.009000000543892384,0.0,1
1676238299.37924695,156067848,0,3,78317399,2249,15,0.72,42.6879646,-84.49154759999999,278.42,0.039051249623298645,50.194427490234375,0.07400000095367432,0.0,1
1676238299.57925391,156267855,0,3,78317599,2249,15,0.72,42.6879646,-84.4915475,278.42,0.04401136562228203,1.301952600479126,0.11400000751018524,0.0,1
1676238299.77909303,156467694,0,3,78317799,2249,15,0.72,42.6879645,-84.4915474,278.45,0.008544004522264004,290.5560607910156,0.0560000017285347,0.0,1
1676238299.99908590,156687687,0,3,78317999,2249,15,0.72,42.6879644,-84.4915473,278.46,0.05292447656393051,202.2034912109375,0.01100000087171793,0.0,1
1676238300.17907405,156867675,0,3,78318199,2249,15,0.72,42.6879643,-84.4915473,278.46,0.015811389312148094,161.56504821777344,-0.007000000216066837,0.0,1
1676238300.37906909,157067670,0,3,78318399,2249,15,0.72,42.6879643,-84.4915472,278.48,0.025179356336593628,353.1572265625,0.023000001907348633,0.0,1
1676238300.57890010,157267501,0,3,78318599,2249,15,0.72,42.6879643,-84.4915472,278.48,0.019798990339040756,135.0,0.07200000435113907,0.0,1
1676238300.77898192,157467583,0,3,78318799,2249,15,0.72,42.6879643,-84.491547,278.48,0.021260293200612068,48.8140754699707,0.06100000441074371,0.0,1
1676238300.97908807,157667689,0,3,78318999,2249,15,0.72,42.6879643,-84.491547,278.48,0.05803447589278221,358.0250549316406,0.11500000208616257,0.0,1
1676238301.17906308,157867664,0,3,78319199,2249,15,0.72,42.6879643,-84.4915469,278.49,0.022135945037007332,161.56504821777344,0.009000000543892384,0.0,1
1676238301.37924695,158067848,0,3,78319399,2249,15,0.72,42.6879643,-84.4915468,278.49,0.026627056300640106,304.286865234375,-0.005000000353902578,0.0,1
1676238301.59933805,158287939,0,3,78319599,2249,15,0.72,42.687964199999996,-84.4915468,278.5,0.022203605622053146,262.2348327636719,0.04800000041723251,0.0,1
1676238301.77898097,158467582,0,3,78319799,2249,15,0.72,42.687964199999996,-84.4915468,278.51,0.009486833587288857,161.56504821777344,0.05400000140070915,0.0,1
1676238301.97928905,158667890,0,3,78319999,2249,15,0.72,42.687964199999996,-84.4915467,278.5,0.0570087730884552,338.3852233886719,-0.010000000707805157,0.0,1
1676238302.17908287,158867684,0,3,78320199,2249,15,0.72,42.687964199999996,-84.4915467,278.51,0.012000000104308128,270.0,0.02800000086426735,0.0,1
1676238302.37895489,159067556,0,3,78320399,2249,15,0.72,42.687964199999996,-84.49154659999999,278.52,0.02408318966627121,318.366455078125,0.0560000017285347,0.0,1
1676238302.57897091,159267572,0,3,78320599,2249,15,0.72,42.687964199999996,-84.49154659999999,278.51,0.011401754803955555,142.12501525878906,-0.0010000000474974513,0.0,1
1676238302.77908587,159467687,0,3,78320799,2249,15,0.72,42.687964099999995,-84.4915465,278.52,0.020591260865330696,119.0545883178711,-0.09100000560283661,0.0,1
1676238329.57918501,186267786,0,3,78347599,2249,15,0.72,42.6879631,-84.4915451,278.95,0.020000001415610313,0.0,0.0950000062584877,0.0,1
1676238329.77928305,186467884,0,3,78347799,2249,15,0.72,42.6879631,-84.49154519999999,278.94,0.016970563679933548,315.0,0.04100000113248825,0.0,1
1676238329.97929287,186667894,0,3,78347999,2249,15,0.72,42.687962999999996,-84.4915453,278.95,0.02801785245537758,2.0454084873199463,0.12000000476837158,0.0,1
1676238330.17956805,186868169,0,3,78348199,2249,15,0.72,42.687962999999996,-84.4915453,278.96,0.035014282912015915,1.6365770101547241,0.010000000707805157,0.0,1
1676238330.37888694,187067488,0,3,78348399,2249,15,0.72,42.687962899999995,-84.4915453,278.98,0.04011234641075134,175.71084594726562,-0.017000000923871994,0.0,1
1676238330.57896709,187267568,0,3,78348599,2249,15,0.72,42.6879628,-84.49154539999999,278.98,0.02416609413921833,204.4439697265625,0.0860000029206276,0.0,1
1676238330.77931905,187467920,0,3,78348799,2249,15,0.72,42.6879627,-84.49154539999999,278.99,0.021260293200612068,41.18592071533203,0.06400000303983688,0.0,1
1676238330.97910404,187667705,0,3,78348999,2249,15,0.72,42.6879626,-84.49154539999999,279.0,0.04103657230734825,43.025062561035156,-0.005000000353902578,0.0,1
1676238331.17890692,187867508,0,3,78349199,2249,15,0.72,42.6879626,-84.49154539999999,279.0,0.03635932132601738,328.4957275390625,0.055000003427267075,0.0,1
1676238331.37898588,188067587,0,3,78349399,2249,15,0.72,42.6879626,-84.4915455,279.0,0.0522015355527401,339.829345703125,0.09200000762939453,0.0,1
1676238331.57907701,188267678,0,3,78349599,2249,15,0.72,42.6879626,-84.4915456,278.99,0.01702938787639141,273.366455078125,0.017000000923871994,0.0,1
1676238331.77928591,188467887,0,3,78349799,2249,15,0.72,42.687962399999996,-84.4915456,279.02,0.05099019780755043,11.309932708740234,0.08300000429153442,0.0,1
1676238331.97901797,188667619,0,3,78349999,2249,15,0.72,42.687962399999996,-84.4915456,279.01,0.0760263130068779,333.4349365234375,0.16700001060962677,0.0,1
1676238332.17889905,188867500,0,3,78350199,2249,15,0.72,42.687962299999995,-84.4915457,279.0,0.03023243322968483,145.78428649902344,0.049000002443790436,0.0,1
1676238332.37918496,189067786,0,3,78350399,2249,15,0.72,42.6879622,-84.4915457,279.0,0.024515300989151,168.23170471191406,0.03800000250339508,0.0,1
1676238332.57934403,189267945,0,3,78350599,2249,15,0.72,42.6879621,-84.4915456,279.01,0.06260990351438522,26.56505012512207,0.08400000631809235,0.0,1
1676238332.77910399,189467705,0,3,78350799,2249,15,0.72,42.687962,-84.4915455,279.04,0.08228001743555069,73.76764678955078,0.05100000277161598,0.0,1
1676238332.97895598,189667557,0,3,78350999,2249,15,0.72,42.6879619,-84.4915455,279.04,0.024413112550973892,214.99203491210938,-0.049000002443790436,0.0,1
1676238333.19951797,189888119,0,3,78351199,2249,15,0.72,42.6879618,-84.4915455,279.06,0.0518844909965992,332.44720458984375,0.11400000751018524,0.0,1
1676238333.37932110,190067922,0,3,78351399,2249,15,0.72,42.6879618,-84.4915455,279.06,0.03546829894185066,49.573917388916016,-0.006000000052154064,0.0,1
1676238333.57909489,190267696,0,3,78351599,2249,15,0.72,42.687961699999995,-84.4915455,279.07,0.018110770732164383,353.6598205566406,-0.004000000189989805,0.0,1
1676238333.77895689,190467558,0,3,78351799,2249,15,0.72,42.6879616,-84.4915455,279.09000000000003,0.048826225101947784,34.99201583862305,0.08000000566244125,0.0,1
1676238333.97892094,190667522,0,3,78351999,2249,15,0.72,42.6879614,-84.49154539999999,279.09000000000003,0.08438602089881897,130.67494201660156,-0.04100000113248825,0.0,1
1676238334.17922091,190867822,0,3,78352199,2249,15,0.72,42.6879612,-84.4915453,279.1,0.03962322697043419,169.82447814941406,0.05300000309944153,0.0,1
1676238334.37911391,191067715,0,3,78352399,2249,15,0.72,42.687961,-84.4915453,279.11,0.01910497434437275,186.00901794433594,0.0430000014603138,0.0,1
1676238334.57935405,191267955,0,3,78352599,2249,15,0.72,42.6879608,-84.49154539999999,279.12,0.015811389312148094,145.30484008789062,0.08000000566244125,0.0,1
1676238334.77936101,191467962,0,3,78352799,2249,15,0.72,42.6879607,-84.49154539999999,279.13,0.03624913841485977,335.5560302734375,0.017000000923871994,0.0,1
1676238334.97924089,191667842,0,3,78352999,2249,15,0.72,42.6879607,-84.4915455,279.13,0.06003332510590553,330.01837158203125,0.04800000041723251,0.0,1
1676238335.17933989,191867941,0,3,78353199,2249,15,0.72,42.6879607,-84.4915457,279.13,0.12653063237667084,289.8670654296875,0.00800000037997961,0.0,1
1676238335.37939405,192067995,0,3,78353399,2249,15,0.72,42.6879607,-84.4915461,279.15000000000003,0.1353587955236435,287.63177490234375,-0.1720000058412552,0.0,1
1676238335.59892201,192287523,0,3,78353599,2249,15,0.72,42.6879608,-84.4915465,279.21,0.2121320366859436,298.73980712890625,-0.3700000047683716,0.0,1
1676238335.77915502,192467756,0,3,78353799,2249,15,0.72,42.6879608,-84.49154709999999,279.34000000000003,0.2597883939743042,284.94561767578125,-0.5740000009536743,0.0,1
1676238335.99956489,192688166,0,3,78353999,2249,15,0.72,42.6879609,-84.4915474,279.48,0.18760064244270325,355.4139099121094,-0.7010000348091125,0.0,1
1676238336.17934489,192867946,0,3,78354199,2249,15,0.72,42.687961099999995,-84.4915474,279.64,0.18339303135871887,3.7517287731170654,-0.7890000343322754,0.0,1
1676238336.37935710,193067958,0,3,78354399,2249,15,0.72,42.6879612,-84.4915472,279.84000000000003,0.21681560575962067,53.81719207763672,-0.6780000329017639,0.0,1
1676238336.57937789,193267979,0,3,78354599,2249,15,0.72,42.6879612,-84.4915468,279.97,0.1290968656539917,69.59978485107422,-0.5110000371932983,0.0,1
1676238336.77920604,193467807,0,3,78354799,2249,15,0.72,42.6879613,-84.4915465,280.08,0.27983033657073975,29.313138961791992,-0.3400000035762787,0.0,1
1676238336.97929788,193667899,0,3,78354999,2249,15,0.72,42.6879615,-84.49154589999999,280.12,0.45950520038604736,78.95906066894531,-0.12600000202655792,0.0,1
1676238337.17929387,193867895,0,3,78355199,2249,15,0.72,42.687961699999995,-84.491545,280.15000000000003,0.39100003242492676,61.927513122558594,-0.11100000888109207,0.0,1
1676238337.37957501,194068176,0,3,78355399,2249,15,0.72,42.6879619,-84.4915441,280.17,0.4790668189525604,62.2581672668457,-0.09100000560283661,0.0,1
1676238337.57890391,194267505,0,3,78355599,2249,15,0.72,42.687962299999995,-84.4915431,280.18,0.4544733464717865,58.8632698059082,-0.08800000697374344,0.0,1
1676238337.77899504,194467596,0,3,78355799,2249,15,0.72,42.6879625,-84.49154229999999,280.22,0.30727511644363403,64.3522720336914,0.00800000037997961,0.0,1
1676238337.97909999,194667701,0,3,78355999,2249,15,0.72,42.6879627,-84.4915417,280.24,0.23672981560230255,75.31803131103516,-0.21700000762939453,0.0,1
1676238338.17912006,194867721,0,3,78356199,2249,15,0.72,42.6879626,-84.4915412,280.27,0.2065260410308838,102.01724243164062,-0.33100003004074097,0.0,1
1676238338.37930298,195067904,0,3,78356399,2249,15,0.72,42.6879625,-84.4915407,280.31,0.3178333044052124,94.14982604980469,-0.29100000858306885,0.0,1
1676238338.57898092,195267582,0,3,78356599,2249,15,0.72,42.687962299999995,-84.49153989999999,280.38,0.38169363141059875,102.25201416015625,-0.21300001442432404,0.0,1
1676238338.77908707,195467688,0,3,78356799,2249,15,0.72,42.6879621,-84.4915389,280.39,0.49108248949050903,91.05010223388672,-0.012000000104308128,0.0,1
1676238338.97938704,195667988,0,3,78356999,2249,15,0.72,42.6879621,-84.4915377,280.36,0.5652557015419006,88.27657318115234,0.03500000014901161,0.0,1
1676238339.17929006,195867891,0,3,78357199,2249,15,0.72,42.6879619,-84.49153629999999,280.37,0.6372793912887573,100.30484008789062,0.12400000542402267,0.0,1
1676238339.37890506,196067506,0,3,78357399,2249,15,0.72,42.6879615,-84.4915347,280.36,0.6428724527359009,97.05868530273438,0.21300001442432404,0.0,1
1676238339.57898903,196267590,0,3,78357599,2249,15,0.72,42.6879613,-84.4915331,280.31,0.6876692771911621,96.68062591552734,0.22700001299381256,0.0,1
1676238339.77935100,196467952,0,3,78357799,2249,15,0.72,42.6879608,-84.4915316,280.31,0.5943366289138794,110.69143676757812,0.23100000619888306,0.0,1
1676238339.97911096,196667712,0,3,78357999,2249,15,0.72,42.6879603,-84.49153009999999,280.3,0.6599795818328857,103.40455627441406,0.13500000536441803,0.0,1
1676238340.17940807,196868009,0,3,78358199,2249,15,0.72,42.687959899999996,-84.4915285,280.29,0.7239178419113159,110.96363067626953,0.013000000268220901,0.0,1
1676238340.37923408,197067835,0,3,78358399,2249,15,0.72,42.687959199999995,-84.49152699999999,280.31,0.6410491466522217,119.12403869628906,0.009000000543892384,0.0,1
1676238340.57934690,197267948,0,3,78358599,2249,15,0.72,42.6879585,-84.4915257,280.33,0.7079901695251465,121.6021957397461,-0.15000000596046448,0.0,1
1676238340.77964306,197468244,0,3,78358799,2249,15,0.72,42.6879579,-84.4915244,280.36,0.5258308053016663,120.51526641845703,-0.15600000321865082,0.0,1
1676238340.97901392,197667615,0,3,78358999,2249,15,0.72,42.6879573,-84.4915235,280.39,0.5128060579299927,138.320068359375,-0.15200001001358032,0.0,1
1676238341.17890286,197867504,0,3,78359199,2249,15,0.72,42.6879567,-84.49152269999999,280.44,0.43517813086509705,131.0868377685547,-0.2930000126361847,0.0,1
1676238341.37897396,198067575,0,3,78359399,2249,15,0.72,42.6879561,-84.49152199999999,280.47,0.38325580954551697,138.4906005859375,0.026000000536441803,0.0,1
1676238341.57911301,198267714,0,3,78359599,2249,15,0.72,42.6879555,-84.49152149999999,280.5,0.3918328881263733,152.3231658935547,-0.125,0.0,1
1676238341.77911592,198467717,0,3,78359799,2249,15,0.72,42.687954999999995,-84.4915211,280.52,0.31447258591651917,152.1311492919922,-0.055000003427267075,0.0,1
1676238341.99899602,198687597,0,3,78359999,2249,15,0.72,42.6879545,-84.4915207,280.52,0.34140005707740784,143.09652709960938,-0.05300000309944153,0.0,1
1676238342.17900491,198867606,0,3,78360199,2249,15,0.72,42.6879541,-84.4915202,280.53000000000003,0.31225791573524475,132.01449584960938,-0.015000000596046448,0.0,1
1676238342.37910199,199067703,0,3,78360399,2249,15,0.72,42.687953799999995,-84.49151979999999,280.55,0.17667201161384583,123.6900634765625,0.04100000113248825,0.0,1
1676238342.57912087,199267722,0,3,78360599,2249,15,0.72,42.687953799999995,-84.4915195,280.56,0.1439513862133026,101.62216186523438,-0.1510000079870224,0.0,1
1676238342.77896190,199467563,0,3,78360799,2249,15,0.72,42.6879539,-84.49151909999999,280.59000000000003,0.1636001318693161,73.66974639892578,-0.2120000123977661,0.0,1
1676238342.97891188,199667513,0,3,78360999,2249,15,0.72,42.6879541,-84.49151859999999,280.62,0.28019461035728455,82.82425689697266,-0.08000000566244125,0.0,1
1676238343.19909191,199887693,0,3,78361199,2249,15,0.72,42.6879541,-84.49151789999999,280.67,0.2881111204624176,88.40885925292969,-0.02200000174343586,0.0,1
1676238343.37910390,200067705,0,3,78361399,2249,15,0.72,42.6879541,-84.49151719999999,280.68,0.3037268817424774,110.22484588623047,0.0010000000474974513,0.0,1
1676238343.57934904,200267950,0,3,78361599,2249,15,0.72,42.687954,-84.4915165,280.69,0.25880494713783264,106.61441802978516,0.08300000429153442,0.0,1
1676238343.77930403,200467905,0,3,78361799,2249,15,0.72,42.6879539,-84.4915159,280.67,0.2690817713737488,112.27589416503906,0.13600000739097595,0.0,1
1676238343.97923303,200667834,0,3,78361999,2249,15,0.72,42.687953799999995,-84.4915153,280.65000000000003,0.28570088744163513,139.1159210205078,0.06100000441074371,0.0,1
1676238344.17953801,200868139,0,3,78362199,2249,15,0.72,42.6879535,-84.49151479999999,280.66,0.27349042892456055,129.510498046875,0.03200000151991844,0.0,1
1676238344.37910509,201067706,0,3,78362399,2249,15,0.72,42.6879534,-84.49151429999999,280.64,0.23970817029476166,125.14867401123047,-0.06700000166893005,0.0,1
1676238344.57903194,201267633,0,3,78362599,2249,15,0.72,42.6879533,-84.4915137,280.68,0.28754305839538574,106.98551940917969,-0.058000002056360245,0.0,1
1676238344.77914500,201467746,0,3,78362799,2249,15,0.72,42.6879533,-84.4915128,280.69,0.44754108786582947,87.18234252929688,-0.19300000369548798,0.0,1
1676238344.97919297,201667794,0,3,78362999,2249,15,0.72,42.6879535,-84.4915116,280.72,0.5008962154388428,75.07594299316406,-0.055000003427267075,0.0,1
1676238345.17912292,201867724,0,3,78363199,2249,15,0.72,42.6879539,-84.49151049999999,280.71,0.44723373651504517,72.69947052001953,0.02200000174343586,0.0,1
1676238345.37911606,202067717,0,3,78363399,2249,15,0.72,42.6879542,-84.49150949999999,280.73,0.481627494096756,71.97886657714844,0.08900000154972076,0.0,1
1676238345.57896399,202267565,0,3,78363599,2249,15,0.72,42.6879545,-84.49150829999999,280.72,0.45844632387161255,75.08467864990234,-0.030000001192092896,0.0,1
1676238345.77923894,202467840,0,3,78363799,2249,15,0.72,42.6879549,-84.4915073,280.72,0.42620301246643066,63.07422637939453,0.01900000125169754,0.0,1
1676238345.97908306,202667684,0,3,78363999,2249,15,0.72,42.6879553,-84.4915065,280.71,0.37157100439071655,71.80885314941406,0.036000002175569534,0.0,1
1676238346.17911601,202867717,0,3,78364199,2249,15,0.72,42.687955599999995,-84.4915058,280.69,0.24426421523094177,75.053466796875,0.04000000283122063,0.0,1
1676238346.37930202,203067903,0,3,78364399,2249,15,0.72,42.687955699999996,-84.4915054,280.71,0.152236670255661,99.83355712890625,0.05300000309944153,0.0,1
1676238346.57891202,203267513,0,3,78364599,2249,15,0.72,42.6879558,-84.49150519999999,280.69,0.07900000363588333,90.0,0.1720000058412552,0.0,1
1676238346.77898908,203467590,0,3,78364799,2249,15,0.72,42.6879559,-84.49150499999999,280.65000000000003,0.1106390580534935,119.8091049194336,0.05700000375509262,0.0,1
1676238346.97934103,203667942,0,3,78364999,2249,15,0.72,42.6879559,-84.4915047,280.65000000000003,0.1351480633020401,102.3908462524414,0.09300000220537186,0.0,1
1676238347.17911506,203867716,0,3,78365199,2249,15,0.72,42.687956,-84.4915044,280.62,0.094021275639534,91.21886444091797,0.12200000882148743,0.0,1
1676238347.37896299,204067564,0,3,78365399,2249,15,0.72,42.6879561,-84.4915042,280.59000000000003,0.15616978704929352,155.4042205810547,0.10400000214576721,0.0,1
1676238347.59952307,204288124,0,3,78365599,2249,15,0.72,42.6879559,-84.49150399999999,280.59000000000003,0.16763055324554443,160.484130859375,0.12200000882148743,0.0,1
1676238347.77912498,204467726,0,3,78365799,2249,15,0.72,42.687955699999996,-84.4915039,280.58,0.1596997231245041,157.93209838867188,0.13700000941753387,0.0,1
1676238347.99992895,204688530,0,3,78365999,2249,15,0.72,42.687955599999995,-84.4915036,280.56,0.15890249609947205,130.40573120117188,0.07100000232458115,0.0,1
1676238348.17901707,204867618,0,3,78366199,2249,15,0.72,42.687955599999995,-84.49150329999999,280.53000000000003,0.1821482926607132,103.65477752685547,0.06000000238418579,0.0,1
1676238348.37915206,205067753,0,3,78366399,2249,15,0.72,42.6879558,-84.4915027,280.5,0.2621850371360779,72.46346282958984,0.0560000017285347,0.0,1
1676238348.57899904,205267600,0,3,78366599,2249,15,0.72,42.687956,-84.49150209999999,280.48,0.27741125226020813,70.19334411621094,0.11000000685453415,0.0,1
1676238348.77929902,205467900,0,3,78366799,2249,15,0.72,42.687956299999996,-84.4915015,280.44,0.24475499987602234,68.67677307128906,0.07300000637769699,0.0,1
1676238348.97934294,205667944,0,3,78366999,2249,15,0.72,42.6879565,-84.49150089999999,280.42,0.24259638786315918,85.981689453125,0.18800000846385956,0.0,1
1676238349.17934608,205867947,0,3,78367199,2249,15,0.72,42.6879566,-84.4915005,280.40000000000003,0.11860016733407974,104.15340423583984,0.030000001192092896,0.0,1
1676238349.37962389,206068225,0,3,78367399,2249,15,0.72,42.6879566,-84.49150039999999,280.40000000000003,0.033941127359867096,135.0,0.0650000050663948,0.0,1
1676238349.57910800,206267709,0,3,78367599,2249,15,0.72,42.6879566,-84.49150039999999,280.38,0.041109610348939896,184.1849365234375,0.17000000178813934,0.0,1
1676238349.77912092,206467722,0,3,78367799,2249,15,0.72,42.6879566,-84.4915005,280.34000000000003,0.12814445793628693,227.84661865234375,0.15200001001358032,0.0,1
1676238349.97930098,206667902,0,3,78367999,2249,15,0.72,42.6879565,-84.49150089999999,280.34000000000003,0.15764835476875305,256.0519104003906,0.12700000405311584,0.0,1
1676238350.19899106,206887592,0,3,78368199,2249,15,0.72,42.6879565,-84.49150139999999,280.36,0.23453998565673828,256.437744140625,0.05100000277161598,0.0,1
1676238350.37903690,207067638,0,3,78368399,2249,15,0.72,42.6879566,-84.491502,280.36,0.26828718185424805,258.6063232421875,0.0010000000474974513,0.0,1
1676238350.57911706,207267718,0,3,78368599,2249,15,0.72,42.6879566,-84.49150279999999,280.33,0.3307960331439972,252.22235107421875,0.19100001454353333,0.0,1
1676238350.77912307,207467724,0,3,78368799,2249,15,0.72,42.6879565,-84.4915036,280.32,0.3350059688091278,247.72219848632812,-0.012000000104308128,0.0,1
1676238350.97897601,207667577,0,3,78368999,2249,15,0.72,42.6879564,-84.4915044,280.31,0.3605135381221771,238.38209533691406,-0.009000000543892384,0.0,1
1676238351.19953990,207888141,0,3,78369199,2249,15,0.72,42.687956199999995,-84.49150519999999,280.31,0.3467708230018616,241.58734130859375,0.03500000014901161,0.0,1
1676238351.37910295,208067704,0,3,78369399,2249,15,0.72,42.6879561,-84.491506,280.29,0.2911528944969177,242.81890869140625,0.13100001215934753,0.0,1
1676238351.57911801,208267719,0,3,78369599,2249,15,0.72,42.687956,-84.4915068,280.29,0.31792140007019043,262.22674560546875,0.14900000393390656,0.0,1
1676238351.77930188,208467903,0,3,78369799,2249,15,0.72,42.6879561,-84.49150759999999,280.27,0.34929072856903076,274.9271240234375,0.08100000023841858,0.0,1
1676238351.97889996,208667501,0,3,78369999,2249,15,0.72,42.6879564,-84.4915087,280.24,0.44434672594070435,278.02069091796875,0.06200000271201134,0.0,1
1676238352.17916107,208867762,0,3,78370199,2249,15,0.72,42.6879567,-84.4915099,280.21,0.47382068634033203,281.0727844238281,0.02800000086426735,0.0,1
1676238352.39912510,209087726,0,3,78370399,2249,15,0.72,42.687957,-84.49151119999999,280.22,0.6037325859069824,291.1669616699219,0.05300000309944153,0.0,1
1676238352.57936788,209267969,0,3,78370599,2249,15,0.72,42.687957399999995,-84.4915128,280.21,0.621593177318573,279.5380859375,0.11900000274181366,0.0,1
1676238352.77939701,209467998,0,3,78370799,2249,15,0.72,42.6879577,-84.4915144,280.19,0.6029436588287354,284.01318359375,0.20900000631809235,0.0,1
1676238352.97922993,209667831,0,3,78370999,2249,15,0.72,42.6879582,-84.4915159,280.13,0.67805016040802,287.6867370605469,0.25,0.0,1
1676238353.19958997,209888191,0,3,78371199,2249,15,0.72,42.687958599999995,-84.4915176,280.11,0.6792716979980469,288.8083801269531,0.15700000524520874,0.0,1
1676238353.37931800,210067919,0,3,78371399,2249,15,0.72,42.687959,-84.4915193,280.07,0.7420364618301392,283.0061950683594,0.19100001454353333,0.0,1
1676238353.57959604,210268197,0,3,78371599,2249,15,0.72,42.687959299999996,-84.4915211,280.04,0.6648503541946411,281.715576171875,0.22500000894069672,0.0,1
1676238353.77890587,210467507,0,3,78371799,2249,15,0.72,42.6879595,-84.4915228,280.01,0.6957356333732605,275.9400329589844,0.1900000125169754,0.0,1
1676238353.99954987,210688151,0,3,78371999,2249,15,0.72,42.6879598,-84.4915247,279.97,0.7320724129676819,275.2511291503906,0.20800000429153442,0.0,1
1676238354.17908502,210867686,0,3,78372199,2249,15,0.72,42.687959899999996,-84.49152649999999,279.93,0.6980902552604675,266.79742431640625,0.164000004529953,0.0,1
1676238354.37910390,211067705,0,3,78372399,2249,15,0.72,42.687959899999996,-84.49152819999999,279.89,0.5940210819244385,270.4822998046875,0.20800000429153442,0.0,1
1676238354.57936096,211267962,0,3,78372599,2249,15,0.72,42.687959899999996,-84.4915297,279.87,0.6123953461647034,267.94122314453125,0.2370000183582306,0.0,1
1676238354.77901697,211467618,0,3,78372799,2249,15,0.72,42.6879598,-84.49153129999999,279.85,0.6786000728607178,262.6341247558594,0.27300000190734863,0.0,1
1676238354.97909999,211667701,0,3,78372999,2249,15,0.72,42.6879597,-84.4915329,279.79,0.5783848166465759,266.03436279296875,0.33400002121925354,0.0,1
1676238355.19901800,211887619,0,3,78373199,2249,15,0.72,42.6879597,-84.4915343,279.72,0.6067108511924744,263.6598205566406,0.24500000476837158,0.0,1
1676238355.37903094,212067632,0,3,78373399,2249,15,0.72,42.6879596,-84.4915358,279.65000000000003,0.5641294121742249,257.6144104003906,0.4050000309944153,0.0,1
1676238355.57914209,212267743,0,3,78373599,2249,15,0.72,42.6879595,-84.4915372,279.58,0.5420083403587341,270.317138671875,0.39100003242492676,0.0,1
1676238355.77900410,212467605,0,3,78373799,2249,15,0.72,42.6879596,-84.4915386,279.5,0.48396074771881104,285.2135925292969,0.45000001788139343,0.0,1
1676238355.99955797,212688159,0,3,78373999,2249,15,0.72,42.6879598,-84.4915396,279.45,0.3798763155937195,294.7435302734375,0.367000013589859,0.0,1
1676238356.19953299,212888134,0,3,78374199,2249,15,0.72,42.6879603,-84.4915405,279.34000000000003,0.41968798637390137,302.7434387207031,0.492000013589859,0.0,1
1676238356.37895489,213067556,0,3,78374399,2249,15,0.72,42.6879607,-84.4915413,279.29,0.38406381011009216,322.08575439453125,0.42500001192092896,0.0,1
1676238356.57899499,213267596,0,3,78374599,2249,15,0.72,42.687961099999995,-84.4915419,279.23,0.3384213447570801,323.7734680175781,0.36000001430511475,0.0,1
1676238356.77912807,213467729,0,3,78374799,2249,15,0.72,42.6879615,-84.49154229999999,279.18,0.20052433013916016,326.3891906738281,0.30400002002716064,0.0,1
1676238356.99902201,213687623,0,3,78374999,2249,15,0.72,42.687961699999995,-84.4915427,279.13,0.1885019987821579,308.7547607421875,0.2990000247955322,0.0,1
1676238357.17930102,213867902,0,3,78375199,2249,15,0.72,42.6879618,-84.491543,279.09000000000003,0.10589145869016647,320.7486572265625,0.35500001907348633,0.0,1
1676238357.37889791,214067499,0,3,78375399,2249,15,0.72,42.6879618,-84.49154329999999,279.01,0.13597795367240906,251.5650634765625,0.39400002360343933,0.0,1
1676238357.57919598,214267797,0,3,78375599,2249,15,0.72,42.6879616,-84.4915436,278.94,0.14634890854358673,219.45468139648438,0.3400000035762787,0.0,1
1676238357.77958894,214468190,0,3,78375799,2249,15,0.72,42.6879612,-84.4915437,278.93,0.20550669729709625,203.82095336914062,0.19300000369548798,0.0,1
1676238357.97912502,214667726,0,3,78375999,2249,15,0.72,42.6879608,-84.4915439,278.90000000000003,0.163917675614357,213.30227661132812,0.3360000252723694,0.0,1
1676238358.17896605,214867567,0,3,78376199,2249,15,0.72,42.6879604,-84.49154399999999,278.87,0.14367325603961945,204.2459259033203,0.17900000512599945,0.0,1
1676238358.39911509,215087716,0,3,78376399,2249,15,0.72,42.6879601,-84.4915441,278.87,0.08102469146251678,215.45547485351562,0.15600000321865082,0.0,1
1676238358.57933998,215267941,0,3,78376599,2249,15,0.72,42.687959899999996,-84.49154419999999,278.83,0.08579627424478531,220.7461700439453,0.2980000078678131,0.0,1
1676238358.77910590,215467707,0,3,78376799,2249,15,0.72,42.6879597,-84.4915444,278.77,0.047423623502254486,245.05609130859375,0.30000001192092896,0.0,1
1676238358.97902298,215667624,0,3,78376999,2249,15,0.72,42.6879595,-84.49154449999999,278.71,0.08417244255542755,193.045654296875,0.41600000858306885,0.0,1
1676238359.17891097,215867512,0,3,78377199,2249,15,0.72,42.6879594,-84.4915446,278.65000000000003,0.03962322697043419,312.95458984375,0.4520000219345093,0.0,1
1676238359.37899089,216067592,0,3,78377399,2249,15,0.72,42.687959199999995,-84.4915448,278.59000000000003,0.1780112385749817,269.35626220703125,0.46000000834465027,0.0,1
1676238359.57929492,216267896,0,3,78377599,2249,15,0.72,42.687959199999995,-84.491545,278.55,0.057688821107149124,33.690067291259766,0.14500001072883606,0.0,1
1676238359.77912402,216467725,0,3,78377799,2249,15,0.72,42.687959199999995,-84.49154469999999,278.55,0.16302761435508728,41.0206184387207,0.30800002813339233,0.0,1
1676238359.99987698,216688478,0,3,78377999,2249,15,0.72,42.687959,-84.49154449999999,278.56,0.11926861107349396,159.89376831054688,0.09800000488758087,0.0,1
1676238360.17897391,216867575,0,3,78378199,2249,15,0.72,42.6879589,-84.4915446,278.58,0.18534833192825317,316.74896240234375,0.05300000309944153,0.0,1
1676238360.37930202,217067903,0,3,78378399,2249,15,0.72,42.6879589,-84.4915448,278.58,0.03705401346087456,356.90594482421875,0.07000000029802322,0.0,1
1676238360.57930303,217267904,0,3,78378599,2249,15,0.72,42.6879589,-84.4915448,278.6,0.04327816888689995,139.68588256835938,-0.027000000700354576,0.0,1
1676238360.77934408,217467945,0,3,78378799,2249,15,0.72,42.6879588,-84.49154469999999,278.62,0.10504285246133804,1.6365768909454346,0.18900001049041748,0.0,1
1676238360.97914505,217667746,0,3,78378999,2249,15,0.72,42.687958699999996,-84.49154469999999,278.61,0.04883646219968796,190.61965942382812,0.0650000050663948,0.0,1
1676238361.17919397,217867795,0,3,78379199,2249,15,0.72,42.687958699999996,-84.4915448,278.61,0.012206556275486946,325.00799560546875,0.018000001087784767,0.0,1
1676238361.37928391,218067885,0,3,78379399,2249,15,0.72,42.687958599999995,-84.4915448,278.62,0.022360680624842644,349.6951599121094,0.08300000429153442,0.0,1
1676238361.57929587,218267897,0,3,78379599,2249,15,0.72,42.6879585,-84.4915448,278.64,0.06824954599142075,349.01934814453125,0.1380000114440918,0.0,1
1676238361.77929497,218467896,0,3,78379799,2249,15,0.72,42.6879585,-84.4915448,278.64,0.037443291395902634,55.88552474975586,0.010000000707805157,0.0,1
1676238361.97920895,218667810,0,3,78379999,2249,15,0.72,42.6879585,-84.4915448,278.67,0.017691805958747864,42.709388732910156,0.026000000536441803,0.0,1
1676238362.17925310,218867854,0,3,78380199,2249,15,0.72,42.6879584,-84.4915448,278.68,0.0690072551369667,359.169677734375,0.12600000202655792,0.0,1
1676238362.39945698,219088058,0,3,78380399,2249,15,0.72,42.6879584,-84.4915448,278.71,0.05556977540254593,30.256439208984375,-0.01600000075995922,0.0,1
1676238362.57929206,219267893,0,3,78380599,2249,15,0.72,42.6879584,-84.49154469999999,278.72,0.027856776490807533,68.96248626708984,0.06599999964237213,0.0,1
1676238362.77951789,219468119,0,3,78380799,2249,15,0.72,42.6879582,-84.49154469999999,278.74,0.021189620718359947,289.2900390625,0.07900000363588333,0.0,1
1676238362.99952602,219688127,0,3,78380999,2249,15,0.72,42.687957999999995,-84.4915448,278.76,0.0546717494726181,230.19442749023438,-0.015000000596046448,0.0,1
1676238363.19908094,219887682,0,3,78381199,2249,15,0.72,42.6879579,-84.4915448,278.78000000000003,0.05445181578397751,7.386042594909668,0.08500000089406967,0.0,1
1676238363.37907290,220067674,0,3,78381399,2249,15,0.72,42.6879578,-84.49154469999999,278.81,0.10307765007019043,67.16634368896484,-0.03100000135600567,0.0,1
1676238363.57929587,220267897,0,3,78381599,2249,15,0.72,42.6879576,-84.4915446,278.83,0.06200806796550751,232.2060546875,0.06800000369548798,0.0,1
1676238363.77898192,220467583,0,3,78381799,2249,15,0.72,42.687957399999995,-84.49154469999999,278.84000000000003,0.06630988419055939,203.08514404296875,0.05900000408291817,0.0,1
1676238363.97905207,220667653,0,3,78381999,2249,15,0.72,42.6879572,-84.4915448,278.85,0.05941380560398102,353.23382568359375,0.11900000274181366,0.0,1
1676238364.17907310,220867674,0,3,78382199,2249,15,0.72,42.6879571,-84.4915449,278.85,0.05234501138329506,223.45184326171875,0.09100000560283661,0.0,1
1676238364.37891388,221067515,0,3,78382399,2249,15,0.72,42.687956899999996,-84.4915449,278.85,0.015231546945869923,66.80140686035156,0.08300000429153442,0.0,1
1676238364.57913589,221267737,0,3,78382599,2249,15,0.72,42.6879567,-84.4915449,278.87,0.02024845778942108,327.0947570800781,0.1510000079870224,0.0,1
1676238364.77896810,221467569,0,3,78382799,2249,15,0.72,42.6879566,-84.4915449,278.87,0.054644305258989334,325.4374694824219,0.05900000408291817,0.0,1
1676238364.97908998,221667691,0,3,78382999,2249,15,0.72,42.6879564,-84.4915449,278.91,0.017000000923871994,118.07247924804688,0.08800000697374344,0.0,1
1676238365.17909694,221867698,0,3,78383199,2249,15,0.72,42.6879561,-84.4915448,278.94,0.04648656025528908,161.17527770996094,0.046000003814697266,0.0,1
1676238365.37895298,222067554,0,3,78383399,2249,15,0.72,42.687956,-84.4915448,278.94,0.07244308292865753,353.6598205566406,0.0950000062584877,0.0,1
1676238365.57896996,222267571,0,3,78383599,2249,15,0.72,42.687956,-84.4915448,278.94,0.014866068959236145,19.653823852539062,0.08100000023841858,0.0,1
1676238365.77908707,222467688,0,3,78383799,2249,15,0.72,42.6879559,-84.4915448,278.94,0.06708204001188278,349.6951599121094,0.010000000707805157,0.0,1
1676238365.99990892,222688510,0,3,78383999,2249,15,0.72,42.6879558,-84.4915449,278.96,0.032280027866363525,253.810791015625,0.04700000211596489,0.0,1
1676238366.17891097,222867512,0,3,78384199,2249,15,0.72,42.687955699999996,-84.4915449,278.99,0.051009804010391235,1.123302698135376,0.0690000057220459,0.0,1
1676238366.37913299,223067734,0,3,78384399,2249,15,0.72,42.6879555,-84.4915448,279.01,0.02408318966627121,41.63353729248047,0.07400000095367432,0.0,1
1676238366.57896805,223267569,0,3,78384599,2249,15,0.72,42.6879554,-84.4915448,279.04,0.07003571093082428,350.1341857910156,0.05000000074505806,0.0,1
1676238366.77929497,223467896,0,3,78384799,2249,15,0.72,42.6879554,-84.4915448,279.05,0.055443666875362396,50.85601043701172,0.08000000566244125,0.0,1
1676238366.97930098,223667902,0,3,78384999,2249,15,0.72,42.6879553,-84.4915448,279.05,0.09550916403532028,197.67611694335938,0.032999999821186066,0.0,1
1676238367.17922306,223867824,0,3,78385199,2249,15,0.72,42.6879552,-84.49154469999999,279.06,0.08836289495229721,95.19442749023438,-0.08100000023841858,0.0,1
1676238367.37921095,224067812,0,3,78385399,2249,15,0.72,42.687955099999996,-84.49154449999999,279.05,0.07433034479618073,326.5237121582031,0.17600001394748688,0.0,1
1676238367.57926702,224267868,0,3,78385599,2249,15,0.72,42.6879552,-84.4915444,279.03000000000003,0.1373608410358429,42.049217224121094,0.12600000202655792,0.0,1
1676238367.77936697,224467968,0,3,78385799,2249,15,0.72,42.687954999999995,-84.4915444,279.06,0.08947066962718964,244.8670654296875,0.06100000441074371,0.0,1
1676238367.97957706,224668178,0,3,78385999,2249,15,0.72,42.6879547,-84.4915446,279.1,0.05491812154650688,349.5085144042969,0.15200001001358032,0.0,1
1676238368.17888308,224867484,0,3,78386199,2249,15,0.72,42.6879547,-84.4915446,279.1,0.04332435876131058,18.853158950805664,0.024000000208616257,0.0,1
1676238368.37899399,225067595,0,3,78386399,2249,15,0.72,42.6879548,-84.4915446,279.11,0.138361856341362,355.8553771972656,0.08100000023841858,0.0,1
1676238368.57910490,225267706,0,3,78386599,2249,15,0.72,42.6879549,-84.49154449999999,279.11,0.08544003963470459,20.55604362487793,0.13199999928474426,0.0,1
1676238368.77911091,225467712,0,3,78386799,2249,15,0.72,42.6879549,-84.49154449999999,279.11,0.02332380972802639,329.0362548828125,-0.0020000000949949026,0.0,1
1676238368.97929692,225667898,0,3,78386999,2249,15,0.72,42.6879549,-84.4915446,279.13,0.07467261701822281,352.303955078125,0.06200000271201134,0.0,1
1676238369.17899609,225867597,0,3,78387199,2249,15,0.72,42.687954999999995,-84.4915446,279.13,0.09953894466161728,22.442752838134766,0.15700000524520874,0.0,1
1676238369.37906289,226067664,0,3,78387399,2249,15,0.72,42.687954999999995,-84.4915446,279.13,0.036055512726306915,236.3099365234375,0.11600000411272049,0.0,1
1676238369.57908487,226267686,0,3,78387599,2249,15,0.72,42.6879548,-84.49154469999999,279.14,0.025961510837078094,164.3577423095703,0.12000000476837158,0.0,1
1676238369.77928805,226467889,0,3,78387799,2249,15,0.72,42.6879548,-84.49154469999999,279.12,0.02500000223517418,216.86990356445312,0.0990000069141388,0.0,1
1676238369.97888994,226667491,0,3,78387999,2249,15,0.72,42.6879548,-84.4915446,279.11,0.1432236135005951,127.91006469726562,0.020000001415610313,0.0,1
1676238370.17897010,226867571,0,3,78388199,2249,15,0.72,42.6879547,-84.49154449999999,279.14,0.1444229930639267,312.1936340332031,0.13700000941753387,0.0,1
1676238370.37927604,227067877,0,3,78388399,2249,15,0.72,42.6879548,-84.49154469999999,279.12,0.01600000075995922,270.0,0.16600000858306885,0.0,1
1676238370.57907796,227267679,0,3,78388599,2249,15,0.72,42.6879548,-84.4915446,279.13,0.14266394078731537,26.205833435058594,0.16300000250339508,0.0,1
1676238370.77929497,227467896,0,3,78388799,2249,15,0.72,42.6879549,-84.4915444,279.12,0.07155417650938034,26.56505012512207,0.07200000435113907,0.0,1
1676238370.97921205,227667813,0,3,78388999,2249,15,0.72,42.6879549,-84.4915443,279.12,0.05234501138329506,133.4518280029297,0.10900000482797623,0.0,1
1676238371.17928886,227867890,0,3,78389199,2249,15,0.72,42.6879549,-84.4915443,279.14,0.06530696898698807,334.6120910644531,0.03100000135600567,0.0,1
1676238371.37926793,228067869,0,3,78389399,2249,15,0.72,42.6879548,-84.4915444,279.13,0.2020544707775116,189.9751434326172,0.03400000184774399,0.0,1
1676238371.57927608,228267877,0,3,78389599,2249,15,0.72,42.6879546,-84.4915446,279.12,0.13727709650993347,231.20982360839844,0.08800000697374344,0.0,1
1676238371.77950907,228468110,0,3,78389799,2249,15,0.72,42.6879546,-84.4915448,279.11,0.006000000052154064,180.0,0.09000000357627869,0.0,1
1676238371.99946404,228688065,0,3,78389999,2249,15,0.72,42.6879546,-84.49154469999999,279.13,0.08207923173904419,22.190288543701172,0.017000000923871994,0.0,1
1676238372.17907190,228867673,0,3,78390199,2249,15,0.72,42.687954399999995,-84.4915446,279.17,0.14821943640708923,144.05787658691406,-0.05300000309944153,0.0,1
1676238372.39890289,229087504,0,3,78390399,2249,15,0.72,42.6879543,-84.4915444,279.2,0.058008622378110886,180.98777770996094,-0.06100000441074371,0.0,1
1676238372.57890296,229267504,0,3,78390599,2249,15,0.72,42.687954,-84.49154449999999,279.25,0.16476954519748688,197.66519165039062,0.05300000309944153,0.0,1
1676238372.77917194,229467773,0,3,78390799,2249,15,0.72,42.6879541,-84.4915446,279.22,0.07856844365596771,312.4208679199219,-0.08500000089406967,0.0,1
1676238372.97929192,229667893,0,3,78390999,2249,15,0.72,42.6879542,-84.49154469999999,279.26,0.0944298729300499,354.5309143066406,0.03500000014901161,0.0,1
1676238373.19946408,229888065,0,3,78391199,2249,15,0.72,42.6879543,-84.49154469999999,279.26,0.07808969914913177,189.58294677734375,-0.032999999821186066,0.0,1
1676238373.37900996,230067611,0,3,78391399,2249,15,0.72,42.6879543,-84.49154469999999,279.26,0.14102835953235626,186.92344665527344,0.03800000250339508,0.0,1
1676238373.57888389,230267485,0,3,78391599,2249,15,0.72,42.6879542,-84.4915448,279.26,0.07942921668291092,280.8855285644531,0.05700000375509262,0.0,1
1676238373.77925587,230467857,0,3,78391799,2249,15,0.72,42.6879546,-84.4915449,279.25,0.22144301235675812,3.624752998352051,0.05000000074505806,0.0,1
1676238373.97908592,230667687,0,3,78391999,2249,15,0.72,42.6879548,-84.49154449999999,279.34000000000003,0.2321055829524994,26.34425926208496,-0.12300000339746475,0.0,1
1676238374.17911005,230867711,0,3,78392199,2249,15,0.72,42.6879552,-84.4915444,279.33,0.17029975354671478,7.083285331726074,-0.10200000554323196,0.0,1
1676238374.37890792,231067509,0,3,78392399,2249,15,0.72,42.6879553,-84.49154419999999,279.32,0.2735415995121002,157.65403747558594,-0.013000000268220901,0.0,1
1676238374.57897401,231267575,0,3,78392599,2249,15,0.72,42.687955099999996,-84.49154419999999,279.36,0.17279179394245148,299.0868225097656,0.11600000411272049,0.0,1
1676238374.77926803,231467869,0,3,78392799,2249,15,0.72,42.6879554,-84.4915444,279.34000000000003,0.1698499470949173,340.3915710449219,0.04000000283122063,0.0,1
1676238374.97910094,231667702,0,3,78392999,2249,15,0.72,42.687955599999995,-84.49154449999999,279.33,0.05830952152609825,329.0362548828125,-0.012000000104308128,0.0,1
1676238375.17890286,231867504,0,3,78393199,2249,15,0.72,42.6879558,-84.4915446,279.32,0.17912007868289948,343.7909851074219,0.17400000989437103,0.0,1
1676238375.37912893,232067730,0,3,78393399,2249,15,0.72,42.6879559,-84.4915448,279.3,0.09128527343273163,227.2196502685547,0.08900000154972076,0.0,1
1676238375.57898402,232267585,0,3,78393599,2249,15,0.72,42.687956,-84.4915448,279.29,0.10159724950790405,6.215635776519775,0.1080000028014183,0.0,1
1676238375.77929306,232467894,0,3,78393799,2249,15,0.72,42.687956199999995,-84.4915449,279.28000000000003,0.16552945971488953,334.98309326171875,0.15200001001358032,0.0,1
