timestamp,TimeUS,Lat,Lng,Alt,RelHomeAlt,RelOriginAlt
1676238289.02005601,145708657,42.6879697,-84.4915516,281.9700012207031,2.0094635486602783,-0.6705362796783447
1676238289.05968094,145748282,42.6879697,-84.4915516,281.9700012207031,2.0094871520996094,-0.670512855052948
1676238289.05978799,145748389,42.6879697,-84.4915516,281.9700012207031,2.0094871520996094,-0.670512855052948
1676238289.09940696,145788008,42.687969599999995,-84.4915516,281.9700012207031,2.009819746017456,-0.6701801419258118
1676238289.13926888,145827870,42.687969599999995,-84.4915516,281.97998046875,2.01039719581604,-0.669602632522583
1676238289.15972710,145848328,42.687969599999995,-84.4915516,281.97998046875,2.010549306869507,-0.6694507002830505
1676238289.17939305,145867994,42.687969599999995,-84.4915516,281.97998046875,2.0107624530792236,-0.669237494468689
1676238289.21928287,145907884,42.687969599999995,-84.4915516,281.97998046875,2.010629415512085,-0.6693704724311829
1676238289.25970507,145948306,42.687969599999995,-84.4915516,281.97998046875,2.0106022357940674,-0.6693977117538452
1676238289.25987291,145948474,42.687969599999995,-84.4915516,281.97998046875,2.0106022357940674,-0.6693977117538452
1676238289.29929590,145987897,42.6879695,-84.4915516,281.97998046875,2.011075735092163,-0.66892409324646
1676238289.33947802,146028079,42.6879695,-84.4915516,281.97998046875,2.012138843536377,-0.6678611636161804
1676238289.35960507,146048206,42.6879695,-84.4915515,281.97998046875,2.0126795768737793,-0.6673203706741333
1676238289.37929893,146067900,42.6879695,-84.4915515,281.97998046875,2.013228416442871,-0.6667715311050415
1676238289.41928005,146107881,42.6879694,-84.4915515,281.97998046875,2.013942241668701,-0.6660575866699219
1676238289.45970988,146148311,42.6879694,-84.4915515,281.97998046875,2.014817953109741,-0.6651819944381714
1676238289.45993590,146148537,42.6879694,-84.4915515,281.97998046875,2.014817953109741,-0.6651819944381714
1676238289.49970007,146188301,42.6879694,-84.4915515,281.97998046875,2.01556658744812,-0.6644333600997925
1676238289.53919005,146227791,42.6879694,-84.4915515,281.97998046875,2.016252040863037,-0.6637477874755859
1676238289.55973387,146248335,42.6879694,-84.4915515,281.97998046875,2.0167219638824463,-0.6632780432701111
1676238289.57930207,146267903,42.6879694,-84.4915515,281.97998046875,2.0170228481292725,-0.6629770994186401
1676238289.61960292,146308204,42.6879694,-84.4915515,281.97998046875,2.0170087814331055,-0.6629911661148071
1676238289.66039109,146348992,42.6879694,-84.4915515,281.97998046875,2.017129898071289,-0.6628700494766235
1676238289.66052699,146349128,42.6879694,-84.4915515,281.97998046875,2.017129898071289,-0.6628700494766235
1676238289.69912291,146387724,42.6879693,-84.4915515,281.97998046875,2.0176594257354736,-0.6623404622077942
1676238289.73929501,146427896,42.6879693,-84.4915515,281.97998046875,2.018433094024658,-0.6615667939186096
1676238289.75967789,146448279,42.6879693,-84.4915515,281.97998046875,2.0187723636627197,-0.6612274646759033
1676238289.77928805,146467889,42.6879693,-84.4915515,281.97998046875,2.0192062854766846,-0.660793662071228
1676238289.81962490,146508226,42.6879693,-84.4915515,281.97998046875,2.0178823471069336,-0.6621175408363342
1676238289.85965896,146548260,42.6879693,-84.4915515,281.97998046875,2.0174145698547363,-0.6625852584838867
1676238289.85975194,146548353,42.6879693,-84.4915515,281.97998046875,2.0174145698547363,-0.6625852584838867
1676238289.89919710,146587798,42.6879693,-84.4915515,281.97998046875,2.01733660697937,-0.6626632213592529
1676238289.93967009,146628271,42.6879693,-84.4915515,281.97998046875,2.017831325531006,-0.6621686816215515
1676238289.95966887,146648270,42.6879693,-84.4915515,281.97998046875,2.0181760787963867,-0.6618238687515259
1676238289.97923303,146667834,42.6879693,-84.4915515,281.97998046875,2.018389940261841,-0.6616100072860718
1676238290.01927900,146707880,42.6879693,-84.4915515,281.97998046875,2.019829273223877,-0.6601706743240356
1676238290.05966091,146748262,42.6879693,-84.4915515,281.989990234375,2.0211501121520996,-0.6588498950004578
1676238290.05977201,146748373,42.6879693,-84.4915515,281.989990234375,2.0211501121520996,-0.6588498950004578
1676238290.09993005,146788531,42.6879692,-84.4915515,281.989990234375,2.0225820541381836,-0.6574178338050842
1676238290.13926888,146827870,42.6879692,-84.4915515,281.989990234375,2.0239715576171875,-0.6560282707214355
1676238290.15969396,146848295,42.6879692,-84.4915515,281.989990234375,2.024529218673706,-0.6554707288742065
1676238290.17927289,146867874,42.6879692,-84.4915515,281.989990234375,2.025247573852539,-0.654752254486084
1676238290.21926093,146907862,42.6879692,-84.4915515,281.989990234375,2.0257413387298584,-0.6542585492134094
1676238290.25988388,146948485,42.6879692,-84.4915515,281.989990234375,2.0260932445526123,-0.6539066433906555
1676238290.26000094,146948602,42.6879692,-84.4915515,281.989990234375,2.0260932445526123,-0.6539066433906555
1676238290.29928994,146987891,42.6879692,-84.4915515,281.989990234375,2.0266687870025635,-0.6533312201499939
1676238290.33915210,147027753,42.6879692,-84.4915515,281.989990234375,2.0273349285125732,-0.6526649594306946
1676238290.36011696,147048718,42.6879692,-84.4915515,281.989990234375,2.027656316757202,-0.6523436307907104
1676238290.37928295,147067884,42.6879692,-84.4915515,281.989990234375,2.0280168056488037,-0.6519830226898193
1676238290.41949296,147108094,42.6879692,-84.49155139999999,281.989990234375,2.02949595451355,-0.6505039930343628
1676238290.45972991,147148331,42.6879692,-84.49155139999999,282.0,2.030869483947754,-0.6491304636001587
1676238290.45992398,147148525,42.6879692,-84.49155139999999,282.0,2.030869483947754,-0.6491304636001587
1676238290.49929190,147187893,42.6879692,-84.49155139999999,282.0,2.0325028896331787,-0.6474969983100891
1676238290.53925800,147227859,42.6879692,-84.49155139999999,282.0,2.0346226692199707,-0.6453773379325867
1676238290.55975509,147248356,42.6879692,-84.49155139999999,282.0,2.0358376502990723,-0.6441623568534851
1676238290.57955194,147268153,42.6879692,-84.49155139999999,282.0,2.036991596221924,-0.6430084109306335
1676238290.61951709,147308118,42.6879692,-84.49155139999999,282.0,2.0384907722473145,-0.6415090560913086
1676238290.66004205,147348643,42.6879692,-84.49155139999999,282.0,2.039903402328491,-0.6400964856147766
1676238290.66024590,147348847,42.6879692,-84.49155139999999,282.0,2.039903402328491,-0.6400964856147766
1676238290.69919801,147387799,42.6879692,-84.49155139999999,282.0099792480469,2.0412704944610596,-0.6387293338775635
1676238290.73956490,147428166,42.6879692,-84.49155139999999,282.0099792480469,2.0429883003234863,-0.6370115876197815
1676238290.75964999,147448251,42.6879692,-84.49155139999999,282.0099792480469,2.0435540676116943,-0.6364457607269287
1676238290.77914310,147467744,42.6879692,-84.49155139999999,282.0099792480469,2.0443034172058105,-0.6356965899467468
1676238290.81935501,147507956,42.6879692,-84.49155139999999,282.0099792480469,2.0451104640960693,-0.6348893642425537
1676238290.85968804,147548289,42.6879692,-84.49155139999999,282.0099792480469,2.046124219894409,-0.6338756084442139
1676238290.85977507,147548376,42.6879692,-84.49155139999999,282.0099792480469,2.046124219894409,-0.6338756084442139
1676238290.89982390,147588425,42.6879692,-84.49155139999999,282.0099792480469,2.0471856594085693,-0.6328142881393433
1676238290.93927598,147627877,42.6879692,-84.49155139999999,282.0099792480469,2.0481202602386475,-0.6318795680999756
1676238290.95965910,147648260,42.6879692,-84.49155139999999,282.0099792480469,2.0485172271728516,-0.6314827799797058
1676238290.97918606,147667787,42.6879692,-84.49155139999999,282.0099792480469,2.0489749908447266,-0.6310248374938965
1676238291.01927710,147707878,42.6879692,-84.49155139999999,282.0099792480469,2.0487112998962402,-0.6312885880470276
1676238291.05971909,147748320,42.6879692,-84.4915513,282.0099792480469,2.048417806625366,-0.6315822005271912
1676238291.05987787,147748479,42.6879692,-84.4915513,282.0099792480469,2.048417806625366,-0.6315822005271912
1676238291.09983897,147788440,42.6879691,-84.4915513,282.0099792480469,2.04815673828125,-0.6318432092666626
1676238291.13912106,147827722,42.6879691,-84.4915513,282.0099792480469,2.048520088195801,-0.6314797401428223
1676238291.15989208,147848493,42.6879691,-84.4915513,282.0099792480469,2.048661708831787,-0.6313382983207703
1676238291.17927504,147867876,42.6879691,-84.4915513,282.0099792480469,2.0488674640655518,-0.6311323642730713
1676238291.21928287,147907884,42.6879691,-84.4915513,282.0099792480469,2.0493297576904297,-0.6306701898574829
1676238291.25998688,147948588,42.6879691,-84.4915513,282.0199890136719,2.050302743911743,-0.6296971440315247
1676238291.26010108,147948702,42.6879691,-84.4915513,282.0199890136719,2.050302743911743,-0.6296971440315247
1676238291.29929495,147987896,42.6879691,-84.4915513,282.0199890136719,2.051271677017212,-0.6287281513214111
1676238291.33915210,148027753,42.6879691,-84.4915513,282.0199890136719,2.052537679672241,-0.6274622082710266
1676238291.35973787,148048339,42.6879691,-84.49155119999999,282.0199890136719,2.053257703781128,-0.6267422437667847
1676238291.37933993,148067941,42.6879691,-84.49155119999999,282.0199890136719,2.0537049770355225,-0.6262949705123901
1676238291.41919899,148107800,42.6879689,-84.49155119999999,282.0199890136719,2.054514169692993,-0.6254857182502747
1676238291.45973587,148148337,42.6879689,-84.49155119999999,282.0199890136719,2.0551741123199463,-0.6248258352279663
1676238291.45992088,148148522,42.6879689,-84.49155119999999,282.0199890136719,2.0551741123199463,-0.6248258352279663
1676238291.49912786,148187729,42.6879689,-84.49155119999999,282.0199890136719,2.056292772293091,-0.623707115650177
1676238291.53947592,148228077,42.6879689,-84.49155119999999,282.0199890136719,2.058769702911377,-0.6212303042411804
1676238291.55968404,148248285,42.6879689,-84.49155119999999,282.0199890136719,2.059434175491333,-0.62056565284729
1676238291.57929897,148267900,42.6879689,-84.49155119999999,282.0299987792969,2.0605053901672363,-0.619494616985321
1676238291.61946702,148308068,42.6879689,-84.49155119999999,282.0299987792969,2.0619747638702393,-0.6180250644683838
1676238291.65992498,148348526,42.6879689,-84.4915511,282.0299987792969,2.0633132457733154,-0.6166866421699524
1676238291.66007996,148348681,42.6879689,-84.4915511,282.0299987792969,2.0633132457733154,-0.6166866421699524
1676238291.69973397,148388335,42.6879689,-84.4915511,282.0299987792969,2.064723491668701,-0.6152765154838562
1676238291.73928499,148427886,42.6879689,-84.4915511,282.0299987792969,2.065692186355591,-0.6143077611923218
1676238291.75966406,148448265,42.6879689,-84.4915511,282.0299987792969,2.066051959991455,-0.613947868347168
1676238291.77921510,148467816,42.6879689,-84.4915511,282.0299987792969,2.0665624141693115,-0.6134375929832458
1676238291.81927896,148507880,42.6879689,-84.4915511,282.0299987792969,2.0665149688720703,-0.6134848594665527
1676238291.85986495,148548466,42.6879689,-84.4915511,282.0299987792969,2.06638240814209,-0.613617479801178
1676238291.85997701,148548578,42.6879689,-84.4915511,282.0299987792969,2.06638240814209,-0.613617479801178
1676238291.89928293,148587884,42.6879689,-84.4915511,282.0299987792969,2.066262722015381,-0.6137371063232422
1676238291.93927789,148627879,42.6879689,-84.4915511,282.0299987792969,2.0659499168395996,-0.6140499114990234
1676238291.95971608,148648317,42.6879689,-84.4915511,282.0299987792969,2.0657155513763428,-0.6142844557762146
1676238291.97953391,148668135,42.6879689,-84.4915511,282.0299987792969,2.0655059814453125,-0.6144939064979553
1676238292.01927304,148707874,42.6879688,-84.491551,282.0299987792969,2.0651652812957764,-0.614834725856781
1676238292.05971098,148748312,42.6879688,-84.491551,282.0299987792969,2.0648417472839355,-0.6151580810546875
1676238292.05980110,148748402,42.6879688,-84.491551,282.0299987792969,2.0648417472839355,-0.6151580810546875
1676238292.09937692,148787978,42.6879688,-84.491551,282.0299987792969,2.06453013420105,-0.6154696941375732
1676238292.13919497,148827796,42.6879688,-84.491551,282.0299987792969,2.0641894340515137,-0.6158105134963989
1676238292.15969801,148848299,42.6879688,-84.491551,282.0299987792969,2.0639536380767822,-0.6160463094711304
1676238292.17959094,148868192,42.6879688,-84.491551,282.0299987792969,2.063737154006958,-0.6162627339363098
1676238292.21910787,148907709,42.6879688,-84.4915509,282.0299987792969,2.0634589195251465,-0.6165409684181213
1676238292.25973296,148948334,42.6879687,-84.4915509,282.0299987792969,2.0634422302246094,-0.6165575981140137
1676238292.25992608,148948527,42.6879687,-84.4915509,282.0299987792969,2.0634422302246094,-0.6165575981140137
1676238292.29928899,148987890,42.6879687,-84.4915509,282.0299987792969,2.0634124279022217,-0.6165874600410461
1676238292.33926988,149027871,42.6879687,-84.4915509,282.0299987792969,2.063227891921997,-0.6167719960212708
1676238292.35972691,149048328,42.6879687,-84.4915509,282.0299987792969,2.063194990158081,-0.6168049573898315
1676238292.37928796,149067889,42.6879687,-84.4915509,282.0299987792969,2.063103199005127,-0.6168967485427856
1676238292.41919708,149107798,42.6879686,-84.4915509,282.0299987792969,2.0625112056732178,-0.6174887418746948
1676238292.45976591,149148367,42.6879686,-84.4915509,282.0299987792969,2.061998128890991,-0.6180018186569214
1676238292.45988798,149148489,42.6879686,-84.4915509,282.0299987792969,2.061998128890991,-0.6180018186569214
1676238292.49917197,149187773,42.6879685,-84.4915508,282.0299987792969,2.0615463256835938,-0.6184536218643188
1676238292.53927207,149227873,42.6879685,-84.4915508,282.0299987792969,2.0615880489349365,-0.6184119582176208
1676238292.55983686,149248438,42.6879685,-84.4915508,282.0299987792969,2.061610460281372,-0.6183894276618958
1676238292.57911706,149267718,42.6879685,-84.4915508,282.0299987792969,2.061598062515259,-0.6184017658233643
1676238292.61940002,149308001,42.6879685,-84.4915508,282.0299987792969,2.0605385303497314,-0.6194613575935364
1676238292.65994906,149348550,42.6879685,-84.4915508,282.0199890136719,2.0592520236968994,-0.6207479238510132
1676238292.66005898,149348660,42.6879685,-84.4915508,282.0199890136719,2.0592520236968994,-0.6207479238510132
1676238292.69966197,149388263,42.6879685,-84.4915508,282.0199890136719,2.0584981441497803,-0.6215016841888428
1676238292.73926401,149427865,42.6879685,-84.4915508,282.0199890136719,2.0580809116363525,-0.6219189167022705
1676238292.75932789,149447929,42.6879685,-84.4915508,282.0199890136719,2.057835102081299,-0.6221647262573242
1676238292.77940106,149468002,42.6879685,-84.4915508,282.0199890136719,2.0575976371765137,-0.6224023103713989
1676238292.81935906,149507960,42.6879685,-84.4915508,282.0199890136719,2.0563786029815674,-0.62362140417099
1676238292.85940504,149548006,42.6879685,-84.49155069999999,282.0199890136719,2.055234909057617,-0.6247649192810059
1676238292.85960793,149548209,42.6879685,-84.49155069999999,282.0199890136719,2.055234909057617,-0.6247649192810059
1676238292.89976907,149588370,42.6879685,-84.49155069999999,282.0199890136719,2.054342269897461,-0.6256576180458069
1676238292.93948007,149628081,42.6879685,-84.49155069999999,282.0199890136719,2.0537586212158203,-0.6262413263320923
1676238292.95932889,149647930,42.6879685,-84.49155069999999,282.0199890136719,2.0535411834716797,-0.6264588236808777
1676238292.97932887,149667930,42.6879685,-84.49155069999999,282.0199890136719,2.0532445907592773,-0.6267552971839905
1676238293.01929092,149707892,42.6879685,-84.49155069999999,282.0199890136719,2.0537073612213135,-0.6262925863265991
1676238293.05949807,149748099,42.687968399999995,-84.49155069999999,282.0199890136719,2.054093599319458,-0.6259063482284546
1676238293.05964398,149748245,42.687968399999995,-84.49155069999999,282.0199890136719,2.054093599319458,-0.6259063482284546
1676238293.09978509,149788386,42.687968399999995,-84.4915506,282.0199890136719,2.0546419620513916,-0.6253578662872314
1676238293.13939905,149828000,42.687968399999995,-84.4915506,282.0199890136719,2.055030345916748,-0.624969482421875
1676238293.15973401,149848335,42.687968399999995,-84.4915506,282.0199890136719,2.055288314819336,-0.6247116923332214
1676238293.17929506,149867896,42.687968399999995,-84.4915506,282.0199890136719,2.0553205013275146,-0.6246795058250427
1676238293.21919799,149907799,42.687968399999995,-84.4915506,282.0199890136719,2.056272029876709,-0.6237278580665588
1676238293.25975108,149948352,42.6879683,-84.4915506,282.0199890136719,2.05824875831604,-0.6217511892318726
1676238293.25987291,149948474,42.6879683,-84.4915506,282.0199890136719,2.05824875831604,-0.6217511892318726
1676238293.29913807,149987739,42.6879683,-84.4915505,282.0199890136719,2.0595645904541016,-0.6204352378845215
1676238293.33952594,150028127,42.6879683,-84.4915505,282.0299987792969,2.0609357357025146,-0.6190641522407532
1676238293.35944295,150048044,42.6879683,-84.4915505,282.0299987792969,2.061798334121704,-0.6182016134262085
1676238293.37928605,150067887,42.6879683,-84.4915505,282.0299987792969,2.0621297359466553,-0.6178702712059021
1676238293.41961694,150108218,42.6879681,-84.4915504,282.0299987792969,2.0646345615386963,-0.6153654456138611
1676238293.45942688,150148028,42.6879681,-84.4915504,282.0299987792969,2.066321849822998,-0.613677978515625
1676238293.45957708,150148178,42.6879681,-84.4915504,282.0299987792969,2.066321849822998,-0.613677978515625
1676238293.49914408,150187745,42.6879681,-84.4915504,282.0299987792969,2.067812919616699,-0.6121870875358582
1676238293.53954697,150228148,42.6879681,-84.4915504,282.0299987792969,2.0690841674804688,-0.6109158396720886
1676238293.55944395,150248045,42.6879681,-84.4915504,282.0299987792969,2.0698883533477783,-0.6101115345954895
1676238293.57922697,150267828,42.6879681,-84.4915504,282.0400085449219,2.070622444152832,-0.609377384185791
1676238293.61938500,150307986,42.6879681,-84.4915504,282.0400085449219,2.071767568588257,-0.6082324385643005
1676238293.65973306,150348334,42.6879681,-84.4915503,282.0400085449219,2.0727789402008057,-0.6072209477424622
1676238293.65983391,150348435,42.6879681,-84.4915503,282.0400085449219,2.0727789402008057,-0.6072209477424622
1676238293.69974995,150388351,42.6879681,-84.4915503,282.0400085449219,2.074310302734375,-0.6056896448135376
1676238293.73928809,150427889,42.687968,-84.4915503,282.0400085449219,2.0759072303771973,-0.6040927171707153
1676238293.75933695,150447938,42.687968,-84.4915503,282.0400085449219,2.0763704776763916,-0.6036295294761658
1676238293.77952909,150468130,42.687968,-84.4915503,282.0400085449219,2.0773191452026367,-0.6026806831359863
1676238293.81935406,150507955,42.687968,-84.49155019999999,282.0400085449219,2.078786849975586,-0.6012130379676819
1676238293.85959697,150548198,42.687968,-84.49155019999999,282.04998779296875,2.0809035301208496,-0.5990963578224182
1676238293.85977387,150548375,42.687968,-84.49155019999999,282.04998779296875,2.0809035301208496,-0.5990963578224182
1676238293.89928508,150587886,42.687968,-84.49155019999999,282.04998779296875,2.0823311805725098,-0.5976687073707581
1676238293.93921709,150627818,42.6879679,-84.49155019999999,282.04998779296875,2.083805561065674,-0.596194326877594
1676238293.95968699,150648288,42.6879679,-84.49155019999999,282.04998779296875,2.084700584411621,-0.595299243927002
1676238293.97958207,150668183,42.6879679,-84.49155019999999,282.04998779296875,2.0850722789764404,-0.5949276089668274
1676238294.01913095,150707732,42.6879679,-84.49155019999999,282.04998779296875,2.0861809253692627,-0.5938190221786499
1676238294.05943489,150748036,42.6879679,-84.4915501,282.04998779296875,2.087515115737915,-0.5924848914146423
1676238294.05958796,150748189,42.6879679,-84.4915501,282.04998779296875,2.087515115737915,-0.5924848914146423
1676238294.09938908,150787990,42.6879679,-84.4915501,282.04998779296875,2.0884313583374023,-0.5915685296058655
1676238294.13937306,150827974,42.6879679,-84.4915501,282.04998779296875,2.089459180831909,-0.5905408263206482
1676238294.15947104,150848072,42.687967799999996,-84.4915501,282.05999755859375,2.090085744857788,-0.5899142026901245
1676238294.17972708,150868328,42.687967799999996,-84.4915501,282.05999755859375,2.0906553268432617,-0.5893445014953613
1676238294.21938705,150907988,42.687967799999996,-84.4915501,282.05999755859375,2.0905282497406006,-0.5894717574119568
1676238294.25943804,150948039,42.687967799999996,-84.4915501,282.05999755859375,2.090369701385498,-0.5896303057670593
1676238294.25957894,150948180,42.687967799999996,-84.4915501,282.05999755859375,2.090369701385498,-0.5896303057670593
1676238294.29917002,150987771,42.687967799999996,-84.4915501,282.05999755859375,2.090285539627075,-0.5897144079208374
1676238294.33950996,151028111,42.687967799999996,-84.4915501,282.05999755859375,2.0904223918914795,-0.5895774364471436
1676238294.35942793,151048029,42.687967799999996,-84.4915501,282.05999755859375,2.090388536453247,-0.5896114706993103
1676238294.37913203,151067733,42.687967799999996,-84.4915501,282.05999755859375,2.090407609939575,-0.5895922183990479
1676238294.41955590,151108157,42.6879677,-84.49154999999999,282.04998779296875,2.089873790740967,-0.5901260375976562
1676238294.45945001,151148051,42.6879677,-84.49154999999999,282.04998779296875,2.089458465576172,-0.5905415415763855
1676238294.45958805,151148189,42.6879677,-84.49154999999999,282.04998779296875,2.089458465576172,-0.5905415415763855
1676238294.49983191,151188433,42.6879677,-84.49154999999999,282.04998779296875,2.0889787673950195,-0.5910211801528931
1676238294.53926706,151227868,42.6879677,-84.49154999999999,282.04998779296875,2.088505506515503,-0.5914945006370544
1676238294.55979609,151248397,42.6879677,-84.49154999999999,282.04998779296875,2.0882503986358643,-0.5917494893074036
1676238294.57916999,151267771,42.6879677,-84.49154999999999,282.04998779296875,2.0880370140075684,-0.5919628739356995
1676238294.61956596,151308167,42.6879677,-84.49154999999999,282.04998779296875,2.0873758792877197,-0.5926240086555481
1676238294.65986204,151348463,42.6879676,-84.4915499,282.04998779296875,2.0866122245788574,-0.5933877229690552
1676238294.65998006,151348581,42.6879676,-84.4915499,282.04998779296875,2.0866122245788574,-0.5933877229690552
1676238294.69928098,151387882,42.6879676,-84.4915499,282.04998779296875,2.0858912467956543,-0.5941087603569031
1676238294.73910594,151427707,42.6879676,-84.4915499,282.04998779296875,2.0850777626037598,-0.5949222445487976
1676238294.75926590,151447867,42.6879676,-84.4915499,282.04998779296875,2.084625005722046,-0.5953748226165771
1676238294.77955198,151468153,42.6879676,-84.4915499,282.04998779296875,2.0841641426086426,-0.59583580493927
1676238294.81959796,151508199,42.6879676,-84.4915499,282.04998779296875,2.0836703777313232,-0.5963295102119446
1676238294.85940790,151548009,42.6879675,-84.4915499,282.04998779296875,2.0831713676452637,-0.5968285799026489
1676238294.85954905,151548150,42.6879675,-84.4915499,282.04998779296875,2.0831713676452637,-0.5968285799026489
1676238294.89927292,151587874,42.6879675,-84.4915498,282.04998779296875,2.082637310028076,-0.5973625779151917
1676238294.93938994,151627991,42.6879675,-84.4915498,282.04998779296875,2.083220958709717,-0.5967788696289062
1676238294.95943093,151648032,42.6879675,-84.4915498,282.04998779296875,2.0832035541534424,-0.596796452999115
1676238294.97939110,151667992,42.6879675,-84.4915498,282.04998779296875,2.0833985805511475,-0.5966012477874756
1676238295.01953006,151708131,42.6879675,-84.4915498,282.04998779296875,2.0831260681152344,-0.5968738198280334
1676238295.05947208,151748073,42.6879674,-84.4915498,282.04998779296875,2.082796096801758,-0.59720379114151
1676238295.05960989,151748211,42.6879674,-84.4915498,282.04998779296875,2.082796096801758,-0.59720379114151
1676238295.09974003,151788341,42.6879674,-84.4915498,282.04998779296875,2.082475423812866,-0.5975245237350464
1676238295.13928890,151827890,42.6879674,-84.4915498,282.04998779296875,2.0820441246032715,-0.5979558229446411
1676238295.15943599,151848037,42.6879674,-84.4915498,282.04998779296875,2.081805944442749,-0.5981939435005188
1676238295.17928886,151867890,42.6879674,-84.4915497,282.04998779296875,2.0815863609313965,-0.5984134674072266
1676238295.21952701,151908128,42.6879674,-84.4915497,282.04998779296875,2.0805697441101074,-0.5994302034378052
1676238295.25965190,151948253,42.6879674,-84.4915497,282.0400085449219,2.07938814163208,-0.6006118059158325
1676238295.25974393,151948345,42.6879674,-84.4915497,282.0400085449219,2.07938814163208,-0.6006118059158325
1676238295.29918408,151987785,42.6879674,-84.4915497,282.0400085449219,2.0784356594085693,-0.6015642881393433
1676238295.33928299,152027884,42.6879674,-84.4915497,282.0400085449219,2.077505588531494,-0.6024943590164185
1676238295.35966897,152048270,42.6879674,-84.4915497,282.0400085449219,2.077005386352539,-0.6029945015907288
1676238295.37920904,152067810,42.6879674,-84.4915497,282.0400085449219,2.0766239166259766,-0.603376030921936
1676238295.41964006,152108241,42.6879673,-84.4915496,282.0400085449219,2.0757322311401367,-0.6042675971984863
1676238295.45964694,152148248,42.6879673,-84.4915496,282.0400085449219,2.0748376846313477,-0.6051622033119202
1676238295.45976496,152148366,42.6879673,-84.4915496,282.0400085449219,2.0748376846313477,-0.6051622033119202
1676238295.49929595,152187897,42.6879673,-84.4915496,282.0400085449219,2.074101209640503,-0.6058986783027649
1676238295.53927302,152227874,42.6879673,-84.4915496,282.0400085449219,2.0736396312713623,-0.6063601970672607
1676238295.55970097,152248302,42.6879673,-84.4915496,282.0400085449219,2.073437452316284,-0.6065624356269836
1676238295.57952499,152268126,42.6879673,-84.4915496,282.0400085449219,2.073207378387451,-0.6067925691604614
1676238295.61928701,152307888,42.6879673,-84.4915496,282.0400085449219,2.0715136528015137,-0.6084861755371094
1676238295.66009402,152348695,42.6879673,-84.49154949999999,282.0299987792969,2.069915771484375,-0.6100842356681824
1676238295.66018605,152348787,42.6879673,-84.49154949999999,282.0299987792969,2.069915771484375,-0.6100842356681824
1676238295.69929099,152387892,42.6879673,-84.49154949999999,282.0299987792969,2.0683493614196777,-0.6116504669189453
1676238295.73920488,152427806,42.687967199999996,-84.49154949999999,282.0299987792969,2.0670347213745117,-0.6129652261734009
1676238295.75972295,152448324,42.687967199999996,-84.49154949999999,282.0299987792969,2.0665204524993896,-0.6134793758392334
1676238295.77928090,152467882,42.687967199999996,-84.49154949999999,282.0299987792969,2.065857410430908,-0.6141425371170044
1676238295.81913590,152507737,42.687967199999996,-84.49154949999999,282.0299987792969,2.065110921859741,-0.6148889064788818
1676238295.86001301,152548614,42.687967199999996,-84.49154949999999,282.0299987792969,2.0646939277648926,-0.6153059005737305
1676238295.86012506,152548726,42.687967199999996,-84.49154949999999,282.0299987792969,2.0646939277648926,-0.6153059005737305
1676238295.89927006,152587871,42.687967199999996,-84.49154949999999,282.0299987792969,2.063990354537964,-0.616009533405304
1676238295.93928599,152627887,42.687967199999996,-84.49154949999999,282.0299987792969,2.063035011291504,-0.6169648766517639
1676238295.96008587,152648687,42.687967199999996,-84.49154949999999,282.0299987792969,2.062520742416382,-0.617479145526886
1676238295.97928691,152667888,42.687967199999996,-84.49154949999999,282.0299987792969,2.062056541442871,-0.6179434657096863
1676238296.01917696,152707778,42.687967199999996,-84.49154949999999,282.0299987792969,2.0607123374938965,-0.6192875504493713
1676238296.05944800,152748049,42.6879671,-84.49154949999999,282.0199890136719,2.0594563484191895,-0.6205434799194336
1676238296.05958605,152748187,42.6879671,-84.49154949999999,282.0199890136719,2.0594563484191895,-0.6205434799194336
1676238296.09967089,152788272,42.6879671,-84.49154949999999,282.0199890136719,2.058444023132324,-0.6215558052062988
1676238296.13927507,152827876,42.6879671,-84.49154949999999,282.0199890136719,2.05757474899292,-0.6224250793457031
1676238296.15942097,152848022,42.6879671,-84.49154949999999,282.0199890136719,2.05715012550354,-0.6228498816490173
1676238296.17949510,152868096,42.6879671,-84.49154949999999,282.0199890136719,2.0567169189453125,-0.6232829093933105
1676238296.21929097,152907892,42.6879671,-84.49154949999999,282.0199890136719,2.0553150177001953,-0.6246848106384277
1676238296.25944710,152948048,42.6879671,-84.49154949999999,282.0199890136719,2.0539557933807373,-0.6260442137718201
1676238296.25958800,152948189,42.6879671,-84.49154949999999,282.0199890136719,2.0539557933807373,-0.6260442137718201
1676238296.29973102,152988332,42.6879671,-84.49154949999999,282.0199890136719,2.0523722171783447,-0.6276277303695679
1676238296.33954787,153028149,42.6879671,-84.49154949999999,282.0199890136719,2.0501317977905273,-0.6298681497573853
1676238296.35932302,153047924,42.687967199999996,-84.49154949999999,282.0099792480469,2.049334764480591,-0.6306652426719666
1676238296.37917495,153067776,42.687967199999996,-84.49154949999999,282.0099792480469,2.0483100414276123,-0.6316898465156555
1676238296.41931796,153107919,42.6879671,-84.49154949999999,282.0099792480469,2.046928644180298,-0.63307124376297
1676238296.45940709,153148008,42.687967,-84.49154949999999,282.0099792480469,2.045745611190796,-0.6342543363571167
1676238296.45960093,153148202,42.687967,-84.49154949999999,282.0099792480469,2.045745611190796,-0.6342543363571167
1676238296.50039005,153188991,42.687967,-84.49154949999999,282.0099792480469,2.0446767807006836,-0.6353232264518738
1676238296.53911090,153227712,42.687967,-84.49154949999999,282.0099792480469,2.0440595149993896,-0.6359404921531677
1676238296.55959606,153248197,42.687967,-84.49154949999999,282.0099792480469,2.0438215732574463,-0.6361783146858215
1676238296.57928896,153267890,42.687967,-84.49154949999999,282.0099792480469,2.0433926582336426,-0.6366072297096252
1676238296.61929107,153307892,42.687967,-84.4915494,282.0099792480469,2.0417747497558594,-0.6382250785827637
1676238296.66012597,153348727,42.687967,-84.4915494,282.0,2.0399720668792725,-0.6400278210639954
1676238296.66021490,153348816,42.687967,-84.4915494,282.0,2.0399720668792725,-0.6400278210639954
1676238296.69968200,153388283,42.687967,-84.4915494,282.0,2.038581371307373,-0.6414185166358948
1676238296.73914409,153427745,42.687967,-84.4915494,282.0,2.037625789642334,-0.6423741579055786
1676238296.75943708,153448038,42.687967,-84.4915494,282.0,2.0371110439300537,-0.6428889632225037
1676238296.77932000,153467921,42.687967,-84.4915494,282.0,2.0365524291992188,-0.6434475779533386
1676238296.81923199,153507833,42.687967,-84.4915494,282.0,2.036112070083618,-0.6438878774642944
1676238296.85946202,153548063,42.687967,-84.4915494,282.0,2.0354111194610596,-0.6445888876914978
1676238296.85960388,153548205,42.687967,-84.4915494,282.0,2.0354111194610596,-0.6445888876914978
1676238296.89971399,153588315,42.687967,-84.4915494,282.0,2.0347163677215576,-0.645283579826355
1676238296.93954706,153628148,42.687967,-84.4915494,282.0,2.0342276096343994,-0.6457723379135132
1676238296.95945501,153648056,42.687967,-84.4915494,282.0,2.0337674617767334,-0.6462324857711792
1676238296.97931504,153667916,42.687967,-84.4915494,282.0,2.0334458351135254,-0.6465539932250977
1676238297.01927710,153707878,42.687967,-84.4915493,282.0,2.0330846309661865,-0.6469153761863708
1676238297.05943799,153748039,42.687967,-84.4915493,282.0,2.0325675010681152,-0.6474323272705078
1676238297.05958104,153748182,42.687967,-84.4915493,282.0,2.0325675010681152,-0.6474323272705078
1676238297.10018086,153788782,42.6879669,-84.4915493,282.0,2.0324208736419678,-0.6475790143013
1676238297.13929701,153827898,42.6879669,-84.4915493,282.0,2.0322439670562744,-0.6477559208869934
1676238297.15944695,153848048,42.6879669,-84.4915493,282.0,2.0319578647613525,-0.6480420231819153
1676238297.17921805,153867819,42.6879669,-84.4915493,282.0,2.0320026874542236,-0.647997260093689
1676238297.21928191,153907883,42.6879669,-84.4915493,282.0,2.0320029258728027,-0.6479970812797546
1676238297.25961709,153948218,42.6879669,-84.4915493,282.0,2.032071352005005,-0.6479285359382629
1676238297.25978494,153948386,42.6879669,-84.4915493,282.0,2.032071352005005,-0.6479285359382629
1676238297.29927301,153987874,42.6879669,-84.4915493,282.0,2.0318872928619385,-0.6481126546859741
1676238297.33963203,154028233,42.6879669,-84.4915493,282.0,2.0319981575012207,-0.6480017900466919
1676238297.35970807,154048309,42.6879669,-84.4915493,282.0,2.0322279930114746,-0.647771954536438
1676238297.37928104,154067882,42.6879669,-84.4915493,282.0,2.031999349594116,-0.6480004787445068
1676238297.41955900,154108160,42.6879669,-84.4915493,282.0,2.0316667556762695,-0.6483331322669983
1676238297.45935488,154147956,42.6879668,-84.4915493,282.0,2.031123638153076,-0.6488761901855469
1676238297.45952606,154148127,42.6879668,-84.4915493,282.0,2.031123638153076,-0.6488761901855469
1676238297.49937987,154187981,42.6879668,-84.4915493,282.0,2.030514717102051,-0.649485170841217
1676238297.53952003,154228121,42.6879668,-84.4915493,282.0,2.030027151107788,-0.6499727368354797
1676238297.55947590,154248077,42.6879668,-84.4915493,281.989990234375,2.029836416244507,-0.6501635313034058
1676238297.57958603,154268187,42.6879668,-84.4915493,281.989990234375,2.0295767784118652,-0.6504232287406921
1676238297.61912394,154307725,42.6879668,-84.4915493,281.989990234375,2.029222011566162,-0.6507778763771057
1676238297.65979791,154348399,42.6879668,-84.4915493,281.989990234375,2.028722047805786,-0.6512777805328369
1676238297.66000199,154348603,42.6879668,-84.4915493,281.989990234375,2.028722047805786,-0.6512777805328369
1676238297.69928098,154387882,42.6879668,-84.4915493,281.989990234375,2.0281269550323486,-0.651872992515564
1676238297.73990989,154428511,42.6879668,-84.4915493,281.989990234375,2.02755069732666,-0.6524492502212524
1676238297.75947309,154448074,42.6879668,-84.4915493,281.989990234375,2.027028799057007,-0.6529710292816162
1676238297.77927709,154467878,42.6879668,-84.4915493,281.989990234375,2.0266683101654053,-0.6533316373825073
1676238297.81920195,154507803,42.6879668,-84.4915493,281.989990234375,2.027215003967285,-0.6527849435806274
1676238297.85943294,154548034,42.6879668,-84.4915493,281.989990234375,2.027574062347412,-0.6524259448051453
1676238297.85957098,154548172,42.6879668,-84.4915493,281.989990234375,2.027574062347412,-0.6524259448051453
1676238297.89918303,154587784,42.6879667,-84.4915493,281.989990234375,2.028301954269409,-0.6516980528831482
1676238297.93959498,154628196,42.6879667,-84.4915493,281.989990234375,2.028383493423462,-0.6516163349151611
1676238297.95966291,154648264,42.6879667,-84.4915493,281.989990234375,2.028566598892212,-0.6514332890510559
1676238297.97913909,154667740,42.6879667,-84.4915493,281.989990234375,2.028329849243164,-0.6516700387001038
1676238298.01926303,154707864,42.6879667,-84.4915493,281.989990234375,2.028190851211548,-0.6518090963363647
1676238298.05970192,154748303,42.6879667,-84.4915493,281.989990234375,2.028186559677124,-0.6518134474754333
1676238298.05979705,154748398,42.6879667,-84.4915493,281.989990234375,2.028186559677124,-0.6518134474754333
1676238298.09936404,154787965,42.6879667,-84.4915493,281.989990234375,2.028007745742798,-0.6519920825958252
1676238298.13947201,154828073,42.6879667,-84.4915493,281.989990234375,2.0280601978302,-0.6519396901130676
1676238298.15964103,154848242,42.6879667,-84.4915493,281.989990234375,2.028238534927368,-0.6517613530158997
1676238298.17922091,154867822,42.6879667,-84.4915493,281.989990234375,2.028031826019287,-0.6519680619239807
1676238298.21928191,154907883,42.6879667,-84.4915493,281.989990234375,2.028143882751465,-0.6518559455871582
1676238298.25941110,154948012,42.6879667,-84.4915493,281.989990234375,2.0287091732025146,-0.6512907147407532
1676238298.25961709,154948218,42.6879667,-84.4915493,281.989990234375,2.0287091732025146,-0.6512907147407532
1676238298.29927301,154987874,42.6879667,-84.4915493,281.989990234375,2.028674840927124,-0.6513251066207886
1676238298.33952689,155028128,42.6879667,-84.4915493,281.989990234375,2.0286927223205566,-0.6513071060180664
1676238298.35933805,155047939,42.6879667,-84.4915493,281.989990234375,2.028846502304077,-0.6511534452438354
1676238298.37931705,155067918,42.6879667,-84.4915493,281.989990234375,2.0285685062408447,-0.6514313220977783
1676238298.41957092,155108172,42.687966599999996,-84.4915493,281.989990234375,2.027770757675171,-0.6522291302680969
1676238298.45947194,155148073,42.687966599999996,-84.4915492,281.989990234375,2.026904344558716,-0.6530954837799072
1676238298.45962310,155148224,42.687966599999996,-84.4915492,281.989990234375,2.026904344558716,-0.6530954837799072
1676238298.49926496,155187866,42.687966599999996,-84.4915492,281.989990234375,2.026007890701294,-0.6539920568466187
1676238298.53938794,155227989,42.687966599999996,-84.4915492,281.989990234375,2.025277853012085,-0.6547220945358276
1676238298.55944991,155248051,42.687966599999996,-84.4915492,281.989990234375,2.0249032974243164,-0.6550965309143066
1676238298.57929707,155267898,42.687966599999996,-84.4915492,281.989990234375,2.0244193077087402,-0.6555805802345276
1676238298.61921406,155307815,42.687966599999996,-84.4915492,281.989990234375,2.0237770080566406,-0.6562228202819824
1676238298.65984106,155348442,42.687966599999996,-84.4915492,281.989990234375,2.0230517387390137,-0.6569482684135437
1676238298.66007900,155348680,42.687966599999996,-84.4915492,281.989990234375,2.0230517387390137,-0.6569482684135437
1676238298.69911003,155387711,42.687966599999996,-84.4915492,281.989990234375,2.0226056575775146,-0.6573943495750427
1676238298.73980403,155428405,42.687966599999996,-84.4915492,281.989990234375,2.023075580596924,-0.656924307346344
1676238298.75948191,155448083,42.687966599999996,-84.4915492,281.989990234375,2.022836208343506,-0.6571637988090515
1676238298.77929187,155467893,42.687966599999996,-84.4915492,281.989990234375,2.0229177474975586,-0.6570821404457092
1676238298.81929493,155507896,42.687966599999996,-84.4915492,281.989990234375,2.0239322185516357,-0.6560677289962769
1676238298.85941410,155548015,42.687966599999996,-84.4915492,281.989990234375,2.024620532989502,-0.6553794741630554
1676238298.85956097,155548162,42.687966599999996,-84.4915492,281.989990234375,2.024620532989502,-0.6553794741630554
1676238298.89971304,155588314,42.687966599999996,-84.4915492,281.989990234375,2.0256881713867188,-0.6543118357658386
1676238298.93929887,155627900,42.687966599999996,-84.4915491,281.989990234375,2.0260002613067627,-0.6539995670318604
1676238298.95944309,155648044,42.687966599999996,-84.4915491,281.989990234375,2.025864839553833,-0.6541351079940796
1676238298.97960305,155668204,42.687966599999996,-84.4915491,281.989990234375,2.0261616706848145,-0.6538383364677429
1676238299.01927209,155707873,42.687966599999996,-84.4915491,281.989990234375,2.026393413543701,-0.6536064147949219
1676238299.05934501,155747946,42.687966499999995,-84.4915491,281.989990234375,2.0266172885894775,-0.6533825397491455
1676238299.05952001,155748121,42.687966499999995,-84.4915491,281.989990234375,2.0266172885894775,-0.6533825397491455
1676238299.09934688,155787948,42.687966499999995,-84.4915491,281.989990234375,2.0270025730133057,-0.6529972553253174
1676238299.13928008,155827881,42.687966499999995,-84.4915491,281.989990234375,2.0267481803894043,-0.6532516479492188
1676238299.15940094,155848002,42.687966499999995,-84.4915491,281.989990234375,2.0267393589019775,-0.6532606482505798
1676238299.17965388,155868255,42.687966499999995,-84.4915491,281.989990234375,2.0264062881469727,-0.6535935997962952
1676238299.21953893,155908140,42.687966499999995,-84.4915491,281.989990234375,2.0264246463775635,-0.6535751819610596
1676238299.25929904,155947900,42.687966499999995,-84.4915491,281.989990234375,2.0260581970214844,-0.6539417505264282
1676238299.25940800,155948009,42.687966499999995,-84.4915491,281.989990234375,2.0260581970214844,-0.6539417505264282
1676238299.29929399,155987895,42.687966499999995,-84.4915491,281.989990234375,2.025665760040283,-0.6543340682983398
1676238299.33920693,156027808,42.687966499999995,-84.4915491,281.989990234375,2.0254194736480713,-0.6545804142951965
1676238299.35948706,156048088,42.687966499999995,-84.49154899999999,281.989990234375,2.0253653526306152,-0.6546344757080078
1676238299.37958598,156068187,42.687966499999995,-84.49154899999999,281.989990234375,2.025231122970581,-0.654768705368042
1676238299.41912508,156107726,42.687966499999995,-84.49154899999999,281.989990234375,2.024156093597412,-0.6558439135551453
1676238299.45945191,156148053,42.687966499999995,-84.4915489,281.989990234375,2.0230371952056885,-0.6569626927375793
1676238299.45959806,156148199,42.687966499999995,-84.4915489,281.989990234375,2.0230371952056885,-0.6569626927375793
1676238299.49928188,156187883,42.687966499999995,-84.4915489,281.989990234375,2.0218894481658936,-0.6581103801727295
1676238299.53952003,156228121,42.687966499999995,-84.4915489,281.989990234375,2.0214438438415527,-0.6585559844970703
1676238299.55948210,156248083,42.687966499999995,-84.4915489,281.989990234375,2.020963430404663,-0.6590365767478943
1676238299.57954597,156268147,42.687966499999995,-84.4915489,281.989990234375,2.020648956298828,-0.6593508720397949
1676238299.61915588,156307757,42.687966499999995,-84.4915489,281.97998046875,2.0186104774475098,-0.6613894701004028
1676238299.65975499,156348356,42.687966499999995,-84.4915489,281.97998046875,2.016568422317505,-0.6634314656257629
1676238299.65987587,156348477,42.687966499999995,-84.4915489,281.97998046875,2.016568422317505,-0.6634314656257629
1676238299.69917393,156387775,42.687966499999995,-84.4915489,281.97998046875,2.0146710872650146,-0.6653288006782532
1676238299.73929596,156427897,42.687966499999995,-84.4915489,281.97998046875,2.013490915298462,-0.6665090322494507
1676238299.75966501,156448266,42.687966499999995,-84.4915489,281.97998046875,2.01291823387146,-0.6670817732810974
1676238299.77948189,156468083,42.687966499999995,-84.4915489,281.97998046875,2.0122876167297363,-0.6677122116088867
1676238299.81959200,156508193,42.687966499999995,-84.4915489,281.97998046875,2.010824680328369,-0.6691751480102539
1676238299.85948992,156548091,42.687966499999995,-84.49154879999999,281.9700012207031,2.009399175643921,-0.6706007122993469
1676238299.85963392,156548235,42.687966499999995,-84.49154879999999,281.9700012207031,2.009399175643921,-0.6706007122993469
1676238299.89926004,156587861,42.687966499999995,-84.49154879999999,281.9700012207031,2.008065700531006,-0.6719342470169067
1676238299.93930292,156627904,42.687966499999995,-84.49154879999999,281.9700012207031,2.0068280696868896,-0.6731719374656677
1676238299.95934200,156647943,42.687966499999995,-84.49154879999999,281.9700012207031,2.0062100887298584,-0.6737898588180542
1676238299.97979689,156668398,42.687966499999995,-84.49154879999999,281.9700012207031,2.0056068897247314,-0.6743929386138916
1676238300.01961589,156708217,42.687966499999995,-84.49154879999999,281.9700012207031,2.004899501800537,-0.6751003861427307
1676238300.05940199,156748003,42.687966499999995,-84.49154879999999,281.9700012207031,2.0042598247528076,-0.6757401823997498
1676238300.05960894,156748210,42.687966499999995,-84.49154879999999,281.9700012207031,2.0042598247528076,-0.6757401823997498
1676238300.09938788,156787989,42.687966499999995,-84.49154879999999,281.9700012207031,2.003511905670166,-0.6764881014823914
1676238300.13949990,156828101,42.687966499999995,-84.49154879999999,281.9700012207031,2.0030531883239746,-0.6769466996192932
1676238300.15932989,156847931,42.687966499999995,-84.49154879999999,281.9700012207031,2.002591371536255,-0.6774085164070129
1676238300.17928100,156867882,42.687966499999995,-84.49154879999999,281.9700012207031,2.0022425651550293,-0.6777573823928833
1676238300.21956587,156908167,42.6879664,-84.4915487,281.9700012207031,2.0026018619537354,-0.6773980259895325
1676238300.25946498,156948066,42.6879664,-84.4915487,281.9700012207031,2.003098726272583,-0.6769012212753296
1676238300.25962210,156948223,42.6879664,-84.4915487,281.9700012207031,2.003098726272583,-0.6769012212753296
1676238300.29970193,156988303,42.6879664,-84.4915487,281.9700012207031,2.00394344329834,-0.6760563850402832
1676238300.33917999,157027781,42.6879664,-84.4915487,281.9700012207031,2.0042152404785156,-0.675784707069397
1676238300.35943890,157048040,42.6879664,-84.4915487,281.9700012207031,2.003981828689575,-0.6760181188583374
1676238300.37929487,157067896,42.6879664,-84.4915487,281.9700012207031,2.004222869873047,-0.675777018070221
1676238300.41953993,157108141,42.6879664,-84.4915487,281.9700012207031,2.0043485164642334,-0.675651490688324
1676238300.45978498,157148386,42.6879662,-84.4915487,281.9700012207031,2.004680633544922,-0.6753191947937012
1676238300.45996499,157148566,42.6879662,-84.4915487,281.9700012207031,2.004680633544922,-0.6753191947937012
1676238300.49911690,157187718,42.6879662,-84.4915487,281.9700012207031,2.0044009685516357,-0.6755988597869873
1676238300.53927898,157227880,42.6879662,-84.4915487,281.9700012207031,2.003920555114746,-0.676079273223877
1676238300.55945992,157248061,42.6879662,-84.4915486,281.9700012207031,2.0037708282470703,-0.6762291193008423
1676238300.57929397,157267895,42.6879662,-84.4915486,281.9700012207031,2.0033392906188965,-0.6766605973243713
1676238300.61951709,157308118,42.6879662,-84.4915486,281.9700012207031,2.002427577972412,-0.6775722503662109
1676238300.65994596,157348547,42.6879662,-84.4915486,281.9700012207031,2.0013606548309326,-0.6786392331123352
1676238300.66009498,157348696,42.6879662,-84.4915486,281.9700012207031,2.0013606548309326,-0.6786392331123352
1676238300.69919991,157387801,42.6879662,-84.4915486,281.9700012207031,2.0003626346588135,-0.6796371936798096
1676238300.73927999,157427881,42.6879662,-84.4915486,281.9599914550781,1.9994076490402222,-0.6805922985076904
1676238300.75968194,157448283,42.6879662,-84.4915486,281.9599914550781,1.9989904165267944,-0.6810095310211182
1676238300.77922106,157467822,42.6879662,-84.4915486,281.9599914550781,1.9985754489898682,-0.6814244389533997
1676238300.81926703,157507868,42.6879662,-84.4915485,281.9599914550781,1.9980168342590332,-0.6819831132888794
1676238300.85974908,157548350,42.6879662,-84.4915485,281.9599914550781,1.997365951538086,-0.6826339960098267
1676238300.85983706,157548438,42.6879662,-84.4915485,281.9599914550781,1.997365951538086,-0.6826339960098267
1676238300.89975500,157588356,42.6879662,-84.4915485,281.9599914550781,1.996891975402832,-0.6831079125404358
1676238300.93929601,157627897,42.6879662,-84.4915485,281.9599914550781,1.9962624311447144,-0.6837374567985535
1676238300.95971894,157648320,42.6879662,-84.4915485,281.9599914550781,1.995855689048767,-0.6841441988945007
1676238300.97931790,157667919,42.6879662,-84.4915485,281.9599914550781,1.9955533742904663,-0.6844465136528015
1676238301.01926994,157707871,42.6879662,-84.4915485,281.9599914550781,1.9939507246017456,-0.6860491633415222
1676238301.05965209,157748253,42.6879662,-84.4915484,281.9599914550781,1.9925248622894287,-0.6874750852584839
1676238301.05978799,157748389,42.6879662,-84.4915484,281.9599914550781,1.9925248622894287,-0.6874750852584839
1676238301.09934092,157787942,42.6879662,-84.4915484,281.9599914550781,1.9910916090011597,-0.6889082789421082
1676238301.13920403,157827805,42.6879662,-84.4915484,281.9499816894531,1.9898935556411743,-0.6901063323020935
1676238301.16002989,157848631,42.6879662,-84.4915484,281.9499816894531,1.9892897605895996,-0.6907101273536682
1676238301.17934203,157867943,42.6879662,-84.4915484,281.9499816894531,1.9885565042495728,-0.6914433836936951
1676238301.21948791,157908089,42.6879662,-84.4915484,281.9499816894531,1.9888535737991333,-0.6911463737487793
1676238301.25973010,157948331,42.6879662,-84.49154829999999,281.9499816894531,1.9887443780899048,-0.691255509853363
1676238301.25990891,157948510,42.6879662,-84.49154829999999,281.9499816894531,1.9887443780899048,-0.691255509853363
1676238301.29927588,157987877,42.6879662,-84.49154829999999,281.9499816894531,1.9888404607772827,-0.6911594271659851
1676238301.33924794,158027849,42.6879662,-84.49154829999999,281.9499816894531,1.9893394708633423,-0.6906604766845703
1676238301.35973501,158048336,42.6879662,-84.49154829999999,281.9499816894531,1.9897879362106323,-0.6902119517326355
1676238301.37953591,158068137,42.6879662,-84.49154829999999,281.9599914550781,1.990138053894043,-0.6898618340492249
1676238301.41916490,158107766,42.6879662,-84.49154829999999,281.9599914550781,1.9915562868118286,-0.6884436011314392
1676238301.45969105,158148292,42.6879661,-84.49154829999999,281.9599914550781,1.9925744533538818,-0.687425434589386
1676238301.45978093,158148382,42.6879661,-84.49154829999999,281.9599914550781,1.9925744533538818,-0.687425434589386
1676238301.49920201,158187803,42.6879661,-84.49154829999999,281.9599914550781,1.9936180114746094,-0.6863819360733032
1676238301.53958893,158228190,42.6879661,-84.49154829999999,281.9599914550781,1.995585322380066,-0.6844145655632019
1676238301.55966091,158248262,42.6879661,-84.49154829999999,281.9599914550781,1.9956406354904175,-0.6843592524528503
1676238301.57910609,158267707,42.6879661,-84.4915482,281.9599914550781,1.9963747262954712,-0.6836251616477966
1676238301.61928391,158307885,42.6879661,-84.4915482,281.9599914550781,1.9973152875900269,-0.6826846599578857
1676238301.65994000,158348541,42.6879661,-84.4915482,281.9599914550781,1.9980154037475586,-0.681984543800354
1676238301.66002798,158348629,42.6879661,-84.4915482,281.9599914550781,1.9980154037475586,-0.681984543800354
1676238301.69972992,158388331,42.6879661,-84.4915482,281.9599914550781,1.9991741180419922,-0.6808257699012756
1676238301.73927903,158427880,42.6879661,-84.4915482,281.9599914550781,1.9996063709259033,-0.6803935766220093
1676238301.75960708,158448208,42.6879661,-84.4915482,281.9599914550781,1.99947988986969,-0.6805200576782227
1676238301.77919102,158467792,42.6879661,-84.4915482,281.9599914550781,1.9998844861984253,-0.6801154017448425
1676238301.81928587,158507887,42.6879661,-84.4915482,281.9599914550781,1.9995849132537842,-0.6804149746894836
1676238301.85933208,158547933,42.6879661,-84.4915482,281.9599914550781,1.999495267868042,-0.6805046796798706
1676238301.85954309,158548144,42.6879661,-84.4915482,281.9599914550781,1.999495267868042,-0.6805046796798706
1676238301.89962292,158588224,42.6879661,-84.4915482,281.9599914550781,1.9990005493164062,-0.6809993982315063
1676238301.93911290,158627714,42.6879661,-84.4915482,281.9599914550781,1.9986611604690552,-0.6813387870788574
1676238301.95940995,158648011,42.6879661,-84.4915482,281.9599914550781,1.9986228942871094,-0.6813770532608032
1676238301.97958589,158668187,42.687965999999996,-84.4915482,281.9599914550781,1.998490810394287,-0.6815091371536255
1676238302.01928496,158707886,42.687965999999996,-84.4915482,281.9599914550781,1.9992109537124634,-0.6807889342308044
1676238302.05948210,158748083,42.687965999999996,-84.4915482,281.9599914550781,1.9997228384017944,-0.6802770495414734
1676238302.05962801,158748229,42.687965999999996,-84.4915482,281.9599914550781,1.9997228384017944,-0.6802770495414734
1676238302.09972310,158788324,42.687965999999996,-84.4915481,281.9700012207031,2.000162124633789,-0.6798377633094788
1676238302.13939095,158827992,42.687965999999996,-84.4915481,281.9700012207031,2.0014519691467285,-0.6785479784011841
1676238302.15945697,158848058,42.687965999999996,-84.4915481,281.9700012207031,2.0013372898101807,-0.6786627173423767
1676238302.17930007,158867901,42.687965999999996,-84.4915481,281.9700012207031,2.0017645359039307,-0.6782354116439819
1676238302.21918893,158907790,42.687965999999996,-84.4915481,281.9700012207031,2.002467393875122,-0.6775326132774353
1676238302.25947309,158948074,42.687965999999996,-84.4915481,281.9700012207031,2.0030908584594727,-0.6769091486930847
1676238302.25961399,158948215,42.687965999999996,-84.4915481,281.9700012207031,2.0030908584594727,-0.6769091486930847
1676238302.30006289,158988664,42.687965999999996,-84.4915481,281.9700012207031,2.0041675567626953,-0.6758324503898621
1676238302.33927894,159027880,42.687965999999996,-84.4915481,281.9700012207031,2.004606008529663,-0.67539381980896
1676238302.35944891,159048050,42.687965999999996,-84.4915481,281.9700012207031,2.0044925212860107,-0.6755073070526123
1676238302.37938309,159067984,42.687965999999996,-84.4915481,281.9700012207031,2.00484037399292,-0.6751594543457031
1676238302.41929007,159107891,42.687965999999996,-84.4915481,281.9700012207031,2.004551410675049,-0.6754485368728638
1676238302.45943594,159148037,42.687965999999996,-84.4915481,281.9700012207031,2.004074811935425,-0.6759250164031982
1676238302.45957303,159148174,42.687965999999996,-84.4915481,281.9700012207031,2.004074811935425,-0.6759250164031982
1676238302.50015187,159188753,42.687965999999996,-84.4915481,281.9700012207031,2.0037665367126465,-0.6762334704399109
1676238302.53929687,159227898,42.687965999999996,-84.4915481,281.9700012207031,2.0030744075775146,-0.676925539970398
1676238302.55946207,159248063,42.687965999999996,-84.4915481,281.9700012207031,2.002612352371216,-0.6773876547813416
1676238302.57921290,159267814,42.687965999999996,-84.4915481,281.9700012207031,2.0023386478424072,-0.6776613593101501
1676238302.61928892,159307890,42.687965999999996,-84.4915481,281.9700012207031,2.0028607845306396,-0.6771392226219177
1676238302.65996504,159348566,42.687965999999996,-84.491548,281.9700012207031,2.0041894912719727,-0.6758105158805847
1676238302.66005301,159348654,42.687965999999996,-84.491548,281.9700012207031,2.0041894912719727,-0.6758105158805847
1676238302.69928598,159387887,42.687965999999996,-84.491548,281.9700012207031,2.0048229694366455,-0.6751769781112671
1676238302.73949003,159428091,42.687965999999996,-84.491548,281.9700012207031,2.0056605339050293,-0.6743394732475281
1676238302.75940394,159448005,42.687965999999996,-84.491548,281.9700012207031,2.006317377090454,-0.6736825108528137
1676238302.77930093,159467902,42.687965999999996,-84.491548,281.9700012207031,2.006279945373535,-0.6737199425697327
1676238302.81946802,159508069,42.687965999999996,-84.491548,281.9700012207031,2.0099692344665527,-0.6700307726860046
1676238302.85927486,159547876,42.687965999999996,-84.491548,281.97998046875,2.0121662616729736,-0.667833685874939
1676238302.85939598,159547997,42.687965999999996,-84.491548,281.97998046875,2.0121662616729736,-0.667833685874939
1676238302.89927888,159587880,42.687965999999996,-84.491548,281.97998046875,2.0140392780303955,-0.6659606099128723
1676238302.93973494,159628336,42.687965899999995,-84.491548,281.97998046875,2.0158278942108154,-0.6641719341278076
1676238302.95940399,159648005,42.687965899999995,-84.4915479,281.97998046875,2.0170071125030518,-0.6629928350448608
1676238329.55985808,186248459,42.6879649,-84.4915456,281.8899841308594,0.006156854331493378,-0.7538431286811829
1676238329.57972693,186268328,42.6879649,-84.4915456,281.8899841308594,0.005024902522563934,-0.7549750804901123
1676238329.61935496,186307956,42.6879649,-84.4915456,281.8899841308594,0.002301447093486786,-0.7576985359191895
1676238329.65939903,186348000,42.6879649,-84.4915456,281.8800048828125,-0.00028157979249954224,-0.7602815628051758
1676238329.65950990,186348111,42.6879649,-84.4915456,281.8800048828125,-0.00028157979249954224,-0.7602815628051758
1676238329.69991994,186388521,42.6879649,-84.4915456,281.8800048828125,-0.0031421855092048645,-0.7631421685218811
1676238329.73928905,186427890,42.6879649,-84.4915456,281.8800048828125,-0.005459792912006378,-0.7654597759246826
1676238329.75933409,186447935,42.6879649,-84.4915456,281.8800048828125,-0.00640232115983963,-0.7664023041725159
1676238329.77954197,186468143,42.6879649,-84.4915456,281.8800048828125,-0.007676370441913605,-0.7676763534545898
1676238329.81927490,186507876,42.6879649,-84.4915456,281.8800048828125,-0.009762890636920929,-0.7697628736495972
1676238329.85966802,186548269,42.6879649,-84.4915456,281.8699951171875,-0.011853881180286407,-0.7718538641929626
1676238329.85978293,186548384,42.6879649,-84.4915456,281.8699951171875,-0.011853881180286407,-0.7718538641929626
1676238329.89929390,186587895,42.6879649,-84.4915456,281.8699951171875,-0.013684399425983429,-0.7736843824386597
1676238329.93921399,186627815,42.6879649,-84.4915456,281.8699951171875,-0.0152440145611763,-0.7752439975738525
1676238329.95947909,186648080,42.6879649,-84.4915456,281.8699951171875,-0.016072280704975128,-0.7760722637176514
1676238329.97962189,186668223,42.6879649,-84.4915456,281.8699951171875,-0.01687062531709671,-0.776870608329773
1676238330.01952791,186708129,42.6879649,-84.4915456,281.8599853515625,-0.02019680291414261,-0.7801967859268188
1676238330.05943704,186748038,42.6879649,-84.4915456,281.8599853515625,-0.022893376648426056,-0.7828933596611023
1676238330.05956197,186748163,42.6879649,-84.4915456,281.8599853515625,-0.022893376648426056,-0.7828933596611023
1676238330.09943700,186788038,42.6879649,-84.4915456,281.8599853515625,-0.02531392127275467,-0.7853139042854309
1676238330.13930202,186827903,42.6879649,-84.4915456,281.8599853515625,-0.027448423206806183,-0.7874484062194824
1676238330.15946293,186848064,42.6879649,-84.4915456,281.8599853515625,-0.0285954549908638,-0.78859543800354
1676238330.17976904,186868370,42.6879649,-84.4915456,281.8599853515625,-0.02971983700990677,-0.789719820022583
1676238330.21941495,186908016,42.6879649,-84.4915456,281.8500061035156,-0.0311930850148201,-0.7911930680274963
1676238330.25943995,186948041,42.687964799999996,-84.4915456,281.8500061035156,-0.03276253491640091,-0.7927625179290771
1676238330.25957203,186948173,42.687964799999996,-84.4915456,281.8500061035156,-0.03276253491640091,-0.7927625179290771
1676238330.29920697,186987808,42.687964799999996,-84.4915456,281.8500061035156,-0.03418219834566116,-0.7941821813583374
1676238330.33961987,187028221,42.687964799999996,-84.4915456,281.8500061035156,-0.03546900302171707,-0.7954689860343933
1676238330.35941696,187048018,42.687964799999996,-84.4915456,281.8500061035156,-0.0361793115735054,-0.7961792945861816
1676238330.37912989,187067731,42.687964799999996,-84.4915456,281.8500061035156,-0.03682864457368851,-0.7968286275863647
1676238330.41957688,187108178,42.687964799999996,-84.4915456,281.8500061035156,-0.037093646824359894,-0.7970936298370361
1676238330.45943904,187148040,42.687964799999996,-84.4915456,281.8500061035156,-0.037425704300403595,-0.7974256873130798
1676238330.45955992,187148161,42.687964799999996,-84.4915456,281.8500061035156,-0.037425704300403595,-0.7974256873130798
1676238330.49990797,187188509,42.687964799999996,-84.4915456,281.8500061035156,-0.037545330822467804,-0.797545313835144
1676238330.53927708,187227878,42.687964799999996,-84.4915456,281.8500061035156,-0.03826678544282913,-0.7982667684555054
1676238330.55933309,187247934,42.687964799999996,-84.4915456,281.8500061035156,-0.038769252598285675,-0.7987692356109619
1676238330.57951903,187268120,42.687964799999996,-84.4915456,281.8500061035156,-0.03900153189897537,-0.7990015149116516
1676238330.61960387,187308205,42.687964799999996,-84.4915456,281.8399963378906,-0.04053110629320145,-0.8005310893058777
1676238330.65941310,187348014,42.687964699999995,-84.4915457,281.8399963378906,-0.041843898594379425,-0.8018438816070557
1676238330.65959692,187348198,42.687964699999995,-84.4915457,281.8399963378906,-0.041843898594379425,-0.8018438816070557
1676238330.69927907,187387880,42.687964699999995,-84.4915457,281.8399963378906,-0.043219394981861115,-0.8032193779945374
1676238330.73911500,187427716,42.687964699999995,-84.4915457,281.8399963378906,-0.04442841559648514,-0.8044283986091614
1676238330.75926304,187447864,42.687964699999995,-84.4915457,281.8399963378906,-0.04496771842241287,-0.8049677014350891
1676238330.77958703,187468188,42.687964699999995,-84.4915457,281.8399963378906,-0.0455629900097847,-0.8055629730224609
