timestamp,TimeUS,C,Roll,Pitch,Yaw,VN,VE,VD,dPD,PN,PE,PD,GX,GY,GZ,OH
1676238289.01872587,145707327,1,0.07,-0.01,333.82,0.04462979733943939,0.050570156425237656,-0.03719314932823181,-0.025505835190415382,1.2282443046569824,-0.24422401189804077,0.6536083221435547,0.21,-0.24,-0.12,282.63
1676238289.05866599,145747267,1,0.07,0.0,333.82,0.043765679001808167,0.047883063554763794,-0.035974301397800446,-0.009848523885011673,1.2243245840072632,-0.2431924045085907,0.6545972228050232,0.21,-0.24,-0.12,282.63
1676238289.09877205,145787373,1,0.08,-0.01,333.81,0.04418081417679787,0.04775703698396683,-0.03577699884772301,0.0048843808472156525,1.2224782705307007,-0.24192695319652557,0.6546722650527954,0.21,-0.24,-0.12,282.63
1676238289.13867402,145827275,1,0.08,-0.01,333.81,0.044437967240810394,0.04882331192493439,-0.03516191616654396,0.01039311196655035,1.2211434841156006,-0.24059012532234192,0.6544274687767029,0.21,-0.24,-0.12,282.63
1676238289.15867710,145847278,1,0.08,-0.01,333.8,0.04516427963972092,0.04951339587569237,-0.03483504429459572,0.010093281976878643,1.2202457189559937,-0.23994426429271698,0.6544206142425537,0.21,-0.24,-0.12,282.63
1676238289.17868710,145867288,1,0.08,-0.01,333.8,0.04579029604792595,0.049991119652986526,-0.03471185639500618,0.009197506122291088,1.2202975749969482,-0.23914164304733276,0.6540759801864624,0.21,-0.24,-0.12,282.63
1676238289.21868801,145907289,1,0.07,-0.01,333.8,0.04535350948572159,0.04949018359184265,-0.03366100788116455,0.00917787291109562,1.2177469730377197,-0.23827217519283295,0.6542646884918213,0.21,-0.24,-0.12,282.63
1676238289.25874090,145947342,1,0.07,-0.01,333.81,0.04319972172379494,0.047703519463539124,-0.03314909711480141,0.012287095189094543,1.2133145332336426,-0.23801536858081818,0.6550871729850769,0.21,-0.24,-0.12,282.63
1676238289.29872394,145987325,1,0.06,-0.01,333.81,0.042659204453229904,0.047264810651540756,-0.03247134014964104,0.0141759580001235,1.2110422849655151,-0.23730526864528656,0.6549288630485535,0.21,-0.24,-0.12,282.63
1676238289.33867598,146027277,1,0.07,-0.01,333.82,0.04335935041308403,0.04664653167128563,-0.03206770494580269,0.0051259626634418964,1.2093825340270996,-0.2364315241575241,0.6540378332138062,0.21,-0.24,-0.12,282.63
1676238289.35868502,146047286,1,0.07,-0.01,333.82,0.043723370879888535,0.04655318707227707,-0.031798362731933594,-0.000891438452526927,1.2082176208496094,-0.2361532598733902,0.6536794304847717,0.21,-0.24,-0.12,282.63
1676238289.37871599,146067317,1,0.07,-0.01,333.82,0.044127143919467926,0.046978436410427094,-0.031618423759937286,-0.006384960375726223,1.2081398963928223,-0.2355409562587738,0.6531871557235718,0.21,-0.24,-0.12,282.63
1676238289.41867399,146107275,1,0.07,-0.01,333.81,0.04346121847629547,0.046649422496557236,-0.03148067370057106,-0.012747116386890411,1.204967975616455,-0.23520614206790924,0.6526956558227539,0.21,-0.24,-0.12,282.63
1676238289.45876002,146147361,1,0.06,-0.02,333.81,0.042383402585983276,0.04566339775919914,-0.03060395084321499,-0.015870414674282074,1.2010728120803833,-0.2352220118045807,0.6522022485733032,0.21,-0.24,-0.12,282.63
1676238289.49867010,146187271,1,0.06,-0.02,333.81,0.04202951118350029,0.0438891239464283,-0.030133454129099846,-0.017889980226755142,1.1992017030715942,-0.23466961085796356,0.6515819430351257,0.21,-0.24,-0.12,282.63
1676238289.53869009,146227291,1,0.06,-0.02,333.82,0.04170858860015869,0.04258326068520546,-0.029367605224251747,-0.01646696776151657,1.19783616065979,-0.2340235859155655,0.6510860919952393,0.21,-0.24,-0.12,282.63
1676238289.55871296,146247314,1,0.07,-0.02,333.82,0.0417889766395092,0.04206571727991104,-0.029403245076537132,-0.01614394038915634,1.1968061923980713,-0.23391447961330414,0.6509743928909302,0.21,-0.24,-0.12,282.63
1676238289.57867694,146267278,1,0.07,-0.02,333.82,0.04256434366106987,0.04236743226647377,-0.029526466503739357,-0.015619992278516293,1.1968235969543457,-0.23337632417678833,0.6505790948867798,0.21,-0.24,-0.12,282.63
1676238289.61873007,146307331,1,0.07,-0.02,333.83,0.04285900294780731,0.04245832934975624,-0.028830770403146744,-0.008832997642457485,1.1939722299575806,-0.23332755267620087,0.6507613062858582,0.22,-0.24,-0.12,282.63
1676238289.65872908,146347330,1,0.05,-0.01,333.83,0.04215870425105095,0.0415617972612381,-0.02836090698838234,-0.004147970583289862,1.1904499530792236,-0.23366019129753113,0.6509571075439453,0.22,-0.24,-0.12,282.63
1676238289.69866395,146387265,1,0.04,-0.02,333.83,0.04140760749578476,0.04035767912864685,-0.028317561373114586,-0.0026026645209640265,1.188879132270813,-0.2332843542098999,0.650558352470398,0.22,-0.24,-0.12,282.63
1676238289.73872089,146427322,1,0.04,-0.01,333.83,0.04148641973733902,0.03891268000006676,-0.028416279703378677,-0.005934508983045816,1.1876590251922607,-0.2329166978597641,0.6499409079551697,0.22,-0.24,-0.12,282.63
1676238289.75867701,146447278,1,0.05,-0.01,333.82,0.0414382740855217,0.03798535838723183,-0.028276100754737854,-0.008372271433472633,1.1868482828140259,-0.2328493446111679,0.6496609449386597,0.22,-0.24,-0.12,282.63
1676238289.77868104,146467282,1,0.06,-0.01,333.82,0.04145309329032898,0.03783493489027023,-0.028363829478621483,-0.010721370577812195,1.1869261264801025,-0.23241886496543884,0.649226725101471,0.22,-0.24,-0.12,282.63
1676238289.81871390,146507315,1,0.06,-0.01,333.83,0.042790334671735764,0.0378645695745945,-0.027359457686543465,-0.0029172382783144712,1.1852270364761353,-0.23233820497989655,0.6500928997993469,0.22,-0.24,-0.12,282.63
1676238289.85868406,146547285,1,0.06,-0.01,333.83,0.04447713494300842,0.03790077567100525,-0.025996632874011993,0.008674216456711292,1.1831254959106445,-0.23258110880851746,0.6512615084648132,0.22,-0.24,-0.12,282.63
1676238289.89869905,146587300,1,0.05,-0.01,333.83,0.04590863734483719,0.03755289316177368,-0.024970389902591705,0.016324223950505257,1.1826235055923462,-0.232167050242424,0.6513708829879761,0.22,-0.24,-0.12,282.63
1676238289.93867803,146627279,1,0.05,-0.02,333.83,0.045037928968667984,0.03592158108949661,-0.024245867505669594,0.011247491464018822,1.1824032068252563,-0.23175165057182312,0.6508945226669312,0.22,-0.24,-0.12,282.63
1676238289.95868087,146647282,1,0.05,-0.02,333.83,0.04498983547091484,0.035141315311193466,-0.023773478344082832,0.006608354393392801,1.1821718215942383,-0.23164579272270203,0.65070641040802,0.22,-0.24,-0.12,282.63
1676238289.97873402,146667335,1,0.05,-0.02,333.83,0.045339491218328476,0.03497623652219772,-0.0233367420732975,0.0022773914970457554,1.1825671195983887,-0.23122450709342957,0.6503704190254211,0.22,-0.24,-0.12,282.63
1676238290.01872706,146707328,1,0.06,-0.02,333.83,0.045850686728954315,0.035369694232940674,-0.023915395140647888,-0.008569899946451187,1.1805825233459473,-0.2308783084154129,0.6494274735450745,0.22,-0.24,-0.13,282.63
1676238290.05867410,146747275,1,0.07,-0.02,333.82,0.04616384580731392,0.03618457540869713,-0.023283319547772408,-0.021753892302513123,1.178252935409546,-0.23062089085578918,0.6480097770690918,0.22,-0.24,-0.13,282.63
1676238290.09871387,146787315,1,0.06,-0.02,333.82,0.046808741986751556,0.036763183772563934,-0.022928887978196144,-0.030975129455327988,1.1774461269378662,-0.22997628152370453,0.6467633247375488,0.22,-0.24,-0.13,282.63
1676238290.13866496,146827266,1,0.05,-0.02,333.82,0.047801412642002106,0.036342520266771317,-0.022659961134195328,-0.03759993240237236,1.177139401435852,-0.22918231785297394,0.6453877091407776,0.22,-0.24,-0.13,282.63
1676238290.15873694,146847338,1,0.05,-0.02,333.82,0.047789186239242554,0.035577163100242615,-0.02220754139125347,-0.0391424223780632,1.1768155097961426,-0.228868767619133,0.644667387008667,0.22,-0.24,-0.13,282.63
1676238290.17874694,146867348,1,0.05,-0.02,333.82,0.04810648038983345,0.03507577255368233,-0.022235075011849403,-0.040465645492076874,1.1771950721740723,-0.22834698855876923,0.6440922617912292,0.22,-0.24,-0.13,282.63
1676238290.21867800,146907279,1,0.06,-0.03,333.83,0.0484846867620945,0.0343182198703289,-0.02187141217291355,-0.03521158918738365,1.1762216091156006,-0.22836193442344666,0.6436968445777893,0.22,-0.24,-0.13,282.63
1676238290.25867105,146947272,1,0.07,-0.03,333.83,0.04985075443983078,0.03388854116201401,-0.02097238227725029,-0.024844231083989143,1.1750730276107788,-0.228572279214859,0.6434275507926941,0.22,-0.24,-0.13,282.63
1676238290.29867697,146987278,1,0.06,-0.02,333.82,0.050732389092445374,0.03474675491452217,-0.021420994773507118,-0.017895670607686043,1.1751028299331665,-0.22827564179897308,0.6429420709609985,0.22,-0.24,-0.13,282.63
1676238290.33871603,147027317,1,0.06,-0.03,333.82,0.05087156221270561,0.03545089811086655,-0.02087567187845707,-0.013980378396809101,1.1755554676055908,-0.2277752012014389,0.6422855854034424,0.22,-0.24,-0.13,282.63
1676238290.35874104,147047342,1,0.05,-0.03,333.81,0.051617331802845,0.034791961312294006,-0.021108170971274376,-0.01379572506994009,1.1756808757781982,-0.22762370109558105,0.641981840133667,0.22,-0.24,-0.13,282.63
1676238290.37873888,147067340,1,0.05,-0.03,333.81,0.052110083401203156,0.033934082835912704,-0.021149087697267532,-0.013700926676392555,1.176275610923767,-0.22722184658050537,0.6416296362876892,0.22,-0.24,-0.13,282.63
1676238290.41867495,147107276,1,0.06,-0.03,333.82,0.05236539989709854,0.03298496827483177,-0.020577000454068184,-0.0166791845113039,1.175086498260498,-0.22644482553005219,0.6404327750205994,0.22,-0.24,-0.13,282.63
1676238290.45872402,147147325,1,0.07,-0.02,333.82,0.05310437083244324,0.032674890011548996,-0.020497584715485573,-0.024779146537184715,1.1735143661499023,-0.2258037030696869,0.6389164924621582,0.22,-0.24,-0.13,282.63
1676238290.49866605,147187267,1,0.07,-0.03,333.83,0.055192846804857254,0.0337144173681736,-0.020259276032447815,-0.03124046139419079,1.1734646558761597,-0.2248593419790268,0.6372944712638855,0.22,-0.24,-0.13,282.63
1676238290.53876090,147227362,1,0.06,-0.03,333.83,0.05678357183933258,0.03430137783288956,-0.020472558215260506,-0.043105799704790115,1.173842430114746,-0.2238295078277588,0.6351699233055115,0.22,-0.24,-0.13,282.63
1676238290.55872607,147247327,1,0.06,-0.03,333.83,0.057056378573179245,0.0342516228556633,-0.020883766934275627,-0.04817024618387222,1.1738519668579102,-0.22336885333061218,0.6339893341064453,0.22,-0.24,-0.13,282.63
1676238290.57867289,147267274,1,0.05,-0.03,333.83,0.05713890865445137,0.033537641167640686,-0.02119242586195469,-0.05262639373540878,1.174462080001831,-0.22280317544937134,0.633212685585022,0.22,-0.24,-0.13,282.63
1676238290.61868906,147307290,1,0.05,-0.03,333.82,0.056459102779626846,0.03177905082702637,-0.020111683756113052,-0.04914620518684387,1.1737538576126099,-0.222797691822052,0.6321305632591248,0.22,-0.24,-0.13,282.63
1676238290.65869689,147347298,1,0.06,-0.03,333.82,0.05687209963798523,0.03003064915537834,-0.020240966230630875,-0.046143874526023865,1.1726175546646118,-0.22313088178634644,0.6305350661277771,0.22,-0.24,-0.13,282.63
1676238290.69873190,147387333,1,0.07,-0.03,333.82,0.05812201276421547,0.03069080039858818,-0.01936042495071888,-0.04179585725069046,1.1728880405426025,-0.22289814054965973,0.6291265487670898,0.22,-0.24,-0.13,282.63
1676238290.73872900,147427330,1,0.07,-0.03,333.81,0.059880662709474564,0.031075701117515564,-0.019124915823340416,-0.03991818428039551,1.1734838485717773,-0.22256790101528168,0.6276840567588806,0.22,-0.24,-0.13,282.63
1676238290.75867391,147447275,1,0.06,-0.03,333.81,0.060743555426597595,0.031205177307128906,-0.018865816295146942,-0.038924440741539,1.173652172088623,-0.22250322997570038,0.6269116997718811,0.22,-0.24,-0.13,282.63
1676238290.77867603,147467277,1,0.06,-0.03,333.82,0.06159208342432976,0.030998755246400833,-0.01873469538986683,-0.0381663516163826,1.174438714981079,-0.22212369740009308,0.6263400912284851,0.22,-0.24,-0.13,282.63
1676238290.81871200,147507313,1,0.05,-0.03,333.82,0.06073073297739029,0.0297573059797287,-0.018070202320814133,-0.03178628161549568,1.1730293035507202,-0.22159558534622192,0.6255604028701782,0.22,-0.24,-0.13,282.63
1676238290.85867596,147547277,1,0.06,-0.03,333.83,0.05959152802824974,0.028144851326942444,-0.017579033970832825,-0.027291543781757355,1.1710931062698364,-0.22124329209327698,0.6244738698005676,0.22,-0.24,-0.13,282.63
1676238290.89874196,147587343,1,0.07,-0.03,333.82,0.06013348326086998,0.028762437403202057,-0.016863655298948288,-0.023754959926009178,1.1708028316497803,-0.22060629725456238,0.6235367655754089,0.22,-0.24,-0.13,282.63
1676238290.93866587,147627267,1,0.07,-0.03,333.81,0.061623744666576385,0.03065008483827114,-0.016862675547599792,-0.02184506505727768,1.1708240509033203,-0.2199070304632187,0.6226608753204346,0.22,-0.24,-0.13,282.63
1676238290.95867610,147647277,1,0.06,-0.02,333.81,0.062191881239414215,0.0312650166451931,-0.016681937500834465,-0.02088266797363758,1.170709490776062,-0.21954679489135742,0.6222003102302551,0.22,-0.24,-0.13,282.63
1676238290.97868204,147667283,1,0.06,-0.02,333.8,0.06235748901963234,0.03195708245038986,-0.01632937788963318,-0.019872106611728668,1.171339988708496,-0.21902835369110107,0.621809184551239,0.22,-0.24,-0.13,282.63
1676238291.01868105,147707282,1,0.05,-0.02,333.8,0.06137548387050629,0.03157808631658554,-0.015565348789095879,-0.010213132947683334,1.1692776679992676,-0.21791023015975952,0.6221864819526672,0.22,-0.24,-0.13,282.63
1676238291.05871892,147747320,1,0.05,-0.02,333.8,0.060551971197128296,0.030027814209461212,-0.014361646957695484,0.0030137356370687485,1.1665552854537964,-0.2168397158384323,0.6228618025779724,0.22,-0.24,-0.13,282.63
1676238291.09872389,147787325,1,0.06,-0.02,333.8,0.06061709299683571,0.030360503122210503,-0.014358550310134888,0.011242766864597797,1.165694236755371,-0.21573103964328766,0.6229447722434998,0.22,-0.24,-0.13,282.63
1676238291.13866591,147827267,1,0.07,-0.02,333.81,0.061561062932014465,0.031597185879945755,-0.013725297525525093,0.010955560952425003,1.165278434753418,-0.214564248919487,0.622651219367981,0.22,-0.24,-0.13,282.63
1676238291.15867209,147847273,1,0.07,-0.02,333.81,0.06217961385846138,0.032683007419109344,-0.013493511825799942,0.008740612305700779,1.164853572845459,-0.2139374315738678,0.6225363612174988,0.22,-0.24,-0.13,282.63
1676238291.17871189,147867313,1,0.06,-0.02,333.81,0.06258858740329742,0.03294403851032257,-0.013449307531118393,0.006366490852087736,1.165284514427185,-0.21330983936786652,0.6223520040512085,0.22,-0.24,-0.13,282.63
1676238291.21867490,147907276,1,0.06,-0.02,333.81,0.06218293681740761,0.03303426131606102,-0.012757894583046436,0.002338291611522436,1.162935495376587,-0.21207275986671448,0.6219549179077148,0.22,-0.24,-0.13,282.63
1676238291.25875092,147947352,1,0.05,-0.01,333.81,0.05993335321545601,0.03199819475412369,-0.012262357398867607,-0.00646338751539588,1.1599153280258179,-0.21082784235477448,0.6210923790931702,0.22,-0.24,-0.13,282.63
1676238291.29866600,147987267,1,0.06,-0.01,333.8,0.05949000269174576,0.031782496720552444,-0.01212487556040287,-0.013559923507273197,1.1587185859680176,-0.20962375402450562,0.6202116012573242,0.22,-0.24,-0.13,282.63
1676238291.33867598,148027277,1,0.06,-0.01,333.8,0.06000583991408348,0.03187808394432068,-0.012156586162745953,-0.02274571731686592,1.158082365989685,-0.20835712552070618,0.6190100908279419,0.22,-0.24,-0.13,282.63
1676238291.35872006,148047321,1,0.06,-0.01,333.8,0.06010487675666809,0.03225931525230408,-0.011774405837059021,-0.02592889405786991,1.1574337482452393,-0.2077392041683197,0.618355929851532,0.22,-0.24,-0.13,282.63
1676238291.37869000,148067291,1,0.06,-0.01,333.8,0.06088025122880936,0.032509494572877884,-0.01183441560715437,-0.028989993035793304,1.157816767692566,-0.20708024501800537,0.6179184317588806,0.22,-0.24,-0.13,282.63
1676238291.41872787,148107329,1,0.06,-0.01,333.81,0.06133709102869034,0.033014927059412,-0.01140318252146244,-0.02888265624642372,1.1557539701461792,-0.2058621197938919,0.6172930598258972,0.22,-0.24,-0.13,282.63
1676238291.45873189,148147333,1,0.05,-0.01,333.82,0.060762807726860046,0.032160066068172455,-0.011193018406629562,-0.024949759244918823,1.1530826091766357,-0.2046610713005066,0.616683840751648,0.22,-0.24,-0.13,282.63
1676238291.49867797,148187279,1,0.05,-0.01,333.82,0.060429416596889496,0.03171757981181145,-0.01147195789963007,-0.02137845568358898,1.152251958847046,-0.20344753563404083,0.6156207323074341,0.22,-0.24,-0.13,282.63
1676238291.53871298,148227314,1,0.06,-0.01,333.82,0.0597979910671711,0.03181827440857887,-0.01140240952372551,-0.03042733669281006,1.1518276929855347,-0.20222564041614532,0.613667905330658,0.22,-0.24,-0.13,282.63
1676238291.55870008,148247301,1,0.06,-0.01,333.82,0.05987248569726944,0.03218284249305725,-0.01155004557222128,-0.03631018474698067,1.151386022567749,-0.20159733295440674,0.6125392317771912,0.22,-0.24,-0.13,282.63
1676238291.57866597,148267267,1,0.06,-0.01,333.82,0.05990486219525337,0.032653242349624634,-0.011527938768267632,-0.041550472378730774,1.151780605316162,-0.20097272098064423,0.6118955612182617,0.22,-0.24,-0.13,282.63
1676238291.61876798,148307369,1,0.06,-0.01,333.81,0.05957648158073425,0.0329623781144619,-0.011592580936849117,-0.04500444233417511,1.1494359970092773,-0.20013168454170227,0.61057448387146,0.22,-0.24,-0.13,282.63
1676238291.65867805,148347279,1,0.05,-0.01,333.81,0.058970291167497635,0.03244412690401077,-0.011705434881150723,-0.044692039489746094,1.146378517150879,-0.19939324259757996,0.6089332699775696,0.22,-0.24,-0.13,282.63
1676238291.69868088,148387282,1,0.05,-0.01,333.81,0.058783575892448425,0.032037388533353806,-0.011723706498742104,-0.04222974181175232,1.1452722549438477,-0.19848109781742096,0.6077532768249512,0.22,-0.24,-0.13,282.63
1676238291.73869991,148427301,1,0.05,-0.01,333.82,0.05908403545618057,0.03188389539718628,-0.011384440585970879,-0.03668547421693802,1.1446127891540527,-0.19753816723823547,0.6067517399787903,0.22,-0.24,-0.13,282.63
1676238291.75867605,148447277,1,0.05,-0.01,333.82,0.0595429390668869,0.031857628375291824,-0.011536781676113605,-0.03387415409088135,1.144045114517212,-0.19708919525146484,0.6061958074569702,0.22,-0.24,-0.13,282.63
1676238291.77873588,148467337,1,0.05,-0.01,333.83,0.05953068658709526,0.03194320574402809,-0.011341555044054985,-0.03122972510755062,1.144381046295166,-0.19655990600585938,0.6058220267295837,0.22,-0.24,-0.13,282.63
1676238291.81872988,148507331,1,0.05,-0.01,333.83,0.0589575432240963,0.03199370950460434,-0.010446916334331036,-0.01937052421271801,1.141141414642334,-0.19559569656848907,0.6058937907218933,0.22,-0.25,-0.13,282.63
1676238291.85867691,148547278,1,0.05,-0.01,333.82,0.05704985186457634,0.03211570531129837,-0.009856798686087132,-0.006797580048441887,1.137042760848999,-0.19467619061470032,0.6060670614242554,0.22,-0.25,-0.13,282.63
1676238291.89872289,148587324,1,0.05,0.0,333.82,0.05702050030231476,0.03219342231750488,-0.009366334415972233,0.0022756222169846296,1.1352157592773438,-0.19362927973270416,0.6061863899230957,0.22,-0.25,-0.13,282.63
1676238291.93867493,148627276,1,0.05,0.0,333.81,0.056063566356897354,0.03162224218249321,-0.0091329924762249,0.009806645102798939,1.1339274644851685,-0.19254228472709656,0.6064987778663635,0.22,-0.25,-0.13,282.63
1676238291.95873308,148647334,1,0.05,0.0,333.81,0.055672142654657364,0.03135135397315025,-0.008843417279422283,0.012314973399043083,1.1328731775283813,-0.19205352663993835,0.6067394614219666,0.22,-0.25,-0.13,282.63
1676238291.97875309,148667354,1,0.05,0.0,333.81,0.05604616925120354,0.031567588448524475,-0.008630616590380669,0.01435726135969162,1.1330088376998901,-0.19147109985351562,0.6067575812339783,0.22,-0.24,-0.13,282.63
1676238292.01866388,148707265,1,0.05,0.0,333.82,0.05622047185897827,0.031693536788225174,-0.008093916811048985,0.019051415845751762,1.1307393312454224,-0.1898733526468277,0.6073707342147827,0.22,-0.25,-0.13,282.63
1676238292.05869889,148747300,1,0.05,0.0,333.83,0.05616853013634682,0.03195374459028244,-0.007146516814827919,0.01994475908577442,1.1278648376464844,-0.1882152557373047,0.6078917384147644,0.22,-0.25,-0.13,282.63
1676238292.09870100,148787302,1,0.05,0.0,333.83,0.05631173774600029,0.03276471048593521,-0.006535817869007587,0.01854882761836052,1.1268579959869385,-0.1866631954908371,0.6082014441490173,0.22,-0.25,-0.13,282.63
1676238292.13873196,148827333,1,0.04,-0.01,333.84000000000003,0.05648944526910782,0.03289320692420006,-0.006585406605154276,0.016350295394659042,1.1262898445129395,-0.18511052429676056,0.6085248589515686,0.22,-0.25,-0.13,282.63
1676238292.15876007,148847361,1,0.04,0.0,333.84000000000003,0.05667047202587128,0.032715775072574615,-0.00655173696577549,0.014997657388448715,1.1257833242416382,-0.18428654968738556,0.6087461113929749,0.22,-0.25,-0.13,282.63
1676238292.17872310,148867324,1,0.05,-0.01,333.84000000000003,0.05671266093850136,0.03235585615038872,-0.00664491206407547,0.013827360235154629,1.1261157989501953,-0.18357786536216736,0.6087854504585266,0.22,-0.25,-0.13,282.63
1676238292.21867704,148907278,1,0.05,0.0,333.84000000000003,0.055313676595687866,0.0313594751060009,-0.005957125220447779,0.01275958027690649,1.1230145692825317,-0.18239925801753998,0.6090586185455322,0.22,-0.25,-0.13,282.63
1676238292.25871706,148947318,1,0.05,0.0,333.83,0.05362426117062569,0.03182101994752884,-0.005873355083167553,0.008284375071525574,1.1190135478973389,-0.1812918484210968,0.6091325283050537,0.22,-0.25,-0.13,282.63
1676238292.29867196,148987273,1,0.05,0.0,333.83,0.05458933115005493,0.03184516727924347,-0.005686503369361162,0.004062627907842398,1.1173005104064941,-0.18006160855293274,0.6091405749320984,0.22,-0.25,-0.13,282.63
1676238292.33876204,149027363,1,0.05,0.0,333.83,0.05391435697674751,0.03209197148680687,-0.0053091938607394695,0.0021729280706495047,1.1160459518432617,-0.17884522676467896,0.609213650226593,0.22,-0.25,-0.13,282.63
1676238292.35872698,149047328,1,0.05,0.0,333.83,0.05343249440193176,0.03173421695828438,-0.0050221895799040794,0.001724402536638081,1.115065097808838,-0.17825983464717865,0.6092888116836548,0.22,-0.25,-0.13,282.63
1676238292.37867498,149067276,1,0.05,0.0,333.84000000000003,0.053562551736831665,0.031507112085819244,-0.00475618802011013,0.0015909187495708466,1.1152087450027466,-0.17763181030750275,0.6092710494995117,0.22,-0.25,-0.13,282.63
1676238292.41870809,149107309,1,0.04,0.0,333.84000000000003,0.05349854379892349,0.03118724562227726,-0.004213830456137657,0.0050011384300887585,1.112244725227356,-0.17684589326381683,0.6098543405532837,0.22,-0.25,-0.13,282.63
1676238292.45867705,149147278,1,0.04,0.0,333.85,0.052528880536556244,0.03121752291917801,-0.003403507638722658,0.009618284180760384,1.1084682941436768,-0.1762079894542694,0.6105563640594482,0.22,-0.25,-0.13,282.63
1676238292.49873304,149187334,1,0.03,0.0,333.85,0.051415205001831055,0.031319230794906616,-0.002899523125961423,0.01240554265677929,1.1068475246429443,-0.1753155142068863,0.6108173727989197,0.22,-0.25,-0.13,282.63
1676238292.53872490,149227326,1,0.03,0.0,333.84000000000003,0.0503041110932827,0.03082931786775589,-0.002467602025717497,0.009209509007632732,1.1055681705474854,-0.17445223033428192,0.6107468008995056,0.22,-0.25,-0.13,282.63
1676238292.55867410,149247275,1,0.03,0.0,333.84000000000003,0.05042224004864693,0.030325669795274734,-0.0025319266133010387,0.0063971769995987415,1.104663610458374,-0.17403893172740936,0.6107166409492493,0.22,-0.25,-0.13,282.63
1676238292.57867503,149267276,1,0.03,0.0,333.84000000000003,0.05018023028969765,0.030101433396339417,-0.002419736236333847,0.003952539525926113,1.104791283607483,-0.17352251708507538,0.6106770634651184,0.22,-0.25,-0.13,282.63
1676238292.61872292,149307324,1,0.04,0.0,333.84000000000003,0.04899613559246063,0.029909420758485794,-0.001669728779233992,0.007255730219185352,1.1022999286651611,-0.1727253645658493,0.6117672920227051,0.22,-0.24,-0.13,282.63
1676238292.65867496,149347276,1,0.04,0.0,333.84000000000003,0.049656495451927185,0.030009271577000618,-0.001403645845130086,0.01662382110953331,1.1004682779312134,-0.17184025049209595,0.6127774119377136,0.22,-0.25,-0.13,282.63
1676238292.69874096,149387342,1,0.03,0.0,333.84000000000003,0.05066855624318123,0.030424319207668304,-0.00022946106037124991,0.023724356666207314,1.0981385707855225,-0.1710396409034729,0.6138283014297485,0.22,-0.25,-0.13,282.63
1676238292.73866606,149427267,1,0.03,0.0,333.85,0.05135943740606308,0.028759010136127472,9.861595026450232e-05,0.022886972874403,1.0974491834640503,-0.1701284646987915,0.6142070889472961,0.22,-0.25,-0.13,282.63
1676238292.75867391,149447275,1,0.02,0.0,333.86,0.05161525681614876,0.028342846781015396,0.0003504460910335183,0.021029513329267502,1.0976767539978027,-0.16962721943855286,0.6143331527709961,0.22,-0.25,-0.13,282.63
1676238292.77869105,149467292,1,0.03,0.0,333.86,0.05138767883181572,0.02736560069024563,0.0004853935388382524,0.0187679436057806,1.0972033739089966,-0.16921697556972504,0.6145708560943604,0.22,-0.25,-0.13,282.63
1676238292.81867599,149507277,1,0.03,0.0,333.86,0.05112404748797417,0.027280563488602638,0.0010705082677304745,0.02093404158949852,1.0947821140289307,-0.1680527925491333,0.6158807873725891,0.22,-0.25,-0.13,282.63
1676238292.85873199,149547333,1,0.03,0.0,333.86,0.049932241439819336,0.027901720255613327,0.0020892955362796783,0.026837626472115517,1.0930005311965942,-0.16684451699256897,0.6170262694358826,0.22,-0.25,-0.13,282.63
1676238292.89873290,149587334,1,0.04,-0.01,333.86,0.0482025071978569,0.028741201385855675,0.0028628725558519363,0.030177555978298187,1.090593695640564,-0.1656324863433838,0.6181880831718445,0.22,-0.25,-0.13,282.63
1676238292.93866396,149627265,1,0.03,0.0,333.86,0.04888802766799927,0.029693368822336197,0.0037741821724921465,0.026979129761457443,1.0898512601852417,-0.16437026858329773,0.6186465620994568,0.22,-0.25,-0.13,282.63
1676238292.95868492,149647286,1,0.03,0.0,333.85,0.049540042877197266,0.03066946193575859,0.003831027075648308,0.023704733699560165,1.0900336503982544,-0.16373197734355927,0.6188245415687561,0.22,-0.25,-0.13,282.63
1676238292.97871590,149667317,1,0.03,0.0,333.86,0.04948212578892708,0.030813569203019142,0.004155200906097889,0.02096594125032425,1.089431881904602,-0.16311286389827728,0.6190921664237976,0.22,-0.25,-0.13,282.63
1676238293.01867509,149707276,1,0.03,0.0,333.86,0.048195548355579376,0.02970314770936966,0.004460562486201525,0.010316199623048306,1.0862230062484741,-0.16172967851161957,0.6186095476150513,0.22,-0.25,-0.13,282.63
1676238293.05874205,149747343,1,0.03,0.0,333.87,0.04807661101222038,0.028178459033370018,0.004265926778316498,-0.0026186176110059023,1.0835880041122437,-0.16044531762599945,0.6182019114494324,0.22,-0.25,-0.13,282.63
1676238293.09872103,149787322,1,0.04,0.0,333.88,0.048119042068719864,0.02925354242324829,0.004766371566802263,-0.01061647292226553,1.081549048423767,-0.15919071435928345,0.6178687214851379,0.22,-0.25,-0.13,282.63
1676238293.13870192,149827303,1,0.03,0.0,333.88,0.04718725010752678,0.031016159802675247,0.004437263589352369,-0.01588405855000019,1.0790091753005981,-0.15781565010547638,0.6172541379928589,0.22,-0.25,-0.13,282.63
1676238293.15872288,149847324,1,0.03,0.0,333.88,0.04699092358350754,0.031918108463287354,0.004544801078736782,-0.017207462340593338,1.078891634941101,-0.15719139575958252,0.617153525352478,0.22,-0.25,-0.13,282.63
1676238293.17867708,149867278,1,0.03,0.0,333.87,0.04647132754325867,0.0320795439183712,0.004706407431513071,-0.0176760945469141,1.0779950618743896,-0.15646719932556152,0.6168990135192871,0.22,-0.25,-0.13,282.63
1676238293.21874595,149907347,1,0.02,0.0,333.87,0.04531070962548256,0.03154435008764267,0.0042692734859883785,-0.021472714841365814,1.0753594636917114,-0.15476861596107483,0.615738034248352,0.22,-0.25,-0.13,282.63
1676238293.25873208,149947333,1,0.02,0.0,333.87,0.043769221752882004,0.03141095116734505,0.0039885686710476875,-0.031957633793354034,1.0721887350082397,-0.15301834046840668,0.614302933216095,0.22,-0.25,-0.13,282.63
1676238293.29866505,149987266,1,0.03,0.0,333.88,0.043146319687366486,0.03122146613895893,0.0038943905383348465,-0.03922455385327339,1.069664478302002,-0.15127165615558624,0.6130390763282776,0.22,-0.25,-0.13,282.63
1676238293.33870792,150027309,1,0.03,0.01,333.88,0.04314691573381424,0.031244922429323196,0.0034434543922543526,-0.04398656636476517,1.0664819478988647,-0.14949889481067657,0.6111137270927429,0.22,-0.25,-0.13,282.63
1676238293.35867596,150047277,1,0.04,0.01,333.89,0.04361678287386894,0.03225477412343025,0.003249290632084012,-0.045390721410512924,1.0662841796875,-0.14872252941131592,0.6107150316238403,0.22,-0.25,-0.13,282.63
1676238293.37866688,150067268,1,0.03,0.01,333.89,0.04350800812244415,0.033217497169971466,0.0032458805944770575,-0.044951293617486954,1.065148949623108,-0.14780433475971222,0.6098940968513489,0.22,-0.25,-0.13,282.63
1676238293.41873097,150107332,1,0.03,0.01,333.89,0.04290720447897911,0.03440096229314804,0.0027496598195284605,-0.046603310853242874,1.0617743730545044,-0.14602214097976685,0.6081265211105347,0.22,-0.25,-0.13,282.63
1676238293.45867205,150147273,1,0.03,0.0,333.89,0.04191546142101288,0.03336795046925545,0.002907540649175644,-0.050382234156131744,1.0590120553970337,-0.14428304135799408,0.6063588261604309,0.22,-0.25,-0.13,282.63
1676238293.49867797,150187279,1,0.03,0.01,333.89,0.04117227718234062,0.03306574374437332,0.002812271239235997,-0.05103466287255287,1.0568052530288696,-0.14258813858032227,0.604806125164032,0.22,-0.25,-0.13,282.63
1676238293.53867602,150227277,1,0.04,0.0,333.89,0.039982251822948456,0.03345462679862976,0.0024070674553513527,-0.04815877601504326,1.0539774894714355,-0.1408894956111908,0.6030598282814026,0.22,-0.25,-0.13,282.63
1676238293.55867600,150247277,1,0.04,0.0,333.89,0.04004071280360222,0.03385668247938156,0.002357544843107462,-0.045975178480148315,1.0538177490234375,-0.14010803401470184,0.6026888489723206,0.22,-0.25,-0.13,282.63
1676238293.57874107,150267342,1,0.04,0.01,333.89,0.0398344025015831,0.034404266625642776,0.002325934823602438,-0.042746029794216156,1.0528130531311035,-0.13923101127147675,0.6019437313079834,0.22,-0.25,-0.13,282.63
1676238293.61873102,150307332,1,0.04,0.01,333.90000000000003,0.03829355910420418,0.035754021257162094,0.0019608524162322283,-0.03679864853620529,1.0486427545547485,-0.13717195391654968,0.6007734537124634,0.22,-0.25,-0.13,282.63
1676238293.65867400,150347275,1,0.03,0.01,333.90000000000003,0.036851152777671814,0.03655295446515083,0.001591182197444141,-0.0325871966779232,1.0451154708862305,-0.13513392210006714,0.5997548699378967,0.22,-0.25,-0.13,282.63
1676238293.69871187,150387313,1,0.03,0.01,333.91,0.03587741032242775,0.03629850223660469,0.0016547109698876739,-0.028027299791574478,1.0421369075775146,-0.13317815959453583,0.5988473892211914,0.22,-0.25,-0.13,282.63
1676238293.73866796,150427269,1,0.03,0.02,333.91,0.035421449691057205,0.035671211779117584,0.0012246558908373117,-0.030329471454024315,1.0397465229034424,-0.1312330961227417,0.5971486568450928,0.22,-0.25,-0.13,282.63
1676238293.75871992,150447321,1,0.03,0.02,333.91,0.03489182889461517,0.03585788980126381,0.0008940615807659924,-0.033355049788951874,1.0381855964660645,-0.13021372258663177,0.5961140394210815,0.22,-0.25,-0.13,282.63
1676238293.77874804,150467349,1,0.04,0.02,333.91,0.034311436116695404,0.03589737042784691,0.0007771264645271003,-0.03512388467788696,1.0368125438690186,-0.12920857965946198,0.5951594710350037,0.22,-0.25,-0.13,282.63
1676238293.81866598,150507267,1,0.04,0.01,333.90000000000003,0.03444812074303627,0.036887116730213165,0.0005722325295209885,-0.03701615706086159,1.0337066650390625,-0.1277642548084259,0.5936806201934814,0.22,-0.25,-0.13,282.63
1676238293.85868406,150547285,1,0.04,0.01,333.90000000000003,0.03439473360776901,0.03747635707259178,-3.789105176110752e-05,-0.04138420149683952,1.0312416553497314,-0.12622886896133423,0.5920701026916504,0.22,-0.25,-0.13,282.63
1676238293.89867592,150587277,1,0.03,0.02,333.91,0.03359198197722435,0.03769780322909355,0.0001427548413630575,-0.04206964001059532,1.029244303703308,-0.12471169978380203,0.5906487703323364,0.22,-0.25,-0.13,282.63
1676238293.93874907,150627350,1,0.03,0.01,333.91,0.03278422728180885,0.03744516521692276,-0.0004704512539319694,-0.04271396994590759,1.0276530981063843,-0.12321432679891586,0.5890640616416931,0.22,-0.25,-0.13,282.63
1676238293.95875287,150647354,1,0.03,0.01,333.92,0.0326806902885437,0.03694751113653183,-0.00032423363882116973,-0.04250209778547287,1.026613712310791,-0.12245310842990875,0.5881106853485107,0.22,-0.25,-0.13,282.63
1676238293.97874808,150667349,1,0.04,0.02,333.92,0.03270230069756508,0.03641316294670105,-0.00018530841043684632,-0.04129955172538757,1.0257151126861572,-0.1217363253235817,0.58724045753479,0.22,-0.25,-0.13,282.63
1676238294.01866794,150707269,1,0.04,0.02,333.93,0.03300664201378822,0.036386460065841675,-0.0008196006529033184,-0.038921765983104706,1.0234718322753906,-0.12063129246234894,0.5860852003097534,0.23,-0.25,-0.13,282.63
1676238294.05871296,150747314,1,0.05,0.02,333.93,0.03227665275335312,0.037409547716379166,-0.0005234620184637606,-0.033769164234399796,1.0209742784500122,-0.11964736133813858,0.5850741863250732,0.23,-0.25,-0.13,282.63
1676238294.09867787,150787279,1,0.04,0.01,333.93,0.032970085740089417,0.03863043710589409,-0.000793098472058773,-0.028797689825296402,1.0189920663833618,-0.1185760647058487,0.5841926336288452,0.23,-0.25,-0.13,282.63
1676238294.13873792,150827339,1,0.03,0.01,333.92,0.03295575827360153,0.03800319507718086,-0.00043272838229313493,-0.025507163256406784,1.0175020694732666,-0.11743008345365524,0.5830712914466858,0.23,-0.25,-0.13,282.63
1676238294.15872598,150847327,1,0.03,0.02,333.92,0.032482024282217026,0.037262268364429474,-0.00038333088741637766,-0.024990657344460487,1.0164762735366821,-0.11695285141468048,0.5824106335639954,0.23,-0.25,-0.13,282.63
1676238294.17867398,150867275,1,0.03,0.02,333.92,0.031632352620363235,0.0361335426568985,-0.00038358065648935735,-0.02422921732068062,1.0156056880950928,-0.11647951602935791,0.5818073153495789,0.23,-0.25,-0.13,282.63
1676238294.21869588,150907297,1,0.04,0.02,333.92,0.03200838714838028,0.03490370884537697,0.00011056200310122222,-0.017480406910181046,1.0133987665176392,-0.11588228493928909,0.5819557309150696,0.23,-0.25,-0.13,282.63
1676238294.25870705,150947308,1,0.05,0.02,333.92,0.03298607096076012,0.03508851304650307,0.00013354433758649975,-0.005802891217172146,1.0116804838180542,-0.11526422202587128,0.5820953249931335,0.23,-0.25,-0.13,282.63
1676238294.29871607,150987317,1,0.05,0.02,333.93,0.03415914624929428,0.03555019944906235,0.0005862733814865351,0.0038255848921835423,1.010445237159729,-0.11456979811191559,0.5822397470474243,0.23,-0.25,-0.13,282.63
1676238294.33873391,151027335,1,0.04,0.02,333.93,0.03489311411976814,0.0362185575067997,0.0008804862736724317,0.007858741097152233,1.009623646736145,-0.11378458887338638,0.5821368098258972,0.23,-0.25,-0.13,282.63
1676238294.35866594,151047267,1,0.03,0.01,333.93,0.035245973616838455,0.035820432007312775,0.0010692788055166602,0.008228866383433342,1.0090371370315552,-0.11348389834165573,0.5820825099945068,0.23,-0.25,-0.13,282.63
1676238294.37866807,151067269,1,0.03,0.01,333.92,0.03554198518395424,0.035251107066869736,0.0012944722548127174,0.008156311698257923,1.009176254272461,-0.11295066773891449,0.5820736289024353,0.23,-0.25,-0.13,282.63
1676238294.41871309,151107314,1,0.03,0.02,333.92,0.03473320230841637,0.03419632464647293,0.001955455169081688,0.01172427274286747,1.005738377571106,-0.11198969930410385,0.5827183723449707,0.23,-0.25,-0.13,282.63
1676238294.45866609,151147267,1,0.04,0.02,333.91,0.03392461687326431,0.03396623954176903,0.0023618501145392656,0.01475560199469328,1.004065990447998,-0.11091776192188263,0.5831097364425659,0.23,-0.25,-0.13,282.63
1676238294.49874902,151187350,1,0.04,0.02,333.91,0.03508676588535309,0.034918032586574554,0.0026542001869529486,0.01625925488770008,1.0028640031814575,-0.10978153347969055,0.583501398563385,0.23,-0.25,-0.13,282.63
1676238294.53867793,151227279,1,0.04,0.02,333.91,0.03588216006755829,0.03564508631825447,0.002989876549690962,0.016727542504668236,1.0020508766174316,-0.10861992835998535,0.583910346031189,0.23,-0.25,-0.13,282.63
1676238294.55866909,151247270,1,0.04,0.02,333.92,0.03635082393884659,0.03553390875458717,0.0029868921265006065,0.016388624906539917,1.0014607906341553,-0.10807614028453827,0.5841532349586487,0.23,-0.25,-0.13,282.63
1676238294.57868099,151267282,1,0.03,0.02,333.92,0.0366939976811409,0.03533592447638512,0.0030689940322190523,0.016108885407447815,1.001609444618225,-0.107423797249794,0.5843045115470886,0.23,-0.25,-0.13,282.63
1676238294.61870408,151307305,1,0.03,0.02,333.93,0.034684378653764725,0.03457675874233246,0.003966537769883871,0.017568878829479218,0.9969139099121094,-0.10602482408285141,0.5851213932037354,0.23,-0.25,-0.13,282.63
1676238294.65873098,151347332,1,0.03,0.02,333.93,0.033853888511657715,0.03385799378156662,0.004416851792484522,0.019461199641227722,0.9943988919258118,-0.10467112809419632,0.5857660174369812,0.23,-0.25,-0.13,282.63
1676238294.69872594,151387327,1,0.04,0.02,333.93,0.0330413393676281,0.03449167683720589,0.00492668803781271,0.020518885925412178,0.9923486709594727,-0.10331067442893982,0.586446225643158,0.23,-0.25,-0.13,282.63
1676238294.73867393,151427275,1,0.04,0.02,333.93,0.03265789896249771,0.03538931533694267,0.005109324119985104,0.021879611536860466,0.9907172322273254,-0.1019202172756195,0.5872287750244141,0.23,-0.25,-0.13,282.63
1676238294.75868106,151447282,1,0.04,0.02,333.93,0.03266998007893562,0.03589266911149025,0.005301557946950197,0.022486954927444458,0.9896483421325684,-0.10119170695543289,0.5876888632774353,0.23,-0.25,-0.13,282.63
1676238294.77871203,151467313,1,0.03,0.02,333.93,0.03284604474902153,0.03659394010901451,0.005700663663446903,0.02291972003877163,0.9894751906394958,-0.10048358887434006,0.5879613161087036,0.23,-0.25,-0.13,282.63
1676238294.81866407,151507265,1,0.03,0.02,333.93,0.030364280566573143,0.03654153645038605,0.005816676188260317,0.021841522306203842,0.9842382669448853,-0.09939445555210114,0.5886790752410889,0.23,-0.25,-0.13,282.63
1676238294.85875797,151547359,1,0.02,0.03,333.94,0.029100598767399788,0.03516588732600212,0.006110192742198706,0.019010154530405998,0.9812539219856262,-0.09822802990674973,0.5891575217247009,0.23,-0.25,-0.13,282.63
1676238294.89867687,151587278,1,0.03,0.03,333.94,0.02898503467440605,0.034329671412706375,0.006117064971476793,0.015230495482683182,0.9787517786026001,-0.09708071500062943,0.5893307328224182,0.23,-0.25,-0.13,282.63
1676238294.93868089,151627282,1,0.03,0.03,333.95,0.029524115845561028,0.034480564296245575,0.006095779128372669,0.005081868730485439,0.9767288565635681,-0.09593178331851959,0.5889485478401184,0.23,-0.25,-0.13,282.63
1676238294.95872092,151647322,1,0.03,0.03,333.95,0.029468081891536713,0.03478096053004265,0.006221082992851734,0.00022218257072381675,0.9754170179367065,-0.09538757055997849,0.5887032151222229,0.23,-0.25,-0.13,282.63
1676238294.97868705,151667288,1,0.03,0.03,333.95,0.029745670035481453,0.035257305949926376,0.0060432967729866505,-0.0042996653355658054,0.975139856338501,-0.09473590552806854,0.5886573195457458,0.23,-0.25,-0.13,282.63
1676238295.01872396,151707325,1,0.03,0.02,333.94,0.029774192720651627,0.035635706037282944,0.00560256652534008,-0.006557798013091087,0.972287118434906,-0.09364114701747894,0.5888981223106384,0.23,-0.25,-0.13,282.63
1676238295.05872393,151747325,1,0.02,0.03,333.94,0.029370121657848358,0.034956809133291245,0.006040886975824833,-0.0034567569382488728,0.9709380269050598,-0.09244541823863983,0.5891429781913757,0.23,-0.25,-0.13,282.63
1676238295.09867287,151787274,1,0.03,0.03,333.94,0.028679510578513145,0.03487322852015495,0.006115109659731388,5.952325227553956e-05,0.9699583053588867,-0.0912138968706131,0.5894285440444946,0.23,-0.25,-0.13,282.63
1676238295.13871598,151827317,1,0.03,0.03,333.94,0.028282755985856056,0.03429531306028366,0.00647266348823905,0.003628244623541832,0.9692161083221436,-0.09004591405391693,0.589751124382019,0.23,-0.25,-0.13,282.63
1676238295.15867710,151847278,1,0.03,0.03,333.94,0.02890959195792675,0.034477535635232925,0.00659421319141984,0.005137392785400152,0.9687419533729553,-0.08945231139659882,0.5899356007575989,0.23,-0.25,-0.13,282.63
1676238295.17867899,151867280,1,0.04,0.03,333.94,0.02948829159140587,0.03487689048051834,0.006528959143906832,0.006239777430891991,0.9688557982444763,-0.08879537135362625,0.5900951027870178,0.23,-0.25,-0.13,282.63
1676238295.21874309,151907344,1,0.03,0.03,333.95,0.03031173162162304,0.03544985502958298,0.007546776439994574,0.013479619286954403,0.9669375419616699,-0.08775339275598526,0.591346263885498,0.23,-0.25,-0.13,282.63
1676238295.25866508,151947266,1,0.03,0.03,333.95,0.0315604992210865,0.035443682223558426,0.007904118858277798,0.021305374801158905,0.9662612676620483,-0.0865783542394638,0.5923228859901428,0.23,-0.25,-0.13,282.63
1676238295.29869294,151987294,1,0.02,0.03,333.95,0.03251085802912712,0.03467966988682747,0.008635196834802628,0.026612138375639915,0.965951681137085,-0.08539524674415588,0.5932419896125793,0.23,-0.25,-0.13,282.63
1676238295.33867598,152027277,1,0.02,0.03,333.95,0.03266322985291481,0.03395639359951019,0.00863697286695242,0.028002683073282242,0.9659404158592224,-0.0842331051826477,0.5941119194030762,0.23,-0.25,-0.13,282.63
1676238295.35866404,152047265,1,0.03,0.03,333.95,0.032619658857584,0.034222591668367386,0.008855437859892845,0.02798417955636978,0.9658674597740173,-0.08365820348262787,0.5946080684661865,0.23,-0.25,-0.13,282.63
1676238295.37874699,152067348,1,0.03,0.02,333.95,0.03297415375709534,0.034425098448991776,0.009049243293702602,0.027649031952023506,0.9662048816680908,-0.08301553130149841,0.5949406027793884,0.23,-0.25,-0.13,282.63
1676238295.41876793,152107369,1,0.03,0.02,333.95,0.03223390132188797,0.03636237233877182,0.009463007561862469,0.025672152638435364,0.9634346961975098,-0.08138430863618851,0.5957155823707581,0.23,-0.25,-0.13,282.63
1676238295.45867610,152147277,1,0.03,0.03,333.95,0.031060781329870224,0.03736508637666702,0.010253755375742912,0.0256087314337492,0.9601792097091675,-0.07958312332630157,0.596788227558136,0.23,-0.25,-0.13,282.63
1676238295.49872208,152187323,1,0.02,0.03,333.95,0.03025873377919197,0.03789978846907616,0.010847584344446659,0.025484731420874596,0.9585134387016296,-0.07791581749916077,0.597496509552002,0.23,-0.25,-0.13,282.63
1676238295.53868103,152227282,1,0.02,0.03,333.96,0.03031141497194767,0.037113454192876816,0.011039255186915398,0.021085308864712715,0.9572758078575134,-0.0762113556265831,0.5979509353637695,0.23,-0.25,-0.13,282.63
1676238295.55873990,152247341,1,0.02,0.03,333.96,0.030336430296301842,0.03670578822493553,0.011502102017402649,0.018804281949996948,0.9564357995986938,-0.07534658908843994,0.5981864929199219,0.23,-0.25,-0.13,282.63
1676238295.57874990,152267351,1,0.02,0.03,333.96,0.030746273696422577,0.03672034665942192,0.011589537374675274,0.0165015310049057,0.956354558467865,-0.07457717508077621,0.598413348197937,0.23,-0.25,-0.13,282.63
1676238295.61866903,152307270,1,0.03,0.03,333.97,0.030839500948786736,0.03674047067761421,0.012439019046723843,0.022355077788233757,0.9537976384162903,-0.07391979545354843,0.6002023816108704,0.23,-0.25,-0.13,282.63
1676238295.65868497,152347286,1,0.03,0.03,333.96,0.03056323528289795,0.0371575765311718,0.013240520842373371,0.03286832198500633,0.9507660269737244,-0.07335098087787628,0.6022276878356934,0.23,-0.25,-0.13,282.63
1676238295.69867706,152387278,1,0.02,0.03,333.96,0.030499307438731194,0.03774207830429077,0.014284663833677769,0.04055319353938103,0.9492525458335876,-0.07250110805034637,0.6036543250083923,0.23,-0.25,-0.13,282.63
1676238295.73873210,152427333,1,0.01,0.04,333.96,0.029489893466234207,0.037209972739219666,0.01489438395947218,0.04144848510622978,0.9481349587440491,-0.07153043895959854,0.6048696041107178,0.23,-0.25,-0.13,282.63
1676238295.75873494,152447336,1,0.01,0.04,333.96,0.0291665717959404,0.03702064976096153,0.01535496860742569,0.04041709005832672,0.9473345875740051,-0.07114782929420471,0.605539858341217,0.23,-0.25,-0.13,282.63
1676238295.77872205,152467323,1,0.02,0.04,333.96,0.028993720188736916,0.03638984262943268,0.015389776788651943,0.03889071196317673,0.9472667574882507,-0.07059546560049057,0.6060184836387634,0.23,-0.25,-0.13,282.63
1676238295.81867790,152507279,1,0.02,0.04,333.96,0.028450416401028633,0.035300832241773605,0.01565924845635891,0.03353535383939743,0.9452477693557739,-0.07026558369398117,0.606823742389679,0.23,-0.25,-0.13,282.63
1676238295.85871601,152547317,1,0.02,0.04,333.97,0.028713107109069824,0.034601036459207535,0.016401540488004684,0.02497251145541668,0.9427964687347412,-0.07023939490318298,0.6073096394538879,0.23,-0.25,-0.13,282.63
1676238295.89866495,152587266,1,0.02,0.04,333.97,0.03017578274011612,0.03512168303132057,0.016578376293182373,0.01760016568005085,0.9417641758918762,-0.069699227809906,0.6080524325370789,0.23,-0.25,-0.13,282.63
1676238295.93871689,152627318,1,0.01,0.04,333.96,0.030536144971847534,0.034858644008636475,0.017024772241711617,0.01718948781490326,0.9410949349403381,-0.0690762847661972,0.6090692281723022,0.23,-0.25,-0.13,282.63
1676238295.95873189,152647333,1,0.0,0.04,333.96,0.030952967703342438,0.03461411967873573,0.017176605761051178,0.017963379621505737,0.9405635595321655,-0.0689217820763588,0.6095897555351257,0.23,-0.25,-0.13,282.63
1676238295.97867703,152667278,1,0.0,0.04,333.96,0.031441766768693924,0.03392479196190834,0.017606113106012344,0.019477520138025284,0.9406946301460266,-0.06845592707395554,0.6100390553474426,0.23,-0.25,-0.13,282.63
1676238296.01868892,152707290,1,0.0,0.04,333.96,0.030676815658807755,0.032448507845401764,0.01825241558253765,0.025012707337737083,0.9389462471008301,-0.0686367005109787,0.6115052103996277,0.23,-0.25,-0.13,282.63
1676238296.05870295,152747304,1,0.01,0.03,333.96,0.030365411192178726,0.031389471143484116,0.019052468240261078,0.02926962450146675,0.937553346157074,-0.06877698749303818,0.6127012968063354,0.23,-0.25,-0.13,282.63
1676238296.09873796,152787339,1,0.01,0.03,333.96,0.030664242804050446,0.03139978647232056,0.019336283206939697,0.030885348096489906,0.9359325170516968,-0.069133460521698,0.6139323115348816,0.23,-0.25,-0.13,282.63
1676238296.13872600,152827327,1,0.01,0.03,333.96,0.031433094292879105,0.03131045401096344,0.01973811723291874,0.029116665944457054,0.9353784918785095,-0.06899599730968475,0.6147841811180115,0.23,-0.25,-0.13,282.63
1676238296.15867805,152847279,1,0.0,0.03,333.96,0.03186402469873428,0.03132734075188637,0.01955181546509266,0.027213364839553833,0.9354973435401917,-0.0686948224902153,0.6152116060256958,0.23,-0.25,-0.13,282.63
1676238296.17867398,152867275,1,0.0,0.03,333.96,0.03197548910975456,0.030454343184828758,0.019542211666703224,0.02549520693719387,0.9351857900619507,-0.06870776414871216,0.615667462348938,0.23,-0.25,-0.13,282.63
1676238296.21871805,152907319,1,0.0,0.03,333.96,0.033417709171772,0.028392275795340538,0.02038501761853695,0.02783396653831005,0.9351125359535217,-0.06892446428537369,0.6172033548355103,0.23,-0.25,-0.13,282.63
1676238296.25867987,152947281,1,0.0,0.03,333.96,0.03448126092553139,0.026651522144675255,0.02048616111278534,0.03181707486510277,0.9354061484336853,-0.06903955340385437,0.6186178922653198,0.23,-0.25,-0.13,282.63
1676238296.29871607,152987317,1,0.0,0.02,333.95,0.03632570430636406,0.025340313091874123,0.021255461499094963,0.03487078472971916,0.9357402324676514,-0.06944560259580612,0.6203738451004028,0.23,-0.25,-0.13,282.63
1676238296.33866787,153027269,1,0.0,0.02,333.95,0.03758320212364197,0.024894723668694496,0.02185221202671528,0.041357941925525665,0.9365696907043457,-0.06943412870168686,0.6222820281982422,0.23,-0.25,-0.13,282.63
1676238296.35867405,153047275,1,0.0,0.02,333.95,0.038653742522001266,0.02505120076239109,0.022009408101439476,0.044736601412296295,0.9371852278709412,-0.06922430545091629,0.6230581402778625,0.23,-0.25,-0.13,282.63
1676238296.37868094,153067282,1,0.0,0.02,333.95,0.039284612983465195,0.02478131465613842,0.022437701001763344,0.04771130532026291,0.9377104043960571,-0.06928463280200958,0.6241323947906494,0.23,-0.25,-0.13,282.63
1676238296.41868687,153107288,1,0.0,0.02,333.95,0.03820788115262985,0.02446257323026657,0.022414136677980423,0.04795132204890251,0.9353846311569214,-0.06905146688222885,0.6254801750183105,0.23,-0.25,-0.13,282.63
1676238296.45874000,153147341,1,0.0,0.02,333.96,0.03745068609714508,0.02424723654985428,0.023000752553343773,0.04293365031480789,0.9335973262786865,-0.06870898604393005,0.6266984343528748,0.23,-0.25,-0.13,282.63
1676238296.49873495,153187336,1,0.0,0.02,333.96,0.03673388063907623,0.0233648419380188,0.023650597780942917,0.03781014308333397,0.9313020706176758,-0.06854648143053055,0.6277406215667725,0.23,-0.25,-0.13,282.63
1676238296.53866386,153227265,1,0.0,0.03,333.97,0.03641475737094879,0.022651413455605507,0.0237702839076519,0.0280690286308527,0.9304264783859253,-0.06811421364545822,0.6283434629440308,0.23,-0.25,-0.13,282.63
1676238296.55867290,153247274,1,0.0,0.02,333.97,0.036816973239183426,0.023076366633176804,0.02386140078306198,0.023267678916454315,0.9304546117782593,-0.06780221313238144,0.6287205219268799,0.23,-0.25,-0.13,282.63
1676238296.57870889,153267310,1,0.0,0.02,333.97,0.036604057997465134,0.02301112934947014,0.024059882387518883,0.019680408760905266,0.9298012852668762,-0.06765905767679214,0.6289570927619934,0.23,-0.25,-0.13,282.63
1676238296.61867499,153307276,1,0.0,0.03,333.97,0.03684520348906517,0.023438090458512306,0.024201465770602226,0.019920501857995987,0.9278628826141357,-0.06694366037845612,0.6305969953536987,0.23,-0.25,-0.13,282.63
1676238296.65876007,153347361,1,0.0,0.03,333.97,0.03673584386706352,0.023016951978206635,0.024638887494802475,0.027842417359352112,0.9263653755187988,-0.06619888544082642,0.6322550177574158,0.23,-0.25,-0.13,282.63
1676238296.69866490,153387266,1,0.0,0.03,333.97,0.03610040619969368,0.02258823625743389,0.02509908750653267,0.03448363021016121,0.9244003295898438,-0.06552983820438385,0.6337777972221375,0.23,-0.25,-0.13,282.63
1676238296.73868608,153427287,1,0.0,0.03,333.97,0.03574412688612938,0.022069189697504044,0.025506675243377686,0.03360863775014877,0.9237264394760132,-0.06474936008453369,0.6347294449806213,0.23,-0.25,-0.13,282.63
1676238296.75872397,153447325,1,0.0,0.03,333.98,0.03608368709683418,0.022153833881020546,0.02533736452460289,0.03147601708769798,0.9237479567527771,-0.06437679380178452,0.6351785063743591,0.23,-0.25,-0.13,282.63
1676238296.77869987,153467301,1,0.0,0.03,333.98,0.03642432019114494,0.022138390690088272,0.0253994669765234,0.029258128255605698,0.9232847690582275,-0.06399304419755936,0.6356533169746399,0.23,-0.25,-0.13,282.63
1676238296.81872702,153507328,1,0.0,0.03,333.98,0.03645342215895653,0.022403454408049583,0.025342902168631554,0.023634903132915497,0.9216956496238708,-0.06335902959108353,0.6363024711608887,0.23,-0.25,-0.13,282.63
1676238296.85872197,153547323,1,0.0,0.03,333.98,0.036240726709365845,0.022399649024009705,0.025797197595238686,0.017838947474956512,0.920488178730011,-0.06269995123147964,0.6368909478187561,0.23,-0.25,-0.13,282.63
1676238296.89867401,153587275,1,0.0,0.03,333.98,0.036632608622312546,0.02179904468357563,0.02585216425359249,0.014073757454752922,0.9189609885215759,-0.062072865664958954,0.6373968720436096,0.23,-0.25,-0.13,282.63
1676238296.93871093,153627312,1,0.0,0.03,333.98,0.036480095237493515,0.021571863442659378,0.025947321206331253,0.011910734698176384,0.9185611009597778,-0.061367426067590714,0.6380251049995422,0.23,-0.25,-0.13,282.63
1676238296.95867705,153647278,1,0.0,0.03,333.98,0.036824215203523636,0.021567024290561676,0.02571580931544304,0.011209028773009777,0.9187191128730774,-0.060994070023298264,0.6384028196334839,0.23,-0.25,-0.13,282.63
1676238296.97866392,153667265,1,0.0,0.03,333.98,0.03680066391825676,0.021411661058664322,0.02581634931266308,0.011232051998376846,0.9184389114379883,-0.060642410069704056,0.6386929154396057,0.23,-0.25,-0.13,282.63
1676238297.01874399,153707345,1,0.0,0.03,333.98,0.03697679564356804,0.02061622403562069,0.025585584342479706,0.009618885815143585,0.9166210293769836,-0.06021259352564812,0.6390734910964966,0.23,-0.25,-0.13,282.63
1676238297.05867600,153747277,1,0.0,0.03,333.98,0.03695099800825119,0.02050143852829933,0.025793327018618584,0.0080513134598732,0.9151908755302429,-0.05979159101843834,0.6394826769828796,0.23,-0.25,-0.13,282.63
1676238297.09867692,153787278,1,0.0,0.03,333.98,0.03672809153795242,0.02055131457746029,0.02531658485531807,0.007326447404921055,0.913469672203064,-0.05938926339149475,0.639653742313385,0.23,-0.25,-0.13,282.63
1676238297.13867688,153827278,1,0.0,0.02,333.99,0.036661311984062195,0.0197799913585186,0.025141647085547447,0.0035961614921689034,0.9128930568695068,-0.058857232332229614,0.6396978497505188,0.23,-0.25,-0.13,282.63
1676238297.15867305,153847274,1,0.0,0.03,333.99,0.03720429539680481,0.019654618576169014,0.024966981261968613,0.0015675189206376672,0.9130019545555115,-0.05855874344706535,0.6398903727531433,0.23,-0.25,-0.13,282.63
1676238297.17874098,153867342,1,0.0,0.03,333.99,0.03695561736822128,0.01933704875409603,0.024894770234823227,6.031679731677286e-05,0.912627637386322,-0.05832025781273842,0.6398407816886902,0.23,-0.25,-0.13,282.63
1676238297.21873093,153907332,1,0.0,0.03,333.99,0.03626661002635956,0.0195879265666008,0.02429492585361004,-0.0030909646302461624,0.9103944897651672,-0.05784511938691139,0.6397308707237244,0.23,-0.25,-0.13,282.63
1676238297.25867796,153947279,1,0.0,0.03,333.98,0.03591906279325485,0.01941455341875553,0.023966297507286072,-0.003888065693899989,0.9086270332336426,-0.05733490735292435,0.6398952603340149,0.23,-0.25,-0.13,282.63
1676238297.29870892,153987310,1,0.0,0.03,333.98,0.036432646214962006,0.019095128402113914,0.023843159899115562,-0.0020692129619419575,0.9072830677032471,-0.05680113285779953,0.6401308178901672,0.23,-0.25,-0.13,282.63
1676238297.33867288,154027274,1,0.0,0.03,333.98,0.036021821200847626,0.018304627388715744,0.023627640679478645,-0.0034414150286465883,0.9055905938148499,-0.05631965771317482,0.6394531726837158,0.23,-0.25,-0.13,282.63
1676238297.35874295,154047344,1,0.0,0.03,333.98,0.036243751645088196,0.018508153036236763,0.023621559143066406,-0.005362547002732754,0.9056363105773926,-0.05600285157561302,0.6395679712295532,0.23,-0.25,-0.13,282.63
1676238297.37875104,154067352,1,0.0,0.03,333.98,0.03568197786808014,0.018574001267552376,0.023549025878310204,-0.006513920146971941,0.9050866961479187,-0.055732667446136475,0.6393557190895081,0.23,-0.25,-0.13,282.63
1676238297.41868496,154107286,1,0.0,0.03,333.99,0.035401154309511185,0.017649658024311066,0.023702573031187057,-0.0037261752877384424,0.9029695391654968,-0.055880025029182434,0.6398237943649292,0.23,-0.25,-0.13,282.63
1676238297.45870709,154147308,1,0.0,0.03,333.99,0.03503228724002838,0.016972707584500313,0.02383647859096527,0.002246102085337043,0.9013655185699463,-0.05593924596905708,0.6403221487998962,0.23,-0.25,-0.13,282.63
1676238297.49870110,154187302,1,0.0,0.03,333.99,0.03456549346446991,0.016528025269508362,0.023256346583366394,0.007079495117068291,0.90011066198349,-0.055957335978746414,0.6408421397209167,0.23,-0.25,-0.13,282.63
1676238297.53871989,154227321,1,0.0,0.03,333.99,0.03480249643325806,0.015725841745734215,0.02347542904317379,0.01021791622042656,0.8985246419906616,-0.05612235516309738,0.6410284042358398,0.23,-0.25,-0.13,282.63
1676238297.55874300,154247344,1,0.0,0.03,333.98,0.03506864607334137,0.015439351089298725,0.02370975725352764,0.011041112244129181,0.8985823392868042,-0.055985379964113235,0.641340970993042,0.23,-0.25,-0.13,282.63
1676238297.57872391,154267325,1,0.0,0.03,333.98,0.0350455641746521,0.015138453803956509,0.023499388247728348,0.011426779441535473,0.8980568647384644,-0.05603186413645744,0.6414868831634521,0.23,-0.25,-0.13,282.63
1676238297.61866903,154307270,1,0.0,0.03,333.98,0.03507145494222641,0.014596317894756794,0.02338513918220997,0.012045889161527157,0.8963602185249329,-0.05653969198465347,0.6418848037719727,0.23,-0.25,-0.13,282.63
1676238297.65871000,154347311,1,0.0,0.03,333.99,0.0351637527346611,0.013668612577021122,0.02328753098845482,0.011249194853007793,0.8950825929641724,-0.05697228014469147,0.6422441601753235,0.23,-0.25,-0.13,282.63
1676238297.69868398,154387285,1,0.0,0.03,333.99,0.03623632341623306,0.012922005727887154,0.023220786824822426,0.010782294906675816,0.894202709197998,-0.05734102800488472,0.642671525478363,0.23,-0.25,-0.13,282.63
1676238297.73872805,154427329,1,0.0,0.03,334.0,0.03611449524760246,0.011801940388977528,0.023364214226603508,0.012327850796282291,0.893110990524292,-0.057896580547094345,0.6432062387466431,0.23,-0.25,-0.13,282.63
1676238297.75873399,154447335,1,0.0,0.03,334.0,0.0361965075135231,0.011753156781196594,0.023641815409064293,0.013603623025119305,0.8932526111602783,-0.05790717154741287,0.64356929063797,0.23,-0.25,-0.13,282.63
1676238297.77866602,154467267,1,0.0,0.03,334.0,0.036344610154628754,0.0111697381362319,0.02364860475063324,0.014770712703466415,0.8929522633552551,-0.05813111364841461,0.6438741087913513,0.23,-0.25,-0.13,282.63
1676238297.81867504,154507276,1,0.0,0.03,334.0,0.03631981462240219,0.01038141269236803,0.02313869446516037,0.009110333397984505,0.8914222121238708,-0.058435793966054916,0.6432591676712036,0.23,-0.25,-0.13,282.63
1676238297.85869789,154547299,1,0.0,0.03,334.0,0.03610117733478546,0.009786155074834824,0.022405002266168594,-0.003017381764948368,0.8902994394302368,-0.05869618058204651,0.6427401304244995,0.23,-0.25,-0.13,282.63
1676238297.89872694,154587328,1,0.0,0.03,334.0,0.03550636023283005,0.009521267376840115,0.022284142673015594,-0.01080355141311884,0.8895082473754883,-0.05890583246946335,0.642357349395752,0.23,-0.25,-0.13,282.63
1676238297.93872690,154627328,1,0.0,0.03,333.99,0.03591436892747879,0.008705178275704384,0.021889615803956985,-0.014160532504320145,0.888466477394104,-0.05924464389681816,0.6417185664176941,0.23,-0.25,-0.13,282.63
1676238297.95867610,154647277,1,0.0,0.03,333.99,0.036472782492637634,0.008563265204429626,0.021650180220603943,-0.014876927249133587,0.8886681199073792,-0.059226904064416885,0.6418159604072571,0.23,-0.25,-0.13,282.63
1676238297.97866893,154667270,1,0.0,0.03,334.0,0.03680366277694702,0.008061837404966354,0.021233458071947098,-0.014342676848173141,0.8883910775184631,-0.05936470627784729,0.6415799856185913,0.23,-0.25,-0.13,282.63
1676238298.01871109,154707312,1,0.0,0.03,334.0,0.037056006491184235,0.006935231387615204,0.02118067443370819,-0.011275184340775013,0.8874034881591797,-0.059473536908626556,0.6416328549385071,0.23,-0.25,-0.13,282.63
1676238298.05867505,154747276,1,0.0,0.03,334.01,0.03801660239696503,0.006242129486054182,0.02113497629761696,-0.005852109752595425,0.8868300914764404,-0.05957075208425522,0.6418426036834717,0.23,-0.25,-0.13,282.63
1676238298.09873009,154787331,1,0.01,0.02,334.01,0.03915679454803467,0.006467927247285843,0.02107340283691883,-0.00040773238288238645,0.8865755200386047,-0.05964495986700058,0.6420964002609253,0.23,-0.25,-0.13,282.63
1676238298.13867497,154827276,1,0.0,0.02,334.01,0.03934501111507416,0.006938464939594269,0.02056746371090412,-0.0005987403565086424,0.8861774206161499,-0.059749241918325424,0.6414701342582703,0.23,-0.25,-0.13,282.63
1676238298.15867710,154847278,1,0.0,0.02,334.01,0.039682537317276,0.007202558219432831,0.020560160279273987,-0.00201101740822196,0.8865590691566467,-0.059687525033950806,0.6415614485740662,0.23,-0.25,-0.13,282.63
1676238298.17867303,154867274,1,0.0,0.02,334.01,0.03998434916138649,0.006900202017277479,0.020623520016670227,-0.002740723080933094,0.8865640759468079,-0.05970392003655434,0.6413471102714539,0.23,-0.25,-0.13,282.63
1676238298.21869707,154907298,1,0.0,0.02,334.0,0.03914880007505417,0.006688783410936594,0.020544882863759995,-0.003967585973441601,0.8843972682952881,-0.05944681912660599,0.6411538124084473,0.23,-0.25,-0.13,282.63
1676238298.25873709,154947338,1,0.0,0.02,334.0,0.038811441510915756,0.006904235575348139,0.020464597269892693,-0.00582468556240201,0.882695198059082,-0.059182167053222656,0.6409738659858704,0.23,-0.25,-0.13,282.63
