timestamp,TimeUS,C,Q1,Q2,Q3,Q4
1676238289.01872587,145707327,1,0.9740258455276489,0.0005914757493883371,-0.00023075458011589944,-0.22643592953681946
1676238289.05866599,145747267,1,0.9740182161331177,0.0006168264080770314,-0.00022583335521630943,-0.22646871209144592
1676238289.09877205,145787373,1,0.9740056395530701,0.0006780910771340132,-0.0002565914182923734,-0.22652262449264526
1676238289.13867402,145827275,1,0.9739964604377747,0.0007217735983431339,-0.000284084293525666,-0.22656182944774628
1676238289.15867710,145847278,1,0.9739947319030762,0.000717698538210243,-0.0002760035276878625,-0.22656944394111633
1676238289.17868710,145867288,1,0.9739915132522583,0.0006881104200147092,-0.0002941448474302888,-0.22658318281173706
1676238289.21868801,145907289,1,0.9739949107170105,0.0006279388326220214,-0.00025060432380996644,-0.22656886279582977
1676238289.25874090,145947342,1,0.9740054607391357,0.000577307480853051,-0.0002441530814394355,-0.22652368247509003
1676238289.29872394,145987325,1,0.9740136861801147,0.000560491462238133,-0.0002662472252268344,-0.22648821771144867
1676238289.33867598,146027277,1,0.9740197062492371,0.0006072267424315214,-0.0002854786580428481,-0.22646234929561615
1676238289.35868502,146047286,1,0.9740200638771057,0.0006253568571992218,-0.0002972593065351248,-0.22646071016788483
1676238289.37871599,146067317,1,0.9740163087844849,0.0006225865799933672,-0.0002998323179781437,-0.22647680342197418
1676238289.41867399,146107275,1,0.9740116596221924,0.0005935622029937804,-0.00029183176229707897,-0.22649690508842468
1676238289.45876002,146147361,1,0.9740071296691895,0.0005130362114869058,-0.0002989450003951788,-0.22651663422584534
1676238289.49867010,146187271,1,0.9740082621574402,0.0005007600411772728,-0.00029707574867643416,-0.22651170194149017
1676238289.53869009,146227291,1,0.9740169048309326,0.0005474337958730757,-0.00032316477154381573,-0.2264745533466339
1676238289.55871296,146247314,1,0.9740232229232788,0.0005643420736305416,-0.00032827979885041714,-0.22644728422164917
1676238289.57867694,146267278,1,0.9740291237831116,0.000577530765440315,-0.00033495217212475836,-0.22642168402671814
1676238289.61873007,146307331,1,0.9740405082702637,0.0005600746953859925,-0.0003141965135000646,-0.22637291252613068
1676238289.65872908,146347330,1,0.9740447402000427,0.0004732688539661467,-0.0002692888374440372,-0.22635479271411896
1676238289.69866395,146387265,1,0.9740427732467651,0.0003845666069537401,-0.00027012478676624596,-0.22636353969573975
1676238289.73872089,146427322,1,0.9740387797355652,0.00038766174111515284,-0.0002481760166119784,-0.22638064622879028
1676238289.75867701,146447278,1,0.9740325808525085,0.0004434329748619348,-0.00024386739823967218,-0.22640720009803772
1676238289.77868104,146467282,1,0.9740309119224548,0.0004978024517185986,-0.0002459004754200578,-0.22641433775424957
1676238289.81871390,146507315,1,0.9740394353866577,0.0005494384677149355,-0.00025155479670502245,-0.22637763619422913
1676238289.85868406,146547285,1,0.9740419983863831,0.0004832225386053324,-0.0002587209746707231,-0.22636663913726807
1676238289.89869905,146587300,1,0.9740456938743591,0.00041919274372048676,-0.00025298746186308563,-0.22635097801685333
1676238289.93867803,146627279,1,0.9740505218505859,0.0003990527766291052,-0.0002881219261325896,-0.22633002698421478
1676238289.95868087,146647282,1,0.9740489721298218,0.00041496020276099443,-0.0003097263106610626,-0.22633673250675201
1676238289.97873402,146667335,1,0.9740503430366516,0.00044561128015629947,-0.00034202594542875886,-0.2263307273387909
1676238290.01872706,146707328,1,0.9740436673164368,0.000535306055098772,-0.00034427334321662784,-0.22635936737060547
1676238290.05867410,146747275,1,0.9740332365036011,0.00055579753825441,-0.00034511537523940206,-0.22640405595302582
1676238290.09871387,146787315,1,0.9740279912948608,0.0004757952701766044,-0.0003507677756715566,-0.226426899433136
1676238290.13866496,146827266,1,0.974030077457428,0.000419042247813195,-0.0003609465202316642,-0.2264179140329361
1676238290.15873694,146847338,1,0.974030077457428,0.0004225226875860244,-0.00034901645267382264,-0.22641801834106445
1676238290.17874694,146867348,1,0.9740324020385742,0.0004422834899742156,-0.0003482213069219142,-0.2264079600572586
1676238290.21867800,146907279,1,0.9740383625030518,0.0004998876829631627,-0.0003885104088112712,-0.22638201713562012
1676238290.25867105,146947272,1,0.9740358591079712,0.0005560544668696821,-0.00040233603795059025,-0.22639282047748566
1676238290.29867697,146987278,1,0.9740274548530579,0.000532817211933434,-0.00039054948138073087,-0.22642897069454193
1676238290.33871603,147027317,1,0.9740228056907654,0.00045924700680188835,-0.0004049623676110059,-0.22644923627376556
1676238290.35874104,147047342,1,0.9740151762962341,0.0004240327689331025,-0.00040422138408757746,-0.22648195922374725
1676238290.37873888,147067340,1,0.9740131497383118,0.0004223508294671774,-0.0004018648178316653,-0.22649072110652924
1676238290.41867495,147107276,1,0.9740155339241028,0.0004692206275649369,-0.0003858729323837906,-0.22648032009601593
1676238290.45872402,147147325,1,0.9740235209465027,0.0005390055011957884,-0.0003925864875782281,-0.22644592821598053
1676238290.49866605,147187267,1,0.9740357995033264,0.0005382201634347439,-0.00040412458474747837,-0.22639301419258118
1676238290.53876090,147227362,1,0.9740464091300964,0.0004851090197917074,-0.0004134743649046868,-0.22634755074977875
1676238290.55872607,147247327,1,0.9740502238273621,0.00044787355000153184,-0.0004155545902904123,-0.22633123397827148
1676238290.57867289,147267274,1,0.9740461111068726,0.0004328372306190431,-0.0004214962536934763,-0.22634892165660858
1676238290.61868906,147307290,1,0.9740347862243652,0.0004256934334989637,-0.0004285140603315085,-0.22639763355255127
1676238290.65869689,147347298,1,0.9740231037139893,0.0005103497533127666,-0.00043518238817341626,-0.22644762694835663
1676238290.69873190,147387333,1,0.9740160703659058,0.0005498957470990717,-0.0004416158772073686,-0.2264777570962906
1676238290.73872900,147427330,1,0.9740108847618103,0.0005397986969910562,-0.0004426431260071695,-0.22650016844272614
1676238290.75867391,147447275,1,0.9740121364593506,0.000495996093377471,-0.0004470410931389779,-0.22649481892585754
1676238290.77867603,147467277,1,0.9740183353424072,0.00044127507135272026,-0.00043849035864695907,-0.2264682948589325
1676238290.81871200,147507313,1,0.9740332365036011,0.0004068701236974448,-0.000414646026911214,-0.22640426456928253
1676238290.85867596,147547277,1,0.9740421772003174,0.0004687044129241258,-0.00039165507769212127,-0.22636573016643524
1676238290.89874196,147587343,1,0.9740278720855713,0.0005505818990059197,-0.00041426342795602977,-0.2264270782470703
1676238290.93866587,147627267,1,0.974007785320282,0.000557988416403532,-0.000398733391193673,-0.22651344537734985
1676238290.95867610,147647277,1,0.9739980697631836,0.0005330245476216078,-0.0003922375035472214,-0.2265552580356598
1676238290.97868204,147667283,1,0.9739904999732971,0.0004932426963932812,-0.0003697852371260524,-0.22658789157867432
1676238291.01868105,147707282,1,0.9739825129508972,0.0004340635205153376,-0.0003447689232416451,-0.22662246227264404
1676238291.05871892,147747320,1,0.9739832282066345,0.00045090212370269,-0.0003313556662760675,-0.22661936283111572
1676238291.09872389,147787325,1,0.9739938974380493,0.0005114288651384413,-0.0003325662110000849,-0.22657348215579987
1676238291.13866591,147827267,1,0.974005401134491,0.0005621737218461931,-0.00035039044450968504,-0.22652380168437958
1676238291.15867209,147847273,1,0.9740073084831238,0.0005531054339371622,-0.00034915117430500686,-0.2265157252550125
1676238291.17871189,147867313,1,0.9740141034126282,0.0005371448351070285,-0.00034860061714425683,-0.22648638486862183
1676238291.21867490,147907276,1,0.9740084409713745,0.000469168764539063,-0.0003107045195065439,-0.2265108972787857
1676238291.25875092,147947352,1,0.9739990234375,0.0004575317434500903,-0.0002705088700167835,-0.22655168175697327
1676238291.29866600,147987267,1,0.9739888906478882,0.0004883621586486697,-0.00026036310009658337,-0.2265952229499817
1676238291.33867598,148027277,1,0.9739835858345032,0.0005540370475500822,-0.00024340228992514312,-0.22661787271499634
1676238291.35872006,148047321,1,0.9739850759506226,0.0005691518308594823,-0.00022353317763190717,-0.2266114205121994
1676238291.37869000,148067291,1,0.9739874601364136,0.0005503212451003492,-0.0002300052292412147,-0.22660110890865326
1676238291.41872787,148107329,1,0.9740069508552551,0.0005244175554253161,-0.00022455319412983954,-0.22651731967926025
1676238291.45873189,148147333,1,0.9740224480628967,0.00047000893391668797,-0.00021287647541612387,-0.2264508754014969
1676238291.49867797,148187279,1,0.9740259051322937,0.00045460008550435305,-0.00021756708156317472,-0.22643603384494781
1676238291.53871298,148227314,1,0.9740281701087952,0.0004942427040077746,-0.00022884568898007274,-0.2264261245727539
1676238291.55870008,148247301,1,0.9740219116210938,0.0005147232441231608,-0.00022598124633077532,-0.22645314037799835
1676238291.57866597,148267267,1,0.9740170836448669,0.0005274672294035554,-0.0002450697065796703,-0.22647373378276825
1676238291.61876798,148307369,1,0.97400963306427,0.0005063815624453127,-0.00025113506126217544,-0.22650587558746338
1676238291.65867805,148347279,1,0.9740044474601746,0.00047063810052350163,-0.0002208677033195272,-0.22652818262577057
1676238291.69868088,148387282,1,0.9740067720413208,0.00042787796701304615,-0.0002086132299154997,-0.22651831805706024
1676238291.73869991,148427301,1,0.9740219116210938,0.0004424791259225458,-0.00020981529087293893,-0.22645317018032074
1676238291.75867605,148447277,1,0.9740304946899414,0.00044903604430146515,-0.00021817930974066257,-0.2264162302017212
1676238291.77873588,148467337,1,0.9740359783172607,0.0004786142089869827,-0.00021081620070617646,-0.2263927012681961
1676238291.81872988,148507331,1,0.9740397334098816,0.00048341575893573463,-0.00020223828323651105,-0.2263764590024948
1676238291.85867691,148547278,1,0.97403484582901,0.0004720563010778278,-0.00020200113067403436,-0.22639746963977814
1676238291.89872289,148587324,1,0.9740259647369385,0.00044031321885995567,-0.00017762825882527977,-0.2264358103275299
1676238291.93867493,148627276,1,0.9740150570869446,0.0004388190864119679,-0.00016840791795402765,-0.22648265957832336
1676238291.95873308,148647334,1,0.9740139842033386,0.0004378035373520106,-0.00017153043881990016,-0.22648738324642181
1676238291.97875309,148667354,1,0.9740142822265625,0.0004283279413357377,-0.00018239009659737349,-0.22648608684539795
1676238292.01866388,148707265,1,0.97402024269104,0.0004504912067204714,-0.00015850337513256818,-0.22646048665046692
1676238292.05869889,148747300,1,0.974037766456604,0.00045534802484326065,-0.00015637215983588248,-0.2263849526643753
1676238292.09870100,148787302,1,0.9740528464317322,0.0004247315227985382,-0.0001677456748438999,-0.22632010281085968
1676238292.13873196,148827333,1,0.9740598201751709,0.0003987399395555258,-0.00018365199503023177,-0.22629015147686005
1676238292.15876007,148847361,1,0.9740628600120544,0.0003992406418547034,-0.00017790865967981517,-0.226277157664299
1676238292.17872310,148867324,1,0.974064826965332,0.00040493716369383037,-0.00018935011758003384,-0.22626860439777374
1676238292.21867704,148907278,1,0.9740592837333679,0.00044125111890025437,-0.00018842068675439805,-0.22629238665103912
1676238292.25871706,148947318,1,0.974054217338562,0.0004688828776124865,-0.00019710484775714576,-0.22631412744522095
1676238292.29867196,148987273,1,0.9740521907806396,0.0004401702608447522,-0.00017083980492316186,-0.22632288932800293
1676238292.33876204,149027363,1,0.9740520715713501,0.0004337891296017915,-0.0001428016257705167,-0.2263234704732895
1676238292.35872698,149047328,1,0.9740533232688904,0.00042987600318156183,-0.0001404200156684965,-0.2263181507587433
1676238292.37867498,149067276,1,0.9740581512451172,0.00041944158147089183,-0.00016617875371593982,-0.2262972891330719
1676238292.41870809,149107309,1,0.9740706086158752,0.0003983371425420046,-0.00018032015941571444,-0.22624391317367554
1676238292.45867705,149147278,1,0.9740753769874573,0.0003583991783671081,-0.00013358672731555998,-0.22622336447238922
1676238292.49873304,149187334,1,0.9740759134292603,0.00030333863105624914,-0.0001108792785089463,-0.2262212187051773
1676238292.53872490,149227326,1,0.9740698933601379,0.0002698451280593872,-0.00011889800225617364,-0.22624722123146057
1676238292.55867410,149247275,1,0.9740654230117798,0.00026543127023614943,-0.00012217230687383562,-0.2262662649154663
1676238292.57867503,149267276,1,0.9740615487098694,0.00029435675241984427,-0.00010350192314945161,-0.2262830138206482
1676238292.61872292,149307324,1,0.9740632772445679,0.00034264728310517967,-9.131217666435987e-05,-0.2262754589319229
1676238292.65867496,149347276,1,0.9740633368492126,0.000343929510563612,-0.0001121819150284864,-0.22627511620521545
1676238292.69874096,149387342,1,0.9740737080574036,0.0002943825093097985,-9.579558536643162e-05,-0.22623075544834137
1676238292.73866606,149427267,1,0.9740884900093079,0.00027273103478364646,-7.600406388519332e-05,-0.22616708278656006
1676238292.75867391,149447275,1,0.9741001129150391,0.000246845098445192,-8.159060962498188e-05,-0.22611704468727112
1676238292.77869105,149467292,1,0.9741049408912659,0.00024703118833713233,-0.00010175284842262045,-0.22609610855579376
1676238292.81867599,149507277,1,0.9741128087043762,0.00025809367070905864,-0.00012652664736378938,-0.22606229782104492
1676238292.85873199,149547333,1,0.9741049408912659,0.000308668939396739,-0.0001386055228067562,-0.22609618306159973
1676238292.89873290,149587334,1,0.974102258682251,0.0003280098899267614,-0.00016678441897965968,-0.2261076420545578
1676238292.93866396,149627265,1,0.9740955829620361,0.0003099635650869459,-0.00013693458458874375,-0.22613643109798431
1676238292.95868492,149647286,1,0.9740936756134033,0.00028613023459911346,-0.00011278768215561286,-0.22614462673664093
1676238292.97871590,149667317,1,0.9740962982177734,0.00027224727091379464,-9.878756827674806e-05,-0.2261333018541336
1676238293.01867509,149707276,1,0.974105954170227,0.0002793575986288488,-6.925560592208058e-05,-0.2260919064283371
1676238293.05874205,149747343,1,0.9741222858428955,0.00030590579262934625,-8.031087054405361e-05,-0.22602137923240662
1676238293.09872103,149787322,1,0.9741345643997192,0.0003487169451545924,-7.436229498125613e-05,-0.22596852481365204
1676238293.13870192,149827303,1,0.974138617515564,0.00034422395401634276,-4.3081443436676636e-05,-0.22595103085041046
1676238293.15872288,149847324,1,0.9741353392601013,0.000314582692226395,-4.694845119956881e-05,-0.22596511244773865
1676238293.17867708,149867278,1,0.9741272926330566,0.0002762621152214706,-5.759303894592449e-05,-0.2259998470544815
1676238293.21874595,149907347,1,0.9741230010986328,0.0002138508134521544,-2.5742801881278865e-05,-0.22601836919784546
1676238293.25873208,149947333,1,0.9741249680519104,0.0002236803265986964,3.1271322313841665e-06,-0.22600993514060974
1676238293.29866505,149987266,1,0.9741392731666565,0.0002802683738991618,1.1005343367287423e-05,-0.2259482443332672
1676238293.33870792,150027309,1,0.9741520881652832,0.00035966490395367146,7.237489171529887e-06,-0.2258928120136261
1676238293.35867596,150047277,1,0.974160373210907,0.0003727087168954313,2.5157361960737035e-05,-0.2258569747209549
1676238293.37866688,150067268,1,0.9741691946983337,0.00036362165701575577,3.9513051888206974e-05,-0.2258191555738449
1676238293.41873097,150107332,1,0.9741696119308472,0.00031147999106906354,3.887343700625934e-05,-0.22581738233566284
1676238293.45867205,150147273,1,0.9741697907447815,0.000288389011984691,2.190391933254432e-05,-0.22581657767295837
1676238293.49867797,150187279,1,0.9741660356521606,0.00030986935598775744,3.753881901502609e-05,-0.2258327454328537
1676238293.53867602,150227277,1,0.9741660356521606,0.00037035864079371095,9.303678325522924e-07,-0.22583256661891937
1676238293.55867600,150247277,1,0.9741666913032532,0.00038763604243285954,-1.3231207049102522e-05,-0.2258298397064209
1676238293.57874107,150267342,1,0.9741693139076233,0.00040823614108376205,4.329709099692991e-06,-0.22581836581230164
1676238293.61873102,150307332,1,0.9741807579994202,0.00039261719211935997,4.0963393985293806e-05,-0.22576904296875
1676238293.65867400,150347275,1,0.9741895794868469,0.0003176568425260484,6.392287468770519e-05,-0.2257312685251236
1676238293.69871187,150387313,1,0.9741939902305603,0.0002868620795197785,7.815822027623653e-05,-0.22571207582950592
1676238293.73866796,150427269,1,0.9741977453231812,0.00034484811476431787,0.00011069375614169985,-0.2256958782672882
1676238293.75871992,150447321,1,0.9741981625556946,0.00037929925019852817,0.00011710731632774696,-0.22569410502910614
1676238293.77874804,150467349,1,0.9741960167884827,0.00041243081795983016,0.00010275960084982216,-0.2257031351327896
1676238293.81866598,150507267,1,0.9741902351379395,0.000438069982919842,6.161220517242327e-05,-0.22572821378707886
1676238293.85868406,150547285,1,0.9741888642311096,0.00041768327355384827,7.330792141146958e-05,-0.22573399543762207
1676238293.89867592,150587277,1,0.9741968512535095,0.000354829418938607,9.851173672359437e-05,-0.22569961845874786
1676238293.93874907,150627350,1,0.9742081761360168,0.00033935331157408655,8.279519533971325e-05,-0.22565092146396637
1676238293.95875287,150647354,1,0.9742156267166138,0.00036185106728225946,9.15930068003945e-05,-0.22561873495578766
1676238293.97874808,150667349,1,0.974223256111145,0.00039437873056158423,9.361335833091289e-05,-0.22558563947677612
1676238294.01866794,150707269,1,0.9742336273193359,0.0004554812330752611,0.00010657373786671087,-0.22554060816764832
1676238294.05871296,150747314,1,0.9742343425750732,0.0004808812227565795,9.249408321920782e-05,-0.22553755342960358
1676238294.09867787,150787279,1,0.9742329120635986,0.0004168121377006173,6.685981497867033e-05,-0.2255437970161438
1676238294.13873792,150827339,1,0.9742225408554077,0.00036284662201069295,8.947147580329329e-05,-0.22558878362178802
1676238294.15872598,150847327,1,0.97421795129776,0.0003652924788184464,9.531485557090491e-05,-0.2256084829568863
1676238294.17867398,150867275,1,0.9742174744606018,0.0003771857591345906,0.00010172916518058628,-0.2256106585264206
1676238294.21869588,150907297,1,0.9742152094841003,0.000421916221966967,8.404321124544367e-05,-0.2256203591823578
1676238294.25870705,150947308,1,0.9742242693901062,0.0005024781567044556,7.751492375973612e-05,-0.22558102011680603
1676238294.29871607,150987317,1,0.9742342233657837,0.0004861476190853864,9.673904423834756e-05,-0.22553808987140656
1676238294.33873391,151027335,1,0.9742382764816284,0.00041326769860461354,9.520316234556958e-05,-0.22552067041397095
1676238294.35866594,151047267,1,0.9742351770401001,0.00036902091233059764,8.593891834607348e-05,-0.22553429007530212
1676238294.37866807,151067269,1,0.9742307662963867,0.0003451239608693868,9.031308582052588e-05,-0.2255532443523407
1676238294.41871309,151107314,1,0.9742211103439331,0.00035597023088485,0.00011058100790251046,-0.2255948930978775
1676238294.45866609,151147267,1,0.9742079973220825,0.0003964365751016885,0.00011625709885265678,-0.2256515920162201
1676238294.49874902,151187350,1,0.9742017984390259,0.0004373168630991131,0.0001006877064355649,-0.22567816078662872
1676238294.53867793,151227279,1,0.9742060303688049,0.00041891171713359654,0.00012933149992022663,-0.22565984725952148
1676238294.55866909,151247270,1,0.9742175936698914,0.0003894572437275201,0.00012724779662676156,-0.22560998797416687
1676238294.57868099,151267282,1,0.9742220640182495,0.00036813970655202866,0.00013299507554620504,-0.2255908101797104
1676238294.61870408,151307305,1,0.9742336869239807,0.0003218177589587867,0.00013065552047919482,-0.22554060816764832
1676238294.65873098,151347332,1,0.9742386341094971,0.0003359882684890181,0.00011330853158142418,-0.22551919519901276
1676238294.69872594,151387327,1,0.9742412567138672,0.0003976933367084712,0.00010999323421856388,-0.225507915019989
1676238294.73867393,151427275,1,0.9742389917373657,0.0004239727568347007,0.00011321334750391543,-0.22551760077476501
1676238294.75868106,151447282,1,0.9742376208305359,0.00040517078014090657,0.00012346742732916027,-0.2255236953496933
1676238294.77871203,151467313,1,0.9742385745048523,0.00037451169919222593,0.00014267244841903448,-0.2255193591117859
1676238294.81866407,151507265,1,0.9742439389228821,0.0003258784126956016,0.00016957891057245433,-0.2254963368177414
1676238294.85875797,151547359,1,0.9742527008056641,0.0003094936837442219,0.0002032441843766719,-0.22545845806598663
1676238294.89867687,151587278,1,0.9742640852928162,0.0003303081321064383,0.0002022472908720374,-0.22540928423404694
1676238294.93868089,151627282,1,0.9742737412452698,0.0003917343565262854,0.00021330997697077692,-0.22536754608154297
1676238294.95872092,151647322,1,0.9742738008499146,0.00039898755494505167,0.00021105895575601608,-0.2253672331571579
1676238294.97868705,151667288,1,0.9742756485939026,0.0003897259884979576,0.00019784487085416913,-0.2253592312335968
1676238295.01872396,151707325,1,0.9742693305015564,0.00033462457940913737,0.00017783790826797485,-0.2253866046667099
1676238295.05872393,151747325,1,0.9742635488510132,0.00030028517358005047,0.00020609406055882573,-0.22541168332099915
1676238295.09867287,151787274,1,0.9742552638053894,0.00031972271972335875,0.00021035892132204026,-0.22544746100902557
1676238295.13871598,151827317,1,0.9742540121078491,0.0003803037398029119,0.0002095403615385294,-0.22545281052589417
1676238295.15867710,151847278,1,0.9742587804794312,0.0003951762046199292,0.0002151210355805233,-0.22543208301067352
1676238295.17867899,151867280,1,0.9742618799209595,0.00042286189272999763,0.0002353720337850973,-0.2254185676574707
1676238295.21874309,151907344,1,0.9742758870124817,0.00041013825102709234,0.00025632299366407096,-0.22535811364650726
1676238295.25866508,151947266,1,0.9742857217788696,0.00034254981437698007,0.00025694159558042884,-0.22531555593013763
1676238295.29869294,151987294,1,0.9742898344993591,0.0002739739138633013,0.00025159341748803854,-0.22529785335063934
1676238295.33867598,152027277,1,0.9742867350578308,0.0002911327756009996,0.00021403207210823894,-0.22531138360500336
1676238295.35866404,152047265,1,0.9742863774299622,0.0003205238317605108,0.00020112510537728667,-0.22531285881996155
1676238295.37874699,152067348,1,0.9742860198020935,0.00034529221011325717,0.00018065651238430291,-0.22531439363956451
1676238295.41876793,152107369,1,0.9742860794067383,0.0003721133107319474,0.00016784925537649542,-0.22531425952911377
1676238295.45867610,152147277,1,0.974285900592804,0.00033438910031691194,0.00019381835591048002,-0.22531501948833466
1676238295.49872208,152187323,1,0.9742900729179382,0.0002631821553222835,0.00021015618403907865,-0.2252969890832901
1676238295.53868103,152227282,1,0.9743025302886963,0.0002622177416924387,0.0002305018133483827,-0.22524312138557434
1676238295.55873990,152247341,1,0.9743071794509888,0.0002914772485382855,0.00025407568318769336,-0.22522291541099548
1676238295.57874990,152267351,1,0.9743074774742126,0.00031826301710680127,0.00025346671463921666,-0.2252216637134552
1676238295.61866903,152307270,1,0.974311113357544,0.00036319807986728847,0.00024527902132831514,-0.22520577907562256
1676238295.65868497,152347286,1,0.9743074774742126,0.0003553901333361864,0.0002582964370958507,-0.2252214401960373
1676238295.69867706,152387278,1,0.9742997288703918,0.0002884104033000767,0.0002850770251825452,-0.2252551168203354
1676238295.73873210,152427333,1,0.9743001461029053,0.00024477479746565223,0.00030658123432658613,-0.2252534180879593
1676238295.75873494,152447336,1,0.9742993116378784,0.00024669693084433675,0.0003120233886875212,-0.22525694966316223
1676238295.77872205,152467323,1,0.9743043780326843,0.00026476342463865876,0.00031659076921641827,-0.22523489594459534
1676238295.81867790,152507279,1,0.9743080735206604,0.0002925313310697675,0.0003170909476466477,-0.22521905601024628
1676238295.85871601,152547317,1,0.9743131995201111,0.0003114619175903499,0.00031771036447025836,-0.2251967340707779
1676238295.89866495,152587266,1,0.9743156433105469,0.00027741253143176436,0.00034249573945999146,-0.2251863181591034
1676238295.93871689,152627318,1,0.97430819272995,0.0001978306390810758,0.0003605815290939063,-0.22521838545799255
1676238295.95873189,152647333,1,0.9743037819862366,0.00016297734691761434,0.00034366623731330037,-0.22523760795593262
1676238295.97867703,152667278,1,0.9743003249168396,0.00013999620568938553,0.0003437996783759445,-0.2252526730298996
1676238296.01868892,152707290,1,0.9742947816848755,0.00014589230704586953,0.0003345245495438576,-0.22527651488780975
1676238296.05870295,152747304,1,0.9743000268936157,0.00017570113413967192,0.0002884928835555911,-0.22525392472743988
1676238296.09873796,152787339,1,0.9743020534515381,0.00020587295875884593,0.0002721749769989401,-0.2252451628446579
1676238296.13872600,152827327,1,0.9743092656135559,0.0001807168882805854,0.00028621472301892936,-0.22521398961544037
1676238296.15867805,152847279,1,0.9743098616600037,0.000142688921187073,0.000309032533550635,-0.22521133720874786
1676238296.17867398,152867275,1,0.9743077754974365,0.00011846284905914217,0.00030927645275369287,-0.22522053122520447
1676238296.21871805,152907319,1,0.9743044972419739,6.644680252065882e-05,0.000274511578027159,-0.22523462772369385
1676238296.25867987,152947281,1,0.9742960333824158,6.842126458650455e-05,0.00025650273892097175,-0.2252713292837143
1676238296.29871607,152987317,1,0.9742881655693054,0.00010923281661234796,0.0002294365840498358,-0.22530530393123627
1676238296.33866787,153027269,1,0.9742886424064636,0.00011754566367017105,0.00017701848992146552,-0.22530324757099152
1676238296.35867405,153047275,1,0.9742890000343323,0.00011028868902940303,0.0001697680854704231,-0.2253018319606781
1676238296.37868094,153067282,1,0.9742906093597412,0.0001013432556646876,0.00017074905917979777,-0.22529475390911102
1676238296.41868687,153107288,1,0.9742910265922546,8.257509034592658e-05,0.00018641192582435906,-0.22529299557209015
1676238296.45874000,153147341,1,0.9742978811264038,4.372759576654062e-05,0.0001821176992962137,-0.22526340186595917
1676238296.49873495,153187336,1,0.974305272102356,6.913236575201154e-05,0.00020348084217403084,-0.22523151338100433
1676238296.53866386,153227265,1,0.9743120074272156,0.00012369515025056899,0.00024817619123496115,-0.2252023071050644
1676238296.55867290,153247274,1,0.9743146300315857,0.00013998178474139422,0.00023153590154834092,-0.2251909226179123
1676238296.57870889,153267310,1,0.9743155241012573,0.0001374621206196025,0.00022500412887893617,-0.2251870334148407
1676238296.61867499,153307276,1,0.9743122458457947,9.781632979866117e-05,0.00024898521951399744,-0.22520120441913605
1676238296.65876007,153347361,1,0.9743118286132812,6.554329593200237e-05,0.0002645965723786503,-0.22520288825035095
1676238296.69866490,153387266,1,0.9743140935897827,5.856242205481976e-05,0.0002688757376745343,-0.22519315779209137
1676238296.73868608,153427287,1,0.97432541847229,8.691485709277913e-05,0.000261425506323576,-0.2251441329717636
1676238296.75872397,153447325,1,0.9743313193321228,0.00010161772661376745,0.0002565559116192162,-0.22511863708496094
1676238296.77869987,153467301,1,0.974336564540863,0.00011380854266462848,0.00026223412714898586,-0.22509600222110748
1676238296.81872702,153507328,1,0.9743459224700928,0.00013215668150223792,0.0002763374650385231,-0.22505530714988708
1676238296.85872197,153547323,1,0.9743484854698181,0.0001492226729169488,0.00028289706096984446,-0.22504419088363647
1676238296.89867401,153587275,1,0.9743466377258301,0.00011660197924356908,0.0002975468523800373,-0.22505222260951996
1676238296.93871093,153627312,1,0.9743433594703674,0.00010571262100711465,0.0003114068240392953,-0.22506652772426605
1676238296.95867705,153647278,1,0.9743399620056152,0.0001155194258899428,0.00030070875072851777,-0.2250811606645584
1676238296.97866392,153667265,1,0.9743369221687317,0.00011941135016968474,0.00027556339045986533,-0.2250942587852478
1676238297.01874399,153707345,1,0.9743373990058899,0.00012802302080672234,0.00024941161973401904,-0.22509244084358215
1676238297.05867600,153747277,1,0.9743413925170898,0.00014582007133867592,0.0002723982324823737,-0.22507508099079132
1676238297.09867692,153787278,1,0.9743477702140808,0.00013489744742400944,0.00027183821657672524,-0.22504734992980957
1676238297.13867688,153827278,1,0.9743517637252808,0.00012212160800118,0.00023516410146839917,-0.22503022849559784
1676238297.15867305,153847274,1,0.9743561744689941,0.00012441130820661783,0.0002526245079934597,-0.22501108050346375
1676238297.17874098,153867342,1,0.9743580222129822,0.0001300492585869506,0.00025616836501285434,-0.22500298917293549
1676238297.21873093,153907332,1,0.9743510484695435,0.00014347622345667332,0.0002664669300429523,-0.22503311932086945
1676238297.25867796,153947279,1,0.9743443131446838,0.00013225497968960553,0.00027199662872590125,-0.22506240010261536
1676238297.29870892,153987310,1,0.9743373990058899,0.00013324206520337611,0.00031131948344409466,-0.2250923365354538
1676238297.33867288,154027274,1,0.9743377566337585,0.00014876891509629786,0.0003163986257277429,-0.22509072721004486
1676238297.35874295,154047344,1,0.9743390083312988,0.00013906715321354568,0.00030389646417461336,-0.2250853180885315
1676238297.37875104,154067352,1,0.9743472933769226,0.00013138596841599792,0.000304977671476081,-0.22504949569702148
1676238297.41868496,154107286,1,0.9743520617485046,0.00011281613114988431,0.0002837261708918959,-0.22502872347831726
1676238297.45870709,154147308,1,0.9743598699569702,0.00010903739166678861,0.0003094712446909398,-0.22499489784240723
1676238297.49870110,154187302,1,0.9743577241897583,0.00010264560842188075,0.00029956261278130114,-0.22500427067279816
1676238297.53871989,154227321,1,0.9743509888648987,0.00010527280392125249,0.00029622094007208943,-0.2250334471464157
1676238297.55874300,154247344,1,0.9743471741676331,0.00010701709106797352,0.0003049567458219826,-0.22505003213882446
1676238297.57872391,154267325,1,0.9743479490280151,0.00010709236812544987,0.00031522943754680455,-0.22504647076129913
1676238297.61866903,154307270,1,0.9743497371673584,0.00011642077879514545,0.0003260032390244305,-0.22503876686096191
1676238297.65871000,154347311,1,0.974354088306427,0.00010309644130757079,0.00032589866896159947,-0.2250198870897293
1676238297.69868398,154387285,1,0.9743683338165283,9.460299770580605e-05,0.00032504965201951563,-0.22495822608470917
1676238297.73872805,154427329,1,0.9743813276290894,9.367224265588447e-05,0.0003164648951496929,-0.22490200400352478
1676238297.75873399,154447335,1,0.9743847846984863,8.980587153928354e-05,0.00030677829636260867,-0.22488705813884735
1676238297.77866602,154467267,1,0.9743863940238953,7.967187411850318e-05,0.00028159201610833406,-0.2248801440000534
1676238297.81867504,154507276,1,0.9743862748146057,0.00010176414070883766,0.0002813561586663127,-0.2248806357383728
1676238297.85869789,154547299,1,0.9743806719779968,0.00011472261394374073,0.000280581385595724,-0.22490479052066803
1676238297.89872694,154587328,1,0.9743727445602417,0.00010949117859127,0.0002609138609841466,-0.22493916749954224
1676238297.93872690,154627328,1,0.9743697047233582,9.993099956773221e-05,0.000262328889220953,-0.22495244443416595
1676238297.95867610,154647277,1,0.9743698239326477,0.00010342395398765802,0.00028172493330202997,-0.22495198249816895
1676238297.97866893,154667270,1,0.9743759632110596,0.0001033534572343342,0.0002889341558329761,-0.2249251902103424
1676238298.01871109,154707312,1,0.9743857383728027,0.00011665438796626404,0.00028400291921570897,-0.2248828411102295
1676238298.05867505,154747276,1,0.9743945002555847,0.00013662995479535311,0.00024342472897842526,-0.22484512627124786
1676238298.09873009,154787331,1,0.9743979573249817,0.00014661176828667521,0.00023344828514382243,-0.22483007609844208
1676238298.13867497,154827276,1,0.974394679069519,0.0001229568151757121,0.0002291980490554124,-0.22484420239925385
1676238298.15867710,154847278,1,0.9743925929069519,0.00012102787150070071,0.00021986835054121912,-0.22485321760177612
1676238298.17867303,154867274,1,0.9743929505348206,0.00011800743959611282,0.00020813160517718643,-0.22485175728797913
1676238298.21869707,154907298,1,0.9743871688842773,0.00012670156138483435,0.00021619698964059353,-0.22487671673297882
1676238298.25873709,154947338,1,0.9743877053260803,0.00012650004646275192,0.00023658113786950707,-0.2248745560646057
1676238298.29872203,154987323,1,0.9743963479995728,0.0001637468085391447,0.00023353847791440785,-0.22483694553375244
1676238298.33867788,155027279,1,0.974405825138092,0.00018152408301830292,0.00022462599736172706,-0.22479580342769623
1676238298.35869002,155047291,1,0.9744120240211487,0.0001763722684700042,0.00021693842427339405,-0.22476917505264282
1676238298.37871194,155067313,1,0.974416971206665,0.00017252082761842757,0.0002178104768972844,-0.2247476428747177
1676238298.41867900,155107280,1,0.9744268655776978,0.0001406664086971432,0.00021996855502948165,-0.22470472753047943
1676238298.45876193,155147363,1,0.9744257926940918,0.00011680623720167205,0.00021409975306596607,-0.2247094064950943
1676238298.49867487,155187276,1,0.9744212627410889,0.00012867551413364708,0.00022315268870443106,-0.22472906112670898
1676238298.53868508,155227286,1,0.9744117856025696,0.00017956520605366677,0.00020129983022343367,-0.22477002441883087
1676238298.55871296,155247314,1,0.9744101166725159,0.00019195971253793687,0.00018667815311346203,-0.2247772365808487
1676238298.57867599,155267277,1,0.9744118452072144,0.00019701005658134818,0.0001762496103765443,-0.22476975619792938
1676238298.61873889,155307340,1,0.9744147658348083,0.00019971349684055895,0.0002076376840705052,-0.2247571349143982
1676238298.65872598,155347327,1,0.9744242429733276,0.000189548620255664,0.0002215380227426067,-0.2247159332036972
1676238298.69867396,155387275,1,0.9744362235069275,0.00021828777971677482,0.0002132086519850418,-0.22466404736042023
1676238298.73871493,155427316,1,0.9744376540184021,0.0002728464314714074,0.0001882921642391011,-0.22465777397155762
1676238298.75867987,155447281,1,0.9744364619255066,0.00029466298292391,0.0001775730779627338,-0.2246628701686859
1676238298.77866387,155467265,1,0.9744329452514648,0.00032712367828935385,0.0001689688506303355,-0.2246781438589096
1676238298.81874800,155507349,1,0.974432110786438,0.0003607174148783088,0.00016632681945338845,-0.2246817648410797
1676238298.85867405,155547275,1,0.9744249582290649,0.0003329556784592569,0.00013268625480122864,-0.22471290826797485
1676238298.89868188,155587283,1,0.9744243621826172,0.0002956830139737576,0.00015946294297464192,-0.224715456366539
1676238298.93867588,155627277,1,0.974437415599823,0.00029403404914774,0.0001549654407426715,-0.22465893626213074
1676238298.95868301,155647284,1,0.9744438529014587,0.00031414852128364146,0.00015021748549770564,-0.2246309369802475
1676238298.97874308,155667344,1,0.9744504690170288,0.000344228174071759,0.00013246167509350926,-0.22460216283798218
1676238299.01872802,155707329,1,0.9744577407836914,0.0003918891306966543,0.00014640649897046387,-0.22457058727741241
1676238299.05868292,155747284,1,0.9744559526443481,0.00039276861934922636,0.00016002489428501576,-0.22457832098007202
1676238299.09871793,155787319,1,0.974442183971405,0.0003505960339680314,0.0001673420483712107,-0.22463800013065338
1676238299.13867497,155827276,1,0.9744319319725037,0.00032793061109259725,0.00018300295050721616,-0.22468248009681702
1676238299.15872693,155847328,1,0.9744261503219604,0.00032041079248301685,0.00020247770589776337,-0.22470766305923462
1676238299.17872596,155867327,1,0.9744263291358948,0.0003334673820063472,0.00020619975111912936,-0.22470694780349731
1676238299.21866608,155907267,1,0.974432647228241,0.0003796326054725796,0.00020255634444765747,-0.22467932105064392
1676238299.25869107,155947292,1,0.9744448661804199,0.0004061305953655392,0.00017903762636706233,-0.22462628781795502
1676238299.29870296,155987304,1,0.9744578003883362,0.00039893409120850265,0.00018074999388772994,-0.2245703786611557
1676238299.33874202,156027343,1,0.9744645357131958,0.0003672310267575085,0.00016697560204192996,-0.22454117238521576
1676238299.35873389,156047335,1,0.9744647145271301,0.0003535949799697846,0.00016667411546222866,-0.22454026341438293
1676238299.37872601,156067327,1,0.9744612574577332,0.0003518163866829127,0.00015921503654681146,-0.22455532848834991
1676238299.41866994,156107271,1,0.9744523167610168,0.000351331866113469,0.00017496275540906936,-0.22459426522254944
1676238299.45871305,156147314,1,0.974449634552002,0.0003945494827348739,0.00018770377209875733,-0.22460561990737915
1676238299.49867892,156187280,1,0.9744557738304138,0.00043969484977424145,0.00016496743774041533,-0.22457891702651978
1676238299.53871298,156227314,1,0.9744591116905212,0.00044524698751047254,0.00015433432417921722,-0.22456446290016174
1676238299.55873799,156247339,1,0.9744646549224854,0.0004346540954429656,0.00015919748693704605,-0.22454047203063965
1676238299.57867408,156267275,1,0.9744702577590942,0.00042654116987250745,0.0001521107624284923,-0.2245160937309265
1676238299.61867809,156307279,1,0.9744769930839539,0.0004317931307014078,0.00012572026753332466,-0.22448688745498657
1676238299.65870595,156347307,1,0.974475085735321,0.00046474827104248106,0.00010122980893356726,-0.22449523210525513
1676238299.69872808,156387329,1,0.9744696617126465,0.0005157352425158024,8.794119639787823e-05,-0.22451873123645782
1676238299.73873210,156427333,1,0.974463939666748,0.0005260459147393703,7.92081409599632e-05,-0.22454340755939484
1676238299.75867510,156447276,1,0.9744580984115601,0.0005079854163341224,8.072236960288137e-05,-0.22456884384155273
1676238299.77867389,156467275,1,0.9744575023651123,0.0004963862593285739,8.075757068581879e-05,-0.22457154095172882
1676238299.81871295,156507314,1,0.9744585752487183,0.00047768373042345047,9.074519766727462e-05,-0.22456671297550201
1676238299.85866809,156547269,1,0.974465012550354,0.00048148768837563694,7.797022408340126e-05,-0.2245388627052307
1676238299.89875603,156587357,1,0.9744706153869629,0.0004836501320824027,6.46316766506061e-05,-0.22451461851596832
1676238299.93867493,156627276,1,0.9744706153869629,0.0005013503832742572,7.433073915308341e-05,-0.22451449930667877
1676238299.95866489,156647266,1,0.9744730591773987,0.0005029357853345573,7.956306217238307e-05,-0.22450388967990875
1676238299.97869587,156667297,1,0.9744763970375061,0.0004923642845824361,8.850344602251425e-05,-0.2244895100593567
1676238300.01870203,156707303,1,0.9744682908058167,0.0004905365640297532,7.950431609060615e-05,-0.22452464699745178
1676238300.05871487,156747316,1,0.9744651913642883,0.0005126859759911895,8.826082921586931e-05,-0.22453801333904266
1676238300.09873199,156787333,1,0.9744642972946167,0.0005279779434204102,0.00010032435966422781,-0.22454188764095306
1676238300.13867688,156827278,1,0.9744645357131958,0.0005275424919091165,9.499668522039428e-05,-0.2245407998561859
1676238300.15869594,156847297,1,0.9744701385498047,0.0005294692236930132,0.00010891995771089569,-0.22451657056808472
1676238300.17871308,156867314,1,0.9744738340377808,0.0005206604837439954,0.00012144642823841423,-0.22450034320354462
1676238300.21867800,156907279,1,0.9744797348976135,0.0005317706963978708,0.00014749274123460054,-0.2244747430086136
1676238300.25874496,156947346,1,0.9744852185249329,0.0005357677582651377,0.00017953723727259785,-0.22445105016231537
1676238300.29867601,156987277,1,0.9744818806648254,0.0005195167614147067,0.0001885608653537929,-0.2244654893875122
1676238300.33869410,157027295,1,0.9744758009910583,0.0005476739024743438,0.00018575206922832876,-0.2244918793439865
1676238300.35870910,157047310,1,0.9744696617126465,0.0005659934831783175,0.00019713956862688065,-0.22451837360858917
1676238300.37867594,157067277,1,0.9744666218757629,0.0005812517483718693,0.0001945646945387125,-0.2245316207408905
1676238300.41874599,157107347,1,0.9744608998298645,0.0006084625492803752,0.0002184150362154469,-0.2245563119649887
1676238300.45876503,157147366,1,0.9744653701782227,0.0005787894478999078,0.00023655070981476456,-0.22453701496124268
1676238300.49867487,157187276,1,0.9744756817817688,0.0005770893185399473,0.0002586632617749274,-0.22449210286140442
1676238300.53871298,157227314,1,0.9744821786880493,0.0005533992662094533,0.00026934483321383595,-0.22446393966674805
1676238300.55869794,157247299,1,0.974483847618103,0.0005535031668841839,0.0002739617775660008,-0.22445669770240784
1676238300.57867599,157267277,1,0.9744841456413269,0.0005773440934717655,0.0002872159529943019,-0.22445552051067352
1676238300.61874890,157307350,1,0.9744843244552612,0.0006313416524790227,0.0002937728713732213,-0.22445446252822876
1676238300.65867496,157347276,1,0.9744837880134583,0.0006477147107943892,0.000291194737656042,-0.22445684671401978
1676238300.69869208,157387293,1,0.9744746685028076,0.0006234075408428907,0.0002898269740398973,-0.22449630498886108
1676238300.73867893,157427280,1,0.9744701385498047,0.0006146271480247378,0.00033540138974785805,-0.2245161384344101
1676238300.75867105,157447272,1,0.9744666814804077,0.0006014492828398943,0.00033918613917194307,-0.22453108429908752
1676238300.77873302,157467334,1,0.9744670391082764,0.0006096771103329957,0.0003465421905275434,-0.22452950477600098
1676238300.81872606,157507327,1,0.9744709730148315,0.0006410140777006745,0.0003560204349923879,-0.22451230883598328
1676238300.85868406,157547285,1,0.9744824171066284,0.0006822993163950741,0.00036424040445126593,-0.22446255385875702
1676238300.89871287,157587314,1,0.9744893908500671,0.0006874971440993249,0.00036686251405626535,-0.2244323492050171
1676238300.93867707,157627278,1,0.974486768245697,0.0006625227397307754,0.0003715844650287181,-0.22444364428520203
1676238300.95874906,157647350,1,0.9744851589202881,0.0006596388993784785,0.00038262162706814706,-0.22445054352283478
1676238300.97872305,157667324,1,0.9744822382926941,0.0006535319262184203,0.0003773437347263098,-0.22446328401565552
1676238301.01868796,157707289,1,0.9744790196418762,0.0006822103168815374,0.00038919824874028563,-0.22447721660137177
1676238301.05869007,157747291,1,0.9744803309440613,0.0007132859318517148,0.00037843192694708705,-0.22447142004966736
1676238301.09867597,157787277,1,0.9744808673858643,0.0007233180804178119,0.00037751681520603597,-0.22446903586387634
1676238301.13873100,157827332,1,0.9744908809661865,0.0007153109763748944,0.0003718715743161738,-0.22442574799060822
1676238301.15876007,157847361,1,0.9744915962219238,0.0006956300348974764,0.00037401553709059954,-0.22442267835140228
1676238301.17873001,157867331,1,0.9744951128959656,0.0006919745355844498,0.00036565164919011295,-0.22440730035305023
1676238301.21867394,157907275,1,0.9744945764541626,0.000685568549670279,0.0003594478184822947,-0.224409818649292
1676238301.25871491,157947316,1,0.9744896292686462,0.0007214208017103374,0.00036472833016887307,-0.2244311273097992
1676238301.29866505,157987266,1,0.9744824171066284,0.0007486145477741957,0.0003590391715988517,-0.2244623452425003
1676238301.33874798,158027349,1,0.9744804501533508,0.0007700214628130198,0.0003482867032289505,-0.2244708389043808
1676238301.35872197,158047323,1,0.9744822382926941,0.0007665655575692654,0.0003636044857557863,-0.2244630604982376
1676238301.37867904,158067280,1,0.9744874238967896,0.0007528964197263122,0.00035711907548829913,-0.22444051504135132
1676238301.41867995,158107281,1,0.9744946956634521,0.0007029903354123235,0.000362479651812464,-0.22440916299819946
1676238301.45867610,158147277,1,0.9745030999183655,0.0006655805627815425,0.00037589712883345783,-0.22437267005443573
1676238301.49873400,158187335,1,0.9745079278945923,0.0007081771036610007,0.00037591205909848213,-0.22435154020786285
1676238301.53872490,158227326,1,0.9745081067085266,0.0007451678393408656,0.00038865295937284827,-0.22435064613819122
1676238301.55867600,158247277,1,0.9745079278945923,0.0007505713729187846,0.0003706043353304267,-0.2243514060974121
1676238301.57867503,158267276,1,0.9745054244995117,0.0007356349378824234,0.00036845935392193496,-0.22436238825321198
1676238301.61871505,158307316,1,0.9745000600814819,0.0006771953776478767,0.00038453942397609353,-0.22438593208789825
1676238301.65867496,158347276,1,0.9745051264762878,0.0006492529064416885,0.0003917973954230547,-0.22436381876468658
1676238301.69875908,158387360,1,0.9745076894760132,0.0006433870876207948,0.00040141207864508033,-0.22435277700424194
1676238301.73866796,158427269,1,0.9745165705680847,0.0006964209605939686,0.0003970401012338698,-0.22431418299674988
1676238301.75867605,158447277,1,0.9745184183120728,0.0007122802780941129,0.00039322205702774227,-0.2243061512708664
1676238301.77869701,158467298,1,0.9745234847068787,0.0007164021371863782,0.00040492674452252686,-0.22428391873836517
1676238301.81867599,158507277,1,0.974525511264801,0.0006837867549620569,0.00041611396591179073,-0.22427521646022797
1676238301.85871387,158547315,1,0.9745212197303772,0.0006251239683479071,0.000443816592451185,-0.22429391741752625
1676238301.89872193,158587323,1,0.9745094776153564,0.0006295845378190279,0.000459382456028834,-0.224344864487648
1676238301.93866396,158627265,1,0.9745030999183655,0.0006782307755202055,0.0004635810328181833,-0.2243724912405014
1676238301.95870304,158647304,1,0.9745019674301147,0.0007034508744254708,0.0004714239912573248,-0.22437739372253418
1676238301.97871804,158667319,1,0.9745010137557983,0.000728529819753021,0.0004629228205885738,-0.22438132762908936
1676238302.01867008,158707271,1,0.9745061993598938,0.0007238671532832086,0.0004809670499525964,-0.224358931183815
1676238302.05875802,158747359,1,0.9745092391967773,0.000682107056491077,0.0004867782408837229,-0.2243458330631256
1676238302.09867692,158787278,1,0.9745132327079773,0.0006451904773712158,0.0005115558742545545,-0.22432856261730194
1676238302.13869405,158827295,1,0.9745098352432251,0.0006411867216229439,0.0005090432241559029,-0.2243432104587555
1676238302.15871501,158847316,1,0.9745092988014221,0.0006588849937543273,0.0005079294205643237,-0.22434547543525696
1676238302.17867708,158867278,1,0.9745064973831177,0.0007093075546436012,0.0004937355406582355,-0.2243574857711792
1676238302.21874690,158907348,1,0.974503755569458,0.0007592207402922213,0.0004830667458008975,-0.22436930239200592
1676238302.25872898,158947330,1,0.9744980335235596,0.0007430672412738204,0.0004824810312129557,-0.224394291639328
1676238302.29867506,158987276,1,0.9745020270347595,0.0006988582317717373,0.0005036220536567271,-0.22437715530395508
1676238302.33871603,159027317,1,0.9745100140571594,0.0006885374314151704,0.0005181716405786574,-0.22434233129024506
1676238302.35869908,159047300,1,0.9745156168937683,0.0006981222541071475,0.0005055232322774827,-0.22431796789169312
1676238302.37866497,159067266,1,0.9745196104049683,0.0007177338702604175,0.0005049901083111763,-0.22430063784122467
1676238302.41871500,159107316,1,0.9745238423347473,0.0007837105658836663,0.0005034979549236596,-0.2242819219827652
1676238302.45867395,159147275,1,0.9745250344276428,0.0007959139766171575,0.0004864863585680723,-0.22427687048912048
1676238302.49868393,159187285,1,0.9745164513587952,0.0007433422142639756,0.00048008625162765384,-0.224314346909523
1676238302.53867793,159227279,1,0.9745033383369446,0.0006852318765595555,0.0004929021815769374,-0.22437137365341187
1676238302.55867410,159247275,1,0.9745048880577087,0.0006625181413255632,0.0004842280177399516,-0.224364772439003
1676238302.57873607,159267337,1,0.9745063185691833,0.0006639097118750215,0.00047675121459178627,-0.224358469247818
1676238302.61872506,159307326,1,0.9745062589645386,0.0006909469375386834,0.00047631902270950377,-0.22435878217220306
1676238302.65867710,159347278,1,0.9745169878005981,0.0007520226063206792,0.00048281325143761933,-0.22431199252605438
1676238302.69870996,159387311,1,0.9745253324508667,0.0007766913622617722,0.0004893579171039164,-0.224275603890419
1676238302.73867297,159427274,1,0.9745266437530518,0.0007489236304536462,0.0004779160663019866,-0.22427009046077728
1676238302.75872707,159447328,1,0.9745316505432129,0.0007261170540004969,0.00048131836229003966,-0.22424821555614471
1676238302.77874088,159467342,1,0.9745334386825562,0.0007088162237778306,0.0004985408741049469,-0.22424064576625824
1676238302.81867409,159507275,1,0.9745321869850159,0.0007325247279368341,0.0005004547419957817,-0.2242458015680313
1676238302.85868406,159547285,1,0.9745271801948547,0.0007819137535989285,0.0004817337903659791,-0.22426754236221313
1676238302.89870095,159587302,1,0.9745240211486816,0.0008164932951331139,0.00046167185064405203,-0.22428107261657715
1676238302.93873692,159627338,1,0.9745245575904846,0.0008066658629104495,0.00049415702233091,-0.2242787778377533
1676238302.95875907,159647360,1,0.9745273590087891,0.0007858871249482036,0.0005097679095342755,-0.2242666780948639
1676238329.55868006,186247281,1,0.976518452167511,0.0020181050058454275,0.0009638404008001089,-0.21542225778102875
1676238329.57872987,186267331,1,0.976517915725708,0.002033848315477371,0.0009419191046617925,-0.21542443335056305
1676238329.61873007,186307331,1,0.9765257239341736,0.0020331840496510267,0.0009475355036556721,-0.21538926661014557
1676238329.65868402,186347285,1,0.9765316247940063,0.0020319793839007616,0.0009636998292990029,-0.2153623402118683
1676238329.69871593,186387317,1,0.9765300750732422,0.002027353970333934,0.0009617810719646513,-0.2153692990541458
1676238329.73867702,186427278,1,0.9765313863754272,0.0020312827546149492,0.0009372112690471113,-0.2153635323047638
1676238329.75874400,186447345,1,0.9765321612358093,0.002032248768955469,0.0009422068251296878,-0.21536001563072205
1676238329.77871895,186467320,1,0.9765334725379944,0.002033594297245145,0.0009596000309102237,-0.2153538465499878
1676238329.81866693,186507268,1,0.9765368103981018,0.0020464693661779165,0.0009656301117502153,-0.21533872187137604
1676238329.85868287,186547284,1,0.9765381813049316,0.0020482190884649754,0.000953526352532208,-0.21533259749412537
1676238329.89869905,186587300,1,0.9765405654907227,0.0020229180809110403,0.0009756008512340486,-0.21532170474529266
1676238329.93874407,186627345,1,0.9765478372573853,0.0019916435703635216,0.0009863021550700068,-0.21528910100460052
1676238329.95873809,186647339,1,0.9765516519546509,0.001972400350496173,0.0010000501060858369,-0.21527183055877686
1676238329.97873092,186667332,1,0.9765539169311523,0.001965227536857128,0.0009799286490306258,-0.21526165306568146
1676238330.01866889,186707270,1,0.9765585064888,0.001962509239092469,0.0009480180451646447,-0.21524104475975037
1676238330.05871606,186747317,1,0.9765568971633911,0.0019684345461428165,0.0009426303440704942,-0.21524830162525177
1676238330.09868097,186787282,1,0.9765552878379822,0.0019759265705943108,0.0009267199202440679,-0.21525555849075317
1676238330.13874102,186827342,1,0.9765543341636658,0.001944309682585299,0.0009159320034086704,-0.21526025235652924
1676238330.15872598,186847327,1,0.9765529036521912,0.0019294777885079384,0.00092449935618788,-0.21526694297790527
1676238330.17867589,186867277,1,0.976554274559021,0.0019255774095654488,0.00093583989655599,-0.21526077389717102
1676238330.21869493,186907296,1,0.9765580296516418,0.00192079390399158,0.0009292627219110727,-0.21524381637573242
1676238330.25869989,186947301,1,0.9765645265579224,0.0019780644215643406,0.0009346776059828699,-0.2152136266231537
1676238330.29874396,186987345,1,0.976573646068573,0.0019962701480835676,0.0009380743140354753,-0.21517211198806763
1676238330.33873010,187027331,1,0.9765809774398804,0.0020027272403240204,0.0009447170305065811,-0.21513865888118744
1676238330.35866690,187047268,1,0.9765810966491699,0.002010209485888481,0.0009255530312657356,-0.2151382714509964
1676238330.37867188,187067273,1,0.9765781164169312,0.0019939667545259,0.000922049512155354,-0.215151846408844
1676238330.41871810,187107319,1,0.9765729904174805,0.0019850486423820257,0.0009370077168568969,-0.21517518162727356
1676238330.45866704,187147268,1,0.9765743017196655,0.002012859797105193,0.0009453551028855145,-0.21516889333724976
1676238330.49873400,187187335,1,0.9765719771385193,0.0020368078257888556,0.0009222743101418018,-0.21517948806285858
1676238330.53866792,187227269,1,0.9765779376029968,0.0020498891826719046,0.0009310593595728278,-0.21515217423439026
1676238330.55866599,187247267,1,0.976579487323761,0.0020421184599399567,0.0009476132690906525,-0.21514512598514557
1676238330.57867908,187267280,1,0.9765803217887878,0.002039048122242093,0.0009715902851894498,-0.21514134109020233
1676238330.61869097,187307292,1,0.97658371925354,0.0020244927145540714,0.0009609679109416902,-0.21512603759765625
1676238330.65871692,187347318,1,0.976586639881134,0.002032411517575383,0.0009628924308344722,-0.21511271595954895
1676238330.69873500,187387336,1,0.9765849113464355,0.0020715021528303623,0.0009545477805659175,-0.21512024104595184
1676238330.73867798,187427279,1,0.9765780568122864,0.0020722122862935066,0.0009470551740378141,-0.21515125036239624
1676238330.75868106,187447282,1,0.9765753149986267,0.0020630795042961836,0.0009511687094345689,-0.2151639461517334
1676238330.77872801,187467329,1,0.9765735268592834,0.0020489406306296587,0.000960687582846731,-0.21517197787761688
1676238330.81866908,187507270,1,0.9765732884407043,0.002007448812946677,0.0009906921768561006,-0.2151734083890915
1676238330.85874987,187547351,1,0.9765748381614685,0.0020197234116494656,0.0009887039195746183,-0.2151663601398468
1676238330.89867997,187587281,1,0.9765796661376953,0.0020913241896778345,0.0009735710336826742,-0.21514378488063812
1676238330.93869495,187627296,1,0.9765830636024475,0.002142437035217881,0.0009688337449915707,-0.2151278257369995
1676238330.95872092,187647322,1,0.9765831828117371,0.002153579844161868,0.0009622538927942514,-0.21512725949287415
1676238330.97869897,187667300,1,0.9765809774398804,0.0021358332596719265,0.0009725672425702214,-0.2151372730731964
1676238331.01875210,187707353,1,0.9765802025794983,0.002101587364450097,0.0009710157755762339,-0.215141162276268
1676238331.05873203,187747333,1,0.9765757918357849,0.0020955337677150965,0.0009820307604968548,-0.21516117453575134
1676238331.09867501,187787276,1,0.9765742421150208,0.002145183039829135,0.0009855591924861073,-0.215167835354805
1676238331.13871598,187827317,1,0.9765744209289551,0.0022180485539138317,0.0009631642024032772,-0.215166375041008
1676238331.15869999,187847301,1,0.9765740036964417,0.0022372212260961533,0.0009489687508903444,-0.2151680290699005
1676238331.17867708,187867278,1,0.9765768647193909,0.00225723534822464,0.0009517143480479717,-0.2151549756526947
1676238331.21875906,187907360,1,0.9765828251838684,0.002220907248556614,0.0009541332838125527,-0.215128093957901
1676238331.25867009,187947271,1,0.9765903353691101,0.0022080782800912857,0.0009478571591898799,-0.21509429812431335
1676238331.29869795,187987299,1,0.9765954613685608,0.0022039220202714205,0.0009519759914837778,-0.21507100760936737
1676238331.33869886,188027300,1,0.976595401763916,0.0022660032846033573,0.0009380600531585515,-0.21507076919078827
1676238331.35866809,188047269,1,0.9765948057174683,0.002272734884172678,0.0009199710912071168,-0.21507354080677032
1676238331.37874389,188067345,1,0.9765918254852295,0.002296223072335124,0.0009260399965569377,-0.21508662402629852
1676238331.41873503,188107336,1,0.9765946269035339,0.0022925422526896,0.0009242608794011176,-0.21507391333580017
1676238331.45866895,188147270,1,0.9765922427177429,0.0022886772640049458,0.0009133212151937187,-0.2150849848985672
1676238331.49871802,188187319,1,0.976595401763916,0.002281149150803685,0.0009228467242792249,-0.21507053077220917
1676238331.53867698,188227278,1,0.9766027331352234,0.0023238363210111856,0.0009045010665431619,-0.2150370329618454
1676238331.55873299,188247334,1,0.9766047596931458,0.0023357404861599207,0.000900657381862402,-0.21502751111984253
1676238331.57875490,188267356,1,0.976608157157898,0.0023573250509798527,0.000881702930200845,-0.21501192450523376
1676238331.61868310,188307284,1,0.976612389087677,0.002369322581216693,0.0008701449842192233,-0.21499274671077728
1676238331.65868807,188347289,1,0.9766150116920471,0.0023645306937396526,0.0008737689931876957,-0.2149808257818222
1676238331.69870305,188387304,1,0.9766157865524292,0.0023424129467457533,0.0008522430434823036,-0.2149776965379715
1676238331.73875308,188427354,1,0.9766159057617188,0.002363869920372963,0.0008359458879567683,-0.2149769365787506
1676238331.75874400,188447345,1,0.9766178131103516,0.002386227948591113,0.000829265802167356,-0.21496795117855072
1676238331.77873492,188467336,1,0.976618230342865,0.0024105978664010763,0.0008271938422694802,-0.2149658352136612
1676238331.81866908,188507270,1,0.9766293168067932,0.002476456807926297,0.0008364393725059927,-0.21491466462612152
1676238331.85871696,188547318,1,0.9766445159912109,0.0024906727485358715,0.0008217691211029887,-0.2148456871509552
1676238331.89867496,188587276,1,0.9766538143157959,0.0024881043937057257,0.0008367099217139184,-0.21480312943458557
1676238331.93877101,188627372,1,0.9766611456871033,0.0024773660115897655,0.0008324447553604841,-0.21476997435092926
1676238331.95873594,188647337,1,0.9766607284545898,0.0025010637473315,0.0008456817013211548,-0.21477153897285461
1676238331.97867489,188667276,1,0.9766591191291809,0.0025394128169864416,0.0008224247139878571,-0.21477854251861572
1676238332.01868606,188707287,1,0.9766565561294556,0.0026106846053153276,0.0008044741698540747,-0.21478936076164246
1676238332.05870390,188747305,1,0.9766571521759033,0.0026252190582454205,0.0008068400202319026,-0.21478664875030518
1676238332.09875202,188787353,1,0.9766631126403809,0.002596829552203417,0.000834067293908447,-0.2147596776485443
1676238332.13873196,188827333,1,0.9766738414764404,0.0025416966527700424,0.0008368085836991668,-0.21471163630485535
1676238332.15868187,188847283,1,0.9766811728477478,0.002545565366744995,0.000820753863081336,-0.21467813849449158
1676238332.17868209,188867283,1,0.9766858816146851,0.002550795441493392,0.0008136547985486686,-0.21465668082237244
1676238332.21872091,188907322,1,0.9766995310783386,0.0026164900045841932,0.0008093725191429257,-0.2145937979221344
1676238332.25867391,188947275,1,0.9766953587532043,0.0026797864120453596,0.0008200673619285226,-0.2146119624376297
1676238332.29873705,188987338,1,0.9766990542411804,0.0026704829651862383,0.0008441649843007326,-0.21459510922431946
1676238332.33867502,189027276,1,0.9766967296600342,0.002635207260027528,0.0008522570715285838,-0.21460609138011932
1676238332.35869408,189047295,1,0.9766947031021118,0.002623993204906583,0.0008533467189408839,-0.21461568772792816
1676238332.37868094,189067282,1,0.9767006039619446,0.002617807826027274,0.0008530858322046697,-0.21458874642848969
1676238332.41870499,189107306,1,0.9767120480537415,0.0026542721316218376,0.0008257171139121056,-0.2145363688468933
1676238332.45872998,189147331,1,0.9766972064971924,0.002723472425714135,0.0008041747496463358,-0.21460309624671936
1676238332.49873710,189187338,1,0.9766872525215149,0.0027896433603018522,0.0007623753626830876,-0.21464766561985016
1676238332.53867197,189227273,1,0.9766926169395447,0.0027617348823696375,0.000804112758487463,-0.21462363004684448
1676238332.55869889,189247300,1,0.9767059683799744,0.0027201208285987377,0.0007928418926894665,-0.21456342935562134
1676238332.57872391,189267325,1,0.9767244458198547,0.0026740599423646927,0.0008160222787410021,-0.21447956562042236
1676238332.61868000,189307281,1,0.9767528772354126,0.0027035661041736603,0.000825496215838939,-0.2143496423959732
1676238332.65876293,189347364,1,0.9767609238624573,0.0028235691133886576,0.0007312972447834909,-0.21431192755699158
1676238332.69868207,189387283,1,0.9767252206802368,0.0029357378371059895,0.0006379312253557146,-0.21447332203388214
1676238332.73868704,189427288,1,0.9766703844070435,0.002839700086042285,0.0007575225899927318,-0.21472370624542236
