timestamp,TimeUS,DesRoll,Roll,DesPitch,Pitch,DesYaw,Yaw,ErrRP,ErrYaw,AEKF
8.45642800,8456428,0.0,-0.09,0.0,0.1,0.0,0.0,1.0,1.0,0
8.55617600,8556176,0.0,-0.09,0.0,0.11,352.58,352.59000000000003,1.0,0.8,0
8.65618800,8656188,0.0,-0.08,0.0,0.11,352.7,352.71,0.8,0.64,0
8.75614900,8756149,0.0,-0.07,0.0,0.11,352.7,352.71,0.8,0.51,0
8.85603400,8856034,0.0,-0.07,0.0,0.11,352.82,352.83,0.64,0.41000000000000003,0
8.95596000,8955960,0.0,-0.07,0.0,0.11,352.90000000000003,352.91,0.64,0.33,0
9.05600400,9056004,0.0,-0.07,0.0,0.11,352.95,352.96,0.51,0.27,0
9.15601600,9156016,0.0,-0.07,0.0,0.11,352.98,352.99,0.51,0.21,0
9.25601400,9256014,0.0,-0.07,0.0,0.11,352.94,352.95,0.4,0.17,0
9.35613800,9356138,0.0,-0.07,0.0,0.12,352.98,352.99,0.4,0.14,0
9.45628600,9456286,0.0,-0.07,0.0,0.11,352.95,352.96,0.32,0.11,0
9.55625600,9556256,0.0,-0.06,0.0,0.11,352.90000000000003,352.91,0.32,0.09,0
9.65627500,9656275,0.0,-0.06,0.0,0.11,352.88,352.89,0.26,0.07,0
9.75617500,9756175,0.0,-0.07,0.0,0.1,352.88,352.89,0.26,0.06,0
9.85614600,9856146,0.0,-0.06,0.0,0.1,352.86,352.87,0.2,0.04,0
9.95611000,9956110,0.0,-0.06,0.0,0.1,352.92,352.93,0.2,0.04,0
10.05614500,10056145,0.0,-0.06,0.0,0.11,352.95,352.96,0.16,0.03,0
10.15616400,10156164,0.0,-0.06,0.0,0.11,352.90000000000003,352.91,0.16,0.02,0
10.25627500,10256275,0.0,-0.06,0.0,0.1,352.93,352.94,0.13,0.02,0
10.35633700,10356337,0.0,-0.06,0.0,0.1,352.97,352.98,0.13,0.02,0
10.45637100,10456371,-0.3,-0.62,-0.09,-0.05,0.0,0.0,0.1,0.01,3
10.55632300,10556323,-0.15,-0.62,-0.04,-0.05,0.0,0.0,0.1,0.01,3
10.65656800,10656568,-0.08,-0.61,-0.02,-0.05,0.0,0.0,0.08,0.01,3
10.75649300,10756493,-0.04,-0.61,-0.01,-0.04,0.0,0.0,0.08,0.01,3
10.85644900,10856449,-0.02,-0.61,0.0,-0.04,0.0,0.0,0.06,0.01,3
10.95647400,10956474,-0.01,-0.61,0.0,-0.04,0.0,0.0,0.06,0.01,3
11.05620500,11056205,0.0,-0.61,0.0,-0.04,0.0,0.0,0.05,0.01,3
11.15629400,11156294,0.0,-0.61,0.0,-0.03,0.0,0.0,0.05,0.01,3
11.25632700,11256327,0.0,-0.6,0.0,-0.03,0.0,0.0,0.04,0.01,3
11.35639000,11356390,0.0,-0.6,0.0,-0.03,0.0,0.0,0.04,0.01,3
11.45631900,11456319,0.0,-0.6,0.0,-0.03,359.99,0.0,0.03,0.01,3
11.55627000,11556270,0.0,-0.59,0.0,-0.03,359.99,0.0,0.03,0.0,3
11.65614400,11656144,0.0,-0.59,0.0,-0.03,359.99,0.0,0.02,0.01,3
11.75614300,11756143,0.0,-0.58,0.0,-0.03,359.99,0.0,0.02,0.01,3
11.85618000,11856180,0.0,-0.58,0.0,-0.04,359.99,0.0,0.02,0.01,3
11.95626300,11956263,0.0,-0.58,0.0,-0.04,353.27,353.28000000000003,0.02,0.01,3
12.05631900,12056319,0.0,-0.5700000000000001,0.0,-0.04,353.22,353.23,0.01,0.01,3
12.15642100,12156421,0.0,-0.5700000000000001,0.0,-0.04,353.13,353.14,0.01,0.0,3
12.25640300,12256403,0.0,-0.5700000000000001,0.0,-0.04,353.01,353.02,0.01,0.0,3
12.35635100,12356351,0.0,-0.5700000000000001,0.0,-0.04,352.90000000000003,352.91,0.01,0.0,3
12.45655300,12456553,0.0,-0.56,0.0,-0.04,352.8,352.81,0.01,0.0,3
12.55647300,12556473,0.0,-0.56,0.0,-0.03,352.7,352.71,0.01,0.0,3
12.65645300,12656453,0.0,-0.56,0.0,-0.03,352.61,352.62,0.0,0.0,3
12.75647100,12756471,0.0,-0.55,0.0,-0.03,352.53000000000003,352.54,0.0,0.0,3
12.85627100,12856271,0.0,-0.55,0.0,-0.02,352.47,352.48,0.0,0.0,3
12.95630900,12956309,0.0,-0.55,0.0,-0.02,352.42,352.43,0.0,0.0,3
13.05632700,13056327,0.0,-0.54,0.0,-0.02,352.37,352.38,0.0,0.01,3
13.15639200,13156392,0.0,-0.54,0.0,-0.03,352.32,352.33,0.0,0.01,3
13.25631700,13256317,0.0,-0.55,0.0,-0.03,352.28000000000003,352.29,0.0,0.0,3
13.35635100,13356351,0.0,-0.54,0.0,-0.03,352.25,352.26,0.0,0.0,3
13.45620600,13456206,0.0,-0.54,0.0,-0.03,352.24,352.25,0.0,0.0,3
13.55615900,13556159,0.0,-0.54,0.0,-0.03,352.24,352.25,0.0,0.0,3
13.65624700,13656247,0.0,-0.54,0.0,-0.03,352.25,352.26,0.0,0.0,3
13.75625500,13756255,0.0,-0.54,0.0,-0.04,352.24,352.25,0.0,0.0,3
13.85632000,13856320,0.0,-0.53,0.0,-0.04,352.24,352.25,0.0,0.0,3
13.95634500,13956345,0.0,-0.53,0.0,-0.04,352.24,352.25,0.0,0.0,3
14.05638200,14056382,0.0,-0.53,0.0,-0.03,352.22,352.23,0.0,0.01,3
14.15631200,14156312,0.0,-0.53,0.0,-0.03,352.21,352.22,0.0,0.0,3
14.25661500,14256615,0.0,-0.52,0.0,-0.03,352.22,352.23,0.0,0.0,3
14.35650800,14356508,0.0,-0.52,0.0,-0.03,352.23,352.24,0.0,0.0,3
14.45644400,14456444,0.0,-0.51,0.0,-0.02,352.23,352.24,0.0,0.0,3
14.55648800,14556488,0.0,-0.51,0.0,-0.01,352.24,352.25,0.0,0.0,3
14.65620000,14656200,0.0,-0.5,0.0,0.0,352.25,352.26,0.0,0.0,3
14.75631200,14756312,0.0,-0.49,0.0,0.0,352.27,352.28000000000003,0.0,0.0,3
14.85633200,14856332,0.0,-0.48,0.0,0.0,352.29,352.3,0.0,0.0,3
14.95635600,14956356,0.0,-0.48,0.0,0.0,352.3,352.31,0.0,0.0,3
15.05654400,15056544,0.0,-0.47000000000000003,0.0,0.0,352.31,352.32,0.0,0.0,3
15.15645700,15156457,0.0,-0.46,0.0,0.0,352.31,352.32,0.0,0.01,3
15.25643800,15256438,0.0,-0.46,0.0,0.0,352.31,352.32,0.0,0.01,3
15.35648300,15356483,0.0,-0.45,0.0,0.0,352.32,352.33,0.0,0.0,3
15.45644900,15456449,0.0,-0.44,0.0,0.0,352.33,352.34000000000003,0.0,0.01,3
15.55640700,15556407,0.0,-0.43,0.0,0.0,352.35,352.36,0.0,0.01,3
15.65649100,15656491,0.0,-0.43,0.0,0.0,352.37,352.38,0.0,0.01,3
15.75648400,15756484,0.0,-0.43,0.0,0.0,352.39,352.40000000000003,0.0,0.01,3
15.85652700,15856527,0.0,-0.42,0.0,0.0,352.42,352.43,0.0,0.0,3
15.95654900,15956549,0.0,-0.42,0.0,-0.01,352.43,352.44,0.0,0.0,3
16.05646400,16056464,0.0,-0.42,0.0,-0.01,352.44,352.45,0.0,0.0,3
16.15644400,16156444,0.0,-0.42,0.0,-0.01,352.44,352.45,0.0,0.0,3
16.25641700,16256417,0.0,-0.42,0.0,-0.01,352.43,352.44,0.0,0.0,3
16.35650800,16356508,0.0,-0.42,0.0,-0.02,352.42,352.43,0.0,0.0,3
16.45642500,16456425,0.0,-0.42,0.0,-0.02,352.40000000000003,352.41,0.0,0.0,3
16.55649000,16556490,0.0,-0.42,0.0,-0.02,352.39,352.40000000000003,0.0,0.0,3
16.65647300,16656473,0.0,-0.42,0.0,-0.02,352.39,352.40000000000003,0.0,0.01,3
16.75670000,16756700,0.0,-0.42,0.0,-0.02,352.40000000000003,352.41,0.0,0.01,3
16.85655300,16856553,0.0,-0.42,0.0,-0.02,352.43,352.44,0.0,0.01,3
16.95653000,16956530,0.0,-0.42,0.0,-0.02,352.46,352.47,0.0,0.01,3
17.05645400,17056454,0.0,-0.42,0.0,-0.03,352.49,352.5,0.0,0.01,3
17.15616200,17156162,0.0,-0.42,0.0,-0.03,352.51,352.52,0.0,0.01,3
17.25619400,17256194,0.0,-0.42,0.0,-0.03,352.53000000000003,352.54,0.0,0.01,3
17.35628600,17356286,0.0,-0.42,0.0,-0.03,352.54,352.55,0.0,0.01,3
17.45631200,17456312,0.0,-0.43,0.0,-0.03,352.56,352.57,0.0,0.01,3
17.55633400,17556334,0.0,-0.43,0.0,-0.04,352.58,352.59000000000003,0.0,0.01,3
17.65635700,17656357,0.0,-0.43,0.0,-0.04,352.61,352.62,0.0,0.01,3
17.75630400,17756304,0.0,-0.43,0.0,-0.04,352.63,352.64,0.0,0.01,3
17.85627000,17856270,0.0,-0.43,0.0,-0.04,352.63,352.64,0.0,0.01,3
17.95615700,17956157,0.0,-0.43,0.0,-0.05,352.63,352.64,0.0,0.01,3
18.05614500,18056145,0.0,-0.43,0.0,-0.05,352.61,352.62,0.0,0.01,3
18.15619300,18156193,0.0,-0.43,0.0,-0.05,352.61,352.62,0.0,0.01,3
18.25625400,18256254,0.0,-0.43,0.0,-0.05,352.62,352.63,0.0,0.01,3
18.35631600,18356316,0.0,-0.43,0.0,-0.05,352.63,352.64,0.0,0.0,3
18.45636900,18456369,0.0,-0.43,0.0,-0.05,352.64,352.65000000000003,0.0,0.0,3
18.55639100,18556391,0.0,-0.43,0.0,-0.05,352.64,352.65000000000003,0.0,0.0,3
18.65655200,18656552,0.0,-0.43,0.0,-0.05,352.63,352.64,0.0,0.0,3
18.75655000,18756550,0.0,-0.43,0.0,-0.05,352.62,352.63,0.0,0.0,3
18.85651300,18856513,0.0,-0.43,0.0,-0.05,352.61,352.62,0.0,0.01,3
18.95644300,18956443,0.0,-0.42,0.0,-0.04,352.58,352.59000000000003,0.0,0.01,3
19.05647900,19056479,0.0,-0.43,0.0,-0.05,352.56,352.57,0.0,0.01,3
19.15646700,19156467,0.0,-0.42,0.0,-0.05,352.55,352.56,0.0,0.01,3
19.25652400,19256524,0.0,-0.43,0.0,-0.05,352.55,352.56,0.0,0.01,3
19.35655500,19356555,0.0,-0.42,0.0,-0.04,352.55,352.56,0.0,0.01,3
19.45654300,19456543,0.0,-0.42,0.0,-0.04,352.55,352.56,0.0,0.01,3
19.55660500,19556605,0.0,-0.42,0.0,-0.04,352.56,352.57,0.0,0.01,3
19.65655600,19656556,0.0,-0.42,0.0,-0.04,352.58,352.59000000000003,0.0,0.01,3
19.75646900,19756469,0.0,-0.42,0.0,-0.04,352.59000000000003,352.6,0.0,0.01,3
19.85643500,19856435,0.0,-0.42,0.0,-0.04,352.58,352.59000000000003,0.0,0.01,3
19.95648300,19956483,0.0,-0.42,0.0,-0.04,352.58,352.59000000000003,0.0,0.01,3
20.05645900,20056459,0.0,-0.41000000000000003,0.0,-0.04,352.57,352.58,0.0,0.0,3
20.15652100,20156521,0.0,-0.41000000000000003,0.0,-0.04,352.56,352.57,0.0,0.0,3
20.25650000,20256500,0.0,-0.41000000000000003,0.0,-0.03,352.55,352.56,0.0,0.0,3
20.35657000,20356570,0.0,-0.41000000000000003,0.0,-0.04,352.54,352.55,0.0,0.0,3
20.45654100,20456541,0.0,-0.4,0.0,-0.04,352.54,352.55,0.0,0.0,3
20.55651900,20556519,0.0,-0.4,0.0,-0.04,352.54,352.55,0.0,0.0,3
20.65669800,20656698,0.0,-0.4,0.0,-0.04,352.54,352.55,0.0,0.0,3
20.75644800,20756448,0.0,-0.4,0.0,-0.04,352.55,352.56,0.0,0.0,3
20.85647300,20856473,0.0,-0.4,0.0,-0.03,352.57,352.58,0.0,0.0,3
20.95646500,20956465,0.0,-0.4,0.0,-0.03,352.57,352.58,0.0,0.0,3
21.05651900,21056519,0.0,-0.4,0.0,-0.03,352.58,352.59000000000003,0.0,0.0,3
21.15650500,21156505,0.0,-0.39,0.0,-0.03,352.59000000000003,352.6,0.0,0.0,3
21.25652300,21256523,0.0,-0.39,0.0,-0.03,352.59000000000003,352.6,0.0,0.0,3
21.35632500,21356325,0.0,-0.39,0.0,-0.03,352.59000000000003,352.6,0.0,0.0,3
21.45626500,21456265,0.0,-0.39,0.0,-0.03,352.59000000000003,352.6,0.0,0.0,3
21.55621400,21556214,0.0,-0.38,0.0,-0.03,352.59000000000003,352.6,0.0,0.0,3
21.65615400,21656154,0.0,-0.38,0.0,-0.02,352.58,352.59000000000003,0.0,0.0,3
21.75617600,21756176,0.0,-0.38,0.0,-0.02,352.57,352.58,0.0,0.0,3
21.85620900,21856209,0.0,-0.38,0.0,-0.02,352.57,352.58,0.0,0.0,3
21.95629400,21956294,0.0,-0.38,0.0,-0.02,352.58,352.59000000000003,0.0,0.0,3
22.05633900,22056339,0.0,-0.38,0.0,-0.03,352.59000000000003,352.6,0.0,0.0,3
22.15635900,22156359,0.0,-0.38,0.0,-0.03,352.6,352.61,0.0,0.01,3
22.25630100,22256301,0.0,-0.37,0.0,-0.03,352.59000000000003,352.6,0.0,0.01,3
22.35634600,22356346,0.0,-0.37,0.0,-0.02,352.59000000000003,352.6,0.0,0.01,3
22.45616500,22456165,0.0,-0.37,0.0,-0.02,352.59000000000003,352.6,0.0,0.0,3
22.55615300,22556153,0.0,-0.37,0.0,-0.02,352.6,352.61,0.0,0.0,3
22.65618600,22656186,0.0,-0.37,0.0,-0.02,352.61,352.62,0.0,0.01,3
22.75618800,22756188,0.0,-0.37,0.0,-0.02,352.61,352.62,0.0,0.0,3
22.85630100,22856301,0.0,-0.36,0.0,-0.02,352.61,352.62,0.0,0.0,3
22.95632900,22956329,0.0,-0.36,0.0,-0.02,352.61,352.62,0.0,0.0,3
23.05635200,23056352,0.0,-0.36,0.0,-0.02,352.61,352.62,0.0,0.01,3
23.15629700,23156297,0.0,-0.36,0.0,-0.01,352.63,352.63,0.0,0.01,3
23.25625900,23256259,0.0,-0.36,0.0,-0.02,352.65000000000003,352.66,0.0,0.01,3
23.35622600,23356226,0.0,-0.36,0.0,-0.02,352.67,352.68,0.0,0.01,3
23.45615000,23456150,0.0,-0.36,0.0,-0.02,352.7,352.71,0.0,0.01,3
23.55617600,23556176,0.0,-0.35000000000000003,0.0,-0.02,352.71,352.72,0.0,0.0,3
23.65624700,23656247,0.0,-0.35000000000000003,0.0,-0.02,352.73,352.74,0.0,0.0,3
23.75630100,23756301,0.0,-0.35000000000000003,0.0,-0.01,352.75,352.76,0.0,0.0,3
23.85651500,23856515,0.0,-0.35000000000000003,0.0,-0.02,352.76,352.77,0.0,0.0,3
23.95655000,23956550,0.0,-0.35000000000000003,0.0,-0.02,352.77,352.78000000000003,0.0,0.0,3
24.05656800,24056568,0.0,-0.35000000000000003,0.0,-0.02,352.77,352.78000000000003,0.0,0.0,3
24.15657200,24156572,0.0,-0.35000000000000003,0.0,-0.01,352.78000000000003,352.79,0.0,0.0,3
24.25647400,24256474,0.0,-0.35000000000000003,0.0,-0.02,352.78000000000003,352.79,0.0,0.0,3
24.35646200,24356462,0.0,-0.35000000000000003,0.0,-0.02,352.78000000000003,352.79,0.0,0.0,3
24.45618700,24456187,0.0,-0.35000000000000003,0.0,-0.02,352.79,352.8,0.0,0.0,3
24.55624600,24556246,0.0,-0.35000000000000003,0.0,-0.02,352.81,352.82,0.0,0.0,3
24.65629800,24656298,0.0,-0.35000000000000003,0.0,-0.02,352.82,352.83,0.0,0.0,3
24.75633000,24756330,0.0,-0.35000000000000003,0.0,-0.02,352.84000000000003,352.85,0.0,0.0,3
24.85636300,24856363,0.0,-0.35000000000000003,0.0,-0.02,352.85,352.86,0.0,0.0,3
24.95631000,24956310,0.0,-0.35000000000000003,0.0,-0.02,352.86,352.87,0.0,0.0,3
25.05646500,25056465,0.0,-0.35000000000000003,0.0,-0.02,352.87,352.88,0.0,0.01,3
25.15641000,25156410,0.0,-0.34,0.0,-0.02,352.86,352.87,0.0,0.01,3
25.25641500,25256415,0.0,-0.34,0.0,-0.02,352.84000000000003,352.85,0.0,0.01,3
25.35647700,25356477,0.0,-0.33,0.0,-0.03,352.82,352.83,0.0,0.01,3
25.45639400,25456394,0.0,-0.33,0.0,-0.02,352.81,352.82,0.0,0.01,3
25.55648700,25556487,0.0,-0.33,0.0,-0.02,352.8,352.81,0.0,0.01,3
25.65647800,25656478,0.0,-0.33,0.0,-0.02,352.8,352.81,0.0,0.0,3
25.75650300,25756503,0.0,-0.32,0.0,-0.03,352.81,352.81,0.0,0.0,3
25.85661200,25856612,0.0,-0.32,0.0,-0.03,352.81,352.82,0.0,0.0,3
25.95644500,25956445,0.0,-0.31,0.0,-0.03,352.82,352.83,0.0,0.0,3
26.05644100,26056441,0.0,-0.31,0.0,-0.03,352.82,352.83,0.0,0.0,3
26.15640300,26156403,0.0,-0.31,0.0,-0.03,352.83,352.84000000000003,0.0,0.0,3
26.25643100,26256431,0.0,-0.31,0.0,-0.03,352.84000000000003,352.85,0.0,0.0,3
26.35645500,26356455,0.0,-0.31,0.0,-0.03,352.84000000000003,352.85,0.0,0.01,3
26.45648800,26456488,0.0,-0.31,0.0,-0.03,352.85,352.86,0.0,0.0,3
26.55648700,26556487,0.0,-0.3,0.0,-0.03,352.86,352.87,0.0,0.01,3
26.65652700,26656527,0.0,-0.3,0.0,-0.03,352.87,352.88,0.0,0.0,3
26.75653600,26756536,0.0,-0.29,0.0,-0.03,352.88,352.89,0.0,0.0,3
26.85646400,26856464,0.0,-0.29,0.0,-0.03,352.88,352.89,0.0,0.01,3
26.95641200,26956412,0.0,-0.29,0.0,-0.02,352.88,352.89,0.0,0.01,3
27.05641000,27056410,0.0,-0.28,0.0,-0.03,352.88,352.89,0.0,0.01,3
27.15645100,27156451,0.0,-0.28,0.0,-0.03,352.88,352.89,0.0,0.01,3
27.25678600,27256786,0.0,-0.28,0.0,-0.03,352.89,352.90000000000003,0.0,0.0,3
27.35658400,27356584,0.0,-0.28,0.0,-0.03,352.89,352.90000000000003,0.0,0.0,3
27.45650500,27456505,0.0,-0.28,0.0,-0.03,352.90000000000003,352.91,0.0,0.0,3
27.55654700,27556547,0.0,-0.28,0.0,-0.03,352.91,352.92,0.0,0.0,3
27.65631000,27656310,0.0,-0.27,0.0,-0.03,352.91,352.92,0.0,0.0,3
27.75626600,27756266,0.0,-0.27,0.0,-0.03,352.92,352.93,0.0,0.0,3
27.85616300,27856163,0.0,-0.27,0.0,-0.03,352.92,352.93,0.0,0.0,3
27.95615900,27956159,0.0,-0.27,0.0,-0.02,352.92,352.93,0.0,0.01,3
28.05619200,28056192,0.0,-0.27,0.0,-0.02,352.92,352.93,0.0,0.01,3
28.15626700,28156267,0.0,-0.26,0.0,-0.02,352.92,352.93,0.0,0.0,3
28.25631800,28256318,0.0,-0.26,0.0,-0.02,352.92,352.93,0.0,0.0,3
28.35637800,28356378,0.0,-0.25,0.0,-0.02,352.92,352.93,0.0,0.01,3
28.45637400,28456374,0.0,-0.25,0.0,-0.02,352.92,352.93,0.0,0.0,3
28.55631800,28556318,0.0,-0.25,0.0,-0.02,352.92,352.93,0.0,0.01,3
28.65628800,28656288,0.0,-0.24,0.0,-0.02,352.92,352.93,0.0,0.01,3
28.75617100,28756171,0.0,-0.24,0.0,-0.02,352.93,352.94,0.0,0.0,3
28.85615900,28856159,0.0,-0.24,0.0,-0.03,352.94,352.95,0.0,0.0,3
28.95626400,28956264,0.0,-0.24,0.0,-0.03,352.95,352.96,0.0,0.0,3
29.05626600,29056266,0.0,-0.24,0.0,-0.03,352.96,352.97,0.0,0.0,3
29.15631200,29156312,0.0,-0.24,0.0,-0.03,352.97,352.98,0.0,0.0,3
29.25636000,29256360,0.0,-0.23,0.0,-0.03,352.97,352.98,0.0,0.0,3
29.35641500,29356415,0.0,-0.24,0.0,-0.03,352.97,352.98,0.0,0.0,3
29.45631000,29456310,0.0,-0.23,0.0,-0.03,352.97,352.98,0.0,0.0,3
29.55626800,29556268,0.0,-0.24,0.0,-0.03,352.98,352.99,0.0,0.0,3
29.65619000,29656190,0.0,-0.24,0.0,-0.03,352.99,353.0,0.0,0.0,3
29.75616100,29756161,0.0,-0.24,0.0,-0.03,352.99,353.0,0.0,0.0,3
29.85619600,29856196,0.0,-0.23,0.0,-0.03,352.99,353.0,0.0,0.0,3
29.95626400,29956264,0.0,-0.23,0.0,-0.03,352.99,353.0,0.0,0.0,3
30.05630700,30056307,0.0,-0.23,0.0,-0.03,352.99,353.0,0.0,0.0,3
30.15634000,30156340,0.0,-0.23,0.0,-0.04,353.0,353.01,0.0,0.0,3
30.25637300,30256373,0.0,-0.23,0.0,-0.03,353.01,353.02,0.0,0.0,3
30.35634200,30356342,0.0,-0.23,0.0,-0.04,353.02,353.03000000000003,0.0,0.0,3
30.45626600,30456266,0.0,-0.23,0.0,-0.04,353.03000000000003,353.04,0.0,0.0,3
30.55615600,30556156,0.0,-0.23,0.0,-0.04,353.05,353.06,0.0,0.0,3
30.65615400,30656154,0.0,-0.23,0.0,-0.04,353.06,353.07,0.0,0.0,3
30.75618900,30756189,0.0,-0.23,0.0,-0.05,353.08,353.09000000000003,0.0,0.0,3
30.85620200,30856202,0.0,-0.23,0.0,-0.05,353.09000000000003,353.1,0.0,0.0,3
30.95630000,30956300,0.0,-0.23,0.0,-0.05,353.1,353.11,0.0,0.0,3
31.05633100,31056331,0.0,-0.23,0.0,-0.05,353.12,353.13,0.0,0.0,3
31.15653000,31156530,0.0,-0.22,0.0,-0.06,353.14,353.15000000000003,0.0,0.0,3
31.25653600,31256536,0.0,-0.22,0.0,-0.06,353.15000000000003,353.16,0.0,0.0,3
31.35657800,31356578,0.0,-0.22,0.0,-0.06,353.16,353.17,0.0,0.0,3
31.45647200,31456472,0.0,-0.22,0.0,-0.06,353.17,353.18,0.0,0.0,3
31.55644600,31556446,0.0,-0.22,0.0,-0.05,353.17,353.18,0.0,0.0,3
31.65648600,31656486,0.0,-0.22,0.0,-0.06,353.18,353.19,0.0,0.0,3
31.75645600,31756456,0.0,-0.21,0.0,-0.06,353.19,353.2,0.0,0.0,3
31.85652400,31856524,0.0,-0.21,0.0,-0.06,353.2,353.21,0.0,0.0,3
31.95650600,31956506,0.0,-0.22,0.0,-0.07,353.21,353.22,0.0,0.0,3
32.05652900,32056529,0.0,-0.22,0.0,-0.07,353.21,353.22,0.0,0.01,3
32.15637800,32156378,0.0,-0.22,0.0,-0.07,353.22,353.23,0.0,0.0,3
32.25627000,32256270,0.0,-0.22,0.0,-0.06,353.23,353.24,0.0,0.0,3
32.35624000,32356240,0.0,-0.22,0.0,-0.07,353.24,353.25,0.0,0.0,3
32.45613800,32456138,0.0,-0.22,0.0,-0.07,353.25,353.26,0.0,0.0,3
32.55617700,32556177,0.0,-0.22,0.0,-0.07,353.26,353.27,0.0,0.0,3
32.65620200,32656202,0.0,-0.22,0.0,-0.07,353.28000000000003,353.29,0.0,0.0,3
32.75630600,32756306,0.0,-0.22,0.0,-0.08,353.29,353.3,0.0,0.0,3
32.85634200,32856342,0.0,-0.23,0.0,-0.07,353.3,353.31,0.0,0.0,3
32.95638400,32956384,0.0,-0.23,0.0,-0.08,353.31,353.32,0.0,0.0,3
33.05632000,33056320,0.0,-0.23,0.0,-0.08,353.32,353.33,0.0,0.0,3
33.15629300,33156293,0.0,-0.23,0.0,-0.08,353.34000000000003,353.35,0.0,0.0,3
33.25614900,33256149,0.0,-0.23,0.0,-0.08,353.35,353.36,0.0,0.0,3
33.35617600,33356176,0.0,-0.23,0.0,-0.08,353.36,353.37,0.0,0.0,3
33.45614200,33456142,0.0,-0.23,0.0,-0.08,353.36,353.37,0.0,0.0,3
33.55620100,33556201,0.0,-0.23,0.0,-0.08,353.36,353.37,0.0,0.0,3
33.65629700,33656297,0.0,-0.23,0.0,-0.08,353.36,353.37,0.0,0.0,3
33.75633000,33756330,0.0,-0.23,0.0,-0.08,353.36,353.37,0.0,0.0,3
33.85636600,33856366,0.0,-0.23,0.0,-0.08,353.36,353.37,0.0,0.0,3
33.95630800,33956308,0.0,-0.23,0.0,-0.08,353.35,353.36,0.0,0.0,3
34.05625500,34056255,0.0,-0.23,0.0,-0.08,353.35,353.36,0.0,0.01,3
34.15616100,34156161,0.0,-0.23,0.0,-0.08,353.34000000000003,353.35,0.0,0.0,3
34.25616100,34256161,0.0,-0.23,0.0,-0.08,353.33,353.34000000000003,0.0,0.0,3
34.35620300,34356203,0.0,-0.23,0.0,-0.08,353.32,353.33,0.0,0.0,3
34.45619800,34456198,0.0,-0.23,0.0,-0.08,353.32,353.33,0.0,0.0,3
34.55630500,34556305,0.0,-0.23,0.0,-0.08,353.32,353.33,0.0,0.01,3
34.65632400,34656324,0.0,-0.23,0.0,-0.08,353.32,353.33,0.0,0.0,3
34.75638800,34756388,0.0,-0.23,0.0,-0.08,353.31,353.32,0.0,0.0,3
34.85631100,34856311,0.0,-0.23,0.0,-0.08,353.3,353.31,0.0,0.0,3
34.95628200,34956282,0.0,-0.23,0.0,-0.08,353.3,353.31,0.0,0.0,3
35.05615200,35056152,0.0,-0.24,0.0,-0.08,353.29,353.3,0.0,0.0,3
35.15613800,35156138,0.0,-0.24,0.0,-0.08,353.29,353.3,0.0,0.0,3
35.25617900,35256179,0.0,-0.24,0.0,-0.08,353.29,353.3,0.0,0.0,3
35.35627200,35356272,0.0,-0.24,0.0,-0.08,353.29,353.3,0.0,0.0,3
35.45629100,35456291,0.0,-0.24,0.0,-0.08,353.3,353.31,0.0,0.0,3
35.55632600,35556326,0.0,-0.23,0.0,-0.07,353.31,353.32,0.0,0.0,3
35.65654600,35656546,0.0,-0.24,0.0,-0.07,353.32,353.33,0.0,0.01,3
35.75655900,35756559,0.0,-0.23,0.0,-0.07,353.32,353.33,0.0,0.01,3
35.85654100,35856541,0.0,-0.24,0.0,-0.08,353.33,353.34000000000003,0.0,0.0,3
35.95645800,35956458,0.0,-0.23,0.0,-0.08,353.33,353.34000000000003,0.0,0.0,3
36.05644300,36056443,0.0,-0.23,0.0,-0.08,353.33,353.34000000000003,0.0,0.0,3
36.15648800,36156488,0.0,-0.24,0.0,-0.08,353.33,353.34000000000003,0.0,0.0,3
36.25645600,36256456,0.0,-0.23,0.0,-0.08,353.33,353.34000000000003,0.0,0.0,3
36.35658300,36356583,0.0,-0.23,0.0,-0.08,353.32,353.33,0.0,0.0,3
36.45650200,36456502,0.0,-0.24,0.0,-0.08,353.32,353.33,0.0,0.0,3
36.55652600,36556526,0.0,-0.24,0.0,-0.08,353.32,353.33,0.0,0.0,3
36.65630100,36656301,0.0,-0.24,0.0,-0.08,353.32,353.33,0.0,0.0,3
36.75648400,36756484,0.0,-0.23,0.0,-0.08,353.32,353.33,0.0,0.0,3
36.85647000,36856470,0.0,-0.23,0.0,-0.08,353.32,353.33,0.0,0.0,3
36.95642300,36956423,0.0,-0.23,0.0,-0.08,353.32,353.33,0.0,0.0,3
37.05645800,37056458,0.0,-0.23,0.0,-0.08,353.32,353.33,0.0,0.0,3
37.15645700,37156457,0.0,-0.23,0.0,-0.08,353.32,353.33,0.0,0.0,3
37.25652000,37256520,0.0,-0.23,0.0,-0.08,353.32,353.33,0.0,0.0,3
37.35653800,37356538,0.0,-0.22,0.0,-0.08,353.33,353.34000000000003,0.0,0.0,3
37.45652800,37456528,0.0,-0.22,0.0,-0.08,353.33,353.34000000000003,0.0,0.0,3
37.55656000,37556560,0.0,-0.22,0.0,-0.08,353.34000000000003,353.35,0.0,0.0,3
37.65653800,37656538,0.0,-0.22,0.0,-0.08,353.34000000000003,353.35,0.0,0.0,3
37.75647000,37756470,0.0,-0.22,0.0,-0.07,353.35,353.36,0.0,0.0,3
37.85643800,37856438,0.0,-0.22,0.0,-0.07,353.36,353.37,0.0,0.0,3
37.95645200,37956452,0.0,-0.22,0.0,-0.07,353.36,353.37,0.0,0.0,3
38.05645000,38056450,0.0,-0.22,0.0,-0.07,353.37,353.38,0.0,0.0,3
38.15651900,38156519,0.0,-0.22,0.0,-0.07,353.37,353.38,0.0,0.0,3
38.25648800,38256488,0.0,-0.22,0.0,-0.08,353.37,353.38,0.0,0.0,3
38.35654700,38356547,0.0,-0.22,0.0,-0.08,353.38,353.39,0.0,0.0,3
38.45663700,38456637,0.0,-0.22,0.0,-0.08,353.37,353.38,0.0,0.0,3
38.55652600,38556526,0.0,-0.22,0.0,-0.08,353.37,353.38,0.0,0.0,3
38.65645600,38656456,0.0,-0.22,0.0,-0.08,353.37,353.38,0.0,0.0,3
38.75644500,38756445,0.0,-0.22,0.0,-0.08,353.37,353.38,0.0,0.0,3
38.85646800,38856468,0.0,-0.22,0.0,-0.08,353.38,353.39,0.0,0.01,3
38.95645400,38956454,0.0,-0.22,0.0,-0.08,353.38,353.39,0.0,0.01,3
39.05650800,39056508,0.0,-0.22,0.0,-0.08,353.38,353.39,0.0,0.01,3
39.15649200,39156492,0.0,-0.21,0.0,-0.08,353.38,353.39,0.0,0.01,3
39.25655700,39256557,0.0,-0.22,0.0,-0.08,353.38,353.39,0.0,0.01,3
39.35658000,39356580,0.0,-0.22,0.0,-0.08,353.37,353.38,0.0,0.01,3
39.45647400,39456474,0.0,-0.21,0.0,-0.07,353.37,353.38,0.0,0.01,3
39.55646600,39556466,0.0,-0.21,0.0,-0.07,353.36,353.37,0.0,0.01,3
39.65642900,39656429,0.0,-0.21,0.0,-0.07,353.36,353.37,0.0,0.01,3
39.75645400,39756454,0.0,-0.21,0.0,-0.07,353.36,353.37,0.0,0.01,3
39.85646500,39856465,0.0,-0.21,0.0,-0.07,353.36,353.37,0.0,0.0,3
39.95651800,39956518,0.0,-0.21,0.0,-0.07,353.36,353.37,0.0,0.0,3
40.05650800,40056508,0.0,-0.21,0.0,-0.06,353.37,353.38,0.0,0.0,3
40.15652500,40156525,0.0,-0.21,0.0,-0.06,353.37,353.38,0.0,0.0,3
40.25654900,40256549,0.0,-0.21,0.0,-0.06,353.38,353.39,0.0,0.0,3
40.35657800,40356578,0.0,-0.21,0.0,-0.06,353.39,353.40000000000003,0.0,0.0,3
40.45647400,40456474,0.0,-0.21,0.0,-0.06,353.40000000000003,353.41,0.0,0.0,3
40.55654500,40556545,0.0,-0.21,0.0,-0.06,353.41,353.42,0.0,0.0,3
40.65647300,40656473,0.0,-0.2,0.0,-0.05,353.42,353.43,0.0,0.0,3
40.75646200,40756462,0.0,-0.2,0.0,-0.05,353.43,353.44,0.0,0.01,3
40.85650300,40856503,0.0,-0.2,0.0,-0.05,353.45,353.46,0.0,0.0,3
40.95649200,40956492,0.0,-0.2,0.0,-0.05,353.46,353.47,0.0,0.01,3
41.05652100,41056521,0.0,-0.19,0.0,-0.05,353.46,353.47,0.0,0.01,3
41.15653600,41156536,0.0,-0.19,0.0,-0.05,353.46,353.47,0.0,0.01,3
41.25655200,41256552,0.0,-0.19,0.0,-0.05,353.45,353.46,0.0,0.01,3
41.35647900,41356479,0.0,-0.19,0.0,-0.04,353.44,353.45,0.0,0.01,3
41.45644500,41456445,0.0,-0.19,0.0,-0.04,353.44,353.45,0.0,0.01,3
41.55646600,41556466,0.0,-0.19,0.0,-0.04,353.44,353.45,0.0,0.01,3
41.65646000,41656460,0.0,-0.19,0.0,-0.04,353.44,353.45,0.0,0.01,3
41.75650900,41756509,0.0,-0.19,0.0,-0.04,353.43,353.44,0.0,0.01,3
41.85671000,41856710,0.0,-0.18,0.0,-0.03,353.43,353.44,0.0,0.0,3
41.95670600,41956706,0.0,-0.18,0.0,-0.03,353.44,353.45,0.0,0.0,3
42.05674300,42056743,0.0,-0.18,0.0,-0.03,353.43,353.44,0.0,0.01,3
42.15672500,42156725,0.0,-0.18,0.0,-0.03,353.43,353.44,0.0,0.0,3
42.25671500,42256715,0.0,-0.18,0.0,-0.03,353.44,353.45,0.0,0.0,3
42.35675100,42356751,0.0,-0.18,0.0,-0.03,353.44,353.45,0.0,0.0,3
42.45676400,42456764,0.0,-0.18,0.0,-0.03,353.44,353.45,0.0,0.0,3
42.55679600,42556796,0.0,-0.18,0.0,-0.03,353.44,353.45,0.0,0.01,3
42.65693100,42656931,0.0,-0.17,0.0,-0.03,353.44,353.45,0.0,0.01,3
42.75671300,42756713,0.0,-0.17,0.0,-0.03,353.44,353.45,0.0,0.01,3
42.85670800,42856708,0.0,-0.17,0.0,-0.03,353.43,353.44,0.0,0.01,3
42.95673000,42956730,0.0,-0.17,0.0,-0.03,353.42,353.43,0.0,0.01,3
43.05673900,43056739,0.0,-0.17,0.0,-0.03,353.42,353.43,0.0,0.01,3
43.15645700,43156457,0.0,-0.17,0.0,-0.03,353.43,353.44,0.0,0.01,3
43.25649700,43256497,0.0,-0.17,0.0,-0.03,353.43,353.44,0.0,0.0,3
43.35652200,43356522,0.0,-0.18,0.0,-0.03,353.44,353.45,0.0,0.0,3
43.45645900,43456459,0.0,-0.17,0.0,-0.03,353.45,353.46,0.0,0.01,3
43.55652000,43556520,0.0,-0.18,0.0,-0.03,353.45,353.46,0.0,0.01,3
43.65649700,43656497,0.0,-0.18,0.0,-0.03,353.45,353.46,0.0,0.0,3
43.75654200,43756542,0.0,-0.17,0.0,-0.03,353.45,353.46,0.0,0.0,3
43.85656100,43856561,0.0,-0.17,0.0,-0.03,353.46,353.47,0.0,0.0,3
43.95653900,43956539,0.0,-0.18,0.0,-0.02,353.46,353.47,0.0,0.0,3
44.05646600,44056466,0.0,-0.18,0.0,-0.02,353.46,353.47,0.0,0.0,3
44.15643500,44156435,0.0,-0.17,0.0,-0.02,353.47,353.48,0.0,0.0,3
44.25648000,44256480,0.0,-0.17,0.0,-0.01,353.47,353.48,0.0,0.0,3
44.35653600,44356536,0.0,-0.17,0.0,-0.01,353.48,353.49,0.0,0.0,3
44.45653400,44456534,0.0,-0.17,0.0,-0.01,353.48,353.49,0.0,0.0,3
44.55651300,44556513,0.0,-0.17,0.0,-0.01,353.49,353.5,0.0,0.0,3
44.65653400,44656534,0.0,-0.17,0.0,-0.01,353.5,353.51,0.0,0.0,3
44.75665400,44756654,0.0,-0.17,0.0,-0.01,353.49,353.5,0.0,0.01,3
44.85672500,44856725,0.0,-0.17,0.0,-0.01,353.49,353.5,0.0,0.01,3
44.95669900,44956699,0.0,-0.17,0.0,-0.01,353.48,353.49,0.0,0.0,3
45.05669300,45056693,0.0,-0.17,0.0,-0.01,353.49,353.5,0.0,0.01,3
45.15671900,45156719,0.0,-0.17,0.0,-0.02,353.48,353.49,0.0,0.01,3
45.25676000,45256760,0.0,-0.17,0.0,-0.02,353.48,353.49,0.0,0.01,3
45.35680200,45356802,0.0,-0.16,0.0,-0.02,353.47,353.48,0.0,0.01,3
45.45665800,45456658,0.0,-0.16,0.0,-0.02,353.46,353.47,0.0,0.01,3
45.55668400,45556684,0.0,-0.16,0.1,-0.02,353.47,353.48,0.0,0.01,3
45.65672400,45656724,0.0,-0.16,0.05,-0.02,353.46,353.47,0.0,0.01,3
45.75699300,45756993,0.0,-0.16,0.02,-0.02,353.47,353.48,0.0,0.01,3
45.85668400,45856684,0.0,-0.17,0.01,-0.02,353.47,353.48,0.0,0.01,3
45.95670000,45956700,0.0,-0.16,0.0,-0.03,353.47,353.48,0.0,0.01,3
46.05673600,46056736,0.0,-0.16,0.0,-0.03,353.47,353.48,0.0,0.01,3
46.15677000,46156770,0.0,-0.16,0.0,-0.03,353.47,353.48,0.0,0.01,3
46.25671500,46256715,0.0,-0.16,0.0,-0.02,353.47,353.48,0.0,0.01,3
46.35671600,46356716,0.0,-0.16,0.0,-0.02,353.47,353.48,0.0,0.01,3
46.45668600,46456686,0.0,-0.15,0.0,-0.02,353.47,353.48,0.0,0.01,3
46.55669400,46556694,0.0,-0.15,0.0,-0.02,353.47,353.48,0.0,0.01,3
46.65670000,46656700,0.0,-0.15,0.0,-0.02,353.46,353.47,0.0,0.01,3
46.75668600,46756686,0.0,-0.15,0.0,-0.02,353.46,353.47,0.0,0.0,3
46.85678700,46856787,0.0,-0.15,0.0,-0.02,353.46,353.47,0.0,0.0,3
46.95672400,46956724,0.0,-0.15,0.0,-0.02,353.46,353.47,0.0,0.0,3
47.05674100,47056741,0.0,-0.15,0.0,-0.02,353.46,353.47,0.0,0.0,3
47.15677100,47156771,0.0,-0.15,0.0,-0.02,353.46,353.47,0.0,0.0,3
47.25665700,47256657,0.0,-0.15,0.0,-0.02,353.46,353.47,0.0,0.0,3
47.35671800,47356718,0.0,-0.15,0.04,-0.02,353.46,353.47,0.0,0.0,3
47.45669400,47456694,0.0,-0.15,0.54,-0.02,353.46,353.47,0.0,0.0,3
47.55669500,47556695,0.0,-0.15,0.4,-0.02,353.46,353.47,0.0,0.0,3
47.65668900,47656689,0.0,-0.15,0.2,-0.02,353.46,353.47,0.0,0.0,3
47.75670500,47756705,0.0,-0.14,0.11,-0.02,353.45,353.46,0.0,0.0,3
47.85668900,47856689,0.0,-0.14,0.34,-0.02,353.45,353.46,0.0,0.0,3
47.95674000,47956740,0.0,-0.14,0.24,-0.02,353.46,353.47,0.0,0.0,3
48.05671600,48056716,0.0,-0.14,0.12,-0.01,353.46,353.47,0.0,0.0,3
48.15665300,48156653,0.0,-0.14,0.06,-0.01,353.46,353.47,0.0,0.0,3
48.25670000,48256700,0.0,-0.14,0.03,-0.01,353.47,353.48,0.0,0.0,3
48.35673300,48356733,0.0,-0.14,0.01,-0.01,353.47,353.48,0.0,0.0,3
48.45670400,48456704,0.0,-0.14,0.0,-0.01,353.47,353.48,0.0,0.01,3
48.55663500,48556635,0.0,-0.14,0.0,0.0,353.47,353.48,0.0,0.0,3
48.65669700,48656697,0.0,-0.15,0.0,0.0,353.47,353.48,0.0,0.0,3
48.75674000,48756740,0.0,-0.15,0.0,-0.01,353.47,353.48,0.0,0.0,3
48.85676200,48856762,0.0,-0.15,0.0,-0.01,353.47,353.48,0.0,0.0,3
48.95689100,48956891,0.0,-0.15,0.0,-0.01,353.48,353.49,0.0,0.0,3
49.05663700,49056637,0.0,-0.15,0.0,0.0,353.48,353.49,0.0,0.0,3
49.15667500,49156675,0.0,-0.15,0.0,0.0,353.49,353.5,0.0,0.0,3
49.25668300,49256683,0.0,-0.15,0.0,0.0,353.49,353.5,0.0,0.0,3
49.35672100,49356721,0.0,-0.15,0.0,0.0,353.49,353.5,0.0,0.0,3
49.45666300,49456663,0.0,-0.15,0.0,0.0,353.5,353.51,0.0,0.0,3
49.55668100,49556681,0.0,-0.15,0.0,0.0,353.5,353.51,0.0,0.01,3
49.65666500,49656665,0.0,-0.15,0.0,0.0,353.49,353.5,0.0,0.01,3
49.75677300,49756773,0.0,-0.15,0.0,0.0,353.49,353.5,0.0,0.01,3
49.85671700,49856717,0.0,-0.15,0.0,0.0,353.48,353.49,0.0,0.01,3
49.95663300,49956633,0.0,-0.15,0.0,0.0,353.47,353.48,0.0,0.01,3
50.05666500,50056665,0.0,-0.15,0.0,0.0,353.46,353.47,0.0,0.01,3
50.15668100,50156681,0.0,-0.15,0.0,0.0,353.46,353.47,0.0,0.0,3
50.25670300,50256703,0.0,-0.16,0.0,0.0,353.46,353.47,0.0,0.01,3
50.35671600,50356716,0.0,-0.15,0.0,0.0,353.46,353.47,0.0,0.01,3
50.45668400,50456684,0.0,-0.15,0.0,0.0,353.47,353.48,0.0,0.01,3
50.55669800,50556698,0.0,-0.15,0.0,0.0,353.48,353.49,0.0,0.01,3
50.65668800,50656688,0.0,-0.15,0.0,0.0,353.49,353.5,0.0,0.0,3
50.75686900,50756869,0.0,-0.15,0.0,0.0,353.49,353.5,0.0,0.0,3
50.85663500,50856635,0.0,-0.16,0.0,0.0,353.5,353.51,0.0,0.0,3
50.95666100,50956661,0.0,-0.16,0.0,0.0,353.49,353.5,0.0,0.0,3
51.05680100,51056801,0.0,-0.16,0.0,0.0,353.5,353.51,0.0,0.0,3
51.15654200,51156542,0.0,-0.16,0.0,0.0,353.5,353.51,0.0,0.0,3
51.25648400,51256484,0.0,-0.16,0.0,0.0,353.5,353.51,0.0,0.0,3
51.35652800,51356528,0.0,-0.16,0.0,0.0,353.5,353.51,0.0,0.0,3
51.45646100,51456461,0.0,-0.16,0.0,0.0,353.5,353.51,0.0,0.0,3
51.55642700,51556427,0.0,-0.15,0.0,0.0,353.5,353.51,0.0,0.0,3
51.65650400,51656504,0.0,-0.15,0.0,0.0,353.51,353.52,0.0,0.0,3
51.75649700,51756497,0.0,-0.15,0.0,0.0,353.51,353.52,0.0,0.01,3
51.85652000,51856520,0.0,-0.15,0.0,0.0,353.51,353.52,0.0,0.01,3
51.95653900,51956539,0.0,-0.16,0.0,0.0,353.51,353.52,0.0,0.01,3
52.05653700,52056537,0.0,-0.16,0.0,0.0,353.51,353.52,0.0,0.0,3
52.15647900,52156479,0.0,-0.16,0.0,0.0,353.51,353.52,0.0,0.0,3
52.25644000,52256440,0.0,-0.16,0.0,0.0,353.51,353.52,0.0,0.01,3
52.35650300,52356503,0.0,-0.16,0.0,0.0,353.51,353.52,0.0,0.01,3
52.45646000,52456460,0.0,-0.16,0.0,0.0,353.51,353.52,0.0,0.0,3
52.55651400,52556514,0.0,-0.16,0.0,0.0,353.51,353.52,0.0,0.0,3
52.65649800,52656498,0.0,-0.16,0.0,0.0,353.51,353.52,0.0,0.0,3
52.75654500,52756545,0.0,-0.16,0.0,-0.01,353.52,353.53000000000003,0.0,0.0,3
52.85654300,52856543,0.0,-0.16,0.0,-0.01,353.52,353.53000000000003,0.0,0.0,3
52.95653700,52956537,0.0,-0.16,0.0,-0.01,353.52,353.53000000000003,0.0,0.0,3
53.05646700,53056467,0.0,-0.16,0.0,-0.01,353.52,353.53000000000003,0.0,0.0,3
53.15647800,53156478,0.0,-0.16,0.0,-0.01,353.52,353.53000000000003,0.0,0.0,3
53.25647700,53256477,0.0,-0.16,0.0,-0.02,353.52,353.53000000000003,0.0,0.0,3
53.35652800,53356528,0.0,-0.16,0.0,-0.02,353.51,353.52,0.0,0.0,3
53.45653200,53456532,0.0,-0.16,0.0,-0.02,353.51,353.52,0.0,0.0,3
53.55651700,53556517,0.0,-0.16,0.0,-0.02,353.51,353.52,0.0,0.0,3
53.65657400,53656574,0.0,-0.16,0.0,-0.03,353.51,353.52,0.0,0.0,3
53.75657600,53756576,0.0,-0.16,0.0,-0.03,353.5,353.51,0.0,0.01,3
53.85656700,53856567,0.0,-0.16,0.0,-0.03,353.5,353.51,0.0,0.01,3
53.95646300,53956463,0.0,-0.16,0.0,-0.03,353.49,353.5,0.0,0.0,3
54.05645300,54056453,0.0,-0.16,0.0,-0.04,353.48,353.49,0.0,0.0,3
54.15649700,54156497,0.0,-0.16,0.0,-0.04,353.48,353.49,0.0,0.01,3
54.25647000,54256470,0.0,-0.16,0.0,-0.04,353.48,353.49,0.0,0.0,3
54.35658400,54356584,0.0,-0.16,0.0,-0.04,353.48,353.49,0.0,0.0,3
54.45651000,54456510,0.0,-0.16,0.0,-0.04,353.47,353.48,0.0,0.0,3
54.55653500,54556535,0.0,-0.16,0.0,-0.04,353.47,353.48,0.0,0.0,3
54.65658900,54656589,0.0,-0.16,0.0,-0.04,353.47,353.48,0.0,0.0,3
54.75657400,54756574,0.0,-0.16,0.0,-0.04,353.48,353.49,0.0,0.0,3
54.85649500,54856495,0.0,-0.16,0.0,-0.04,353.48,353.49,0.0,0.01,3
54.95644900,54956449,0.0,-0.16,0.0,-0.03,353.48,353.49,0.0,0.01,3
55.05647700,55056477,0.0,-0.16,0.0,-0.04,353.48,353.49,0.0,0.01,3
55.15651900,55156519,0.0,-0.16,0.0,-0.04,353.48,353.49,0.0,0.01,3
55.25652800,55256528,0.0,-0.16,0.0,-0.04,353.47,353.48,0.0,0.0,3
55.35653500,55356535,0.0,-0.16,0.0,-0.03,353.47,353.48,0.0,0.01,3
55.45655600,55456556,0.0,-0.16,0.0,-0.04,353.46,353.47,0.0,0.01,3
55.55655100,55556551,0.0,-0.16,0.0,-0.04,353.45,353.46,0.0,0.01,3
55.65649200,55656492,0.0,-0.16,0.0,-0.04,353.45,353.46,0.0,0.01,3
55.75648400,55756484,0.0,-0.16,0.0,-0.04,353.45,353.46,0.0,0.0,3
55.85643400,55856434,0.0,-0.16,0.0,-0.04,353.44,353.45,0.0,0.01,3
55.95646000,55956460,0.0,-0.16,0.0,-0.03,353.44,353.45,0.0,0.0,3
56.05678100,56056781,0.0,-0.16,0.0,-0.03,353.44,353.45,0.0,0.01,3
56.15651300,56156513,0.0,-0.15,0.0,-0.04,353.44,353.45,0.0,0.0,3
56.25650600,56256506,0.0,-0.15,0.0,-0.04,353.44,353.45,0.0,0.01,3
56.35660700,56356607,0.0,-0.15,0.0,-0.04,353.45,353.46,0.0,0.0,3
56.45654500,56456545,0.0,-0.14,0.0,-0.04,353.45,353.46,0.0,0.0,3
56.55655000,56556550,0.0,-0.14,0.0,-0.04,353.46,353.47,0.0,0.0,3
56.65646100,56656461,0.0,-0.14,0.0,-0.04,353.45,353.46,0.0,0.0,3
56.75615500,56756155,0.0,-0.14,0.0,-0.05,353.45,353.46,0.0,0.0,3
56.85617800,56856178,0.0,-0.14,0.0,-0.04,353.45,353.46,0.0,0.0,3
56.95625300,56956253,0.0,-0.13,0.0,-0.04,353.45,353.46,0.0,0.0,3
57.05629900,57056299,0.0,-0.14,0.0,-0.04,353.45,353.46,0.0,0.0,3
57.15632800,57156328,0.0,-0.14,0.0,-0.04,353.45,353.46,0.0,0.0,3
57.25635200,57256352,0.0,-0.14,0.0,-0.04,353.45,353.46,0.0,0.0,3
57.35646100,57356461,0.0,-0.13,0.0,-0.04,353.45,353.46,0.0,0.0,3
57.45628200,57456282,0.0,-0.13,0.0,-0.04,353.45,353.46,0.0,0.0,3
57.55616200,57556162,0.0,-0.14,0.0,-0.04,353.45,353.46,0.0,0.0,3
57.65615800,57656158,0.0,-0.13,0.0,-0.04,353.46,353.47,0.0,0.0,3
57.75619400,57756194,0.0,-0.13,0.0,-0.03,353.46,353.47,0.0,0.0,3
57.85620500,57856205,0.0,-0.13,0.0,-0.03,353.46,353.47,0.0,0.0,3
57.95628200,57956282,0.0,-0.13,0.0,-0.03,353.46,353.47,0.0,0.0,3
58.05633000,58056330,0.0,-0.13,0.0,-0.03,353.47,353.47,0.0,0.0,3
58.15637000,58156370,0.0,-0.12,0.0,-0.03,353.47,353.48,0.0,0.01,3
58.25630800,58256308,0.0,-0.12,0.0,-0.03,353.47,353.48,0.0,0.0,3
58.35633300,58356333,0.0,-0.12,0.0,-0.03,353.48,353.49,0.0,0.01,3
58.45616000,58456160,0.0,-0.12,0.0,-0.03,353.48,353.49,0.0,0.0,3
58.55615300,58556153,0.0,-0.12,0.0,-0.03,353.48,353.49,0.0,0.01,3
58.65618000,58656180,0.0,-0.12,0.0,-0.04,353.49,353.5,0.0,0.01,3
58.75626400,58756264,0.0,-0.12,0.0,-0.04,353.5,353.51,0.0,0.01,3
58.85630200,58856302,0.0,-0.12,0.0,-0.04,353.51,353.52,0.0,0.01,3
58.95632700,58956327,0.0,-0.11,0.0,-0.04,353.51,353.52,0.0,0.01,3
59.05635800,59056358,0.0,-0.11,0.0,-0.03,353.52,353.53000000000003,0.0,0.01,3
59.15631100,59156311,0.0,-0.11,0.0,-0.03,353.52,353.53000000000003,0.0,0.0,3
59.25627400,59256274,0.0,-0.11,0.0,-0.03,353.52,353.53000000000003,0.0,0.0,3
59.35623400,59356234,0.0,-0.11,0.0,-0.03,353.52,353.53000000000003,0.0,0.0,3
59.45615300,59456153,0.0,-0.11,0.0,-0.03,353.52,353.53000000000003,0.0,0.0,3
59.55619100,59556191,0.0,-0.11,0.0,-0.03,353.52,353.53000000000003,0.0,0.0,3
59.65626100,59656261,0.0,-0.11,0.0,-0.03,353.52,353.53000000000003,0.0,0.0,3
59.75630800,59756308,0.0,-0.11,0.0,-0.03,353.52,353.53000000000003,0.0,0.0,3
59.85633400,59856334,0.0,-0.11,0.0,-0.03,353.52,353.53000000000003,0.0,0.0,3
59.95635400,59956354,0.0,-0.11,0.0,-0.03,353.53000000000003,353.54,0.0,0.0,3
60.05632400,60056324,0.0,-0.11,0.0,-0.03,353.53000000000003,353.54,0.0,0.0,3
60.15626900,60156269,0.0,-0.11,0.0,-0.03,353.53000000000003,353.54,0.0,0.0,3
60.25620900,60256209,0.0,-0.11,0.0,-0.03,353.53000000000003,353.54,0.0,0.0,3
60.35620500,60356205,0.0,-0.11,0.0,-0.03,353.53000000000003,353.54,0.0,0.0,3
60.45620400,60456204,0.0,-0.11,0.0,-0.03,353.53000000000003,353.54,0.0,0.0,3
60.55620500,60556205,0.0,-0.11,0.0,-0.03,353.53000000000003,353.54,0.0,0.0,3
60.65630600,60656306,0.0,-0.11,0.0,-0.03,353.54,353.55,0.0,0.0,3
60.75634900,60756349,0.0,-0.11,0.0,-0.03,353.53000000000003,353.54,0.0,0.0,3
60.85638600,60856386,0.0,-0.11,0.0,-0.03,353.53000000000003,353.54,0.0,0.0,3
60.95631900,60956319,0.0,-0.11,0.0,-0.03,353.53000000000003,353.54,0.0,0.0,3
61.05626500,61056265,0.0,-0.11,0.0,-0.03,353.53000000000003,353.54,0.0,0.0,3
61.15616800,61156168,0.0,-0.1,0.0,-0.03,353.54,353.55,0.0,0.0,3
61.25617000,61256170,0.0,-0.11,0.0,-0.04,353.54,353.55,0.0,0.0,3
61.35627500,61356275,0.0,-0.11,0.0,-0.04,353.54,353.55,0.0,0.0,3
61.45625100,61456251,0.0,-0.11,0.0,-0.04,353.53000000000003,353.54,0.0,0.01,3
61.55636000,61556360,0.0,-0.11,0.0,-0.03,353.54,353.55,0.0,0.01,3
61.65633700,61656337,0.0,-0.11,0.0,-0.03,353.54,353.55,0.0,0.01,3
61.75635600,61756356,0.0,-0.11,0.0,-0.04,353.55,353.56,0.0,0.01,3
61.85632000,61856320,0.0,-0.11,0.0,-0.04,353.56,353.57,0.0,0.01,3
61.95626700,61956267,0.0,-0.11,0.0,-0.04,353.56,353.57,0.0,0.01,3
62.05616400,62056164,0.0,-0.12,0.0,-0.04,353.56,353.57,0.0,0.01,3
62.15614900,62156149,0.0,-0.12,0.0,-0.04,353.56,353.57,0.0,0.01,3
62.25618200,62256182,0.0,-0.11,0.0,-0.04,353.57,353.58,0.0,0.01,3
62.35628000,62356280,0.0,-0.12,0.0,-0.04,353.57,353.58,0.0,0.01,3
62.45631200,62456312,0.0,-0.12,0.0,-0.04,353.58,353.59000000000003,0.0,0.0,3
62.55633900,62556339,0.0,-0.12,0.0,-0.04,353.58,353.59000000000003,0.0,0.0,3
62.65660600,62656606,0.0,-0.12,0.0,-0.04,353.58,353.59000000000003,0.0,0.0,3
62.75631700,62756317,0.0,-0.13,0.0,-0.04,353.58,353.59000000000003,0.0,0.0,3
62.85626900,62856269,0.0,-0.13,0.0,-0.04,353.58,353.59000000000003,0.0,0.0,3
62.95616300,62956163,0.0,-0.13,0.0,-0.03,353.58,353.59000000000003,0.0,0.0,3
63.05615000,63056150,0.0,-0.13,0.0,-0.03,353.58,353.59000000000003,0.0,0.0,3
63.15617100,63156171,0.0,-0.13,0.0,-0.03,353.58,353.59000000000003,0.0,0.0,3
63.25625800,63256258,0.0,-0.13,0.0,-0.03,353.58,353.59000000000003,0.0,0.0,3
63.35636200,63356362,0.0,-0.14,0.0,-0.03,353.59000000000003,353.6,0.0,0.0,3
63.45632000,63456320,0.0,-0.14,0.0,-0.03,353.59000000000003,353.6,0.0,0.0,3
63.55634200,63556342,0.0,-0.14,0.0,-0.03,353.59000000000003,353.6,0.0,0.0,3
63.65666500,63656665,0.0,-0.14,0.0,-0.04,353.59000000000003,353.6,0.0,0.0,3
63.75648600,63756486,0.0,-0.14,0.0,-0.04,353.58,353.59000000000003,0.0,0.0,3
63.85647200,63856472,0.0,-0.13,0.0,-0.04,353.59000000000003,353.6,0.0,0.0,3
63.95644400,63956444,0.0,-0.13,0.0,-0.04,353.59000000000003,353.6,0.0,0.01,3
64.05648600,64056486,0.0,-0.13,0.0,-0.04,353.59000000000003,353.6,0.0,0.01,3
64.15618300,64156183,0.0,-0.13,0.0,-0.04,353.6,353.61,0.0,0.01,3
64.25628600,64256286,0.0,-0.13,0.0,-0.04,353.6,353.61,0.0,0.01,3
64.35636200,64356362,0.0,-0.13,0.0,-0.04,353.61,353.62,0.0,0.01,3
64.45636800,64456368,0.0,-0.13,0.0,-0.04,353.61,353.62,0.0,0.01,3
64.55630900,64556309,0.0,-0.13,0.0,-0.04,353.62,353.63,0.0,0.01,3
64.65651000,64656510,0.0,-0.13,0.0,-0.04,353.63,353.64,0.0,0.01,3
64.75618800,64756188,0.0,-0.13,0.0,-0.04,353.64,353.65000000000003,0.0,0.01,3
64.85615500,64856155,0.0,-0.13,0.0,-0.04,353.64,353.65000000000003,0.0,0.01,3
64.95617600,64956176,0.0,-0.13,0.0,-0.04,353.64,353.65000000000003,0.0,0.01,3
65.05625700,65056257,0.0,-0.13,0.0,-0.04,353.65000000000003,353.66,0.0,0.01,3
65.15630300,65156303,0.0,-0.13,0.0,-0.04,353.65000000000003,353.66,0.0,0.0,3
65.25633100,65256331,0.0,-0.14,0.0,-0.04,353.66,353.67,0.0,0.0,3
65.35638500,65356385,0.0,-0.13,0.0,-0.04,353.65000000000003,353.66,0.0,0.0,3
65.45630200,65456302,0.0,-0.14,0.0,-0.04,353.65000000000003,353.66,0.0,0.0,3
65.55626600,65556266,0.0,-0.14,0.0,-0.04,353.65000000000003,353.66,0.0,0.0,3
65.65616600,65656166,0.0,-0.14,0.0,-0.04,353.65000000000003,353.66,0.0,0.0,3
65.75616100,65756161,0.0,-0.14,0.0,-0.04,353.66,353.67,0.0,0.01,3
65.85647500,65856475,0.0,-0.13,0.0,-0.03,353.66,353.67,0.0,0.01,3
65.95645600,65956456,0.0,-0.13,0.0,-0.03,353.67,353.68,0.0,0.01,3
66.05652400,66056524,0.0,-0.13,0.0,-0.03,353.67,353.68,0.0,0.0,3
66.15651100,66156511,0.0,-0.13,0.0,-0.04,353.67,353.68,0.0,0.0,3
66.25651800,66256518,0.0,-0.13,0.0,-0.04,353.68,353.69,0.0,0.0,3
66.35656600,66356566,0.0,-0.14,0.0,-0.04,353.68,353.69,0.0,0.0,3
66.45647100,66456471,0.0,-0.14,0.0,-0.03,353.69,353.7,0.0,0.0,3
66.55641900,66556419,0.0,-0.14,0.0,-0.03,353.68,353.69,0.0,0.0,3
66.65642600,66656426,0.0,-0.14,0.0,-0.04,353.68,353.69,0.0,0.0,3
66.75648500,66756485,0.0,-0.14,0.0,-0.04,353.68,353.69,0.0,0.0,3
66.85642400,66856424,0.0,-0.14,0.0,-0.04,353.68,353.69,0.0,0.0,3
66.95649400,66956494,0.0,-0.14,0.0,-0.04,353.69,353.7,0.0,0.0,3
67.05648300,67056483,0.0,-0.14,0.0,-0.03,353.69,353.7,0.0,0.0,3
67.15650000,67156500,0.0,-0.14,0.0,-0.03,353.69,353.7,0.0,0.0,3
67.25654400,67256544,0.0,-0.14,0.0,-0.03,353.69,353.7,0.0,0.0,3
67.35656900,67356569,0.0,-0.14,0.0,-0.03,353.69,353.7,0.0,0.01,3
67.45646700,67456467,0.0,-0.14,0.0,-0.03,353.69,353.7,0.0,0.01,3
67.55642400,67556424,0.0,-0.13,0.0,-0.03,353.69,353.7,0.0,0.0,3
67.65644300,67656443,0.0,-0.13,0.0,-0.03,353.69,353.7,0.0,0.01,3
67.75640200,67756402,0.0,-0.13,0.0,-0.03,353.69,353.7,0.0,0.01,3
67.85649000,67856490,0.0,-0.13,0.0,-0.03,353.69,353.7,0.0,0.0,3
67.95647200,67956472,0.0,-0.13,0.0,-0.03,353.69,353.7,0.0,0.01,3
68.05653800,68056538,0.0,-0.12,0.0,-0.03,353.7,353.71,0.0,0.01,3
68.15651700,68156517,0.0,-0.12,0.0,-0.02,353.7,353.71,0.0,0.01,3
68.25647100,68256471,0.0,-0.11,0.0,-0.02,353.7,353.71,0.0,0.01,3
68.35648300,68356483,0.0,-0.12,0.0,-0.02,353.7,353.71,0.0,0.0,3
68.45640600,68456406,0.0,-0.12,0.0,-0.02,353.7,353.71,0.0,0.0,3
68.55642400,68556424,0.0,-0.12,0.0,-0.02,353.69,353.7,0.0,0.0,3
68.65640400,68656404,0.0,-0.12,0.0,-0.02,353.69,353.7,0.0,0.0,3
68.75649500,68756495,0.0,-0.12,0.0,-0.01,353.69,353.7,0.0,0.0,3
68.85647100,68856471,0.0,-0.12,0.0,-0.01,353.69,353.7,0.0,0.0,3
68.95650200,68956502,0.0,-0.12,0.0,-0.01,353.68,353.69,0.0,0.0,3
69.05652900,69056529,0.0,-0.13,0.0,0.0,353.68,353.69,0.0,0.0,3
69.15645500,69156455,0.0,-0.13,0.0,0.0,353.68,353.69,0.0,0.01,3
69.25643600,69256436,0.0,-0.13,0.0,0.0,353.68,353.69,0.0,0.01,3
69.35643700,69356437,0.0,-0.12,0.0,0.0,353.68,353.69,0.0,0.01,3
69.45642600,69456426,0.0,-0.12,0.0,0.0,353.68,353.69,0.0,0.0,3
69.55639700,69556397,0.0,-0.12,0.0,0.0,353.68,353.69,0.0,0.01,3
69.65648100,69656481,0.0,-0.13,0.0,0.0,353.68,353.69,0.0,0.01,3
69.75648800,69756488,0.0,-0.13,0.0,0.0,353.68,353.69,0.0,0.0,3
69.85667400,69856674,0.0,-0.13,0.0,0.0,353.68,353.69,0.0,0.0,3
69.95679600,69956796,0.0,-0.13,0.0,0.0,353.67,353.68,0.0,0.01,3
70.05672300,70056723,0.0,-0.14,0.0,0.0,353.68,353.69,0.0,0.01,3
70.15670200,70156702,0.0,-0.14,0.0,0.0,353.67,353.68,0.0,0.01,3
70.25671700,70256717,0.0,-0.14,0.0,0.0,353.67,353.68,0.0,0.01,3
70.35677300,70356773,0.0,-0.14,0.0,0.0,353.67,353.68,0.0,0.01,3
70.45677800,70456778,0.0,-0.14,0.0,0.0,353.67,353.68,0.0,0.01,3
70.55676400,70556764,0.0,-0.14,0.0,0.0,353.67,353.68,0.0,0.0,3
70.65666000,70656660,0.0,-0.14,0.0,0.0,353.67,353.68,0.0,0.0,3
70.75670100,70756701,0.0,-0.14,0.0,0.0,353.67,353.68,0.0,0.0,3
70.85670000,70856700,0.0,-0.14,0.0,0.0,353.67,353.68,0.0,0.0,3
70.95670300,70956703,0.0,-0.14,0.0,0.01,353.67,353.68,0.0,0.0,3
71.05666300,71056663,0.0,-0.15,0.0,0.01,353.67,353.68,0.0,0.0,3
71.15669500,71156695,0.0,-0.15,0.0,0.01,353.67,353.68,0.0,0.0,3
71.25674000,71256740,0.0,-0.15,0.0,0.01,353.66,353.67,0.0,0.0,3
71.35682500,71356825,0.0,-0.15,0.0,0.01,353.65000000000003,353.66,0.0,0.0,3
71.45677000,71456770,0.0,-0.15,0.0,0.01,353.65000000000003,353.66,0.0,0.0,3
71.55665500,71556655,0.0,-0.15,0.0,0.02,353.64,353.65000000000003,0.0,0.0,3
71.65668700,71656687,0.0,-0.15,0.0,0.01,353.63,353.64,0.0,0.0,3
71.75672100,71756721,0.0,-0.15,0.0,0.02,353.63,353.64,0.0,0.0,3
71.85625700,71856257,0.0,-0.16,0.0,0.03,353.63,353.64,0.0,0.0,3
71.95620400,71956204,0.0,-0.15,0.0,0.03,353.64,353.65000000000003,0.0,0.0,3
72.05616300,72056163,0.0,-0.16,0.0,0.0,353.64,353.65000000000003,0.0,0.0,3
72.15619100,72156191,0.0,-0.2,0.0,-0.01,353.64,353.65000000000003,0.0,0.0,3
72.25627400,72256274,0.0,-0.48,0.0,-0.47000000000000003,353.68,353.69,0.01,0.0,3
72.35639900,72356399,0.0,-0.45,0.0,-0.66,354.12,354.13,0.01,0.0,3
72.45635900,72456359,0.0,-0.11,0.0,-0.06,355.06,355.07,0.01,0.0,3
72.55638600,72556386,0.0,0.03,0.0,1.12,356.27,356.28000000000003,0.01,0.0,3
72.65633700,72656337,0.0,-0.18,0.0,2.41,357.79,357.8,0.02,0.01,3
72.75634700,72756347,0.0,-0.5,0.0,3.4,359.7,359.71,0.02,0.02,3
72.85615700,72856157,0.0,-0.79,0.0,3.97,1.8900000000000001,1.8900000000000001,0.03,0.02,3
72.95614800,72956148,0.0,-1.03,0.0,4.2,4.21,4.21,0.03,0.04,3
73.05618800,73056188,0.0,-1.37,0.0,4.0200000000000005,6.26,6.26,0.03,0.05,3
73.15625300,73156253,0.0,-1.8,0.0,3.5,7.91,7.91,0.03,0.05,3
73.25634600,73256346,0.0,-2.13,0.0,2.81,9.56,9.56,0.04,0.06,3
73.35637400,73356374,0.0,-1.86,0.0,1.61,11.57,11.57,0.04,0.06,3
73.45655000,73456550,0.0,-1.0,0.0,0.39,13.77,13.77,0.04,0.06,3
73.55657200,73556572,0.0,-0.23,0.0,-0.42,15.74,15.74,0.04,0.06,3
73.65655400,73656554,0.0,0.15,0.0,-0.99,17.38,17.38,0.04,0.06,3
73.75646900,73756469,0.0,0.34,0.0,-1.5,18.71,18.71,0.04,0.06,3
73.85615400,73856154,0.0,0.66,0.0,-1.83,20.080000000000002,20.080000000000002,0.04,0.07,3
73.95619000,73956190,0.0,0.91,0.0,-1.85,21.07,21.07,0.04,0.07,3
74.05619900,74056199,0.0,0.85,0.0,-1.6600000000000001,21.6,21.6,0.04,0.06,3
74.15629500,74156295,0.0,0.6900000000000001,0.0,-1.61,22.05,22.05,0.04,0.06,3
74.25633100,74256331,0.0,0.68,0.0,-1.34,22.37,22.37,0.04,0.06,3
74.35638100,74356381,0.0,1.03,0.0,-0.65,22.7,22.7,0.04,0.06,3
74.45631300,74456313,0.0,1.41,0.0,0.25,23.09,23.09,0.04,0.05,3
74.55627100,74556271,0.0,1.59,0.0,0.66,23.36,23.36,0.04,0.05,3
74.65624900,74656249,0.0,0.8200000000000001,0.0,0.58,23.68,23.68,0.05,0.04,3
74.75616900,74756169,0.0,0.21,0.0,0.42,24.09,24.09,0.05,0.04,3
74.85618800,74856188,0.0,0.15,0.0,0.31,24.04,24.04,0.04,0.04,3
74.95625700,74956257,0.0,0.15,0.0,0.25,24.060000000000002,24.060000000000002,0.04,0.03,3
75.05629500,75056295,0.0,0.16,0.0,0.24,24.060000000000002,24.060000000000002,0.03,0.03,3
75.15632800,75156328,0.0,0.16,0.0,0.25,24.05,24.05,0.03,0.02,3
75.25635900,75256359,0.0,0.17,0.0,0.23,24.05,24.05,0.03,0.02,3
75.35634700,75356347,0.0,0.17,0.0,0.24,24.04,24.04,0.03,0.03,3
75.45628500,75456285,0.0,0.17,0.0,0.23,24.04,24.04,0.02,0.02,3
75.55616100,75556161,0.0,0.17,0.0,0.22,24.04,24.04,0.02,0.02,3
75.65615600,75656156,0.0,0.17,0.0,0.23,24.03,24.03,0.02,0.02,3
75.75619800,75756198,0.0,0.17,0.0,0.23,24.03,24.03,0.02,0.02,3
75.85620500,75856205,0.0,0.16,0.0,0.23,24.03,24.03,0.01,0.01,3
75.95630200,75956302,0.0,0.16,0.0,0.23,24.03,24.03,0.01,0.01,3
76.05632800,76056328,0.0,0.15,0.0,0.24,24.04,24.04,0.01,0.01,3
76.15637600,76156376,0.0,0.14,0.0,0.24,24.04,24.04,0.01,0.01,3
76.25637100,76256371,0.0,0.13,0.0,0.25,24.04,24.04,0.01,0.01,3
76.35633700,76356337,0.0,0.12,0.0,0.26,24.04,24.04,0.01,0.01,3
76.45646900,76456469,0.0,0.12,0.0,0.26,24.04,24.04,0.01,0.01,3
76.55644400,76556444,0.0,0.11,0.0,0.27,24.03,24.03,0.01,0.01,3
76.65650700,76656507,0.0,0.1,0.0,0.28,24.02,24.02,0.01,0.01,3
76.75651600,76756516,0.0,0.09,0.0,0.29,24.01,24.01,0.01,0.01,3
76.85653200,76856532,0.0,0.08,0.0,0.3,24.01,24.01,0.0,0.01,3
76.95651600,76956516,0.0,0.07,0.0,0.32,24.0,24.0,0.0,0.01,3
77.05657500,77056575,0.0,0.06,0.0,0.32,24.0,24.0,0.0,0.0,3
77.15657400,77156574,0.0,0.06,0.0,0.33,23.990000000000002,23.990000000000002,0.0,0.0,3
77.25657000,77256570,0.0,0.05,0.0,0.34,23.990000000000002,23.990000000000002,0.0,0.01,3
77.35651700,77356517,0.0,0.04,0.0,0.35000000000000003,23.98,23.98,0.0,0.01,3
77.45645300,77456453,0.0,0.03,0.0,0.36,23.98,23.98,0.0,0.01,3
77.55647900,77556479,0.0,0.03,0.0,0.36,23.96,23.96,0.0,0.01,3
77.65650700,77656507,0.0,0.02,0.0,0.37,23.96,23.96,0.0,0.01,3
77.75652800,77756528,0.0,0.01,0.0,0.38,23.95,23.95,0.0,0.01,3
77.85651400,77856514,0.0,0.01,0.0,0.39,23.94,23.94,0.0,0.0,3
77.95653000,77956530,0.0,0.0,0.0,0.4,23.93,23.93,0.0,0.0,3
78.05656100,78056561,0.0,0.0,0.0,0.4,23.92,23.92,0.0,0.01,3
78.15651500,78156515,0.0,0.0,0.0,0.41000000000000003,23.92,23.92,0.0,0.01,3
78.25648900,78256489,0.0,0.0,0.0,0.42,23.91,23.91,0.0,0.01,3
78.35668500,78356685,0.0,-0.01,0.0,0.42,23.92,23.92,0.0,0.01,3
78.45649900,78456499,0.0,-0.01,0.0,0.43,23.92,23.92,0.0,0.01,3
78.55645400,78556454,0.0,-0.01,0.0,0.44,23.91,23.91,0.0,0.01,3
78.65652300,78656523,0.0,-0.02,0.0,0.44,23.91,23.91,0.0,0.01,3
78.75650700,78756507,0.0,-0.03,0.0,0.45,23.900000000000002,23.900000000000002,0.0,0.01,3
78.85652700,78856527,0.0,-0.03,0.0,0.45,23.900000000000002,23.900000000000002,0.0,0.01,3
78.95655200,78956552,0.0,-0.04,0.0,0.45,23.89,23.89,0.0,0.01,3
79.05648900,79056489,0.0,-0.04,0.0,0.45,23.88,23.88,0.0,0.01,3
79.15647000,79156470,0.0,-0.04,0.0,0.46,23.88,23.88,0.0,0.01,3
79.25645500,79256455,0.0,-0.04,0.0,0.46,23.87,23.87,0.0,0.01,3
79.35648700,79356487,0.0,-0.04,0.0,0.46,23.87,23.87,0.0,0.01,3
79.45648300,79456483,0.0,-0.04,0.0,0.47000000000000003,23.86,23.86,0.0,0.01,3
79.55652000,79556520,0.0,-0.04,0.0,0.47000000000000003,23.85,23.85,0.0,0.01,3
79.65651200,79656512,0.0,-0.05,0.0,0.47000000000000003,23.84,23.84,0.0,0.01,3
79.75654000,79756540,0.0,-0.04,0.0,0.48,23.830000000000002,23.830000000000002,0.0,0.01,3
79.85655900,79856559,0.0,-0.04,0.0,0.47000000000000003,23.82,23.82,0.0,0.02,3
79.95651700,79956517,0.0,-0.04,0.0,0.47000000000000003,23.81,23.81,0.0,0.01,3
80.05645800,80056458,0.0,-0.04,0.0,0.47000000000000003,23.79,23.79,0.0,0.01,3
80.15644000,80156440,0.0,-0.04,0.0,0.47000000000000003,23.78,23.78,0.0,0.01,3
80.25647000,80256470,0.0,-0.04,0.0,0.47000000000000003,23.78,23.78,0.0,0.01,3
80.35654300,80356543,0.0,-0.03,0.0,0.47000000000000003,23.77,23.77,0.0,0.01,3
80.45656400,80456564,0.0,-0.03,0.0,0.47000000000000003,23.76,23.76,0.0,0.01,3
80.55651300,80556513,0.0,-0.03,0.0,0.47000000000000003,23.76,23.76,0.0,0.01,3
80.65658100,80656581,0.0,-0.02,0.0,0.46,23.76,23.76,0.0,0.01,3
80.75657200,80756572,0.0,-0.02,0.0,0.46,23.75,23.75,0.0,0.01,3
80.85657500,80856575,0.0,-0.02,0.0,0.46,23.75,23.75,0.0,0.01,3
80.95648000,80956480,0.0,-0.01,0.0,0.45,23.740000000000002,23.740000000000002,0.0,0.01,3
81.05643500,81056435,0.0,-0.01,0.0,0.45,23.740000000000002,23.740000000000002,0.0,0.01,3
81.15647700,81156477,0.0,0.0,0.0,0.45,23.73,23.73,0.0,0.01,3
81.25651300,81256513,0.0,0.0,0.0,0.44,23.72,23.72,0.0,0.01,3
81.35661100,81356611,0.0,0.0,0.0,0.44,23.72,23.72,0.0,0.01,3
81.45676900,81456769,0.0,0.0,0.0,0.44,23.73,23.73,0.0,0.01,3
81.55674500,81556745,0.0,0.0,0.0,0.44,23.72,23.72,0.0,0.0,3
81.65674900,81656749,0.0,0.0,0.0,0.43,23.72,23.72,0.0,0.0,3
81.75675600,81756756,0.0,0.0,0.0,0.43,23.72,23.72,0.0,0.0,3
81.85672900,81856729,0.0,0.0,0.0,0.42,23.72,23.72,0.0,0.0,3
81.95674700,81956747,0.0,0.01,0.0,0.42,23.72,23.72,0.0,0.0,3
82.05678500,82056785,0.0,0.01,0.0,0.42,23.71,23.71,0.0,0.0,3
82.15681600,82156816,0.0,0.02,0.0,0.42,23.71,23.71,0.0,0.0,3
82.25686700,82256867,0.0,0.02,0.0,0.41000000000000003,23.7,23.7,0.0,0.0,3
82.35656100,82356561,0.0,0.03,0.0,0.41000000000000003,23.7,23.7,0.0,0.0,3
82.45655100,82456551,0.0,0.03,0.0,0.4,23.69,23.69,0.0,0.0,3
82.55664800,82556648,0.0,0.03,0.0,0.39,23.68,23.68,0.0,0.01,3
82.65656500,82656565,0.0,0.04,0.0,0.38,23.67,23.67,0.0,0.0,3
82.75650000,82756500,0.0,0.04,0.0,0.38,23.67,23.67,0.0,0.01,3
82.85644800,82856448,0.0,0.04,0.0,0.37,23.67,23.67,0.0,0.01,3
82.95646800,82956468,0.0,0.05,0.0,0.37,23.67,23.67,0.0,0.01,3
83.05646700,83056467,0.0,0.05,0.0,0.36,23.66,23.66,0.0,0.01,3
83.15651800,83156518,0.0,0.05,0.0,0.36,23.66,23.66,0.0,0.01,3
83.25650500,83256505,0.0,0.06,0.0,0.35000000000000003,23.66,23.66,0.0,0.01,3
83.35657800,83356578,0.0,0.06,0.0,0.34,23.66,23.66,0.0,0.01,3
83.45655900,83456559,0.0,0.06,0.0,0.34,23.66,23.66,0.0,0.01,3
83.55655400,83556554,0.0,0.06,0.0,0.33,23.66,23.66,0.0,0.01,3
83.65646500,83656465,0.0,0.07,0.0,0.33,23.66,23.66,0.0,0.01,3
83.75645500,83756455,0.0,0.07,0.0,0.32,23.650000000000002,23.650000000000002,0.0,0.01,3
83.85646200,83856462,0.0,0.08,0.0,0.32,23.650000000000002,23.650000000000002,0.0,0.01,3
83.95646100,83956461,0.0,0.08,0.0,0.31,23.650000000000002,23.650000000000002,0.0,0.01,3
84.05686300,84056863,0.0,0.09,0.0,0.31,23.650000000000002,23.650000000000002,0.0,0.01,3
84.15673300,84156733,0.0,0.1,0.0,0.31,23.650000000000002,23.650000000000002,0.0,0.01,3
84.25672100,84256721,0.0,0.1,0.0,0.31,23.650000000000002,23.650000000000002,0.0,0.01,3
84.35675500,84356755,0.0,0.1,0.0,0.31,23.650000000000002,23.650000000000002,0.0,0.01,3
84.45673600,84456736,0.0,0.11,0.0,0.3,23.650000000000002,23.650000000000002,0.0,0.01,3
84.55672800,84556728,0.0,0.11,0.0,0.3,23.64,23.64,0.0,0.01,3
84.65682600,84656826,0.0,0.11,0.0,0.3,23.64,23.64,0.0,0.01,3
84.75647900,84756479,0.0,0.11,0.0,0.3,23.64,23.64,0.0,0.01,3
84.85646200,84856462,0.0,0.11,0.0,0.29,23.64,23.64,0.0,0.01,3
84.95651800,84956518,0.0,0.11,0.0,0.29,23.64,23.64,0.0,0.01,3
85.05650200,85056502,0.0,0.11,0.0,0.28,23.63,23.63,0.0,0.01,3
85.15653300,85156533,0.0,0.12,0.0,0.28,23.63,23.63,0.0,0.01,3
85.25655300,85256553,0.0,0.12,0.0,0.28,23.63,23.63,0.0,0.01,3
85.35659300,85356593,0.0,0.13,0.0,0.28,23.62,23.62,0.0,0.01,3
85.45647100,85456471,0.0,0.13,0.0,0.27,23.63,23.63,0.0,0.01,3
85.55645300,85556453,0.0,0.13,0.0,0.27,23.63,23.63,0.0,0.01,3
85.65650100,85656501,0.0,0.13,0.0,0.27,23.63,23.63,0.0,0.01,3
85.75651800,85756518,0.0,0.13,0.0,0.27,23.62,23.62,0.0,0.01,3
85.85652600,85856526,0.0,0.14,0.0,0.27,23.62,23.62,0.0,0.01,3
85.95651000,85956510,0.0,0.14,0.0,0.27,23.62,23.62,0.0,0.01,3
86.05654900,86056549,0.0,0.14,0.0,0.27,23.61,23.61,0.0,0.0,3
86.15657000,86156570,0.0,0.15,0.0,0.27,23.61,23.61,0.0,0.0,3
86.25657700,86256577,0.0,0.15,0.0,0.27,23.61,23.61,0.0,0.0,3
86.35652100,86356521,0.0,0.15,0.0,0.26,23.6,23.6,0.0,0.0,3
86.45645000,86456450,0.0,0.15,0.0,0.26,23.6,23.6,0.0,0.0,3
86.55644700,86556447,0.0,0.15,0.0,0.26,23.59,23.59,0.0,0.01,3
86.65651100,86656511,0.0,0.15,0.0,0.26,23.59,23.59,0.0,0.01,3
86.75655600,86756556,0.0,0.15,0.0,0.27,23.6,23.6,0.0,0.01,3
86.85651100,86856511,0.0,0.15,0.0,0.27,23.6,23.6,0.0,0.01,3
86.95653700,86956537,0.0,0.15,0.0,0.26,23.6,23.6,0.0,0.01,3
87.05655500,87056555,0.0,0.15,0.0,0.26,23.6,23.6,0.0,0.01,3
87.15656600,87156566,0.0,0.15,0.0,0.26,23.59,23.59,0.0,0.01,3
87.25647100,87256471,0.0,0.16,0.0,0.26,23.6,23.6,0.0,0.0,3
87.35653500,87356535,0.0,0.16,0.0,0.26,23.59,23.59,0.0,0.0,3
87.45645100,87456451,0.0,0.16,0.0,0.26,23.59,23.59,0.0,0.0,3
87.55645900,87556459,0.0,0.16,0.0,0.26,23.59,23.59,0.0,0.0,3
87.65687300,87656873,0.0,0.16,0.0,0.26,23.580000000000002,23.580000000000002,0.0,0.0,3
87.75674700,87756747,0.0,0.16,0.0,0.26,23.580000000000002,23.580000000000002,0.0,0.01,3
87.85670700,87856707,0.0,0.16,0.0,0.26,23.59,23.59,0.0,0.01,3
87.95674500,87956745,0.0,0.16,0.0,0.26,23.59,23.59,0.0,0.01,3
88.05673200,88056732,0.0,0.16,0.0,0.26,23.59,23.59,0.0,0.01,3
88.15672300,88156723,0.0,0.16,0.0,0.25,23.59,23.59,0.0,0.01,3
88.25674200,88256742,0.0,0.16,0.0,0.25,23.59,23.59,0.0,0.01,3
88.35648800,88356488,0.0,0.16,0.0,0.26,23.59,23.59,0.0,0.01,3
88.45648300,88456483,0.0,0.16,0.0,0.26,23.59,23.59,0.0,0.01,3
88.55652300,88556523,0.0,0.16,0.0,0.26,23.59,23.59,0.0,0.01,3
88.65652000,88656520,0.0,0.16,0.0,0.26,23.580000000000002,23.580000000000002,0.0,0.01,3
88.75654900,88756549,0.0,0.16,0.0,0.26,23.580000000000002,23.580000000000002,0.0,0.01,3
88.85664700,88856647,0.0,0.17,0.0,0.26,23.57,23.57,0.0,0.01,3
88.95656400,88956564,0.0,0.17,0.0,0.26,23.57,23.57,0.0,0.01,3
89.05647400,89056474,0.0,0.17,0.0,0.26,23.57,23.57,0.0,0.01,3
89.15643100,89156431,0.0,0.17,0.0,0.26,23.57,23.57,0.0,0.01,3
89.25650400,89256504,0.0,0.18,0.0,0.26,23.57,23.57,0.0,0.01,3
89.35653200,89356532,0.0,0.18,0.0,0.27,23.57,23.57,0.0,0.01,3
89.45652500,89456525,0.0,0.18,0.0,0.27,23.57,23.57,0.0,0.01,3
89.55652000,89556520,0.0,0.18,0.0,0.27,23.580000000000002,23.580000000000002,0.0,0.02,3
89.65656100,89656561,0.0,0.18,0.0,0.27,23.57,23.57,0.0,0.02,3
89.75659100,89756591,0.0,0.18,0.0,0.28,23.580000000000002,23.580000000000002,0.0,0.02,3
89.85654200,89856542,0.0,0.19,0.0,0.27,23.580000000000002,23.580000000000002,0.0,0.03,3
89.95647700,89956477,0.0,0.18,0.0,0.26,23.6,23.6,0.0,0.03,3
90.05643900,90056439,0.0,0.24,0.0,0.31,23.59,23.59,0.0,0.03,3
90.15648900,90156489,0.0,0.21,0.0,0.28,23.6,23.6,0.0,0.03,3
90.25650900,90256509,0.0,0.1,0.0,0.61,22.93,22.93,0.0,0.03,3
90.35663500,90356635,0.0,0.06,0.0,0.89,21.39,21.39,0.0,0.03,3
90.45650600,90456506,0.0,0.17,0.0,0.92,19.1,19.1,0.01,0.04,3
90.55654900,90556549,0.0,0.41000000000000003,0.0,0.77,16.17,16.17,0.01,0.05,3
90.65657600,90656576,0.0,0.53,0.0,0.56,12.5,12.5,0.02,0.05,3
90.75651900,90756519,0.0,0.39,0.0,0.65,8.23,8.23,0.02,0.06,3
90.85646200,90856462,0.0,0.27,0.0,0.81,3.16,3.16,0.03,0.06,3
90.95655400,90956554,0.0,0.24,0.0,0.72,357.27,357.28000000000003,0.03,0.05,3
91.05647500,91056475,0.0,0.09,0.0,0.24,351.26,351.27,0.03,0.05,3
91.15646900,91156469,0.0,-0.11,0.0,-0.32,345.13,345.14,0.03,0.06,3
91.25653000,91256530,0.0,-0.18,0.0,-0.65,338.89,338.90000000000003,0.03,0.06,3
91.35653100,91356531,0.0,0.0,0.0,-0.44,332.63,332.64,0.03,0.07,3
91.45652900,91456529,0.0,0.26,0.0,-0.16,326.86,326.87,0.03,0.08,3
91.55655600,91556556,0.0,0.6,0.0,-0.32,321.45,321.46,0.03,0.08,3
91.65655600,91656556,0.0,1.03,0.0,-0.8200000000000001,316.36,316.37,0.03,0.08,3
91.75647600,91756476,0.0,1.7,0.0,-1.1300000000000001,311.65000000000003,311.66,0.03,0.09,3
91.85643900,91856439,0.0,2.62,0.0,-1.16,307.38,307.39,0.04,0.1,3
91.95675500,91956755,0.0,3.81,0.0,-0.55,303.14,303.15000000000003,0.04,0.1,3
92.05648400,92056484,0.0,4.6000000000000005,0.0,0.01,299.04,299.05,0.04,0.11,3
92.15651800,92156518,0.0,4.94,0.0,0.51,295.21,295.22,0.04,0.12,3
92.25632300,92256323,0.0,5.18,0.0,1.25,291.25,291.26,0.04,0.13,3
92.35640000,92356400,0.0,4.98,0.0,1.55,287.86,287.86,0.04,0.13,3
92.45631900,92456319,0.0,4.63,0.0,1.33,285.03000000000003,285.04,0.05,0.13,3
92.55628900,92556289,0.0,4.46,0.0,0.88,282.72,282.73,0.05,0.14,3
92.65621700,92656217,0.0,4.23,0.0,0.36,281.21,281.22,0.05,0.14,3
92.75617200,92756172,0.0,3.65,0.0,0.06,280.37,280.38,0.05,0.14,3
92.85618600,92856186,0.0,2.88,0.0,0.01,280.0,280.01,0.05,0.14,3
92.95626400,92956264,0.0,2.02,0.0,0.41000000000000003,280.26,280.27,0.05,0.15,3
93.05636100,93056361,0.0,1.3800000000000001,0.0,1.0,280.57,280.58,0.05,0.15,3
93.15633500,93156335,0.0,1.17,0.0,1.12,280.56,280.57,0.05,0.15,3
93.25638300,93256383,0.0,1.24,0.0,0.68,280.57,280.58,0.04,0.14,3
93.35639200,93356392,0.0,1.41,0.0,0.17,280.78000000000003,280.79,0.04,0.14,3
93.45627900,93456279,0.0,1.6400000000000001,0.0,0.0,281.08,281.09000000000003,0.04,0.14,3
93.55621800,93556218,0.0,1.96,0.0,0.14,281.19,281.2,0.04,0.13,3
93.65615500,93656155,0.0,2.24,0.0,0.26,281.15000000000003,281.16,0.04,0.13,3
93.75620500,93756205,0.0,2.17,0.0,0.23,281.31,281.32,0.04,0.13,3
93.85627600,93856276,0.0,2.06,0.0,-0.19,281.46,281.47,0.03,0.13,3
93.95636000,93956360,0.0,2.0,0.0,-0.4,281.67,281.68,0.03,0.12,3
94.05636300,94056363,0.0,1.92,0.0,-0.63,281.92,281.93,0.03,0.12,3
94.15638900,94156389,0.0,2.0300000000000002,0.0,-0.6900000000000001,281.92,281.93,0.03,0.12,3
94.25658800,94256588,0.0,2.08,0.0,-0.74,281.96,281.97,0.03,0.12,3
94.35661500,94356615,0.0,2.0,0.0,-0.61,282.04,282.05,0.03,0.12,3
94.45648300,94456483,0.0,1.8800000000000001,0.0,-0.58,282.04,282.05,0.02,0.12,3
94.55615100,94556151,0.0,1.77,0.0,-0.78,281.98,281.99,0.02,0.12,3
94.65625900,94656259,0.0,1.71,0.0,-0.71,281.86,281.87,0.02,0.12,3
94.75626900,94756269,0.0,1.76,0.0,-0.26,281.61,281.62,0.02,0.12,3
94.85635400,94856354,0.0,1.75,0.0,0.23,281.45,281.46,0.02,0.11,3
94.95634000,94956340,0.0,1.7,0.0,-0.01,281.38,281.39,0.02,0.11,3
95.05639300,95056393,0.0,1.75,0.0,-0.39,281.26,281.27,0.02,0.11,3
95.15639600,95156396,0.0,1.71,0.0,-0.53,281.33,281.34000000000003,0.02,0.11,3
95.25633800,95256338,0.0,1.74,0.0,-0.62,281.39,281.40000000000003,0.02,0.11,3
95.35625900,95356259,0.0,1.97,0.0,-0.23,281.45,281.46,0.02,0.1,3
95.45616200,95456162,0.0,2.2800000000000002,0.0,0.35000000000000003,281.98,281.99,0.03,0.11,3
95.55618100,95556181,0.0,2.62,0.0,0.9,282.92,282.93,0.03,0.11,3
95.65626600,95656266,0.0,3.04,0.0,1.68,284.07,284.08,0.04,0.1,3
95.75635200,95756352,0.0,3.59,0.0,2.33,285.19,285.2,0.04,0.1,3
95.85633900,95856339,0.0,4.04,0.0,2.75,286.58,286.59000000000003,0.04,0.1,3
95.95658000,95956580,0.0,3.9,0.0,2.84,288.54,288.55,0.04,0.09,3
96.05631900,96056319,0.0,3.0100000000000002,0.0,2.91,291.08,291.09000000000003,0.04,0.08,3
96.15630800,96156308,0.0,2.05,0.0,2.62,293.58,293.59000000000003,0.04,0.07,3
96.25622000,96256220,0.0,1.41,0.0,1.57,296.46,296.47,0.04,0.05,3
96.35628500,96356285,0.0,0.77,0.0,0.35000000000000003,299.39,299.40000000000003,0.04,0.05,3
96.45620500,96456205,0.0,0.17,0.0,-0.86,302.24,302.25,0.04,0.04,3
