timestamp,TimeUS,C,Roll,Pitch,Yaw,VN,VE,VD,dPD,PN,PE,PD,GX,GY,GZ,OH
9.45578500,9455785,2,0.0,0.0,0.0,0.0,0.0,0.0,0.0,0.0,0.0,0.0,0.0,0.0,0.0,0.0
9.55577300,9555773,2,0.0,0.0,0.0,0.0,0.0,0.0,0.0,0.0,0.0,0.0,0.0,0.0,0.0,0.0
9.65571300,9655713,2,0.0,0.0,0.0,0.0,0.0,0.0,0.0,0.0,0.0,0.0,0.0,0.0,0.0,0.0
9.75572100,9755721,2,0.0,0.0,0.0,0.0,0.0,0.0,0.0,0.0,0.0,0.0,0.0,0.0,0.0,0.0
9.85573900,9855739,2,0.0,0.0,0.0,0.0,0.0,0.0,0.0,0.0,0.0,0.0,0.0,0.0,0.0,0.0
9.95574100,9955741,2,0.0,0.0,0.0,0.0,0.0,0.0,0.0,0.0,0.0,0.0,0.0,0.0,0.0,0.0
10.05573800,10055738,2,0.0,0.0,0.0,0.0,0.0,0.0,0.0,0.0,0.0,0.0,0.0,0.0,0.0,0.0
10.15578800,10155788,2,0.0,0.0,0.0,0.0,0.0,0.0,0.0,0.0,0.0,0.0,0.0,0.0,0.0,0.0
10.25579800,10255798,2,0.0,0.0,0.0,0.0,0.0,0.0,0.0,0.0,0.0,0.0,0.0,0.0,0.0,0.0
10.35578200,10355782,2,0.0,0.0,0.0,0.0,0.0,0.0,0.0,0.0,0.0,0.0,0.0,0.0,0.0,0.0
10.45578300,10455783,2,0.0,0.62,359.99,-0.0015998593298718333,-5.1744333177339286e-05,0.011571653187274933,0.0005373706808313727,0.0,0.0,0.0004086374246980995,0.0,0.0,0.0,0.0
10.55571200,10555712,2,0.0,0.62,359.99,-0.003419895889237523,-0.0004606664879247546,0.050031185150146484,0.02582712285220623,0.0,0.0,0.0038085768464952707,0.0,0.0,0.0,0.0
10.65572200,10655722,2,0.0,0.62,359.99,-0.005290144123136997,-0.0011368229752406478,0.09516936540603638,2.1478986740112305,0.0,0.0,0.2582392990589142,0.0,0.0,0.0,0.0
10.75572500,10755725,2,0.0,0.63,359.99,-0.006471911910921335,-0.0013632208574563265,0.12601789832115173,3.218076467514038,0.0,0.0,0.5149313807487488,0.0,0.0,0.0,0.0
10.85574300,10855743,2,0.01,0.62,359.98,-0.008612040430307388,-0.001133029698394239,0.14898681640625,2.764009952545166,0.0,0.0,0.7329843044281006,0.0,0.0,0.0,0.0
10.95573200,10955732,2,0.0,0.62,359.98,-0.010432638227939606,-0.0012751991162076592,0.16372863948345184,1.9902294874191284,0.0,0.0,0.9043295979499817,0.0,0.0,0.0,0.0
11.05577100,11055771,2,0.0,0.63,359.98,-0.012615219689905643,-0.001165056019090116,0.17402680218219757,1.3604099750518799,0.0,0.0,1.0413166284561157,0.0,0.0,0.0,0.0
11.15579400,11155794,2,0.01,0.62,359.98,-0.01374884694814682,-0.0012207085965201259,0.17993029952049255,0.9759474396705627,0.0,0.0,1.1517548561096191,0.0,0.0,0.0,0.0
11.25577700,11255777,2,0.01,0.62,359.98,-0.015601781196892262,-0.0011726089287549257,0.18625563383102417,0.7575519680976868,0.0,0.0,1.2441692352294922,0.0,0.0,0.0,0.0
11.35577900,11355779,2,0.01,0.61,359.97,-0.01572318561375141,-0.0009991013212129474,0.19115997850894928,0.6603397130966187,0.0,0.0,1.3254050016403198,0.0,0.0,0.0,0.0
11.45571800,11455718,2,0.01,0.6,359.97,-0.016382303088903427,-0.0016767724882811308,0.19365940988063812,0.5458803772926331,0.0,0.0,1.3897048234939575,0.0,0.0,0.0,0.0
11.55571100,11555711,2,0.01,0.59,359.97,-0.0168038010597229,-0.0024251281283795834,0.1950441300868988,0.4343811273574829,0.0,0.0,1.4437073469161987,0.0,0.0,0.0,0.0
11.65571700,11655717,2,0.01,0.58,359.98,-0.014935866929590702,-0.0015657509211450815,0.19698689877986908,0.3827323019504547,0.0,0.0,1.490540862083435,0.0,0.0,0.0,0.0
11.75574100,11755741,2,0.01,0.5700000000000001,359.97,-0.013113204389810562,-0.0018725193804129958,0.1986057609319687,0.3509480059146881,0.0,0.0,1.5326741933822632,0.0,0.0,0.0,0.0
11.85573000,11855730,2,0.01,0.56,359.97,-0.011273299343883991,-0.0013276516692712903,0.20081064105033875,0.34733501076698303,0.0,0.0,1.572649598121643,0.0,0.0,0.0,0.0
11.95576900,11955769,2,0.0,0.55,354.33,-0.008179589174687862,-0.0013622791739180684,0.20274882018566132,0.3509048819541931,0.0,0.0,1.611693263053894,0.0,0.0,0.0,0.0
12.05579300,12055793,2,0.0,0.54,354.29,-0.006885460112243891,-0.001993639161810279,0.20530764758586884,0.36052510142326355,0.0,0.0,1.6498357057571411,0.0,0.0,0.0,0.0
12.15578200,12155782,2,0.0,0.55,354.19,-0.004519249312579632,-0.0023103912826627493,0.2069903016090393,0.3346429467201233,0.0,0.0,1.68369460105896,0.0,0.0,0.0,0.0
12.25578600,12255786,2,0.0,0.55,354.07,-0.0032947089057415724,-0.002438229275867343,0.20799702405929565,0.29041776061058044,0.0,0.0,1.7139942646026611,0.0,0.0,0.0,0.0
12.35571000,12355710,2,0.0,0.55,353.95,-0.0025048230309039354,-0.002416219562292099,0.20653949677944183,0.25112617015838623,0.0,0.0,1.7406443357467651,0.0,0.0,0.0,0.0
12.45571900,12455719,2,0.0,0.56,353.83,-0.0021799649111926556,-0.003354374086484313,0.2041918933391571,0.20993103086948395,0.0,0.0,1.763467788696289,0.0,0.0,0.0,0.0
12.55571500,12555715,2,0.0,0.56,353.73,-0.002193734748288989,-0.003813860472291708,0.2008693367242813,0.17744788527488708,0.0,0.0,1.7833536863327026,0.0,0.0,0.0,0.0
12.65574800,12655748,2,0.0,0.55,353.64,-0.0023185538593679667,-0.004857480525970459,0.19698284566402435,0.13772693276405334,0.0,0.0,1.798596978187561,0.0,0.0,0.0,0.0
12.75572600,12755726,2,0.0,0.55,353.55,-0.0026043951511383057,-0.005438887048512697,0.19178138673305511,0.08911002427339554,0.0,0.0,1.8095115423202515,0.0,0.0,0.0,0.0
12.85575700,12855757,2,0.0,0.56,353.48,-0.0027847171295434237,-0.005289784632623196,0.18331870436668396,0.03232516720890999,0.0,0.0,1.8142684698104858,0.0,0.0,0.01,0.0
12.95579000,12955790,2,-0.01,0.56,353.43,-0.0033650887198746204,-0.006386869121342897,0.17546063661575317,0.005498561076819897,0.0,0.0,1.8186403512954712,0.0,0.0,0.01,0.0
13.05578500,13055785,2,-0.01,0.56,353.39,-0.0029239000286906958,-0.007125604897737503,0.1689750850200653,0.029960399493575096,0.0,0.0,1.8241742849349976,0.0,0.0,0.01,0.0
13.15577200,13155772,2,-0.01,0.56,353.33,-0.0026453682221472263,-0.007567263673990965,0.16276100277900696,0.06017887964844704,0.0,0.0,1.8318387269973755,0.0,0.0,0.02,0.0
13.25571400,13255714,2,-0.01,0.56,353.28000000000003,-0.003749270224943757,-0.006503514014184475,0.15795382857322693,0.07609543204307556,0.0,0.0,1.8389700651168823,0.0,0.0,0.01,0.0
13.35571300,13355713,2,0.0,0.56,353.25,-0.004295787774026394,-0.006178517825901508,0.1510467678308487,0.06511829793453217,0.0,0.0,1.8455084562301636,0.0,0.0,0.01,0.0
13.45572400,13455724,2,0.0,0.56,353.24,-0.0049544270150363445,-0.0060880146920681,0.14398647844791412,0.059243954718112946,0.0,0.0,1.8511862754821777,0.0,0.0,0.01,0.0
13.55572700,13555727,2,0.0,0.56,353.24,-0.0044838618487119675,-0.005751634482294321,0.13901586830615997,0.06546328961849213,0.0,0.0,1.8586572408676147,0.0,0.0,0.01,0.0
13.65575100,13655751,2,-0.01,0.56,353.24,-0.003935826942324638,-0.005105449818074703,0.13673998415470123,0.10478348284959793,0.0,0.0,1.8696398735046387,0.0,0.0,0.01,0.0
13.75577100,13755771,2,0.0,0.55,353.23,-0.004406053107231855,-0.0047312709502875805,0.1335161030292511,0.12264945358037949,0.0,0.0,1.8804590702056885,0.0,0.0,0.01,0.0
13.85580400,13855804,2,0.0,0.54,353.23,-0.004303427413105965,-0.004227818921208382,0.126634880900383,0.07187318801879883,0.0,0.0,1.88552987575531,0.0,0.0,0.01,0.0
13.95578000,13955780,2,0.0,0.54,353.21,-0.004600367043167353,-0.004019798245280981,0.11994472146034241,0.03387140855193138,0.0,0.0,1.890152096748352,-0.01,0.0,0.02,0.0
14.05576700,14055767,2,0.0,0.54,353.19,-0.0040310961194336414,-0.004091742914170027,0.11296062916517258,0.018533149734139442,0.0,0.0,1.8926829099655151,-0.01,0.0,0.02,0.0
14.15570500,14155705,2,0.0,0.53,353.18,-0.0027938249986618757,-0.0034170327708125114,0.10382857918739319,-0.008217071183025837,0.0,0.0,1.8927274942398071,-0.01,0.0,0.01,0.0
14.25570600,14255706,2,0.0,0.53,353.18,-0.0024185378570109606,-0.00249579013325274,0.09712962806224823,-0.0006754858768545091,0.0,0.0,1.8946729898452759,-0.01,0.0,0.01,0.0
14.35571000,14355710,2,0.0,0.53,353.19,-0.002072148723527789,-0.0024725429248064756,0.09282809495925903,0.03566541522741318,0.0,0.0,1.8992609977722168,-0.01,0.0,0.01,0.0
14.45574200,14455742,2,0.0,0.53,353.19,-0.0016777755226939917,-0.00253200507722795,0.08909792453050613,0.06008167192339897,0.0,0.0,1.9049060344696045,-0.01,0.01,0.01,0.0
14.55573800,14555738,2,0.0,0.53,353.18,-0.0017630655784159899,-0.002206953475251794,0.0824747383594513,0.01997699774801731,0.0,0.0,1.9047235250473022,-0.01,0.01,0.01,0.0
14.65575600,14655756,2,0.0,0.53,353.19,-0.0021412288770079613,-0.002097734482958913,0.07542512565851212,-0.012310412712395191,0.0,0.0,1.904679775238037,-0.01,0.01,0.0,0.0
14.75580500,14755805,2,0.0,0.53,353.21,-0.0015952012035995722,-0.002447910374030471,0.06885070353746414,-0.007334972731769085,0.0,0.0,1.9049434661865234,-0.01,0.01,0.0,0.0
14.85577700,14855777,2,0.01,0.53,353.23,-0.0013085235841572285,-0.002632478252053261,0.060954827815294266,-0.02250911481678486,0.0,0.0,1.9026402235031128,-0.01,0.01,0.0,0.0
14.95576700,14955767,2,0.01,0.52,353.24,-0.0006509041413664818,-0.0023903902620077133,0.05260138586163521,-0.043445855379104614,0.0,0.0,1.8989979028701782,-0.01,0.01,0.0,0.0
15.05571300,15055713,2,0.0,0.52,353.24,-0.0009539813036099076,-0.0026344279758632183,0.03944500535726547,-0.11126136779785156,0.0,0.0,1.8862810134887695,-0.01,0.01,0.0,0.0
15.15570500,15155705,2,0.01,0.51,353.24,-0.0009730136371217668,-0.003146836766973138,0.02657722681760788,-0.17782330513000488,0.0,0.0,1.8711299896240234,-0.01,0.01,0.0,0.0
15.25570600,15255706,2,0.01,0.52,353.23,-0.0004176916554570198,-0.0026919699739664793,0.011262902058660984,-0.21467867493629456,0.0,0.0,1.8514264822006226,-0.01,0.01,0.0,0.0
15.35573700,15355737,2,0.01,0.52,353.23,0.0002771707368083298,-0.0027366136200726032,-0.0050564119592309,-0.2613554000854492,0.0,0.0,1.8273764848709106,-0.01,0.01,0.0,0.0
15.45573100,15455731,2,0.01,0.51,353.25,0.0011026053689420223,-0.003354838816449046,-0.020145246759057045,-0.263616144657135,0.0,0.0,1.8044788837432861,-0.01,0.01,-0.01,0.0
15.55577000,15555770,2,0.02,0.51,353.26,0.001481232582591474,-0.003592717694118619,-0.032893236726522446,-0.21447868645191193,0.0,0.0,1.7861145734786987,-0.02,0.01,0.0,0.0
15.65581200,15655812,2,0.01,0.51,353.28000000000003,0.0019851026590913534,-0.002939374651759863,-0.04488125070929527,-0.17559932172298431,0.0,0.0,1.7682971954345703,-0.02,0.01,-0.02,0.0
15.75578500,15755785,2,0.02,0.5,353.3,0.0024034702219069004,-0.0033871193882077932,-0.05426853150129318,-0.1502857506275177,0.0,0.0,1.7532048225402832,-0.02,0.01,-0.02,0.0
15.85576900,15855769,2,0.02,0.5,353.32,0.0039051095955073833,-0.003492258256301284,-0.0630645751953125,-0.13201944530010223,0.0,0.0,1.7387996912002563,-0.02,0.01,-0.02,0.0
15.95571600,15955716,2,0.02,0.51,353.34000000000003,0.00390807306393981,-0.0033454541116952896,-0.07311508059501648,-0.14795447885990143,0.0,0.0,1.7224081754684448,-0.02,0.01,-0.01,0.0
16.05570900,16055709,2,0.02,0.5,353.33,0.004349982365965843,-0.0034868509974330664,-0.08000468462705612,-0.12214520573616028,0.0,0.0,1.7117434740066528,-0.02,0.01,-0.01,0.0
16.15570800,16155708,2,0.02,0.5,353.33,0.004949762020260096,-0.0036157984286546707,-0.08621200919151306,-0.09746658802032471,0.0,0.0,1.7000300884246826,-0.02,0.01,-0.01,0.0
16.25573500,16255735,2,0.03,0.5,353.31,0.006425937172025442,-0.004294569604098797,-0.09393933415412903,-0.12233831733465195,0.0,0.0,1.6864619255065918,-0.02,0.01,0.0,0.0
16.35574600,16355746,2,0.02,0.5,353.29,0.006299831438809633,-0.0039795502088963985,-0.09860187768936157,-0.10359030216932297,0.0,0.0,1.6772732734680176,-0.02,0.01,0.0,0.0
16.45577000,16455770,2,0.03,0.5,353.28000000000003,0.0076364316046237946,-0.004034177400171757,-0.10380055755376816,-0.07961195707321167,0.0,0.0,1.6684846878051758,-0.02,0.01,0.0,0.0
16.55578800,16555788,2,0.03,0.5,353.27,0.008180649019777775,-0.004060415085405111,-0.10763952136039734,-0.06753715872764587,0.0,0.0,1.6614556312561035,-0.02,0.01,0.0,0.0
16.65578000,16655780,2,0.03,0.51,353.26,0.008314622566103935,-0.00381299015134573,-0.11181224882602692,-0.06798507273197174,0.0,0.0,1.6531493663787842,-0.02,0.01,0.0,0.0
16.75577400,16755774,2,0.03,0.51,353.26,0.008182776160538197,-0.003167675109580159,-0.11456066370010376,-0.05522408336400986,0.0,0.0,1.6482417583465576,-0.02,0.01,-0.02,0.0
16.85570600,16855706,2,0.04,0.52,353.29,0.007734480779618025,-0.0013518751366063952,-0.11655855178833008,-0.0326419398188591,0.0,0.0,1.6432366371154785,-0.02,0.01,-0.04,0.0
16.95571000,16955710,2,0.03,0.52,353.32,0.006132985930889845,-0.000698471674695611,-0.11683305352926254,-0.016000399366021156,0.0,0.0,1.6407458782196045,-0.02,0.0,-0.03,0.0
17.05571400,17055714,2,0.03,0.52,353.35,0.005257013253867626,0.00019011100812349468,-0.1158551424741745,-0.006486658006906509,0.0,0.0,1.638765573501587,-0.02,0.0,-0.03,0.0
17.15573400,17155734,2,0.03,0.52,353.37,0.004539581015706062,0.0008538217516615987,-0.11774031817913055,-0.03294544667005539,0.0,0.0,1.6342166662216187,-0.02,0.0,-0.03,0.0
17.25574900,17255749,2,0.04,0.52,353.39,0.003898348193615675,0.002652084454894066,-0.11854805052280426,-0.04649977758526802,0.0,0.0,1.6300053596496582,-0.02,0.0,-0.03,0.0
17.35577700,17355777,2,0.04,0.52,353.41,0.002560941269621253,0.003632978769019246,-0.11867114156484604,-0.029553908854722977,0.0,0.0,1.6275267601013184,-0.02,0.0,-0.03,0.0
17.45579300,17455793,2,0.03,0.53,353.42,0.0009376861853525043,0.0036889133043587208,-0.11834749579429626,-0.0073792338371276855,0.0,0.0,1.6266310214996338,-0.02,0.0,-0.04,0.0
17.55577800,17555778,2,0.04,0.53,353.44,0.0001468007976654917,0.0037927015218883753,-0.11826981604099274,0.0001352491817669943,0.0,0.0,1.6256952285766602,-0.02,0.0,-0.06,0.0
17.65576700,17655767,2,0.04,0.53,353.46,5.6101409427355975e-05,0.00518825463950634,-0.11840563267469406,-0.013062287122011185,0.0,0.0,1.6235822439193726,-0.02,0.0,-0.06,0.0
17.75570900,17755709,2,0.03,0.53,353.49,-0.000901374383829534,0.005682558286935091,-0.11775617301464081,-0.027811141684651375,0.0,0.0,1.6204535961151123,-0.02,0.0,-0.04,0.0
17.85570700,17855707,2,0.04,0.53,353.49,-0.0024641212075948715,0.00732647068798542,-0.11770036816596985,-0.03592243418097496,0.0,0.0,1.6170371770858765,-0.02,0.0,-0.04,0.0
17.95571000,17955710,2,0.04,0.53,353.48,-0.002837906824424863,0.007332660723477602,-0.11920760571956635,-0.05629323050379753,0.0,0.0,1.6113409996032715,-0.02,0.0,-0.04,0.0
18.05572900,18055729,2,0.05,0.52,353.48,-0.0032360581681132317,0.007895315065979958,-0.12193959206342697,-0.08983024954795837,0.0,0.0,1.602822184562683,-0.02,0.0,-0.04,0.0
18.15575300,18155753,2,0.05,0.52,353.48,-0.0043105012737214565,0.008853504434227943,-0.12313675135374069,-0.09168383479118347,0.0,0.0,1.5952558517456055,-0.02,0.0,-0.05,0.0
18.25576100,18255761,2,0.05,0.52,353.49,-0.004750056657940149,0.010014176368713379,-0.12214517593383789,-0.0427742525935173,0.0,0.0,1.5923835039138794,-0.02,0.0,-0.05,0.0
18.35579700,18355797,2,0.05,0.52,353.5,-0.0042665451765060425,0.010236212983727455,-0.11764517426490784,0.052553556859493256,0.0,0.0,1.5984790325164795,-0.02,0.0,-0.04,0.0
18.45578700,18455787,2,0.04,0.51,353.5,-0.003934729378670454,0.01078024972230196,-0.11178267747163773,0.12508071959018707,0.0,0.0,1.6076445579528809,-0.02,0.0,-0.04,0.0
18.55577900,18555779,2,0.05,0.52,353.5,-0.0036401585675776005,0.010659785009920597,-0.10598485171794891,0.13013026118278503,0.0,0.0,1.6171633005142212,-0.02,0.0,-0.04,0.0
18.65570900,18655709,2,0.04,0.51,353.5,-0.0035828840918838978,0.011351854540407658,-0.10075035691261292,0.11564061045646667,0.0,0.0,1.6259968280792236,-0.02,0.0,-0.04,0.0
18.75571300,18755713,2,0.04,0.52,353.49,-0.0028075200971215963,0.011944829486310482,-0.09483284503221512,0.10545103996992111,0.0,0.0,1.6355485916137695,-0.02,0.0,-0.04,0.0
18.85572200,18855722,2,0.03,0.52,353.48,-0.002270464552566409,0.011843796819448471,-0.09017223864793777,0.08511755615472794,0.0,0.0,1.6427240371704102,-0.02,0.0,-0.03,0.0
18.95573700,18955737,2,0.04,0.52,353.46,-0.0019977546762675047,0.012060117907822132,-0.08606497943401337,0.060248855501413345,0.0,0.0,1.648923635482788,-0.02,0.0,-0.02,0.0
19.05575600,19055756,2,0.04,0.51,353.44,-0.0018820323748514056,0.012469315901398659,-0.08224601298570633,0.07731683552265167,0.0,0.0,1.6577205657958984,-0.02,0.0,-0.03,0.0
19.15576600,19155766,2,0.05,0.51,353.43,-0.0018921197624877095,0.011513174511492252,-0.07765401899814606,0.10204679518938065,0.0,0.0,1.6677005290985107,-0.02,0.0,-0.03,0.0
19.25579600,19255796,2,0.04,0.5,353.43,-0.0021601878106594086,0.011580543592572212,-0.074159175157547,0.08979407697916031,0.0,0.0,1.6754157543182373,-0.02,0.0,-0.03,0.0
19.35579000,19355790,2,0.04,0.5,353.42,-0.002235949272289872,0.01151446532458067,-0.07049283385276794,0.08148335665464401,0.0,0.0,1.6838510036468506,-0.02,0.0,-0.02,0.0
19.45577500,19455775,2,0.05,0.5,353.42,-0.0016925678355619311,0.01081028487533331,-0.0666763186454773,0.08365565538406372,0.0,0.0,1.691711187362671,-0.02,0.0,-0.03,0.0
19.55571900,19555719,2,0.04,0.5,353.43,-0.0006008282653056085,0.010651051998138428,-0.06296392530202866,0.08103147149085999,0.0,0.0,1.699756145477295,-0.02,0.0,-0.04,0.0
19.65572300,19655723,2,0.04,0.49,353.43,-2.3525823053205386e-05,0.010000263340771198,-0.05843908339738846,0.09051628410816193,0.0,0.0,1.709124207496643,-0.02,0.0,-0.04,0.0
19.75571800,19755718,2,0.05,0.49,353.44,8.23842638055794e-05,0.010043407790362835,-0.053237274289131165,0.12204575538635254,0.0,0.0,1.7214391231536865,-0.02,0.0,-0.03,0.0
19.85572900,19855729,2,0.05,0.48,353.43,0.0008640156593173742,0.009306218475103378,-0.047305624932050705,0.14332041144371033,0.0,0.0,1.7343177795410156,-0.02,0.0,-0.02,0.0
19.95574000,19955740,2,0.05,0.48,353.42,0.0016620568931102753,0.00922377035021782,-0.04337253421545029,0.12676851451396942,0.0,0.0,1.7454993724822998,-0.01,0.0,-0.03,0.0
20.05577100,20055771,2,0.05,0.47000000000000003,353.41,0.0028528477996587753,0.008149159140884876,-0.03939766809344292,0.1188221350312233,0.0,0.0,1.7574400901794434,-0.01,0.0,-0.02,0.0
20.15582000,20155820,2,0.05,0.47000000000000003,353.40000000000003,0.004155393689870834,0.008757033385336399,-0.035371679812669754,0.1196141317486763,0.0,0.0,1.7688404321670532,-0.01,0.0,-0.02,0.0
20.25577800,20255778,2,0.05,0.47000000000000003,353.39,0.005182039458304644,0.009134880267083645,-0.0322486087679863,0.09169335663318634,0.0,0.0,1.7772310972213745,-0.01,0.0,-0.02,0.0
20.35577800,20355778,2,0.05,0.47000000000000003,353.39,0.005602567922323942,0.009576213546097279,-0.030576806515455246,0.05278296768665314,0.0,0.0,1.7826881408691406,-0.01,0.0,-0.03,0.0
20.45572000,20455720,2,0.05,0.47000000000000003,353.39,0.006468156818300486,0.009673996828496456,-0.027914125472307205,0.05713487043976784,0.0,0.0,1.7903817892074585,-0.01,0.0,-0.02,0.0
20.55571300,20555713,2,0.05,0.47000000000000003,353.39,0.007474006153643131,0.009885907173156738,-0.024910101667046547,0.06720259040594101,0.0,0.0,1.7966746091842651,-0.01,0.0,-0.02,0.0
20.65571600,20655716,2,0.05,0.46,353.40000000000003,0.007886099629104137,0.01063456293195486,-0.02339663915336132,0.05456046760082245,0.0,0.0,1.8025870323181152,-0.01,0.0,-0.03,0.0
20.75575400,20755754,2,0.05,0.46,353.41,0.007583563216030598,0.010608450509607792,-0.02110324800014496,0.04822540655732155,0.0,0.0,1.8072701692581177,-0.01,0.0,-0.03,0.0
20.85574200,20855742,2,0.05,0.46,353.41,0.008533358573913574,0.011209524236619473,-0.019917329773306847,0.03707244619727135,0.0,0.0,1.811482548713684,-0.01,0.0,-0.03,0.0
20.95577300,20955773,2,0.05,0.45,353.43,0.009084521792829037,0.010939580388367176,-0.018703879788517952,0.028316371142864227,0.0,0.0,1.8143634796142578,-0.01,0.0,-0.03,0.0
21.05581100,21055811,2,0.05,0.45,353.43,0.009615128859877586,0.0107409143820405,-0.01920941099524498,0.0076926532201468945,0.0,0.0,1.8154549598693848,-0.01,0.0,-0.03,0.0
21.15578100,21155781,2,0.05,0.45,353.44,0.011045335792005062,0.009711266495287418,-0.02002769708633423,-0.0064167301170527935,0.0,0.0,1.815563678741455,-0.01,0.0,-0.03,0.0
21.25576500,21255765,2,0.05,0.44,353.44,0.011650389060378075,0.009718552231788635,-0.019303785637021065,0.00800296850502491,0.0,0.0,1.8176748752593994,-0.01,0.0,-0.03,0.0
21.35571300,21355713,2,0.05,0.44,353.44,0.012821121141314507,0.009238962084054947,-0.0179276205599308,0.03640636056661606,0.0,0.0,1.8213703632354736,-0.01,0.0,-0.03,0.0
21.45570600,21455706,2,0.06,0.44,353.44,0.014018021523952484,0.009261399507522583,-0.017041930928826332,0.03545752912759781,0.0,0.0,1.8238698244094849,-0.01,0.0,-0.03,0.0
21.55571500,21555715,2,0.06,0.43,353.43,0.014197559095919132,0.009502485394477844,-0.017452606931328773,0.004791201092302799,0.0,0.0,1.8236287832260132,-0.01,0.0,-0.02,0.0
21.65572300,21655723,2,0.05,0.43,353.41,0.014575579203665257,0.009458079002797604,-0.017935480922460556,-0.002332573989406228,0.0,0.0,1.8245660066604614,-0.01,0.0,-0.02,0.0
21.75573900,21755739,2,0.05,0.43,353.40000000000003,0.015435555949807167,0.009767637588083744,-0.017613010480999947,0.00968001876026392,0.0,0.0,1.8256547451019287,-0.01,0.0,-0.02,0.0
21.85577200,21855772,2,0.05,0.43,353.41,0.016395574435591698,0.009406264871358871,-0.01748877391219139,0.015513368882238865,0.0,0.0,1.8275316953659058,-0.01,0.0,-0.03,0.0
21.95579600,21955796,2,0.04,0.43,353.41,0.018021680414676666,0.008432039991021156,-0.017423201352357864,0.011012686416506767,0.0,0.0,1.8278201818466187,-0.01,0.0,-0.03,0.0
22.05578800,22055788,2,0.04,0.43,353.42,0.018773024901747704,0.008335042744874954,-0.0165928453207016,0.00831367913633585,0.0,0.0,1.8293143510818481,-0.01,0.0,-0.03,0.0
22.15576700,22155767,2,0.04,0.44,353.43,0.01924552023410797,0.008490503765642643,-0.015354065224528313,0.015860486775636673,0.0,0.0,1.8303860425949097,-0.01,0.0,-0.03,0.0
22.25571600,22255716,2,0.04,0.43,353.42,0.019287075847387314,0.007922790013253689,-0.016146251931786537,-0.01453719288110733,0.0,0.0,1.828238606452942,-0.01,0.0,-0.02,0.0
22.35571300,22355713,2,0.03,0.43,353.41,0.018597912043333054,0.008080018684267998,-0.01697619818150997,-0.041950955986976624,0.0,0.0,1.8247097730636597,-0.01,0.0,-0.02,0.0
22.45571000,22455710,2,0.03,0.43,353.41,0.018645957112312317,0.008696132339537144,-0.017410732805728912,-0.031275831162929535,0.0,0.0,1.8232355117797852,-0.01,0.0,-0.02,0.0
22.55573300,22555733,2,0.03,0.43,353.41,0.01877214014530182,0.009084771387279034,-0.018200956284999847,-0.02070792019367218,0.0,0.0,1.8209099769592285,-0.01,0.0,-0.03,0.0
22.65574700,22655747,2,0.02,0.44,353.42,0.019494138658046722,0.00818098895251751,-0.0186757855117321,-0.028110992163419724,0.0,0.0,1.8182847499847412,-0.01,0.0,-0.03,0.0
22.75575300,22755753,2,0.03,0.44,353.42,0.01981019414961338,0.007421581540256739,-0.019679958000779152,-0.026698609814047813,0.0,0.0,1.8158396482467651,-0.01,0.0,-0.02,0.0
22.85579500,22855795,2,0.03,0.44,353.42,0.020333310589194298,0.007307684049010277,-0.020670557394623756,-0.036306679248809814,0.0,0.0,1.8119378089904785,-0.01,0.0,-0.02,0.0
22.95578200,22955782,2,0.03,0.44,353.42,0.020980140194296837,0.007763511035591364,-0.022335441783070564,-0.0590791255235672,0.0,0.0,1.8059793710708618,-0.01,0.0,-0.02,0.0
23.05577500,23055775,2,0.02,0.44,353.42,0.021222960203886032,0.007118115201592445,-0.023250671103596687,-0.06905905157327652,0.0,0.0,1.7998937368392944,-0.01,0.0,-0.03,0.0
23.15570600,23155706,2,0.02,0.44,353.43,0.021388724446296692,0.006403402891010046,-0.024625640362501144,-0.06065169349312782,0.0,0.0,1.7946902513504028,-0.01,0.0,-0.03,0.0
23.25571200,23255712,2,0.02,0.44,353.45,0.02207873947918415,0.005504153203219175,-0.025362972170114517,-0.035676177591085434,0.0,0.0,1.7918148040771484,-0.01,0.0,-0.03,0.0
23.35571700,23355717,2,0.02,0.44,353.46,0.021958213299512863,0.004911594558507204,-0.026212789118289948,-0.015961796045303345,0.0,0.0,1.7897312641143799,-0.01,0.0,-0.04,0.0
23.45572800,23455728,2,0.02,0.44,353.49,0.022548511624336243,0.004478987772017717,-0.02773987129330635,-0.02342226728796959,0.0,0.0,1.7863786220550537,-0.01,0.0,-0.03,0.0
23.55572600,23555726,2,0.02,0.44,353.5,0.02280939556658268,0.0037973467260599136,-0.02835043892264366,-0.04808461293578148,0.0,0.0,1.7809473276138306,-0.01,0.0,-0.04,0.0
23.65577200,23655772,2,0.01,0.44,353.51,0.022135742008686066,0.0027901213616132736,-0.029230402782559395,-0.061651598662137985,0.0,0.0,1.7753729820251465,-0.01,0.0,-0.03,0.0
23.75580200,23755802,2,0.01,0.45,353.52,0.021700624376535416,0.002611839910969138,-0.03129657357931137,-0.07673247903585434,0.0,0.0,1.7678213119506836,-0.01,0.0,-0.04,0.0
23.85578100,23855781,2,0.01,0.45,353.52,0.021408775821328163,0.002212845953181386,-0.03312704712152481,-0.08541294932365417,0.0,0.0,1.760238528251648,-0.01,0.0,-0.04,0.0
23.95576700,23955767,2,0.01,0.45,353.53000000000003,0.021584227681159973,0.002115776762366295,-0.035174738615751266,-0.08947359770536423,0.0,0.0,1.7516820430755615,-0.01,0.0,-0.04,0.0
24.05571300,24055713,2,0.0,0.45,353.53000000000003,0.021337280049920082,0.0016114214668050408,-0.036267682909965515,-0.08870328962802887,0.0,0.0,1.743454933166504,-0.01,0.0,-0.04,0.0
24.15570700,24155707,2,0.0,0.45,353.52,0.02206536941230297,0.0012926249764859676,-0.03718200698494911,-0.06393325328826904,0.0,0.0,1.7379602193832397,-0.01,0.0,-0.03,0.0
24.25570600,24255706,2,0.0,0.45,353.52,0.021459992974996567,0.0012985201319679618,-0.03642413020133972,-0.019592925906181335,0.0,0.0,1.7361226081848145,-0.01,0.0,-0.04,0.0
24.35573300,24355733,2,0.0,0.45,353.51,0.0206610057502985,0.0020288312807679176,-0.03612858057022095,0.00682949461042881,0.0,0.0,1.7354543209075928,-0.01,0.0,-0.04,0.0
24.45574800,24455748,2,0.0,0.45,353.51,0.0199232567101717,0.0018937221029773355,-0.03498579561710358,0.009518520906567574,0.0,0.0,1.734970211982727,-0.01,0.0,-0.04,0.0
24.55576200,24555762,2,0.0,0.45,353.52,0.0197916179895401,0.0016110482392832637,-0.03540472686290741,-0.036275215446949005,0.0,0.0,1.7290934324264526,-0.01,0.0,-0.04,0.0
24.65578800,24655788,2,0.0,0.45,353.53000000000003,0.018807625398039818,0.00224656262435019,-0.037026070058345795,-0.09919589012861252,0.0,0.0,1.7193669080734253,-0.01,0.0,-0.04,0.0
24.75578400,24755784,2,0.0,0.45,353.54,0.018556838855147362,0.0022212276235222816,-0.039215099066495895,-0.11698175221681595,0.0,0.0,1.7098201513290405,-0.01,0.0,-0.04,0.0
24.85576500,24855765,2,0.01,0.46,353.56,0.018336249515414238,0.0021568755619227886,-0.04087517783045769,-0.10846346616744995,0.0,0.0,1.700371265411377,-0.01,0.0,-0.04,0.0
24.95570900,24955709,2,0.01,0.46,353.56,0.018258199095726013,0.0013656954979524016,-0.04051351174712181,-0.08607704192399979,0.0,0.0,1.692802906036377,-0.01,0.0,-0.04,0.0
25.05571300,25055713,2,0.01,0.46,353.56,0.01797732338309288,0.00211218255572021,-0.03965195640921593,-0.052893854677677155,0.0,0.0,1.6877723932266235,-0.01,0.0,-0.04,0.0
25.15570600,25155706,2,0.01,0.46,353.55,0.016684936359524727,0.0019198779482394457,-0.04001043736934662,-0.036811888217926025,0.0,0.0,1.683248519897461,-0.01,0.0,-0.03,0.0
25.25574300,25255743,2,0.0,0.46,353.53000000000003,0.016412055119872093,0.0023601786233484745,-0.04117346182465553,-0.051300350576639175,0.0,0.0,1.6768494844436646,-0.01,0.0,-0.03,0.0
25.35574600,25355746,2,0.01,0.46,353.51,0.015933776274323463,0.0032893407624214888,-0.04055633023381233,-0.06558530777692795,0.0,0.0,1.670237421989441,-0.01,0.0,-0.03,0.0
25.45579500,25455795,2,0.0,0.46,353.5,0.014814878813922405,0.0032342313788831234,-0.04131672903895378,-0.07955173403024673,0.0,0.0,1.662078857421875,-0.01,0.0,-0.03,0.0
25.55583800,25555838,2,0.0,0.46,353.5,0.014231841079890728,0.0033910791389644146,-0.0426911823451519,-0.09571234881877899,0.0,0.0,1.652893304824829,-0.01,0.0,-0.03,0.0
25.65579000,25655790,2,0.0,0.46,353.49,0.014083253219723701,0.0032718812581151724,-0.04387405887246132,-0.07993980497121811,0.0,0.0,1.6464520692825317,-0.01,0.0,-0.03,0.0
25.75577600,25755776,2,0.0,0.46,353.49,0.013490849174559116,0.0036257700994610786,-0.044695332646369934,-0.06956715881824493,0.0,0.0,1.638916015625,-0.01,0.0,-0.03,0.0
25.85571400,25855714,2,0.0,0.47000000000000003,353.5,0.0124733354896307,0.0030462725553661585,-0.04702739045023918,-0.08516910672187805,0.0,0.0,1.6301262378692627,-0.01,0.0,-0.03,0.0
25.95571700,25955717,2,0.0,0.47000000000000003,353.5,0.01253932248800993,0.003144574584439397,-0.04826055467128754,-0.0888964831829071,0.0,0.0,1.6216895580291748,-0.01,0.0,-0.03,0.0
26.05572400,26055724,2,0.0,0.48,353.5,0.012265888974070549,0.0023644084576517344,-0.050870366394519806,-0.0898979976773262,0.0,0.0,1.612854242324829,-0.01,0.0,-0.03,0.0
26.15573500,26155735,2,0.0,0.48,353.51,0.011362598277628422,0.0015015144599601626,-0.05216366425156593,-0.09776128828525543,0.0,0.0,1.6030391454696655,-0.01,0.0,-0.03,0.0
26.25573700,26255737,2,0.0,0.49,353.52,0.010645595379173756,0.0007327611092478037,-0.052625786513090134,-0.09280778467655182,0.0,0.0,1.594475269317627,-0.01,0.0,-0.03,0.0
26.35576100,26355761,2,0.0,0.49,353.52,0.009739111177623272,-0.00010148820729227737,-0.05331791937351227,-0.06325066834688187,0.0,0.0,1.588860034942627,-0.01,0.0,-0.03,0.0
26.45581100,26455811,2,0.0,0.48,353.53000000000003,0.009349863976240158,-0.0007704543531872332,-0.05434888228774071,-0.034486427903175354,0.0,0.0,1.5850034952163696,-0.01,0.0,-0.03,0.0
26.55579100,26555791,2,0.0,0.49,353.53000000000003,0.009859181009232998,-0.0014598224079236388,-0.05378694832324982,-0.022301416844129562,0.0,0.0,1.581659197807312,-0.01,0.0,-0.03,0.0
26.65579000,26655790,2,0.0,0.49,353.54,0.009046413004398346,-0.0017220809822902083,-0.05403692275285721,-0.04113481193780899,0.0,0.0,1.5758453607559204,-0.01,0.0,-0.04,0.0
26.75572700,26755727,2,0.0,0.49,353.55,0.009276513941586018,-0.0019110890571027994,-0.05467982962727547,-0.05460145324468613,0.0,0.0,1.5707454681396484,-0.01,0.0,-0.04,0.0
26.85571500,26855715,2,0.0,0.49,353.56,0.008979761973023415,-0.0032715958077460527,-0.05444434657692909,-0.031186288222670555,0.0,0.0,1.5683332681655884,-0.01,0.0,-0.03,0.0
26.95571700,26955717,2,0.0,0.49,353.55,0.0077943322248756886,-0.004308903124183416,-0.05541593208909035,-0.023174693807959557,0.0,0.0,1.5650856494903564,-0.01,0.0,-0.03,0.0
27.05574700,27055747,2,-0.01,0.49,353.55,0.007774402853101492,-0.0051996889524161816,-0.055767230689525604,-0.03142724558711052,0.0,0.0,1.5615582466125488,-0.01,0.0,-0.03,0.0
27.15573200,27155732,2,-0.01,0.49,353.54,0.006975275930017233,-0.007142454385757446,-0.05656047910451889,-0.04663547873497009,0.0,0.0,1.5563639402389526,-0.01,0.0,-0.03,0.0
27.25581000,27255810,2,-0.01,0.49,353.54,0.00716803316026926,-0.00794158224016428,-0.05627927556633949,-0.03446709364652634,0.0,0.0,1.5542802810668945,-0.01,0.0,-0.03,0.0
27.35582100,27355821,2,-0.01,0.49,353.55,0.007045806851238012,-0.009089892730116844,-0.05647275596857071,-0.007175153587013483,0.0,0.0,1.5529067516326904,-0.01,0.0,-0.03,0.0
27.45578800,27455788,2,-0.01,0.49,353.55,0.00731691112741828,-0.010753853246569633,-0.055068083107471466,0.005517055280506611,0.0,0.0,1.5526615381240845,-0.01,0.0,-0.03,0.0
27.55577600,27555776,2,-0.02,0.49,353.56,0.006831929553300142,-0.011956455186009407,-0.056020013988018036,0.004706510342657566,0.0,0.0,1.5523747205734253,-0.01,0.0,-0.03,0.0
27.65571300,27655713,2,-0.02,0.49,353.56,0.006435946561396122,-0.01316696684807539,-0.05630752444267273,0.005911945831030607,0.0,0.0,1.552621603012085,-0.01,0.0,-0.03,0.0
27.75570600,27755706,2,-0.02,0.48,353.56,0.006248908583074808,-0.014540396630764008,-0.05474400520324707,0.019747111946344376,0.0,0.0,1.5542352199554443,-0.01,0.0,-0.03,0.0
27.85570700,27855707,2,-0.02,0.49,353.55,0.005965101066976786,-0.015633679926395416,-0.053785599768161774,0.039796192198991776,0.0,0.0,1.5578092336654663,-0.01,0.0,-0.03,0.0
27.95572200,27955722,2,-0.03,0.49,353.54,0.005704195704311132,-0.01692785881459713,-0.052912596613168716,0.04204161837697029,0.0,0.0,1.5608898401260376,-0.01,0.0,-0.03,0.0
28.05574700,28055747,2,-0.03,0.49,353.54,0.005296839401125908,-0.01781424693763256,-0.05068330094218254,0.03722545877099037,0.0,0.0,1.5640569925308228,-0.01,0.0,-0.03,0.0
28.15580000,28155800,2,-0.03,0.5,353.53000000000003,0.005533323623239994,-0.018993843346834183,-0.049211449921131134,0.03210724517703056,0.0,0.0,1.5668469667434692,-0.01,0.0,-0.03,0.0
28.25579600,28255796,2,-0.03,0.49,353.53000000000003,0.005455829668790102,-0.0197836235165596,-0.04790695384144783,0.0067824930883944035,0.0,0.0,1.5670166015625,-0.01,0.0,-0.03,0.0
28.35578300,28355783,2,-0.04,0.49,353.52,0.005459046456962824,-0.020849674940109253,-0.04734592139720917,-0.02290325239300728,0.0,0.0,1.565140724182129,-0.01,0.0,-0.03,0.0
28.45577300,28455773,2,-0.05,0.49,353.51,0.005411086138337851,-0.021407300606369972,-0.04734189063310623,-0.029175318777561188,0.0,0.0,1.5634181499481201,-0.01,0.0,-0.03,0.0
28.55570600,28555706,2,-0.05,0.5,353.51,0.005043155048042536,-0.021961912512779236,-0.04627833887934685,-0.018387001007795334,0.0,0.0,1.5623054504394531,-0.01,0.0,-0.03,0.0
28.65571600,28655716,2,-0.05,0.5,353.51,0.00417158892378211,-0.022593338042497635,-0.04570882394909859,-0.016882333904504776,0.0,0.0,1.5606647729873657,-0.01,0.0,-0.03,0.0
28.75571400,28755714,2,-0.05,0.5,353.51,0.004037032835185528,-0.022990092635154724,-0.044463008642196655,-0.01510228868573904,0.0,0.0,1.5593215227127075,-0.01,0.0,-0.03,0.0
28.85574100,28855741,2,-0.05,0.5,353.51,0.00371454656124115,-0.02357897162437439,-0.0438956581056118,-0.022928833961486816,0.0,0.0,1.556779384613037,-0.01,0.0,-0.03,0.0
28.95575300,28955753,2,-0.05,0.5,353.52,0.0027271355502307415,-0.023576345294713974,-0.04302198812365532,-0.019746966660022736,0.0,0.0,1.55538809299469,-0.01,0.0,-0.03,0.0
29.05577100,29055771,2,-0.04,0.51,353.53000000000003,0.0017173049272969365,-0.023271283134818077,-0.04205842688679695,-0.011984270997345448,0.0,0.0,1.5540015697479248,-0.01,0.0,-0.03,0.0
29.15580700,29155807,2,-0.04,0.51,353.53000000000003,0.00047669673222117126,-0.022881973534822464,-0.041485343128442764,-0.021504724398255348,0.0,0.0,1.5516297817230225,-0.01,0.0,-0.03,0.0
29.25577800,29255778,2,-0.05,0.51,353.52,3.554817521944642e-05,-0.02266760542988777,-0.04019521176815033,-0.03496236354112625,0.0,0.0,1.548050880432129,-0.01,0.0,-0.03,0.0
29.35577300,29355773,2,-0.05,0.51,353.52,3.8596052036155015e-05,-0.022936822846531868,-0.03896097466349602,-0.046111177653074265,0.0,0.0,1.543834924697876,-0.01,0.0,-0.03,0.0
29.45570700,29455707,2,-0.05,0.52,353.52,-0.0012023948365822434,-0.022650141268968582,-0.03772793710231781,-0.03886014223098755,0.0,0.0,1.5406502485275269,-0.01,0.0,-0.03,0.0
29.55570700,29555707,2,-0.04,0.52,353.53000000000003,-0.0029450354631990194,-0.0216476209461689,-0.035441845655441284,-0.008862055838108063,0.0,0.0,1.540191411972046,-0.01,0.0,-0.03,0.0
29.65571300,29655713,2,-0.05,0.52,353.53000000000003,-0.004685110412538052,-0.021448779851198196,-0.03346836939454079,0.0215432308614254,0.0,0.0,1.5417646169662476,-0.01,0.0,-0.03,0.0
29.75573700,29755737,2,-0.05,0.52,353.53000000000003,-0.006432028952986002,-0.021564766764640808,-0.03033086098730564,0.06016616150736809,0.0,0.0,1.547062635421753,-0.01,0.0,-0.03,0.0
29.85574500,29855745,2,-0.05,0.52,353.52,-0.0076803709380328655,-0.021203462034463882,-0.027868151664733887,0.06668949127197266,0.0,0.0,1.5515140295028687,-0.01,0.0,-0.03,0.0
29.95577200,29955772,2,-0.05,0.52,353.52,-0.008430972695350647,-0.021001217886805534,-0.025830846279859543,0.030040619894862175,0.0,0.0,1.553186297416687,-0.01,0.0,-0.03,0.0
30.05580100,30055801,2,-0.05,0.53,353.52,-0.008889857679605484,-0.019772646948695183,-0.024918610230088234,0.018713485449552536,0.0,0.0,1.5556024312973022,-0.01,0.0,-0.03,0.0
30.15577500,30155775,2,-0.05,0.52,353.52,-0.009176637046039104,-0.01932128518819809,-0.023745890706777573,0.026362434029579163,0.0,0.0,1.5585476160049438,-0.01,0.0,-0.03,0.0
30.25573700,30255737,2,-0.04,0.52,353.53000000000003,-0.010171052999794483,-0.018910448998212814,-0.02151167020201683,0.02484334632754326,0.0,0.0,1.5607341527938843,-0.01,0.0,-0.03,0.0
30.35569800,30355698,2,-0.05,0.53,353.54,-0.010906606912612915,-0.018628664314746857,-0.021612903103232384,0.0066361636854708195,0.0,0.0,1.5612343549728394,-0.01,0.0,-0.03,0.0
30.45569800,30455698,2,-0.06,0.53,353.55,-0.011591721326112747,-0.018089301884174347,-0.020675230771303177,0.0019448143430054188,0.0,0.0,1.562134861946106,-0.01,0.0,-0.03,0.0
30.55569700,30555697,2,-0.05,0.54,353.56,-0.012547929771244526,-0.018133869394659996,-0.019770629703998566,0.003953748848289251,0.0,0.0,1.562593698501587,-0.01,0.0,-0.03,0.0
30.65571700,30655717,2,-0.05,0.54,353.57,-0.013632131740450859,-0.01802619732916355,-0.019377093762159348,-0.010846155695617199,0.0,0.0,1.5614882707595825,-0.01,0.0,-0.03,0.0
30.75573100,30755731,2,-0.05,0.54,353.58,-0.014371541328728199,-0.018091075122356415,-0.01914338208734989,-0.030620411038398743,0.0,0.0,1.5587348937988281,-0.01,0.0,-0.03,0.0
30.85575400,30855754,2,-0.05,0.54,353.59000000000003,-0.01618662290275097,-0.0180504210293293,-0.019426053389906883,-0.03796811029314995,0.0,0.0,1.5559135675430298,-0.01,0.0,-0.03,0.0
30.95578600,30955786,2,-0.05,0.54,353.61,-0.01627926528453827,-0.01740848831832409,-0.019170613959431648,-0.02454671822488308,0.0,0.0,1.5543018579483032,-0.01,0.0,-0.04,0.0
31.05577300,31055773,2,-0.05,0.54,353.62,-0.017041392624378204,-0.016962967813014984,-0.01826714538037777,-0.007266925182193518,0.0,0.0,1.5536948442459106,-0.01,0.0,-0.04,0.0
31.15573700,31155737,2,-0.06,0.54,353.63,-0.017865777015686035,-0.017029469832777977,-0.01692044362425804,0.0007676475215703249,0.0,0.0,1.5533232688903809,-0.01,0.0,-0.04,0.0
31.25569600,31255696,2,-0.06,0.54,353.63,-0.018403561785817146,-0.01753472350537777,-0.015628021210432053,0.0061899591237306595,0.0,0.0,1.5536372661590576,-0.01,0.0,-0.04,0.0
31.35570100,31355701,2,-0.06,0.54,353.64,-0.01988389901816845,-0.01690813899040222,-0.014391321688890457,0.005110061727464199,0.0,0.0,1.5535739660263062,-0.01,0.0,-0.04,0.0
31.45569600,31455696,2,-0.05,0.54,353.64,-0.021748045459389687,-0.01682017371058464,-0.012987101450562477,0.007878152653574944,0.0,0.0,1.554396152496338,-0.01,0.0,-0.04,0.0
31.55572400,31555724,2,-0.05,0.55,353.65000000000003,-0.022577635943889618,-0.015881789848208427,-0.011588523164391518,0.011007302440702915,0.0,0.0,1.5550696849822998,-0.01,0.0,-0.04,0.0
31.65573500,31655735,2,-0.05,0.54,353.66,-0.02201627567410469,-0.015445365570485592,-0.010166812688112259,0.002541717840358615,0.0,0.0,1.555092453956604,-0.01,0.0,-0.04,0.0
31.75576100,31755761,2,-0.04,0.54,353.67,-0.02220742404460907,-0.014281201176345348,-0.008434463292360306,0.005966546013951302,0.0,0.0,1.5559552907943726,-0.01,0.0,-0.04,0.0
31.85578800,31855788,2,-0.05,0.54,353.67,-0.022807713598012924,-0.014848962426185608,-0.0066055962815880775,0.00962983351200819,0.0,0.0,1.556623101234436,-0.01,0.0,-0.04,0.0
31.95577800,31955778,2,-0.04,0.54,353.67,-0.02357853762805462,-0.014469767920672894,-0.005275708623230457,-0.011001438833773136,0.0,0.0,1.5549911260604858,-0.01,0.0,-0.04,0.0
32.05574800,32055748,2,-0.04,0.54,353.67,-0.024689484387636185,-0.013813767582178116,-0.005269817542284727,-0.03345257043838501,0.0,0.0,1.5522013902664185,-0.01,0.0,-0.04,0.0
32.15569400,32155694,2,-0.05,0.55,353.67,-0.02423625811934471,-0.01372495573014021,-0.004624565597623587,-0.03684813529253006,0.0,0.0,1.5493955612182617,-0.01,0.0,-0.04,0.0
32.25569600,32255696,2,-0.04,0.55,353.68,-0.024955397471785545,-0.012979386374354362,-0.0040175216272473335,-0.03090525232255459,0.0,0.0,1.5469664335250854,-0.01,0.0,-0.04,0.0
32.35570300,32355703,2,-0.04,0.55,353.69,-0.02475292980670929,-0.012400991283357143,-0.004936362616717815,-0.03125092014670372,0.0,0.0,1.5440257787704468,-0.01,0.0,-0.04,0.0
32.45571300,32455713,2,-0.05,0.56,353.7,-0.025840062648057938,-0.011607539840042591,-0.005404855590313673,-0.04899583384394646,0.0,0.0,1.539035439491272,-0.01,0.0,-0.04,0.0
32.55573300,32555733,2,-0.05,0.56,353.71,-0.025573410093784332,-0.011802115477621555,-0.00533220823854208,-0.06319862604141235,0.0,0.0,1.5333770513534546,-0.01,0.0,-0.04,0.0
32.65575700,32655757,2,-0.05,0.56,353.71,-0.027132663875818253,-0.01166178286075592,-0.004169565625488758,-0.04569417983293533,0.0,0.0,1.5299080610275269,-0.01,0.0,-0.04,0.0
32.75578200,32755782,2,-0.05,0.56,353.72,-0.02748582325875759,-0.011425378732383251,-0.0034046326763927937,-0.023008372634649277,0.0,0.0,1.5275317430496216,-0.01,0.0,-0.04,0.0
32.85576800,32855768,2,-0.05,0.56,353.72,-0.027658477425575256,-0.011218748055398464,-0.002733084373176098,-0.015343029983341694,0.0,0.0,1.5255874395370483,-0.01,0.0,-0.04,0.0
32.95574800,32955748,2,-0.05,0.56,353.72,-0.027820775285363197,-0.011643130332231522,-0.002663217717781663,-0.018208367750048637,0.0,0.0,1.5232151746749878,-0.01,0.0,-0.04,0.0
33.05570200,33055702,2,-0.06,0.56,353.73,-0.02817968837916851,-0.01132401917129755,-0.0022639974486082792,-0.022717654705047607,0.0,0.0,1.5208566188812256,-0.01,0.0,-0.04,0.0
33.15569500,33155695,2,-0.06,0.56,353.75,-0.027925413101911545,-0.011947658844292164,-0.0019913152791559696,-0.018129903823137283,0.0,0.0,1.5191413164138794,-0.01,0.0,-0.04,0.0
33.25569600,33255696,2,-0.07,0.56,353.76,-0.027895141392946243,-0.012717784382402897,-0.0014252341352403164,-0.02127247303724289,0.0,0.0,1.516638994216919,-0.01,0.0,-0.04,0.0
33.35572700,33355727,2,-0.06,0.56,353.76,-0.029103443026542664,-0.013124107383191586,-0.0012432896764948964,-0.03780891373753548,0.0,0.0,1.5127143859863281,-0.01,0.0,-0.04,0.0
33.45569400,33455694,2,-0.07,0.5700000000000001,353.77,-0.029772577807307243,-0.014248907566070557,-0.0017969266045838594,-0.05125406011939049,0.0,0.0,1.5080406665802002,-0.01,0.0,-0.04,0.0
33.55575200,33555752,2,-0.07,0.56,353.77,-0.03005092591047287,-0.01509980671107769,-0.0017808704869821668,-0.03607245534658432,0.0,0.0,1.5055618286132812,-0.01,0.0,-0.04,0.0
33.65578300,33655783,2,-0.07,0.5700000000000001,353.77,-0.02993122860789299,-0.01628080941736698,-0.001249115914106369,0.0004535136104095727,0.0,0.0,1.5058289766311646,-0.01,0.0,-0.04,0.0
33.75577000,33755770,2,-0.08,0.5700000000000001,353.76,-0.02969408966600895,-0.017054280266165733,-0.0012624608352780342,0.028834054246544838,0.0,0.0,1.5080370903015137,-0.01,0.0,-0.04,0.0
33.85574800,33855748,2,-0.08,0.56,353.76,-0.030551748350262642,-0.01817917451262474,0.00024813562049530447,0.045878466218709946,0.0,0.0,1.5114792585372925,-0.01,0.0,-0.04,0.0
33.95569800,33955698,2,-0.07,0.56,353.75,-0.030819520354270935,-0.018636854365468025,0.00162831402849406,0.04446575045585632,0.0,0.0,1.5146868228912354,-0.01,0.0,-0.04,0.0
34.05569700,34055697,2,-0.08,0.56,353.74,-0.03081061877310276,-0.01949327252805233,0.0022950125858187675,0.028294043615460396,0.0,0.0,1.5166399478912354,-0.01,0.0,-0.04,0.0
34.15569600,34155696,2,-0.08,0.56,353.73,-0.029988083988428116,-0.018747132271528244,0.002105769934132695,0.015367145650088787,0.0,0.0,1.5182212591171265,-0.01,0.0,-0.04,0.0
34.25572300,34255723,2,-0.08,0.56,353.72,-0.029826797544956207,-0.019924765452742577,0.0026244360487908125,0.0015311051392927766,0.0,0.0,1.5181519985198975,-0.01,0.0,-0.04,0.0
34.35573300,34355733,2,-0.08,0.56,353.71,-0.030006233602762222,-0.020731668919324875,0.0032494417391717434,-0.005197896156460047,0.0,0.0,1.518438696861267,-0.01,0.0,-0.04,0.0
34.45575900,34455759,2,-0.08,0.56,353.7,-0.030328841879963875,-0.021434281021356583,0.004508171696215868,0.007748131640255451,0.0,0.0,1.5196545124053955,-0.01,0.0,-0.04,0.0
34.55577900,34555779,2,-0.08,0.55,353.7,-0.03098243474960327,-0.021342717111110687,0.006187257822602987,0.01179358921945095,0.0,0.0,1.5206022262573242,-0.01,0.0,-0.04,0.0
34.65577000,34655770,2,-0.08,0.55,353.69,-0.030787596479058266,-0.02122858539223671,0.007459093350917101,0.005302706267684698,0.0,0.0,1.5209342241287231,-0.01,0.0,-0.04,0.0
34.75577500,34755775,2,-0.07,0.54,353.69,-0.030262157320976257,-0.021086450666189194,0.008337166160345078,-0.009271732531487942,0.0,0.0,1.519802212715149,-0.01,0.0,-0.04,0.0
34.85569600,34855696,2,-0.07,0.54,353.68,-0.029586605727672577,-0.021927891299128532,0.008224353194236755,-0.023236801847815514,0.0,0.0,1.5180184841156006,-0.01,0.0,-0.04,0.0
34.95570800,34955708,2,-0.07,0.54,353.67,-0.028544258326292038,-0.022657012566924095,0.009119915775954723,-0.018693309277296066,0.0,0.0,1.5168992280960083,-0.01,0.0,-0.04,0.0
35.05570500,35055705,2,-0.08,0.54,353.67,-0.028340021148324013,-0.02222098782658577,0.00971232634037733,-0.016957297921180725,0.0,0.0,1.5151888132095337,-0.01,0.0,-0.03,0.0
35.15570800,35155708,2,-0.08,0.54,353.66,-0.027927393093705177,-0.02224474586546421,0.009743127040565014,-0.020803730934858322,0.0,0.0,1.5134296417236328,-0.01,0.0,-0.03,0.0
35.25572400,35255724,2,-0.08,0.53,353.67,-0.026329530403017998,-0.02185230888426304,0.011175733990967274,-0.00026264184270985425,0.0,0.0,1.5140806436538696,-0.01,0.0,-0.04,0.0
35.35576600,35355766,2,-0.07,0.54,353.67,-0.0253281369805336,-0.02279355563223362,0.011784193105995655,0.024273226037621498,0.0,0.0,1.516168475151062,-0.01,0.0,-0.04,0.0
35.45578000,35455780,2,-0.08,0.54,353.67,-0.024641547352075577,-0.0241069458425045,0.013572096824645996,0.03459416702389717,0.0,0.0,1.5188689231872559,-0.01,0.0,-0.04,0.0
35.55577100,35555771,2,-0.07,0.54,353.68,-0.024516288191080093,-0.024817293509840965,0.01458991039544344,0.04291853308677673,0.0,0.0,1.52264404296875,-0.01,0.0,-0.04,0.0
35.65576200,35655762,2,-0.07,0.54,353.68,-0.023986706510186195,-0.026267871260643005,0.01486374530941248,0.029571566730737686,0.0,0.0,1.5243091583251953,-0.01,0.0,-0.03,0.0
35.75569500,35755695,2,-0.08,0.54,353.68,-0.023593658581376076,-0.026904793456196785,0.01411170233041048,-0.01685306429862976,0.0,0.0,1.5220643281936646,-0.01,0.0,-0.04,0.0
35.85569600,35855696,2,-0.08,0.54,353.69,-0.022746240720152855,-0.027342161163687706,0.014030885882675648,-0.048925772309303284,0.0,0.0,1.5183706283569336,-0.01,0.0,-0.04,0.0
35.95569900,35955699,2,-0.08,0.55,353.69,-0.022765085101127625,-0.027483705431222916,0.014255382120609283,-0.03604731336236,0.0,0.0,1.516687035560608,-0.01,0.0,-0.04,0.0
36.05572500,36055725,2,-0.08,0.55,353.69,-0.02305283024907112,-0.027624182403087616,0.014903245493769646,-0.0060622296296060085,0.0,0.0,1.5166668891906738,-0.01,0.0,-0.04,0.0
36.15572100,36155721,2,-0.07,0.55,353.69,-0.022845067083835602,-0.027151869609951973,0.0143332714214921,-0.010029243305325508,0.0,0.0,1.5148282051086426,-0.01,0.0,-0.03,0.0
36.25575600,36255756,2,-0.07,0.55,353.69,-0.022146474570035934,-0.02715183235704899,0.0133475037291646,-0.028345052152872086,0.0,0.0,1.5121777057647705,-0.01,0.0,-0.03,0.0
36.35579300,36355793,2,-0.07,0.55,353.7,-0.02177526243031025,-0.026715314015746117,0.013152013532817364,-0.022195307537913322,0.0,0.0,1.5106678009033203,-0.01,0.0,-0.03,0.0
36.45577400,36455774,2,-0.07,0.55,353.69,-0.022083088755607605,-0.026171250268816948,0.01451827585697174,0.0030004631262272596,0.0,0.0,1.5113617181777954,-0.01,0.0,-0.03,0.0
36.55574700,36555747,2,-0.06,0.55,353.69,-0.022112354636192322,-0.025955988094210625,0.015798168256878853,0.022723810747265816,0.0,0.0,1.513010025024414,-0.01,0.0,-0.03,0.0
36.65570300,36655703,2,-0.07,0.55,353.69,-0.022828979417681694,-0.025732465088367462,0.01615956798195839,0.03324456140398979,0.0,0.0,1.5158820152282715,-0.01,0.0,-0.03,0.0
36.75569800,36755698,2,-0.07,0.54,353.69,-0.023083997890353203,-0.02537408284842968,0.017347536981105804,0.0339595302939415,0.0,0.0,1.5181798934936523,-0.01,0.0,-0.03,0.0
36.85569600,36855696,2,-0.07,0.55,353.7,-0.023541925475001335,-0.0253265630453825,0.018754001706838608,0.010447721928358078,0.0,0.0,1.5183767080307007,-0.01,0.0,-0.03,0.0
36.95571000,36955710,2,-0.08,0.55,353.7,-0.02432863786816597,-0.02581147663295269,0.019007503986358643,-0.0014526268932968378,0.0,0.0,1.5188919305801392,-0.01,0.0,-0.03,0.0
37.05573300,37055733,2,-0.07,0.55,353.7,-0.024380892515182495,-0.024594340473413467,0.019947487860918045,0.003786796238273382,0.0,0.0,1.519572138786316,-0.01,0.0,-0.03,0.0
37.15576700,37155767,2,-0.07,0.54,353.69,-0.024079591035842896,-0.023215297609567642,0.021666916087269783,0.013141500763595104,0.0,0.0,1.52129328250885,-0.01,0.0,-0.03,0.0
37.25577600,37255776,2,-0.08,0.54,353.69,-0.023827528581023216,-0.02416909486055374,0.023736976087093353,0.044403526932001114,0.0,0.0,1.5261571407318115,-0.01,0.0,-0.03,0.0
37.35577400,37355774,2,-0.08,0.54,353.7,-0.02360481582581997,-0.0233964491635561,0.025783702731132507,0.06710301339626312,0.0,0.0,1.53176748752594,-0.01,0.0,-0.04,0.0
37.45575800,37455758,2,-0.07,0.54,353.71,-0.023325936868786812,-0.022817594930529594,0.027266675606369972,0.06288372725248337,0.0,0.0,1.5370479822158813,-0.01,0.0,-0.04,0.0
37.55569600,37555696,2,-0.08,0.54,353.71,-0.02280297502875328,-0.022609122097492218,0.028936991468071938,0.06342948973178864,0.0,0.0,1.5430264472961426,-0.01,0.0,-0.04,0.0
37.65569800,37655698,2,-0.08,0.54,353.72,-0.02286318503320217,-0.022604888305068016,0.030976830050349236,0.049591269344091415,0.0,0.0,1.546921968460083,-0.01,0.0,-0.04,0.0
37.75569600,37755696,2,-0.08,0.55,353.72,-0.023137684911489487,-0.022192930802702904,0.033286549150943756,0.039641592651605606,0.0,0.0,1.5514603853225708,-0.01,0.0,-0.04,0.0
37.85571700,37855717,2,-0.08,0.55,353.73,-0.023924855515360832,-0.02145860344171524,0.03468850627541542,0.044829197227954865,0.0,0.0,1.5559303760528564,-0.01,0.0,-0.04,0.0
37.95572100,37955721,2,-0.08,0.55,353.74,-0.023502463474869728,-0.0214992742985487,0.0353686548769474,0.031114809215068817,0.0,0.0,1.5589134693145752,-0.01,0.0,-0.04,0.0
38.05575700,38055757,2,-0.09,0.55,353.74,-0.022646095603704453,-0.02221708372235298,0.03599455580115318,0.011883042752742767,0.0,0.0,1.5601986646652222,-0.01,0.0,-0.04,0.0
38.15580100,38155801,2,-0.09,0.55,353.74,-0.023468807339668274,-0.02185475453734398,0.036150913685560226,0.020809730514883995,0.0,0.0,1.5638307332992554,-0.02,0.0,-0.04,0.0
38.25576900,38255769,2,-0.09,0.55,353.74,-0.022737547755241394,-0.02117815986275673,0.03699544072151184,0.03627714142203331,0.0,0.0,1.5670757293701172,-0.02,0.0,-0.04,0.0
38.35575800,38355758,2,-0.09,0.55,353.74,-0.02252264879643917,-0.02178480103611946,0.037303049117326736,0.026544874534010887,0.0,0.0,1.5696547031402588,-0.02,0.0,-0.03,0.0
38.45571100,38455711,2,-0.09,0.56,353.74,-0.02251031994819641,-0.02146417275071144,0.03886491432785988,0.028986075893044472,0.0,0.0,1.572750210762024,-0.02,0.0,-0.03,0.0
38.55569500,38555695,2,-0.09,0.56,353.74,-0.022496191784739494,-0.021703146398067474,0.04039635509252548,0.038284189999103546,0.0,0.0,1.5767042636871338,-0.02,0.0,-0.03,0.0
38.65570200,38655702,2,-0.1,0.56,353.74,-0.022840281948447227,-0.022146783769130707,0.04129481315612793,0.05144829303026199,0.0,0.0,1.5818860530853271,-0.02,0.0,-0.03,0.0
38.75572900,38755729,2,-0.1,0.55,353.74,-0.024110818281769753,-0.023087769746780396,0.04180512949824333,0.0476054884493351,0.0,0.0,1.5856903791427612,-0.02,0.0,-0.04,0.0
38.85573300,38855733,2,-0.1,0.55,353.74,-0.0238412506878376,-0.024345887824892998,0.041792307049036026,0.02787051349878311,0.0,0.0,1.5883935689926147,-0.02,0.0,-0.04,0.0
38.95576200,38955762,2,-0.1,0.55,353.74,-0.0234846081584692,-0.024741072207689285,0.0432419553399086,0.039772771298885345,0.0,0.0,1.5932419300079346,-0.02,0.0,-0.03,0.0
39.05578300,39055783,2,-0.11,0.55,353.74,-0.02337097004055977,-0.026379331946372986,0.044397901743650436,0.034157995134592056,0.0,0.0,1.5956944227218628,-0.02,0.0,-0.03,0.0
39.15577200,39155772,2,-0.11,0.55,353.73,-0.023817989975214005,-0.02756100706756115,0.04493344575166702,0.015862517058849335,0.0,0.0,1.5975841283798218,-0.02,0.0,-0.03,0.0
39.25573600,39255736,2,-0.11,0.55,353.73,-0.0238017737865448,-0.028608182445168495,0.0450948029756546,0.024720115587115288,0.0,0.0,1.6009678840637207,-0.02,0.0,-0.03,0.0
39.35570100,39355701,2,-0.12,0.55,353.72,-0.0237430352717638,-0.029198843985795975,0.04548488184809685,0.0397646501660347,0.0,0.0,1.6050796508789062,-0.02,0.0,-0.03,0.0
39.45569500,39455695,2,-0.12,0.55,353.72,-0.024085598066449165,-0.03047628328204155,0.045946840196847916,0.0551924966275692,0.0,0.0,1.610629677772522,-0.02,0.0,-0.03,0.0
39.55569500,39555695,2,-0.12,0.56,353.73,-0.024241575971245766,-0.03084053471684456,0.047330211848020554,0.0724666491150856,0.0,0.0,1.6174743175506592,-0.02,0.0,-0.03,0.0
39.65571700,39655717,2,-0.12,0.56,353.72,-0.02479141764342785,-0.03126315400004387,0.048246119171381,0.07124368101358414,0.0,0.0,1.6235672235488892,-0.02,0.0,-0.03,0.0
39.75572000,39755720,2,-0.12,0.56,353.72,-0.024158785119652748,-0.031809546053409576,0.04913538321852684,0.045778192579746246,0.0,0.0,1.6272608041763306,-0.02,0.0,-0.03,0.0
39.85575900,39855759,2,-0.13,0.56,353.72,-0.024955766275525093,-0.031714051961898804,0.050080958753824234,0.040033452212810516,0.0,0.0,1.6320438385009766,-0.02,0.0,-0.03,0.0
39.95577700,39955777,2,-0.13,0.56,353.71,-0.025192685425281525,-0.03153376281261444,0.05146148428320885,0.03634815290570259,0.0,0.0,1.6354674100875854,-0.02,0.0,-0.03,0.0
40.05577000,40055770,2,-0.13,0.56,353.72,-0.02489941380918026,-0.03245311602950096,0.05182966589927673,0.014094841666519642,0.0,0.0,1.636920690536499,-0.02,0.0,-0.03,0.0
40.15576200,40155762,2,-0.13,0.5700000000000001,353.73,-0.02449624054133892,-0.03284585475921631,0.05077686533331871,-0.020595964044332504,0.0,0.0,1.6350646018981934,-0.02,0.0,-0.03,0.0
40.25569400,40255694,2,-0.13,0.5700000000000001,353.74,-0.025268251076340675,-0.03288092836737633,0.04946136474609375,-0.04728349298238754,0.0,0.0,1.631658673286438,-0.02,0.0,-0.03,0.0
40.35569900,40355699,2,-0.13,0.5700000000000001,353.74,-0.025982672348618507,-0.032774198800325394,0.049008049070835114,-0.03681531921029091,0.0,0.0,1.629916787147522,-0.02,0.0,-0.03,0.0
40.45570000,40455700,2,-0.13,0.5700000000000001,353.76,-0.025818558409810066,-0.03332039341330528,0.049020666629076004,0.0006795604131184518,0.0,0.0,1.6311399936676025,-0.02,0.0,-0.03,0.0
40.55573000,40555730,2,-0.13,0.5700000000000001,353.76,-0.02573484741151333,-0.035010337829589844,0.049332283437252045,0.025016825646162033,0.0,0.0,1.633090615272522,-0.02,0.0,-0.03,0.0
40.65571800,40655718,2,-0.14,0.5700000000000001,353.77,-0.026481442153453827,-0.03642179071903229,0.04855772852897644,0.03250792250037193,0.0,0.0,1.6357591152191162,-0.02,0.0,-0.03,0.0
40.75575900,40755759,2,-0.14,0.5700000000000001,353.78000000000003,-0.026721542701125145,-0.03687971457839012,0.048291124403476715,0.03402954339981079,0.0,0.0,1.6384365558624268,-0.02,0.0,-0.03,0.0
40.85577600,40855776,2,-0.15,0.5700000000000001,353.79,-0.027067499235272408,-0.03805549442768097,0.04823428392410278,0.021403227001428604,0.0,0.0,1.639808177947998,-0.02,0.0,-0.03,0.0
40.95576800,40955768,2,-0.15,0.5700000000000001,353.8,-0.02784123457968235,-0.03898749127984047,0.04738661274313927,-0.009109747596085072,0.0,0.0,1.6384520530700684,-0.02,0.0,-0.03,0.0
41.05575900,41055759,2,-0.15,0.5700000000000001,353.8,-0.027865266427397728,-0.040274836122989655,0.04626749828457832,-0.025744935497641563,0.0,0.0,1.6369074583053589,-0.02,0.0,-0.03,0.0
41.15569300,41155693,2,-0.15,0.5700000000000001,353.8,-0.028337309136986732,-0.041345447301864624,0.04618042707443237,-0.010634729638695717,0.0,0.0,1.6370463371276855,-0.02,0.0,-0.03,0.0
41.25569600,41255696,2,-0.15,0.5700000000000001,353.8,-0.02865019626915455,-0.041836176067590714,0.046151481568813324,0.006526337470859289,0.0,0.0,1.6378446817398071,-0.02,0.0,-0.03,0.0
41.35569900,41355699,2,-0.15,0.5700000000000001,353.79,-0.028515683487057686,-0.04266928508877754,0.044700928032398224,0.010906372219324112,0.0,0.0,1.6387739181518555,-0.02,0.0,-0.03,0.0
41.45572300,41455723,2,-0.15,0.5700000000000001,353.78000000000003,-0.028281746432185173,-0.04350212961435318,0.044305648654699326,0.013921568170189857,0.0,0.0,1.6399962902069092,-0.02,0.0,-0.03,0.0
41.55572000,41555720,2,-0.15,0.5700000000000001,353.77,-0.028996676206588745,-0.0441749207675457,0.044704586267471313,0.010750092566013336,0.0,0.0,1.6406731605529785,-0.02,0.0,-0.03,0.0
41.65577400,41655774,2,-0.14,0.5700000000000001,353.76,-0.02942519448697567,-0.04438250511884689,0.045598018914461136,0.015120092779397964,0.0,0.0,1.6423903703689575,-0.02,0.0,-0.03,0.0
41.75577900,41755779,2,-0.15,0.5700000000000001,353.76,-0.029571866616606712,-0.044103119522333145,0.04714536666870117,0.04726288840174675,0.0,0.0,1.6476457118988037,-0.02,0.0,-0.03,0.0
41.85577200,41855772,2,-0.15,0.5700000000000001,353.76,-0.030494187027215958,-0.044366490095853806,0.047912560403347015,0.07287488877773285,0.0,0.0,1.654013752937317,-0.02,0.0,-0.03,0.0
41.95576800,41955768,2,-0.14,0.5700000000000001,353.76,-0.031359702348709106,-0.04448534920811653,0.048563193529844284,0.04189120978116989,0.0,0.0,1.6559834480285645,-0.02,0.0,-0.03,0.0
42.05570000,42055700,2,-0.15,0.5700000000000001,353.76,-0.031493090093135834,-0.044980764389038086,0.04800395295023918,-0.012106308713555336,0.0,0.0,1.6545617580413818,-0.02,0.0,-0.03,0.0
42.15570100,42155701,2,-0.15,0.5700000000000001,353.77,-0.030574798583984375,-0.04511178284883499,0.04744242504239082,-0.03609117120504379,0.0,0.0,1.652397871017456,-0.02,0.0,-0.03,0.0
42.25569900,42255699,2,-0.15,0.5700000000000001,353.77,-0.030449122190475464,-0.044705551117658615,0.04729244112968445,-0.024299241602420807,0.0,0.0,1.651724100112915,-0.02,0.0,-0.03,0.0
42.35571300,42355713,2,-0.16,0.56,353.77,-0.03060639277100563,-0.04502684250473976,0.04804243519902229,-0.009937386028468609,0.0,0.0,1.651147723197937,-0.02,0.0,-0.03,0.0
42.45574000,42455740,2,-0.16,0.56,353.77,-0.030699241906404495,-0.045414943248033524,0.047168660908937454,-0.017072372138500214,0.0,0.0,1.649320363998413,-0.02,0.0,-0.03,0.0
42.55575800,42555758,2,-0.15,0.55,353.77,-0.03077724762260914,-0.045417964458465576,0.04717886075377464,-0.019850701093673706,0.0,0.0,1.6477863788604736,-0.02,0.0,-0.03,0.0
42.65578700,42655787,2,-0.15,0.55,353.76,-0.03135572373867035,-0.04608084633946419,0.046805933117866516,-0.019726846367120743,0.0,0.0,1.6459131240844727,-0.02,0.0,-0.03,0.0
42.75577900,42755779,2,-0.16,0.55,353.75,-0.03085489012300968,-0.04654935002326965,0.047023605555295944,-0.03467896953225136,0.0,0.0,1.6422226428985596,-0.02,0.0,-0.03,0.0
42.85573600,42855736,2,-0.15,0.55,353.74,-0.03049366921186447,-0.04588337615132332,0.04633796960115433,-0.046584710478782654,0.0,0.0,1.6382287740707397,-0.02,0.0,-0.03,0.0
42.95569700,42955697,2,-0.16,0.55,353.72,-0.02966540865600109,-0.045981600880622864,0.04550887271761894,-0.042035236954689026,0.0,0.0,1.6348216533660889,-0.02,0.0,-0.03,0.0
43.05570200,43055702,2,-0.15,0.54,353.71,-0.03036564774811268,-0.045771948993206024,0.044724538922309875,-0.03009878285229206,0.0,0.0,1.632299780845642,-0.02,0.0,-0.03,0.0
43.15569400,43155694,2,-0.14,0.54,353.71,-0.029936961829662323,-0.04676826298236847,0.044866304844617844,-0.015766944736242294,0.0,0.0,1.6307982206344604,-0.02,0.0,-0.03,0.0
43.25573100,43255731,2,-0.14,0.54,353.72,-0.02957800030708313,-0.048130664974451065,0.0436684787273407,-0.013047564774751663,0.0,0.0,1.6291229724884033,-0.02,0.0,-0.03,0.0
43.35574500,43355745,2,-0.14,0.54,353.72,-0.028822312131524086,-0.04797716066241264,0.042265649884939194,-0.01616254448890686,0.0,0.0,1.6273115873336792,-0.02,0.0,-0.03,0.0
43.45576000,43455760,2,-0.14,0.54,353.72,-0.028369689360260963,-0.04787319898605347,0.04073553904891014,-0.012263205833733082,0.0,0.0,1.626251220703125,-0.02,0.0,-0.03,0.0
43.55580600,43555806,2,-0.13,0.54,353.73,-0.027828866615891457,-0.04751431941986084,0.04058154672384262,0.0031008778605610132,0.0,0.0,1.6266939640045166,-0.02,0.0,-0.03,0.0
43.65577200,43655772,2,-0.13,0.53,353.73,-0.02753039076924324,-0.04783722758293152,0.040414780378341675,0.0002054818905889988,0.0,0.0,1.62575364112854,-0.02,0.0,-0.03,0.0
43.75576000,43755760,2,-0.13,0.53,353.72,-0.02714705280959606,-0.048189856112003326,0.03987795114517212,-0.00990984309464693,0.0,0.0,1.6247776746749878,-0.02,0.0,-0.03,0.0
43.85570000,43855700,2,-0.13,0.53,353.72,-0.025941455736756325,-0.047506194561719894,0.03974664583802223,-0.015338276512920856,0.0,0.0,1.6231740713119507,-0.02,0.0,-0.03,0.0
43.95569500,43955695,2,-0.13,0.53,353.72,-0.02605545148253441,-0.047310661524534225,0.03886790573596954,-0.015905337408185005,0.0,0.0,1.6220663785934448,-0.02,0.0,-0.03,0.0
44.05569900,44055699,2,-0.14,0.54,353.73,-0.02560540661215782,-0.04711528494954109,0.040633123368024826,-0.007447923067957163,0.0,0.0,1.6214356422424316,-0.02,0.0,-0.03,0.0
44.15571700,44155717,2,-0.13,0.54,353.73,-0.025229288265109062,-0.047634098678827286,0.03964686393737793,-0.007879495620727539,0.0,0.0,1.620584487915039,-0.02,0.0,-0.03,0.0
44.25573900,44255739,2,-0.13,0.54,353.73,-0.023953868076205254,-0.046801719814538956,0.038206350058317184,-0.028120514005422592,0.0,0.0,1.6173208951950073,-0.02,0.0,-0.03,0.0
44.35576300,44355763,2,-0.13,0.54,353.73,-0.02312801033258438,-0.04652699455618858,0.037919458001852036,-0.04551738128066063,0.0,0.0,1.6132413148880005,-0.02,0.0,-0.03,0.0
