timestamp,TimeUS,C,Q1,Q2,Q3,Q4
9.45578500,9455785,2,1.0,0.0,0.0,0.0
9.55577300,9555773,2,1.0,0.0,0.0,0.0
9.65571300,9655713,2,1.0,0.0,0.0,0.0
9.75572100,9755721,2,1.0,0.0,0.0,0.0
9.85573900,9855739,2,1.0,0.0,0.0,0.0
9.95574100,9955741,2,1.0,0.0,0.0,0.0
10.05573800,10055738,2,1.0,0.0,0.0,0.0
10.15578800,10155788,2,1.0,0.0,0.0,0.0
10.25579800,10255798,2,1.0,0.0,0.0,0.0
10.35578200,10355782,2,1.0,0.0,0.0,0.0
10.45578300,10455783,2,0.9999850392341614,-5.5603726650588214e-05,0.005474912468343973,-4.367414476291742e-06
10.55571200,10555712,2,0.9999851584434509,-3.0957974672674027e-07,0.005451318342238665,-2.768554986687377e-05
10.65572200,10655722,2,0.9999850392341614,4.872871431871317e-05,0.005472795572131872,-7.691062637604773e-05
10.75572500,10755725,2,0.9999847412109375,8.38406485854648e-05,0.005518234334886074,-8.078626706264913e-05
10.85574300,10855743,2,0.9999849796295166,0.0001046693287207745,0.005477513186633587,-0.00014494887727778405
10.95573200,10955732,2,0.9999849200248718,6.114705320214853e-05,0.0054935007356107235,-0.00016023516946006566
11.05577100,11055771,2,0.999984860420227,8.7287015048787e-05,0.005505430977791548,-0.00012579008762259036
11.15579400,11155794,2,0.9999850988388062,0.00010586974531179294,0.005461310967803001,-0.00011654642003122717
11.25577700,11255777,2,0.9999852180480957,0.0001206133674713783,0.005430076736956835,-0.00015445705503225327
11.35577900,11355779,2,0.9999856948852539,0.00012144460197305307,0.00534309446811676,-0.00018309535516891629
11.45571800,11455718,2,0.9999860525131226,0.00014201847079675645,0.005278722383081913,-0.00019286159658804536
11.55571100,11555711,2,0.9999865889549255,0.00015997706213966012,0.00516750430688262,-0.00020422005036380142
11.65571700,11655717,2,0.9999870657920837,0.00016762228915467858,0.005075567867606878,-0.0001733204844640568
11.75574100,11755741,2,0.9999874830245972,0.00015726365381851792,0.004998380318284035,-0.00023275332932826132
11.85573000,11855730,2,0.9999879002571106,0.00014354632003232837,0.004911907948553562,-0.00023084583517629653
11.95576900,11955769,2,0.9987685680389404,0.0002862419933080673,0.004824698902666569,-0.04937651380896568
12.05579300,12055793,2,0.9987507462501526,0.0003109071112703532,0.00477285822853446,-0.049740519374608994
12.15578200,12155782,2,0.9987056255340576,0.00031398667488247156,0.00484669953584671,-0.050631165504455566
12.25578600,12255786,2,0.9986522197723389,0.0003037947171833366,0.0048545668832957745,-0.051673319190740585
12.35571000,12355710,2,0.99859619140625,0.0003059827722609043,0.0048604924231767654,-0.05274413526058197
12.45571900,12455719,2,0.9985431432723999,0.00026633476954884827,0.004924160894006491,-0.05373300984501839
12.55571500,12555715,2,0.9984938502311707,0.00025573125458322465,0.004901643376797438,-0.05464424937963486
12.65574800,12655748,2,0.9984503388404846,0.00023019342916086316,0.004866005387157202,-0.05543651804327965
12.75572600,12755726,2,0.9984074234962463,0.00025079885381273925,0.004855772480368614,-0.05620446056127548
12.85575700,12855757,2,0.998374342918396,0.00021363672567531466,0.0048910221084952354,-0.05678626522421837
12.95579000,12955790,2,0.9983469843864441,0.00014105519221629947,0.00491907075047493,-0.057262953370809555
13.05578500,13055785,2,0.9983258843421936,0.00015912350500002503,0.004925664979964495,-0.0576295368373394
13.15577200,13155772,2,0.9982976317405701,0.00018189063121099025,0.004934653639793396,-0.058116018772125244
13.25571400,13255714,2,0.998272716999054,0.00016461631457787007,0.004936065059155226,-0.05854221060872078
13.35571300,13355713,2,0.9982576966285706,0.0002167940401704982,0.004941907711327076,-0.058796755969524384
13.45572400,13455724,2,0.9982517957687378,0.00022117981279734522,0.004938212223351002,-0.05889790505170822
13.55572700,13555727,2,0.9982485175132751,0.00021244400704745203,0.004919283092021942,-0.058954447507858276
13.65575100,13655751,2,0.998248815536499,0.00017389004642609507,0.004895796533674002,-0.058951206505298615
13.75577100,13755771,2,0.9982477426528931,0.00023859154316596687,0.004857035353779793,-0.05897253379225731
13.85580400,13855804,2,0.9982451796531677,0.00026838461053557694,0.0047838990576565266,-0.059022389352321625
13.95578000,13955780,2,0.9982386827468872,0.00024079758441075683,0.004765242803841829,-0.05913367122411728
14.05576700,14055767,2,0.9982276558876038,0.0002651889808475971,0.004737610928714275,-0.059321463108062744
14.15570500,14155705,2,0.9982235431671143,0.0002440957323415205,0.004687516018748283,-0.0593944787979126
14.25570600,14255706,2,0.9982231259346008,0.0002731040003709495,0.0046898373402655125,-0.059401217848062515
14.35571000,14355710,2,0.9982258677482605,0.00026842611259780824,0.0046811699867248535,-0.05935589224100113
14.45574200,14455742,2,0.9982258081436157,0.00028180715162307024,0.004693955183029175,-0.059355974197387695
14.55573800,14555738,2,0.9982231259346008,0.00030477438122034073,0.004638432525098324,-0.059404902160167694
14.65575600,14655756,2,0.9982273578643799,0.0003134800645057112,0.004648299887776375,-0.05933371186256409
14.75580500,14755805,2,0.9982361793518066,0.000333289906848222,0.00465408805757761,-0.0591839998960495
14.85577700,14855777,2,0.998245358467102,0.00037802234874106944,0.004622910637408495,-0.059031154960393906
14.95576700,14955767,2,0.9982503652572632,0.0003776382654905319,0.004610845353454351,-0.05894783139228821
15.05571300,15055713,2,0.9982513189315796,0.0003545001964084804,0.00457095168530941,-0.05893458053469658
15.15570500,15155705,2,0.9982514381408691,0.0003692284517455846,0.004511008504778147,-0.0589374303817749
15.25570600,15255706,2,0.9982481002807617,0.00039879835094325244,0.00452439533546567,-0.0589926615357399
15.35573700,15355737,2,0.9982498288154602,0.00040656281635165215,0.004533109255135059,-0.05896195396780968
15.45573100,15455731,2,0.9982590079307556,0.00042285784729756415,0.004512162413448095,-0.0588080920279026
15.55577000,15555770,2,0.9982643723487854,0.00044855629676021636,0.004518667235970497,-0.05871633067727089
15.65581200,15655812,2,0.9982720613479614,0.00042673785355873406,0.004476832691580057,-0.058588482439517975
15.75578500,15755785,2,0.9982837438583374,0.000451115018222481,0.004416392184793949,-0.05839403346180916
15.85576900,15855769,2,0.9982942938804626,0.0004441895871423185,0.00439580250531435,-0.05821467936038971
15.95571600,15955716,2,0.998302161693573,0.0004331633390393108,0.004435841925442219,-0.05807682126760483
16.05570900,16055709,2,0.9983001351356506,0.0005059099057689309,0.004376701079308987,-0.05811524763703346
16.15570800,16155708,2,0.9982967972755432,0.0005157619598321617,0.004385602660477161,-0.05817234888672829
16.25573500,16255735,2,0.9982907176017761,0.0005417807842604816,0.004401126876473427,-0.05827520787715912
16.35574600,16355746,2,0.9982813596725464,0.0005173884565010667,0.0043656122870743275,-0.058438122272491455
16.45577000,16455770,2,0.9982730746269226,0.0005580700235441327,0.004374136216938496,-0.058578744530677795
16.55578800,16555788,2,0.9982703328132629,0.0005443859263323247,0.004422158934175968,-0.05862138047814369
16.65578000,16655780,2,0.9982626438140869,0.0005527788889594376,0.0044449144043028355,-0.05875026807188988
16.75577400,16755774,2,0.9982631206512451,0.000590747338719666,0.0045107887126505375,-0.0587366484105587
16.85570600,16855706,2,0.99827641248703,0.0006163192447274923,0.004520675633102655,-0.05850943922996521
16.95571000,16955710,2,0.9982948899269104,0.0006099774618633091,0.004520378075540066,-0.05819407105445862
17.05571400,17055714,2,0.9983100295066833,0.0005811987211927772,0.004533844068646431,-0.05793313682079315
17.15573400,17155734,2,0.9983188509941101,0.0006001950823701918,0.004550151526927948,-0.0577792152762413
17.25574900,17255749,2,0.9983303546905518,0.0006467204657383263,0.00456160306930542,-0.057578060775995255
17.35577700,17355777,2,0.9983367919921875,0.000618026708252728,0.004545651376247406,-0.057468488812446594
17.45579300,17455793,2,0.9983420372009277,0.0006036964477971196,0.004612701945006847,-0.057371508330106735
17.55577800,17555778,2,0.9983535408973694,0.0006668795831501484,0.004648949950933456,-0.05716743320226669
17.65576700,17655767,2,0.9983652234077454,0.000673199538141489,0.00465580215677619,-0.0569629929959774
17.75570900,17755709,2,0.9983760118484497,0.0006082433392293751,0.004630624782294035,-0.056776367127895355
17.85570700,17855707,2,0.9983768463134766,0.0006530405371449888,0.0046313186176121235,-0.056760359555482864
17.95571000,17955710,2,0.998373806476593,0.0006773647619411349,0.004594394937157631,-0.05681684985756874
18.05572900,18055729,2,0.9983717799186707,0.0007357728318311274,0.004575175698846579,-0.05685373395681381
18.15575300,18155753,2,0.9983755350112915,0.0006976933218538761,0.004546906799077988,-0.0567900687456131
18.25576100,18255761,2,0.9983804225921631,0.0007244735606946051,0.004519219975918531,-0.056705866008996964
18.35579700,18355797,2,0.9983854293823242,0.0007077294867485762,0.004525207914412022,-0.05661777779459953
18.45578700,18455787,2,0.9983857274055481,0.0006772762280888855,0.004504389129579067,-0.05661467835307121
18.55577900,18555779,2,0.9983829259872437,0.0007019112817943096,0.0045388685539364815,-0.05666082352399826
18.65570900,18655709,2,0.9983825087547302,0.0006702964892610908,0.004490600898861885,-0.05667273700237274
18.75571300,18755713,2,0.9983789324760437,0.0006393873482011259,0.0045237489975988865,-0.05673298239707947
18.85572200,18855722,2,0.9983744025230408,0.0006057185819372535,0.004530325997620821,-0.05681219696998596
18.95573700,18955737,2,0.998362123966217,0.0006611039862036705,0.004513401538133621,-0.05702855810523033
19.05575600,19055756,2,0.9983518123626709,0.0006581121124327183,0.004481147974729538,-0.057211264967918396
19.15576600,19155766,2,0.9983497262001038,0.000709598301909864,0.004463259130716324,-0.057248324155807495
19.25579600,19255796,2,0.9983513951301575,0.0006834894884377718,0.004405787214636803,-0.057224422693252563
19.35579000,19355790,2,0.9983466863632202,0.000682478363160044,0.0043780021369457245,-0.05730852857232094
19.45577500,19455775,2,0.9983462691307068,0.0007095998153090477,0.00436443230137229,-0.05731663852930069
19.55571900,19555719,2,0.9983471035957336,0.0006730899913236499,0.004354620818048716,-0.05730308219790459
19.65572300,19655723,2,0.9983513355255127,0.0006641700165346265,0.00427875155583024,-0.05723560228943825
19.75571800,19755718,2,0.9983540773391724,0.0007046576938591897,0.004242986906319857,-0.05718931183218956
19.85572900,19855729,2,0.99835205078125,0.0007097108755260706,0.004204415716230869,-0.057227518409490585
19.95574000,19955740,2,0.9983460903167725,0.0007133194012567401,0.0041731856763362885,-0.05733395367860794
20.05577100,20055771,2,0.9983406662940979,0.0006899285363033414,0.004139760974794626,-0.05743131414055824
20.15582000,20155820,2,0.9983336925506592,0.0007159344386309385,0.004147625993937254,-0.0575513057410717
20.25577800,20255778,2,0.9983299970626831,0.0006989812827669084,0.0041348012164235115,-0.0576167032122612
20.35577800,20355778,2,0.9983303546905518,0.0006842701113782823,0.004131007008254528,-0.05761069804430008
20.45572000,20455720,2,0.9983301162719727,0.0006983177736401558,0.004092360846698284,-0.05761759728193283
20.55571300,20555713,2,0.9983319640159607,0.0007235719240270555,0.004068502690643072,-0.05758625641465187
20.65571600,20655716,2,0.998335063457489,0.0007179590757004917,0.004026883281767368,-0.057535309344530106
20.75575400,20755754,2,0.998338520526886,0.0006925557972863317,0.004028532188385725,-0.057475507259368896
20.85574200,20855742,2,0.9983433485031128,0.0006865444011054933,0.004016329534351826,-0.057392679154872894
20.95577300,20955773,2,0.9983510375022888,0.0006702880491502583,0.0039408146403729916,-0.057264603674411774
21.05581100,21055811,2,0.9983531832695007,0.0007268292247317731,0.003926709294319153,-0.05722744017839432
21.15578100,21155781,2,0.9983544945716858,0.0007098857895471156,0.003921842202544212,-0.05720517784357071
21.25576500,21255765,2,0.9983569979667664,0.0007352523971349001,0.003876886097714305,-0.05716404691338539
21.35571300,21355713,2,0.9983559846878052,0.0007223819266073406,0.0038483240641653538,-0.057183511555194855
21.45570600,21455706,2,0.9983548521995544,0.0007478307816199958,0.0038485343102365732,-0.057202860713005066
21.55571500,21555715,2,0.9983505010604858,0.0007593767368234694,0.0037458487786352634,-0.05728614330291748
21.65572300,21655723,2,0.9983430504798889,0.0007074209861457348,0.0037670033052563667,-0.05741507560014725
21.75573900,21755739,2,0.9983391761779785,0.000687743944581598,0.0037923939526081085,-0.057480353862047195
21.85577200,21855772,2,0.9983394145965576,0.0006734795169904828,0.0037783195730298758,-0.0574781633913517
21.95579600,21955796,2,0.9983410835266113,0.0006368129979819059,0.0037818551063537598,-0.057449132204055786
22.05578800,22055788,2,0.998347282409668,0.0006370149203576148,0.003798241727054119,-0.0573401004076004
22.15576700,22155767,2,0.9983499050140381,0.0006336891674436629,0.0038212407380342484,-0.057292766869068146
22.25571600,22255716,2,0.998348593711853,0.0005943968426436186,0.0038003099616616964,-0.05731705203652382
22.35571300,22355713,2,0.9983441829681396,0.0005378256319090724,0.003805696964263916,-0.05739447847008705
22.45571000,22455710,2,0.9983434081077576,0.0005369570571929216,0.0038107302971184254,-0.05740808695554733
22.55573300,22555733,2,0.9983431100845337,0.000514060549903661,0.0038119819946587086,-0.05741261690855026
22.65574700,22655747,2,0.9983452558517456,0.00046530875260941684,0.0038296859711408615,-0.05737501010298729
22.75575300,22755753,2,0.9983493089675903,0.0004896115860901773,0.003821268677711487,-0.05730430781841278
22.85579500,22855795,2,0.9983483552932739,0.0005144315655343235,0.0038662876468151808,-0.057318124920129776
22.95578200,22955782,2,0.9983473420143127,0.0004993595648556948,0.0038623735308647156,-0.05733649432659149
23.05577500,23055775,2,0.9983484148979187,0.0004599197127390653,0.003855439368635416,-0.057317763566970825
23.15570600,23155706,2,0.9983527660369873,0.0004084220272488892,0.0038947847206145525,-0.05724025517702103
23.25571200,23255712,2,0.998360276222229,0.00047543991240672767,0.0038443193770945072,-0.057111699134111404
23.35571700,23355717,2,0.9983683824539185,0.00043889228254556656,0.0039082784205675125,-0.05696629732847214
23.45572800,23455728,2,0.9983795285224915,0.00045297283213585615,0.003897186601534486,-0.05677038058638573
23.55572600,23555726,2,0.9983863830566406,0.00041976204374805093,0.003908356186002493,-0.056649137288331985
23.65577200,23655772,2,0.9983907341957092,0.0003738896921277046,0.003904566168785095,-0.056572962552309036
23.75580200,23755802,2,0.9983956813812256,0.0003620267962105572,0.003924936056137085,-0.05648501589894295
23.85578100,23855781,2,0.9983968734741211,0.00035424227826297283,0.003950831014662981,-0.05646226182579994
23.95576700,23955767,2,0.9983999133110046,0.00035344366915524006,0.003921237774193287,-0.05641033500432968
24.05571300,24055713,2,0.9983996748924255,0.0003022637974936515,0.003934786655008793,-0.056414179503917694
24.15570700,24155707,2,0.998396635055542,0.00025736010866239667,0.003962268587201834,-0.05646578222513199
24.25570600,24255706,2,0.9983952641487122,0.0002914659562520683,0.0039674402214586735,-0.056489769369363785
24.35573300,24355733,2,0.9983915090560913,0.0002565150789450854,0.003950975835323334,-0.05655702203512192
24.45574800,24455748,2,0.9983916282653809,0.00025479632313363254,0.003989062737673521,-0.05655263736844063
24.55576200,24555762,2,0.9983947277069092,0.00030365530983544886,0.00395641615614295,-0.05649944022297859
24.65578800,24655788,2,0.9984008073806763,0.0002872444747481495,0.003985908348113298,-0.05639048293232918
24.75578400,24755784,2,0.9984076023101807,0.00030159109155647457,0.004000747110694647,-0.05626915022730827
24.85576500,24855765,2,0.9984139204025269,0.00032373322756029665,0.004029013216495514,-0.05615413188934326
24.95570900,24955709,2,0.9984171986579895,0.000354452698957175,0.0040193237364292145,-0.05609656125307083
25.05571300,25055713,2,0.9984176754951477,0.00034021740430034697,0.004032752942293882,-0.05608675256371498
25.15570600,25155706,2,0.9984110593795776,0.00034105961094610393,0.004025241360068321,-0.056204985827207565
25.25574300,25255743,2,0.9984028339385986,0.0003045086923521012,0.004029509611427784,-0.056351155042648315
25.35574600,25355746,2,0.9983919858932495,0.0003168609400745481,0.004009807016700506,-0.05654400214552879
25.45579500,25455795,2,0.9983881711959839,0.00030342466197907925,0.004015542101114988,-0.05661090090870857
25.55583800,25555838,2,0.9983848929405212,0.00028334802482277155,0.00402850192040205,-0.05666785687208176
25.65579000,25655790,2,0.998381495475769,0.00027132456307299435,0.00405115494504571,-0.05672703683376312
25.75577600,25755776,2,0.9983832836151123,0.00024719021166674793,0.004080996382981539,-0.056692879647016525
25.85571400,25855714,2,0.9983832240104675,0.00021807290613651276,0.004140234086662531,-0.056690387427806854
25.95571700,25955717,2,0.9983866810798645,0.00024939951254054904,0.004155208822339773,-0.05662733316421509
26.05572400,26055724,2,0.9983870387077332,0.00020250871602911502,0.004224528558552265,-0.056616149842739105
26.15573500,26155735,2,0.9983913898468018,0.00018419022671878338,0.004237155430018902,-0.05653838440775871
26.25573700,26255737,2,0.9983944296836853,0.00020337061141617596,0.004271544050425291,-0.05648268759250641
26.35576100,26355761,2,0.9983954429626465,0.0002046063164016232,0.004273030906915665,-0.056464698165655136
26.45581100,26455811,2,0.9983981251716614,0.00017579825362190604,0.004269870463758707,-0.05641713738441467
26.55579100,26555791,2,0.9984009861946106,0.0001977615465875715,0.004283587448298931,-0.0563654862344265
26.65579000,26655790,2,0.9984055757522583,0.00020874118490610272,0.0042723375372588634,-0.05628489702939987
26.75572700,26755727,2,0.9984086155891418,0.00020257211872376502,0.004280498251318932,-0.056230612099170685
26.85571500,26855715,2,0.9984129071235657,0.00019606649584602565,0.004278774373233318,-0.05615489184856415
26.95571700,26955717,2,0.9984116554260254,0.0001617300440557301,0.004275150131434202,-0.05617748945951462
27.05574700,27055747,2,0.9984085559844971,0.00014426751295104623,0.004278839565813541,-0.05623217299580574
27.15573200,27155732,2,0.9984059929847717,0.00011467852164059877,0.0042764306999742985,-0.05627766624093056
27.25581000,27255810,2,0.9984052777290344,0.00011214019468752667,0.004277141764760017,-0.056290023028850555
27.35582100,27355821,2,0.9984073638916016,0.0001052733205142431,0.00431207288056612,-0.05625056102871895
27.45578800,27455788,2,0.9984104633331299,8.51550794322975e-05,0.004311285447329283,-0.056195322424173355
27.55577600,27555776,2,0.9984129667282104,4.894920493825339e-05,0.004316318314522505,-0.056150950491428375
27.65571300,27655713,2,0.9984163641929626,2.500491973478347e-05,0.004309541545808315,-0.056091200560331345
27.75570600,27755706,2,0.9984135031700134,-4.889832894150459e-07,0.004282413050532341,-0.05614428222179413
27.85570700,27855707,2,0.9984108805656433,-1.526867890788708e-05,0.004287524614483118,-0.05618965998291969
27.95572200,27955722,2,0.9984067678451538,-5.878402225789614e-05,0.004327897448092699,-0.05626005679368973
28.05574700,28055747,2,0.9984024167060852,-8.262146729975939e-05,0.004346741829067469,-0.056335438042879105
28.15580000,28155800,2,0.9983983635902405,-6.807875615777448e-05,0.004396404139697552,-0.056403230875730515
28.25579600,28255796,2,0.9983980059623718,-6.876829866087064e-05,0.00436127046123147,-0.056412309408187866
28.35578300,28355783,2,0.9983943104743958,-0.00015251086733769625,0.004360545892268419,-0.056477513164281845
28.45577300,28455773,2,0.9983919858932495,-0.00019676856754813343,0.004355228506028652,-0.05651920288801193
28.55570600,28555706,2,0.9983877539634705,-0.00022299076954368502,0.0044099404476583,-0.05658945441246033
28.65571600,28655716,2,0.9983876943588257,-0.00020101324480492622,0.0043881237506866455,-0.056592199951410294
28.75571400,28755714,2,0.9983891248703003,-0.00023304240312427282,0.004437689669430256,-0.05656356364488602
28.85574100,28855741,2,0.9983916282653809,-0.0002497027162462473,0.004424940794706345,-0.05651966854929924
28.95575300,28955753,2,0.9983958005905151,-0.00024186492373701185,0.004452973138540983,-0.056444019079208374
29.05577100,29055771,2,0.998397171497345,-0.0001766508794389665,0.004493160638958216,-0.056417062878608704
29.15580700,29155807,2,0.9983976483345032,-0.00016597296053078026,0.004528666380792856,-0.05640609934926033
29.25577800,29255778,2,0.9983953237533569,-0.00019108162086922675,0.004542266484349966,-0.05644535645842552
29.35577300,29355773,2,0.9983947277069092,-0.00023219439026433975,0.00451553612947464,-0.05645788833498955
29.45570700,29455707,2,0.9983945488929749,-0.00024607297382317483,0.004583960864692926,-0.05645572394132614
29.55570700,29555707,2,0.9983971118927002,-0.00017630694492254406,0.004586930852383375,-0.056410808116197586
29.65571300,29655713,2,0.9984002113342285,-0.00021283540991134942,0.004608019720762968,-0.05635346844792366
29.75573700,29755737,2,0.9984003305435181,-0.0002507842145860195,0.004617845639586449,-0.05635017156600952
29.85574500,29855745,2,0.9983959197998047,-0.00021958141587674618,0.004596613347530365,-0.05643036589026451
29.95577200,29955772,2,0.9983935356140137,-0.00019013043493032455,0.004589077550917864,-0.056473929435014725
30.05580100,30055801,2,0.9983927011489868,-0.0002163934987038374,0.004652852658182383,-0.05648317188024521
30.15577500,30155775,2,0.998395562171936,-0.00021298561478033662,0.0046435995027422905,-0.05643317848443985
30.25573700,30255737,2,0.9983975887298584,-0.00016489774861838669,0.004636550787836313,-0.05639773607254028
30.35569800,30355698,2,0.9984017610549927,-0.00018012690998148173,0.004678479861468077,-0.05632070079445839
30.45569800,30455698,2,0.9984079003334045,-0.0002656343567650765,0.004691519308835268,-0.05621050298213959
30.55569700,30555697,2,0.9984136819839478,-0.00025633067707531154,0.004739157855510712,-0.05610357224941254
30.65571700,30655717,2,0.9984197020530701,-0.0002271859411848709,0.004740178119391203,-0.05599583312869072
30.75573100,30755731,2,0.9984241127967834,-0.00020183205197099596,0.00476510263979435,-0.055915139615535736
30.85575400,30855754,2,0.9984289407730103,-0.0001772620453266427,0.004735925700515509,-0.05583185330033302
30.95578600,30955786,2,0.9984343647956848,-0.0001995255151996389,0.0047851079143583775,-0.0557306706905365
31.05577300,31055773,2,0.9984419345855713,-0.00023489666637033224,0.0047982619144022465,-0.055593885481357574
31.15573700,31155737,2,0.998447835445404,-0.00031071313424035907,0.004765987861901522,-0.05548981949687004
31.25569600,31255696,2,0.9984485507011414,-0.00031286562443710864,0.004771317820996046,-0.05547609552741051
31.35570100,31355701,2,0.9984526038169861,-0.0002974573289975524,0.00477964710444212,-0.055402785539627075
31.45569600,31455696,2,0.9984532594680786,-0.0002540983841754496,0.004799900110810995,-0.055389367043972015
31.55572400,31555724,2,0.9984567761421204,-0.00022022357734385878,0.004829332232475281,-0.055323533713817596
31.65573500,31655735,2,0.998461902141571,-0.00022039150644559413,0.004800528287887573,-0.055233556777238846
31.75576100,31755761,2,0.9984633326530457,-0.00016731074720155448,0.004789519123733044,-0.05520902946591377
31.85578800,31855788,2,0.9984647631645203,-0.00018003473815042526,0.004751968663185835,-0.05518561974167824
31.95577800,31955778,2,0.998464822769165,-0.00016387829964514822,0.0047599938698112965,-0.05518466606736183
32.05574800,32055748,2,0.9984633326530457,-0.00014566797472070903,0.004812969360500574,-0.055207230150699615
32.15569400,32155694,2,0.9984655380249023,-0.000179599694092758,0.004829217214137316,-0.0551653727889061
32.25569600,32255696,2,0.9984723329544067,-0.00016378238797187805,0.004859256092458963,-0.05503934621810913
32.35570300,32355703,2,0.9984743595123291,-0.00015216587053146213,0.004846180323511362,-0.05500444769859314
32.45571300,32455713,2,0.9984772205352783,-0.0001914651074912399,0.0049278996884822845,-0.0549447275698185
32.55573300,32555733,2,0.9984828233718872,-0.0001837362942751497,0.004958547651767731,-0.054839733988046646
32.65575700,32655757,2,0.9984854459762573,-0.0001849931140895933,0.004949500784277916,-0.054793521761894226
32.75578200,32755782,2,0.9984863996505737,-0.00017742950876709074,0.004983166698366404,-0.05477244034409523
32.85576800,32855768,2,0.9984882473945618,-0.00022208038717508316,0.004962975159287453,-0.054740652441978455
32.95574800,32955748,2,0.9984890818595886,-0.0002221183676738292,0.004970704670995474,-0.05472443625330925
33.05570200,33055702,2,0.9984937310218811,-0.0002986591716762632,0.004986932035535574,-0.05463770031929016
33.15569500,33155695,2,0.998501181602478,-0.0003056659479625523,0.004976915195584297,-0.05450297147035599
33.25569600,33255696,2,0.9985063672065735,-0.00034507812233641744,0.00498207425698638,-0.054406702518463135
33.35572700,33355727,2,0.9985093474388123,-0.0003186955291312188,0.0049641188234090805,-0.05435432121157646
33.45569400,33455694,2,0.9985119700431824,-0.00036263023503124714,0.005010488908737898,-0.05430096387863159
33.55575200,33555752,2,0.9985120296478271,-0.0003813074727077037,0.004979185294359922,-0.05430265888571739
33.65578300,33655783,2,0.9985103607177734,-0.0004073359596077353,0.005008324980735779,-0.05433012172579765
33.75577000,33755770,2,0.9985085725784302,-0.00043234601616859436,0.00502123823389411,-0.05436192452907562
33.85574800,33855748,2,0.9985083341598511,-0.000435282796388492,0.004927376750856638,-0.05437520146369934
33.95569800,33955698,2,0.9985048770904541,-0.00042029868927784264,0.004993262235075235,-0.05443226918578148
34.05569700,34055697,2,0.998499870300293,-0.000434418412623927,0.004948706366121769,-0.05452873930335045
34.15569600,34155696,2,0.9984943270683289,-0.0004393723211251199,0.004940637852996588,-0.05463042110204697
34.25572300,34255723,2,0.9984899759292603,-0.00043569409172050655,0.004923699423670769,-0.05471106991171837
34.35573300,34355733,2,0.9984846115112305,-0.0004485553072299808,0.004963101353496313,-0.05480547994375229
34.45575900,34455759,2,0.9984791278839111,-0.000471392908366397,0.0049432371743023396,-0.05490690842270851
34.55577900,34555779,2,0.9984780550003052,-0.00046937717706896365,0.004897324834018946,-0.054931070655584335
34.65577000,34655770,2,0.9984759092330933,-0.0004812773549929261,0.004853963386267424,-0.05497358366847038
34.75577500,34755775,2,0.9984735250473022,-0.0003982061753049493,0.004815020598471165,-0.05502055957913399
34.85569600,34855696,2,0.9984713792800903,-0.00039642376941628754,0.004792546387761831,-0.05506131798028946
34.95570800,34955708,2,0.9984682202339172,-0.00042826886055991054,0.004755890928208828,-0.05512162297964096
35.05570500,35055705,2,0.998465895652771,-0.0004587729345075786,0.004795494489371777,-0.055160362273454666
35.15570800,35155708,2,0.9984627366065979,-0.0004433167341630906,0.004748942330479622,-0.055221810936927795
35.25572400,35255724,2,0.9984649419784546,-0.0004384256899356842,0.004732339642941952,-0.055182620882987976
35.35576600,35355766,2,0.9984651803970337,-0.0004355111450422555,0.004752875305712223,-0.05517658591270447
35.45578000,35455780,2,0.9984679818153381,-0.0004631943302229047,0.0047586411237716675,-0.05512534826993942
35.55577100,35555771,2,0.9984707236289978,-0.0004242679860908538,0.004822729621082544,-0.055070556700229645
35.65576200,35655762,2,0.9984714984893799,-0.00039919346454553306,0.00478883134201169,-0.05505942925810814
35.75569500,35755695,2,0.9984725713729858,-0.00043762620771303773,0.004812201485037804,-0.05503774434328079
35.85569600,35855696,2,0.9984747767448425,-0.0004520091461017728,0.004826128017157316,-0.05499626696109772
35.95569900,35955699,2,0.9984747767448425,-0.0004378638986963779,0.004875148646533489,-0.05499279499053955
36.05572500,36055725,2,0.9984753727912903,-0.00043822743464261293,0.004878997802734375,-0.05498162657022476
36.15572100,36155721,2,0.9984765648841858,-0.000427940278314054,0.004831123165786266,-0.054963596165180206
36.25575600,36255756,2,0.9984756708145142,-0.00039736757753416896,0.004859397653490305,-0.05497783422470093
36.35579300,36355793,2,0.9984775185585022,-0.00040505712968297303,0.0048715476877987385,-0.05494331941008568
36.45577400,36455774,2,0.998475193977356,-0.0003780841361731291,0.004889093805104494,-0.054983653128147125
36.55574700,36555747,2,0.9984763860702515,-0.0003395001112949103,0.0048870425671339035,-0.05496322736144066
36.65570300,36655703,2,0.9984764456748962,-0.000386719882953912,0.004867125768214464,-0.05496300384402275
36.75569800,36755698,2,0.9984762668609619,-0.00038745603524148464,0.004824937786906958,-0.054970379918813705
36.85569600,36855696,2,0.9984782338142395,-0.00039791446761228144,0.004853449296206236,-0.05493169277906418
36.95571000,36955710,2,0.9984785318374634,-0.00044007060932926834,0.004841523710638285,-0.05492691323161125
37.05573300,37055733,2,0.9984786510467529,-0.0004010068951174617,0.004837335553020239,-0.05492538958787918
37.15576700,37155767,2,0.9984769821166992,-0.0004181577533017844,0.004823475610464811,-0.05495713651180267
37.25577600,37255776,2,0.9984775185585022,-0.00048715845332480967,0.004824275150895119,-0.0549471490085125
37.35577400,37355774,2,0.9984804391860962,-0.00046151524293236434,0.004780148155987263,-0.054897502064704895
37.45575800,37455758,2,0.9984833598136902,-0.0004191040061414242,0.004820863250643015,-0.054840829223394394
37.55569600,37555696,2,0.998486340045929,-0.00046173768350854516,0.0048245713114738464,-0.05478661134839058
37.65569800,37655698,2,0.9984875917434692,-0.0004887313698418438,0.004796063061803579,-0.05476606637239456
37.75569600,37755696,2,0.9984897971153259,-0.00048402560059912503,0.00484144501388073,-0.05472131073474884
37.85571700,37855717,2,0.9984965324401855,-0.0005093719810247421,0.0048415143974125385,-0.054598789662122726
37.95572100,37955721,2,0.9984996914863586,-0.0005041490076109767,0.004892170429229736,-0.054535873234272
38.05575700,38055757,2,0.9984996318817139,-0.0005217373836785555,0.004890455864369869,-0.05453699082136154
38.15580100,38155801,2,0.9985005855560303,-0.0005392561433836818,0.004873971920460463,-0.05452057346701622
38.25576900,38255769,2,0.9985004663467407,-0.0005736146704293787,0.0048630558885633945,-0.05452427640557289
38.35575800,38355758,2,0.9985005855560303,-0.000588897499255836,0.004866329953074455,-0.054520606994628906
38.45571100,38455711,2,0.9984998106956482,-0.0005775809404440224,0.004943888168781996,-0.054528236389160156
38.55569500,38555695,2,0.9984984397888184,-0.0005968259647488594,0.004932584706693888,-0.05455438420176506
38.65570200,38655702,2,0.9984967112541199,-0.0006176188471727073,0.004929284565150738,-0.05458608642220497
38.75572900,38755729,2,0.9984993934631348,-0.0006679571233689785,0.004874008242040873,-0.05454131215810776
38.85573300,38855733,2,0.9984990358352661,-0.0006638597697019577,0.004871256183832884,-0.05454854667186737
38.95576200,38955762,2,0.9984979033470154,-0.0006853431696072221,0.004889809060841799,-0.05456717312335968
39.05578300,39055783,2,0.9984978437423706,-0.0007163039408624172,0.00489019462838769,-0.054568130522966385
39.15577200,39155772,2,0.9984958171844482,-0.0007528049754910171,0.004891565069556236,-0.05460421368479729
39.25573600,39255736,2,0.998492419719696,-0.0007730616489425302,0.004876832943409681,-0.054667115211486816
39.35570100,39355701,2,0.9984893202781677,-0.0008152902591973543,0.004914970602840185,-0.054720137268304825
39.45569500,39455695,2,0.9984880685806274,-0.0008278438472189009,0.004938147496432066,-0.05474012345075607
39.55569500,39555695,2,0.998491108417511,-0.00085248559480533,0.005006393883377314,-0.05467808246612549
39.65571700,39655717,2,0.998490571975708,-0.0008181490120477974,0.004994887858629227,-0.05468970537185669
39.75572000,39755720,2,0.9984878301620483,-0.0008355831960216165,0.004955554846674204,-0.054743219166994095
39.85575900,39855759,2,0.9984872341156006,-0.0008760183118283749,0.004994986578822136,-0.054749250411987305
39.95577700,39955777,2,0.998485267162323,-0.0008871018653735518,0.004997663199901581,-0.054785143584012985
40.05577000,40055770,2,0.9984880089759827,-0.0008726072264835238,0.0050115641206502914,-0.05473416671156883
40.15576200,40155762,2,0.9984912276268005,-0.0008753797737881541,0.0050630769692361355,-0.05467037484049797
40.25569400,40255694,2,0.9984963536262512,-0.0008759690681472421,0.005106355994939804,-0.054572559893131256
40.35569900,40355699,2,0.9984983801841736,-0.0008901981054805219,0.005095443222671747,-0.054536331444978714
40.45570000,40455700,2,0.998504638671875,-0.0009325354476459324,0.005100099369883537,-0.05442066490650177
40.55573000,40555730,2,0.9985079765319824,-0.0009433754603378475,0.005107714328914881,-0.05435844510793686
40.65571800,40655718,2,0.998510479927063,-0.0009874817915260792,0.005087740253657103,-0.05431316792964935
40.75575900,40755759,2,0.9985145926475525,-0.0010089923162013292,0.005083325318992138,-0.054237935692071915
40.85577600,40855776,2,0.9985210299491882,-0.00103480473626405,0.00509618129581213,-0.05411728098988533
40.95576800,40955768,2,0.9985248446464539,-0.0010563097894191742,0.005107129458338022,-0.05404539406299591
41.05575900,41055759,2,0.9985275268554688,-0.0010475385934114456,0.00506189838051796,-0.05399998649954796
41.15569300,41155693,2,0.9985275864601135,-0.001067179488018155,0.005091331899166107,-0.05399606376886368
41.25569600,41255696,2,0.9985251426696777,-0.001103115500882268,0.005114363506436348,-0.054039083421230316
41.35569900,41355699,2,0.9985207319259644,-0.0010809233644977212,0.0050887856632471085,-0.05412289872765541
41.45572300,41455723,2,0.9985154867172241,-0.0010865041986107826,0.005088240373879671,-0.05421935394406319
41.55572000,41555720,2,0.9985125064849854,-0.0010718675330281258,0.0050566052086651325,-0.054278064519166946
41.65577400,41655774,2,0.9985076189041138,-0.0010310654761269689,0.005051363725215197,-0.05436895415186882
41.75577900,41755779,2,0.9985066652297974,-0.0010630907490849495,0.0050934129394590855,-0.05438147485256195
41.85577200,41855772,2,0.9985058307647705,-0.0010503389639779925,0.005118864588439465,-0.054395079612731934
41.95576800,41955768,2,0.9985069632530212,-0.0010101046646013856,0.005091758444905281,-0.05437746271491051
42.05570000,42055700,2,0.9985064268112183,-0.0010570846498012543,0.005070886109024286,-0.054388076066970825
42.15570100,42155701,2,0.9985104203224182,-0.001040453789755702,0.005065958481281996,-0.05431567132472992
42.25569900,42255699,2,0.9985102415084839,-0.0011106471065431833,0.005069009028375149,-0.054317303001880646
42.35571300,42355713,2,0.998511016368866,-0.001147637260146439,0.005024072248488665,-0.05430677905678749
42.45574000,42455740,2,0.99850994348526,-0.00115675525739789,0.005009624641388655,-0.054327722638845444
42.55575800,42555758,2,0.9985102415084839,-0.0011266283690929413,0.004948140121996403,-0.054328061640262604
42.65578700,42655787,2,0.9985080361366272,-0.0011226896895095706,0.004923435393720865,-0.05437129735946655
42.75577900,42755779,2,0.9985045194625854,-0.0011440427042543888,0.004883396904915571,-0.05443863943219185
42.85573600,42855736,2,0.998498260974884,-0.0011300381738692522,0.004898515529930592,-0.05455183610320091
42.95569700,42955697,2,0.9984908103942871,-0.0011530232150107622,0.004893064498901367,-0.054688774049282074
43.05570200,43055702,2,0.9984866380691528,-0.0011060048127546906,0.004858836997300386,-0.054769136011600494
43.15569400,43155694,2,0.9984865188598633,-0.0010120099177584052,0.0048458450473845005,-0.054774049669504166
43.25573100,43255731,2,0.9984889030456543,-0.0010009590769186616,0.004810297396034002,-0.05473412573337555
43.35574500,43355745,2,0.9984905123710632,-0.0009800158441066742,0.004804268013685942,-0.05470483377575874
43.45576000,43455760,2,0.9984915852546692,-0.0009804376168176532,0.004790194798260927,-0.05468712002038956
43.55580600,43555806,2,0.9984946846961975,-0.0009492005337961018,0.004780641756951809,-0.05463150516152382
43.65577200,43655772,2,0.9984932541847229,-0.0009586304076947272,0.00474459258839488,-0.05466112494468689
43.75576000,43755760,2,0.9984908103942871,-0.0009332454646937549,0.0047553726471960545,-0.054704926908016205
43.85570000,43855700,2,0.9984884262084961,-0.0009398537804372609,0.004756723064929247,-0.05474821478128433
43.95569500,43955695,2,0.9984904527664185,-0.0009269087458960712,0.004759256727993488,-0.0547112300992012
44.05569900,44055699,2,0.9984934329986572,-0.0009701370145194232,0.004795052111148834,-0.05465279147028923
44.15571700,44155717,2,0.9984928965568542,-0.000934270559810102,0.004807095043361187,-0.054662711918354034
44.25573900,44255739,2,0.9984948635101318,-0.0009392447536811233,0.0048009599559009075,-0.05462684482336044
44.35576300,44355763,2,0.9984937310218811,-0.0009084102348424494,0.004810891579836607,-0.054646994918584824
44.45578400,44455784,2,0.9984940886497498,-0.0008426203858107328,0.004841371905058622,-0.05463850870728493
44.55577300,44555773,2,0.9984992742538452,-0.0008453649352304637,0.004840217996388674,-0.05454431474208832
44.65575800,44655758,2,0.9985018372535706,-0.0008646660717204213,0.0048157027922570705,-0.054499298334121704
44.75570200,44755702,2,0.9985013604164124,-0.0008750441484153271,0.004822930321097374,-0.054506536573171616
44.85571400,44855714,2,0.9985002279281616,-0.0009099519229494035,0.0048401812091469765,-0.054525624960660934
44.95571200,44955712,2,0.9985005259513855,-0.0009325133869424462,0.004784829448908567,-0.05452444776892662
45.05572300,45055723,2,0.9984982013702393,-0.000933079223614186,0.004810887388885021,-0.05456520989537239
45.15572900,45155729,2,0.9984954595565796,-0.0009454814135096967,0.004783723037689924,-0.05461772903800011
45.25575200,45255752,2,0.998492419719696,-0.000990260043181479,0.004807505290955305,-0.054669979959726334
45.35578800,45355788,2,0.9984877705574036,-0.0009534324635751545,0.004795188084244728,-0.054756324738264084
45.45577200,45455772,2,0.9984833002090454,-0.0009121567127294838,0.00481522036716342,-0.054836615920066833
45.55574000,45555740,2,0.9984811544418335,-0.0009037044947035611,0.004858244210481644,-0.05487249791622162
45.65570900,45655709,2,0.9984819889068604,-0.0008689793758094311,0.00487275468185544,-0.05485624074935913
45.75572000,45755720,2,0.9984791874885559,-0.0008625591290183365,0.004880630876868963,-0.05490672215819359
45.85570900,45855709,2,0.9984773397445679,-0.000878907972946763,0.004943349398672581,-0.05493464693427086
45.95573400,45955734,2,0.9984780550003052,-0.0008554356172680855,0.0049397083930671215,-0.05492253601551056
46.05572100,46055721,2,0.9984803795814514,-0.0008193821995519102,0.00496309157460928,-0.05487789586186409
46.15576700,46155767,2,0.9984790682792664,-0.0007855760050006211,0.00495859095826745,-0.05490325763821602
46.25579100,46255791,2,0.998480498790741,-0.0007437542662955821,0.004942016676068306,-0.05487882345914841
46.35577300,46355773,2,0.9984792470932007,-0.0006998549797572196,0.004928763024508953,-0.05490411818027496
46.45577000,46455770,2,0.9984805583953857,-0.0006615036400035024,0.0048943813890218735,-0.05488339066505432
46.55570600,46555706,2,0.9984796643257141,-0.0006440971628762782,0.004926708526909351,-0.05489734932780266
46.65570500,46655705,2,0.9984782338142395,-0.0006340586114674807,0.004966508597135544,-0.054919786751270294
46.75570900,46755709,2,0.9984753727912903,-0.0006225988618098199,0.004970647860318422,-0.054970815777778625
46.85572200,46855722,2,0.9984747171401978,-0.0006415052921511233,0.00497685931622982,-0.05498268082737923
46.95571500,46955715,2,0.9984727501869202,-0.0006550143007189035,0.004991703201085329,-0.055016301572322845
47.05576000,47055760,2,0.9984738826751709,-0.0006550666876137257,0.005012023262679577,-0.054993636906147
47.15581400,47155814,2,0.9984771013259888,-0.000656216696370393,0.004984333645552397,-0.054938219487667084
47.25577800,47255778,2,0.9984815716743469,-0.000704090460203588,0.004996308591216803,-0.054855603724718094
47.35574800,47355748,2,0.9984803199768066,-0.0007393958512693644,0.00502184359356761,-0.054874930530786514
47.45570800,47455708,2,0.9984810948371887,-0.0007708496414124966,0.0049918033182621,-0.054862868040800095
47.55570200,47555702,2,0.9984806180000305,-0.0007771412492729723,0.005003980360925198,-0.05487075075507164
47.65570700,47655707,2,0.9984800219535828,-0.0007827015360817313,0.004987155552953482,-0.05488326773047447
47.75572100,47755721,2,0.9984777569770813,-0.0007426440715789795,0.004975501447916031,-0.05492601543664932
47.85571600,47855716,2,0.9984771013259888,-0.0007676004897803068,0.004958266858011484,-0.05493900179862976
47.95575200,47955752,2,0.9984760880470276,-0.0007692861836403608,0.004985142964869738,-0.054955076426267624
48.05578800,48055788,2,0.9984777569770813,-0.0008131578215397894,0.004966333508491516,-0.05492572858929634
48.15577600,48155776,2,0.998477041721344,-0.0008018977823667228,0.004973289556801319,-0.05493846535682678
48.25576900,48255769,2,0.9984787702560425,-0.0007775496924296021,0.004967516288161278,-0.054907262325286865
48.35571100,48355711,2,0.99847811460495,-0.0008115223608911037,0.004912261385470629,-0.05492391809821129
48.45570800,48455708,2,0.9984780550003052,-0.0008089591283351183,0.004901099484413862,-0.05492663010954857
48.55570500,48555705,2,0.9984775185585022,-0.0008287502569146454,0.004854338243603706,-0.05493989586830139
48.65573400,48655734,2,0.9984768033027649,-0.0008678389713168144,0.00482809217646718,-0.054954636842012405
48.75572300,48755723,2,0.99847412109375,-0.000846114766318351,0.0048309313133358955,-0.055003851652145386
48.85575400,48855754,2,0.9984726905822754,-0.0008420664817094803,0.004793153610080481,-0.055032625794410706
48.95579600,48955796,2,0.9984735250473022,-0.000798574707005173,0.004780290648341179,-0.0550190731883049
49.05578000,49055780,2,0.9984742403030396,-0.0008347179973497987,0.00480692507699132,-0.05500326305627823
49.15576400,49155764,2,0.9984738826751709,-0.0008206074708141387,0.004800828173756599,-0.05501062050461769
49.25570500,49255705,2,0.9984728097915649,-0.0008296453161165118,0.004807142075151205,-0.055029161274433136
49.35570800,49355708,2,0.9984736442565918,-0.0008071667398326099,0.004738949239253998,-0.055020615458488464
49.45570400,49455704,2,0.9984734654426575,-0.0008000401430763304,0.0047189658507704735,-0.0550258606672287
49.55573300,49555733,2,0.9984750151634216,-0.0008316898602060974,0.004655026365071535,-0.05500233173370361
49.65571300,49655713,2,0.9984731674194336,-0.0008278759778477252,0.0046765124425292015,-0.055034223943948746
49.75576700,49755767,2,0.9984692335128784,-0.0007939181523397565,0.004642566666007042,-0.05510898306965828
49.85580700,49855807,2,0.9984629154205322,-0.0008332885336130857,0.004578657913953066,-0.0552285835146904
49.95577200,49955772,2,0.998460054397583,-0.0008765377569943666,0.004530969075858593,-0.05528329685330391
50.05576300,50055763,2,0.9984533786773682,-0.0008646539645269513,0.004541953094303608,-0.05540243908762932
50.15571600,50155716,2,0.9984484910964966,-0.0008827373967505991,0.004549677949398756,-0.05548953264951706
50.25571000,50255710,2,0.9984500408172607,-0.0008472424233332276,0.004545799922198057,-0.055462535470724106
50.35570500,50355705,2,0.9984525442123413,-0.0007972205057740211,0.0045318338088691235,-0.05541929975152016
50.45572500,50455725,2,0.9984533190727234,-0.0008193577523343265,0.0045557753182947636,-0.055402971804142
50.55570900,50555709,2,0.9984552264213562,-0.000859710737131536,0.004561335779726505,-0.05536828562617302
50.65575400,50655754,2,0.9984572529792786,-0.0008759439224377275,0.00460095563903451,-0.05532745644450188
50.75580100,50755801,2,0.9984596967697144,-0.000884659995790571,0.004628214985132217,-0.055281832814216614
50.85577600,50855776,2,0.9984616637229919,-0.0008937192033044994,0.00465674651786685,-0.055243633687496185
50.95575200,50955752,2,0.9984622597694397,-0.0009048592182807624,0.004681887570768595,-0.055230285972356796
51.05572100,51055721,2,0.9984615445137024,-0.0008645850466564298,0.004647777881473303,-0.055246543139219284
51.15570800,51155708,2,0.9984612464904785,-0.0008590530487708747,0.004648638889193535,-0.05525227263569832
51.25571600,51255716,2,0.9984639286994934,-0.0008636781712993979,0.004663744010031223,-0.055202413350343704
51.35573100,51355731,2,0.9984676837921143,-0.0008754436275921762,0.0046416171826422215,-0.05513601750135422
51.45571300,51455713,2,0.998471200466156,-0.0008602924062870443,0.004589373711496592,-0.055076807737350464
51.55575200,51555752,2,0.9984728097915649,-0.0008108402835205197,0.004583046771585941,-0.05504893139004707
51.65580200,51655802,2,0.9984723329544067,-0.0008305120281875134,0.004622494801878929,-0.05505356937646866
51.75577100,51755771,2,0.9984750151634216,-0.0008390285074710846,0.004646860528737307,-0.05500297620892525
51.85576500,51855765,2,0.9984748363494873,-0.0008408046560361981,0.004658539779484272,-0.05500536039471626
51.95570600,51955706,2,0.9984756112098694,-0.0008516582893207669,0.004682889673858881,-0.05498862639069557
52.05570600,52055706,2,0.9984782934188843,-0.0008293029386550188,0.004706627689301968,-0.05493846908211708
52.15572200,52155722,2,0.9984779357910156,-0.0008930739713832736,0.004705836530774832,-0.05494436249136925
52.25573200,52255732,2,0.9984796643257141,-0.000923567044083029,0.004743153229355812,-0.054909564554691315
52.35572700,52355727,2,0.9984788298606873,-0.0008971836068667471,0.004771326202899218,-0.05492185056209564
52.45579400,52455794,2,0.998479425907135,-0.0009225613321177661,0.004806000739336014,-0.05490748584270477
52.55578500,52555785,2,0.9984833002090454,-0.0009709198493510485,0.004856034182012081,-0.05483277514576912
52.65578300,52655783,2,0.998481273651123,-0.001007879269309342,0.004880231339484453,-0.054865989834070206
52.75576800,52755768,2,0.9984809160232544,-0.000988618703559041,0.004949960857629776,-0.054866641759872437
52.85570400,52855704,2,0.9984785914421082,-0.0009955666027963161,0.004939286038279533,-0.05491011589765549
52.95570500,52955705,2,0.9984796047210693,-0.0010203007841482759,0.004945076536387205,-0.05489085242152214
53.05571200,53055712,2,0.9984785318374634,-0.0010201893746852875,0.004944946616888046,-0.0549100860953331
53.15571900,53155719,2,0.998477041721344,-0.0010714797535911202,0.004921626765280962,-0.05493829399347305
53.25572900,53255729,2,0.9984792470932007,-0.001092728809453547,0.004898741841316223,-0.0548999197781086
53.35576200,53355762,2,0.998477578163147,-0.001070316880941391,0.0049390243366360664,-0.05492711067199707
53.45580100,53455801,2,0.9984771609306335,-0.0011321069905534387,0.004917613696306944,-0.05493520200252533
53.55577300,53555773,2,0.9984786510467529,-0.0011128676123917103,0.004876447841525078,-0.054911818355321884
53.65576900,53655769,2,0.9984772801399231,-0.0011020872043445706,0.004845030605792999,-0.05494014918804169
53.75570800,53755708,2,0.99847412109375,-0.001095290994271636,0.004864260088652372,-0.054995760321617126
53.85570800,53855708,2,0.9984714984893799,-0.0011151110520586371,0.004824427887797356,-0.05504646524786949
53.95570300,53955703,2,0.998466968536377,-0.0011569592170417309,0.004819442052394152,-0.05512835457921028
54.05573700,54055737,2,0.9984654188156128,-0.0011475867358967662,0.004810555838048458,-0.05515717342495918
54.15572100,54155721,2,0.9984644651412964,-0.0011629867367446423,0.004792714957147837,-0.05517563223838806
54.25575300,54255753,2,0.9984642863273621,-0.0012508395593613386,0.004797778092324734,-0.05517644062638283
54.35580400,54355804,2,0.9984632730484009,-0.0012381066335365176,0.004808682017028332,-0.055194564163684845
54.45577400,54455774,2,0.9984616637229919,-0.0012005940079689026,0.004873144906014204,-0.05521918833255768
54.55576000,54555760,2,0.9984610080718994,-0.001202819519676268,0.0049070208333432674,-0.055227335542440414
54.65571600,54655716,2,0.9984606504440308,-0.0011970652267336845,0.004881798289716244,-0.05523667857050896
54.75571000,54755710,2,0.9984604120254517,-0.0011868240544572473,0.004913341719657183,-0.05523783713579178
54.85572100,54855721,2,0.9984604716300964,-0.0011939920950680971,0.004878082778304815,-0.05523986369371414
54.95573600,54955736,2,0.9984638690948486,-0.0012022284790873528,0.004854676779359579,-0.05518019199371338
55.05571300,55055713,2,0.9984627962112427,-0.0011937564704567194,0.004832556936889887,-0.05520179122686386
55.15576300,55155763,2,0.998462438583374,-0.0011578366393223405,0.004809372127056122,-0.055211663246154785
55.25579200,55255792,2,0.9984596967697144,-0.0011678094742819667,0.0048104580491781235,-0.055260930210351944
55.35578400,55355784,2,0.9984559416770935,-0.001186564564704895,0.004806233569979668,-0.055328369140625
55.45576300,55455763,2,0.998455822467804,-0.0011955780209973454,0.004771781153976917,-0.05533329397439957
55.55570400,55555704,2,0.9984538555145264,-0.0012081882450729609,0.00477059930562973,-0.05536867305636406
55.65570700,55655707,2,0.9984493255615234,-0.0011897551594302058,0.004846765194088221,-0.05544373765587807
55.75570700,55755707,2,0.9984462857246399,-0.0012207294348627329,0.004897694569081068,-0.05549342930316925
55.85572000,55855720,2,0.9984443783760071,-0.0011987038888037205,0.004916163627058268,-0.05552685633301735
55.95571300,55955713,2,0.9984471797943115,-0.001170618925243616,0.004954062402248383,-0.05547378957271576
56.05574900,56055749,2,0.9984496235847473,-0.0011903633130714297,0.004956116434186697,-0.0554288774728775
56.15578600,56155786,2,0.9984520077705383,-0.0012182844802737236,0.004964026156812906,-0.055384211242198944
56.25577000,56255770,2,0.9984557032585144,-0.0012330303434282541,0.004973679315298796,-0.05531659349799156
56.35576300,56355763,2,0.9984581470489502,-0.001253612106665969,0.004981555975973606,-0.055271491408348083
56.45570700,56455707,2,0.9984584450721741,-0.001231766538694501,0.00499639892950654,-0.05526566877961159
56.55570600,56555706,2,0.9984618425369263,-0.0012277228524908423,0.005073931533843279,-0.05519662797451019
56.65570600,56655706,2,0.9984630942344666,-0.0012709773145616055,0.005031181965023279,-0.05517761409282684
56.75572100,56755721,2,0.9984625577926636,-0.001312368898652494,0.005020684562623501,-0.05518723279237747
56.85570500,56855705,2,0.9984614849090576,-0.0012804953148588538,0.0050135161727666855,-0.05520772561430931
56.95575800,56955758,2,0.9984580874443054,-0.0013072487199679017,0.005020963493734598,-0.05526798218488693
57.05578600,57055786,2,0.9984594583511353,-0.0013595139607787132,0.005038529168814421,-0.05524015054106712
57.15577300,57155773,2,0.9984622597694397,-0.0013682970311492682,0.005049161612987518,-0.05518821254372597
57.25576200,57255762,2,0.9984639286994934,-0.0014076018705964088,0.005023487843573093,-0.05515933409333229
57.35570900,57355709,2,0.9984636306762695,-0.0014265578938648105,0.005075272638350725,-0.05515991896390915
57.45570900,57455709,2,0.9984660148620605,-0.0014598123962059617,0.005095912143588066,-0.05511382967233658
57.55570500,57555705,2,0.9984680414199829,-0.0014559277333319187,0.005098589230328798,-0.05507642403244972
57.65573500,57655735,2,0.9984704256057739,-0.001436095335520804,0.005061635281890631,-0.05503763630986214
57.75573800,57755738,2,0.9984724521636963,-0.0014256829163059592,0.005047553218901157,-0.05500207096338272
57.85575500,57855755,2,0.998475968837738,-0.0014475095085799694,0.0050326925702393055,-0.054939154535532
57.95579200,57955792,2,0.998478889465332,-0.0014196488773450255,0.00500773498788476,-0.05488860234618187
58.05578100,58055781,2,0.9984846711158752,-0.0014748743269592524,0.005014259833842516,-0.05478142946958542
58.15576700,58155767,2,0.9984889626502991,-0.0014448992442339659,0.005036235321313143,-0.05470222234725952
58.25570500,58255705,2,0.998490571975708,-0.00148102012462914,0.005010579247027636,-0.05467471480369568
58.35570600,58355706,2,0.9984946846961975,-0.0014546901220455766,0.005056947935372591,-0.05459566414356232
58.45570700,58455707,2,0.9984978437423706,-0.0014790525892749429,0.005071298219263554,-0.05453532934188843
58.55573100,58555731,2,0.9984980821609497,-0.0015031100483611226,0.005060358438640833,-0.054531462490558624
58.65572700,58655727,2,0.9985020756721497,-0.0015453528612852097,0.005085994955152273,-0.05445495620369911
58.75575900,58755759,2,0.9985046982765198,-0.0015062415041029453,0.005096028093248606,-0.054406967014074326
58.85577800,58855778,2,0.9985098838806152,-0.0015215344028547406,0.005094421561807394,-0.05431177467107773
58.95577000,58955770,2,0.9985131621360779,-0.001533177332021296,0.005045269150286913,-0.05425533652305603
59.05582000,59055820,2,0.9985167980194092,-0.001543583581224084,0.005031440872699022,-0.054189618676900864
59.15570500,59155705,2,0.9985195994377136,-0.0015666559338569641,0.005089933983981609,-0.05413138121366501
59.25570300,59255703,2,0.998519241809845,-0.0015647956170141697,0.005112569313496351,-0.054136402904987335
59.35571800,59355718,2,0.9985177516937256,-0.0015390992630273104,0.005103095900267363,-0.05416528135538101
59.45572200,59455722,2,0.9985167384147644,-0.0015283372486010194,0.005077606067061424,-0.05418698862195015
59.55571500,59555715,2,0.9985183477401733,-0.0014994184020906687,0.00509666558355093,-0.05415624752640724
59.65575800,59655758,2,0.998521089553833,-0.0014887432334944606,0.005121306050568819,-0.05410338565707207
59.75578200,59755782,2,0.9985211491584778,-0.0015000698622316122,0.005121701862663031,-0.054102204740047455
59.85577800,59855778,2,0.9985206127166748,-0.0014801796060055494,0.005096374545246363,-0.05411462113261223
59.95575100,59955751,2,0.9985207915306091,-0.0014711364638060331,0.005101761780679226,-0.054111652076244354
60.05571000,60055710,2,0.9985217452049255,-0.0014267722144722939,0.005080405622720718,-0.05409715697169304
60.15570700,60155707,2,0.9985218644142151,-0.0014382657827809453,0.005055240821093321,-0.05409655347466469
60.25570500,60255705,2,0.9985221028327942,-0.0014146496541798115,0.004993103910237551,-0.0540989451110363
60.35573700,60355737,2,0.9985193610191345,-0.0014578459085896611,0.0049743810668587685,-0.05415044724941254
60.45574000,60455740,2,0.9985191822052002,-0.001469388254918158,0.005023927427828312,-0.054148804396390915
60.55575200,60555752,2,0.9985219240188599,-0.0014836568152531981,0.004976110532879829,-0.05410189554095268
60.65580200,60655802,2,0.9985188245773315,-0.0015345431165769696,0.004997661337256432,-0.054155394434928894
60.75578400,60755784,2,0.9985175728797913,-0.001514842384494841,0.00495702913030982,-0.05418340489268303
60.85575000,60855750,2,0.9985177516937256,-0.0014662534231320024,0.004947611130774021,-0.05418212339282036
60.95570300,60955703,2,0.9985153079032898,-0.001439182204194367,0.004948787856847048,-0.054227013140916824
61.05571500,61055715,2,0.998515248298645,-0.001447429764084518,0.004995443392544985,-0.05422455072402954
61.15570500,61155705,2,0.9985179901123047,-0.001446402515284717,0.004975380375981331,-0.05417575314640999
61.25573400,61255734,2,0.9985188245773315,-0.0013880636543035507,0.004934355150908232,-0.054165057837963104
61.35572100,61355721,2,0.9985176920890808,-0.001336617860943079,0.0049151587300002575,-0.054189249873161316
61.45575900,61455759,2,0.9985191226005554,-0.0013240486150607467,0.00492393784224987,-0.05416249856352806
61.55582400,61555824,2,0.9985224604606628,-0.0013502964284271002,0.004922620952129364,-0.054100677371025085
61.65577500,61655775,2,0.9985238313674927,-0.001405472168698907,0.004936241544783115,-0.0540727935731411
61.75574400,61755744,2,0.9985252022743225,-0.0014309787657111883,0.004953199997544289,-0.054044753313064575
61.85571700,61855717,2,0.9985284209251404,-0.001466425252147019,0.004925257991999388,-0.053987231105566025
61.95570700,61955707,2,0.9985275864601135,-0.0014560127165168524,0.004922761581838131,-0.05400306358933449
62.05570700,62055707,2,0.9985283613204956,-0.0014817904448136687,0.004933207295835018,-0.05398724600672722
62.15572500,62155725,2,0.9985293745994568,-0.0015396781964227557,0.004921163897961378,-0.053967900574207306
62.25571400,62255714,2,0.9985304474830627,-0.0015633458970114589,0.004904638510197401,-0.05394819751381874
62.35575900,62355759,2,0.9985296130180359,-0.0015560098690912127,0.00489401537925005,-0.053964968770742416
62.45579100,62455791,2,0.9985314011573792,-0.001541564124636352,0.004876102786511183,-0.053933918476104736
62.55576800,62555768,2,0.9985300302505493,-0.0014845480909571052,0.004845221992582083,-0.05396397039294243
62.65575200,62655752,2,0.9985289573669434,-0.001490508089773357,0.004788963124155998,-0.053988486528396606
62.75571200,62755712,2,0.9985297918319702,-0.0014799584168940783,0.0048306952230632305,-0.05396965518593788
62.85570100,62855701,2,0.998530387878418,-0.0014888693112879992,0.00484614260494709,-0.053956642746925354
62.95570300,62955703,2,0.998531699180603,-0.0015199239132925868,0.004840531386435032,-0.0539327934384346
63.05573100,63055731,2,0.9985289573669434,-0.0015160755719989538,0.004871109034866095,-0.053980402648448944
63.15570700,63155707,2,0.9985271096229553,-0.0015124328201636672,0.004832607693970203,-0.05401769280433655
63.25575800,63255758,2,0.9985284209251404,-0.001530788722448051,0.004862970672547817,-0.05399070680141449
63.35579000,63355790,2,0.9985290765762329,-0.0015239482745528221,0.004919803701341152,-0.05397394299507141
63.45577300,63455773,2,0.998529851436615,-0.0015371930785477161,0.004989073611795902,-0.053952474147081375
63.55576100,63555761,2,0.9985328316688538,-0.0015778266824781895,0.004989923443645239,-0.05389638617634773
63.65570300,63655703,2,0.9985348582267761,-0.0015726370038464665,0.005069155711680651,-0.05385175719857216
63.75570600,63755706,2,0.9985353946685791,-0.001529681496322155,0.005156659986823797,-0.053834665566682816
63.85570800,63855708,2,0.9985354542732239,-0.001488807494752109,0.005198635160923004,-0.053830549120903015
63.95573200,63955732,2,0.9985377192497253,-0.0015267378184944391,0.005248175002634525,-0.05378223955631256
64.05571400,64055714,2,0.9985383152961731,-0.0015304345870390534,0.005210516508668661,-0.05377517268061638
64.15574800,64155748,2,0.9985416531562805,-0.0015029398491606116,0.005197158083319664,-0.053715482354164124
64.25578300,64255783,2,0.9985438585281372,-0.0015515533741563559,0.005142095033079386,-0.05367831885814667
64.35578500,64355785,2,0.9985449314117432,-0.001531352405436337,0.005139117129147053,-0.053659241646528244
64.45576400,64455764,2,0.9985454082489014,-0.001550369313918054,0.005095351487398148,-0.05365326255559921
64.55569500,64555695,2,0.998548150062561,-0.0015571500407531857,0.005123460665345192,-0.05360007286071777
64.65569700,64655697,2,0.9985519647598267,-0.0015376301016658545,0.005036105867475271,-0.05353737995028496
64.75570400,64755704,2,0.9985544085502625,-0.0015530661912634969,0.00505366176366806,-0.053489625453948975
64.85571800,64855718,2,0.9985604882240295,-0.001509026507847011,0.005120015237480402,-0.05337041616439819
64.95570900,64955709,2,0.9985635876655579,-0.001516452757641673,0.005112387239933014,-0.053313080221414566
65.05575300,65055753,2,0.9985647201538086,-0.0015167667297646403,0.005089441780000925,-0.05329400300979614
65.15581000,65155810,2,0.9985676407814026,-0.0015379168326035142,0.0051160273142158985,-0.05323623865842819
65.25577200,65255772,2,0.9985700845718384,-0.001575987203978002,0.005123130977153778,-0.05318880453705788
65.35574700,65355747,2,0.9985707998275757,-0.0015242582885548472,0.005094730295240879,-0.05317961052060127
65.45569400,65455694,2,0.9985700845718384,-0.0014933986822143197,0.005075800698250532,-0.05319582298398018
65.55569300,65555693,2,0.9985717535018921,-0.001481272280216217,0.005007030908018351,-0.05317169800400734
65.65569600,65655696,2,0.9985733032226562,-0.0014759608311578631,0.004983485210686922,-0.05314488336443901
65.75571200,65755712,2,0.9985714554786682,-0.001473841373808682,0.004984801635146141,-0.05317937955260277
65.85572500,65855725,2,0.9985726475715637,-0.001431465265341103,0.004974257200956345,-0.05315869674086571
65.95575100,65955751,2,0.998574435710907,-0.001399920554831624,0.004924729000777006,-0.053131066262722015
