timestamp,TimeUS,DesRoll,Roll,DesPitch,Pitch,DesYaw,Yaw,ErrRP,ErrYaw,AEKF
1682339297.82036901,75019352,0.0,-0.58,0.0,0.91,97.12,97.11,0.0,0.01,3
1682339297.92027211,75119255,0.0,-0.59,0.0,0.91,97.12,97.10000000000001,0.0,0.01,3
1682339298.02028012,75219263,0.0,-0.59,0.0,0.91,97.12,97.10000000000001,0.0,0.01,3
1682339298.12023306,75319216,0.0,-0.59,0.0,0.91,97.12,97.09,0.0,0.02,3
1682339298.22028208,75419265,0.0,-0.59,0.0,0.91,97.12,97.09,0.0,0.02,3
1682339298.32046914,75519452,0.0,-0.59,0.0,0.9,97.12,97.10000000000001,0.0,0.02,3
1682339298.41993093,75618914,0.0,-0.6,0.0,0.9,97.12,97.10000000000001,0.0,0.02,3
1682339298.52000713,75718990,0.0,-0.6,0.0,0.9,97.12,97.11,0.0,0.01,3
1682339298.62005401,75819037,0.0,-0.6,0.0,0.9,97.12,97.10000000000001,0.01,0.01,3
1682339298.72017002,75919153,0.0,-0.6,0.0,0.89,97.12,97.10000000000001,0.01,0.01,3
1682339298.82011199,76019095,0.0,-0.59,0.0,0.89,97.12,97.09,0.01,0.01,3
1682339298.92010593,76119089,0.0,-0.59,0.0,0.88,97.12,97.09,0.01,0.01,3
1682339299.02028394,76219267,0.0,-0.59,0.0,0.88,97.12,97.07000000000001,0.01,0.02,3
1682339299.11999607,76318979,0.0,-0.59,0.0,0.87,97.12,97.06,0.01,0.02,3
1682339299.22003603,76419019,0.0,-0.58,0.0,0.87,97.12,97.04,0.01,0.03,3
1682339299.31993604,76518919,0.0,-0.58,0.0,0.87,97.12,97.03,0.01,0.02,3
1682339299.42001104,76618994,0.0,-0.58,0.0,0.87,97.12,97.02,0.01,0.02,3
1682339299.52004313,76719026,0.0,-0.5700000000000001,0.0,0.87,97.12,97.02,0.01,0.02,3
1682339299.62015295,76819136,0.0,-0.5700000000000001,0.0,0.86,97.12,97.02,0.01,0.02,3
1682339299.72013211,76919115,0.0,-0.56,0.0,0.86,97.12,97.01,0.01,0.02,3
1682339299.82007003,77019053,0.0,-0.55,0.0,0.86,97.0,97.0,0.01,0.01,3
1682339299.92030406,77119287,0.0,-0.55,0.0,0.86,97.0,97.0,0.01,0.02,3
1682339300.02031016,77219293,0.0,-0.54,0.0,0.86,96.98,96.98,0.01,0.02,3
1682339300.12030411,77319287,0.0,-0.54,0.0,0.86,96.96000000000001,96.96000000000001,0.01,0.03,3
1682339300.21997499,77418958,0.0,-0.54,0.0,0.86,96.94,96.94,0.01,0.02,3
1682339300.32002115,77519004,0.0,-0.53,0.0,0.86,96.93,96.92,0.01,0.02,3
1682339300.42004895,77619032,0.0,-0.53,0.0,0.86,96.93,96.91,0.01,0.02,3
1682339300.52017498,77719158,0.0,-0.53,0.0,0.86,96.93,96.89,0.01,0.02,3
1682339300.62013507,77819118,0.0,-0.52,0.0,0.86,96.93,96.89,0.01,0.02,3
1682339300.72011304,77919096,0.0,-0.52,0.0,0.85,96.93,96.86,0.01,0.02,3
1682339300.82015014,78019133,0.0,-0.52,0.0,0.86,96.93,96.88,0.01,0.02,3
1682339300.92000604,78118989,0.0,-0.52,0.0,0.86,96.93,96.86,0.01,0.02,3
1682339301.02031803,78219301,0.0,-0.52,0.0,0.85,96.93,96.84,0.01,0.02,3
1682339301.11992407,78318907,0.0,-0.53,0.0,0.84,96.93,96.85000000000001,0.01,0.02,3
1682339301.22031403,78419297,0.0,-0.47000000000000003,0.0,0.81,96.93,96.85000000000001,0.02,0.02,3
1682339301.32027912,78519262,0.0,-0.45,0.0,0.8,96.93,96.81,0.02,0.02,3
1682339301.42034793,78619331,0.0,-0.44,0.0,0.79,96.93,96.83,0.02,0.04,3
1682339301.52032304,78719306,0.0,-0.5,0.0,0.77,96.93,96.85000000000001,0.02,0.03,3
1682339301.62032294,78819306,0.0,-0.45,0.0,0.78,96.93,96.8,0.02,0.03,3
1682339301.72029305,78919276,0.0,-0.48,0.0,0.78,96.93,96.81,0.02,0.02,3
1682339301.82030201,79019285,0.0,-0.44,0.0,0.77,96.93,96.83,0.02,0.03,3
1682339301.92032194,79119305,0.0,-0.41000000000000003,0.0,0.78,96.93,96.82000000000001,0.02,0.04,3
1682339302.02026200,79219245,0.0,-0.45,0.0,0.77,96.93,96.84,0.02,0.04,3
1682339302.12061405,79319597,0.0,-0.41000000000000003,0.0,0.78,96.93,96.86,0.02,0.04,3
1682339302.22033906,79419322,0.0,-0.4,0.0,0.78,96.93,96.85000000000001,0.02,0.03,3
1682339302.32018995,79519173,0.0,-0.43,0.0,0.75,96.93,96.83,0.02,0.03,3
1682339302.42028499,79619268,0.0,-0.4,0.0,0.77,96.93,96.87,0.02,0.04,3
1682339302.52026415,79719247,0.0,-0.43,0.0,0.71,96.93,96.9,0.02,0.08,3
1682339302.62050104,79819484,0.0,-0.32,0.0,0.44,96.93,96.96000000000001,0.02,0.13,3
1682339302.72025895,79919242,-0.14,0.17,0.25,-0.13,96.93,97.01,0.02,0.17,3
1682339302.82028699,80019270,-0.24,0.48,0.51,0.09,96.93,97.04,0.02,0.21,3
1682339302.92026401,80119247,-0.26,0.3,0.67,0.32,96.93,97.05,0.02,0.21,3
1682339303.02059507,80219578,-0.49,0.16,0.77,0.29,96.93,97.02,0.02,0.2,3
1682339303.12032509,80319308,-0.91,0.15,0.77,0.32,96.93,96.97,0.02,0.21,3
1682339303.22045398,80419437,-1.12,-0.38,0.74,0.36,96.93,96.89,0.02,0.2,3
1682339303.32036614,80519349,-1.07,-0.85,0.68,0.28,96.93,96.77,0.02,0.19,3
1682339303.42015314,80619136,-1.1,-0.74,0.58,0.29,96.93,96.63,0.02,0.19,3
1682339303.52010703,80719090,-1.1300000000000001,-0.77,0.45,0.42,96.93,96.44,0.02,0.18,3
1682339303.62031603,80819299,-1.08,-0.9400000000000001,0.36,0.33,96.93,96.25,0.03,0.18,3
1682339303.72001195,80918995,-0.97,-0.85,0.31,0.23,96.93,96.08,0.03,0.19,3
1682339303.81994510,81018928,-0.79,-0.9,0.31,0.09,96.93,95.93,0.04,0.19,3
1682339303.92003512,81119018,-0.28,-0.63,0.36,0.02,96.93,95.78,0.04,0.19,3
1682339304.02010608,81219089,0.38,0.15,0.42,0.22,96.93,95.68,0.04,0.18,3
1682339304.12041497,81319398,1.1,1.25,0.49,0.42,96.93,95.57000000000001,0.04,0.15,3
1682339304.22038913,81419372,1.52,2.05,0.54,0.48,96.93,95.49,0.03,0.14,3
1682339304.32015896,81519142,1.58,2.32,0.54,0.52,96.93,95.41,0.03,0.15,3
1682339304.42013907,81619122,1.44,2.08,0.43,0.39,96.93,95.31,0.03,0.15,3
1682339304.52002406,81719007,1.17,1.58,0.28,0.13,96.93,95.23,0.03,0.14,3
1682339304.62027097,81819254,0.8200000000000001,1.24,0.05,0.04,96.93,95.2,0.02,0.14,3
1682339304.71994114,81918924,0.55,0.8200000000000001,-0.15,-0.24,96.93,95.16,0.02,0.14,3
1682339304.82001305,82018996,0.34,0.44,-0.65,-0.5700000000000001,96.93,95.16,0.02,0.14,3
1682339304.92008710,82119070,0.23,0.24,-1.71,-1.12,96.93,95.17,0.02,0.13,3
1682339305.02021909,82219202,0.17,0.22,-2.42,-2.52,96.93,95.19,0.02,0.14,3
1682339305.12016797,82319151,0.2,0.08,-3.06,-3.3000000000000003,96.93,95.23,0.02,0.16,3
1682339305.22020912,82419192,0.27,0.02,-3.42,-3.75,96.93,95.26,0.02,0.16,3
1682339305.32033014,82519313,0.33,0.17,-3.31,-3.89,96.93,95.3,0.02,0.16,3
1682339305.42001915,82619002,0.39,0.33,-3.41,-3.37,96.93,95.35000000000001,0.03,0.16,3
1682339305.52001595,82718999,0.45,0.46,-3.5,-3.35,96.93,95.4,0.03,0.14,3
1682339305.61995912,82818942,0.49,0.62,-3.5100000000000002,-3.48,96.93,95.46000000000001,0.03,0.14,3
1682339305.72002006,82919003,0.49,0.63,-3.5500000000000003,-3.27,96.93,95.52,0.03,0.13,3
1682339305.82004809,83019031,0.5,0.5700000000000001,-3.63,-3.33,96.93,95.57000000000001,0.04,0.12,3
1682339305.92019510,83119178,0.51,0.62,-3.65,-3.46,96.93,95.60000000000001,0.04,0.13,3
1682339306.02015996,83219143,0.52,0.5700000000000001,-3.68,-3.41,96.93,95.64,0.05,0.12,3
1682339306.12010193,83319085,0.54,0.6,-3.73,-3.5,96.93,95.69,0.05,0.12,3
1682339306.22036505,83419348,0.54,0.67,-3.73,-3.56,96.93,95.72,0.06,0.12,3
1682339306.32033300,83519316,0.5700000000000001,0.51,-3.66,-3.54,96.93,95.77,0.06,0.12,3
1682339306.42032504,83619308,0.59,0.67,-3.5700000000000003,-3.41,96.93,95.8,0.09,0.1,3
1682339306.51992702,83718910,0.6,0.77,-3.5100000000000002,-3.2600000000000002,96.93,95.85000000000001,0.09,0.1,3
1682339306.62040496,83819388,0.55,0.63,-3.3200000000000003,-3.2600000000000002,96.93,95.9,0.08,0.1,3
1682339306.72025895,83919242,0.49,0.58,-3.16,-3.0,96.93,95.97,0.08,0.1,3
1682339306.82038212,84019365,0.43,0.53,-3.0700000000000003,-2.84,96.93,96.03,0.08,0.11,3
1682339306.92035604,84119339,0.36,0.41000000000000003,-3.06,-2.77,96.93,96.10000000000001,0.08,0.1,3
1682339307.02036095,84219344,0.33,0.31,-3.0500000000000003,-2.82,96.93,96.13,0.07,0.1,3
1682339307.12041616,84319399,0.29,0.3,-3.06,-2.79,96.96000000000001,96.15,0.07,0.09,3
1682339307.22036505,84419348,0.29,0.23,-3.13,-2.84,97.18,96.19,0.06,0.09,3
1682339307.32057095,84519554,0.34,0.27,-3.27,-3.0100000000000002,97.18,96.24000000000001,0.06,0.09,3
1682339307.41995716,84618940,0.43,0.34,-3.36,-3.17,97.18,96.3,0.06,0.09,3
1682339307.52000499,84718988,0.51,0.51,-3.22,-3.22,97.18,96.32000000000001,0.06,0.1,3
1682339307.62024403,84819227,0.58,0.63,-2.64,-2.8000000000000003,97.18,96.36,0.06,0.08,3
1682339307.72034097,84919324,0.67,0.6,-1.95,-1.8900000000000001,97.18,96.41,0.06,0.07,3
1682339307.82029009,85019273,0.72,0.71,-1.26,-1.06,97.18,96.43,0.07,0.06,3
1682339307.92029309,85119276,0.8,0.77,-0.44,-0.37,97.18,96.44,0.07,0.06,3
1682339308.02027297,85219256,0.84,0.75,0.36,0.56,97.18,96.47,0.07,0.07,3
1682339308.12027693,85319260,0.88,0.79,1.05,1.33,97.18,96.51,0.07,0.08,3
1682339308.22030902,85419292,0.92,0.8300000000000001,1.2,1.82,97.39,96.59,0.08,0.09,3
1682339308.32016397,85519147,0.9,0.9400000000000001,0.98,1.55,98.28,96.73,0.08,0.11,3
1682339308.42057705,85619560,0.75,0.77,-0.15,0.89,99.03,97.08,0.06,0.12,3
1682339308.52005816,85719041,0.46,0.79,-1.4000000000000001,-0.76,99.3,97.5,0.06,0.13,3
1682339308.62018299,85819166,0.3,0.37,-1.8900000000000001,-2.52,99.58,97.96000000000001,0.06,0.15,3
1682339308.72012901,85919112,0.5700000000000001,0.31,-1.69,-2.5500000000000003,99.58,98.44,0.06,0.16,3
1682339308.82013512,86019118,0.93,0.7000000000000001,-1.2,-1.41,99.58,98.87,0.06,0.15,3
1682339308.92014098,86119124,1.2,1.1300000000000001,-0.5,-0.63,99.58,99.24000000000001,0.06,0.12,3
1682339309.02001500,86218998,1.36,1.3900000000000001,0.25,0.26,99.58,99.56,0.07,0.11,3
1682339309.11998105,86318964,1.44,1.55,1.04,1.1500000000000001,99.58,99.83,0.07,0.11,3
1682339309.22006512,86419048,1.44,1.61,1.83,1.9100000000000001,99.58,100.05,0.08,0.12,3
1682339309.32029700,86519280,1.35,1.48,2.62,2.68,99.58,100.21000000000001,0.08,0.12,3
1682339309.42032099,86619304,1.22,1.23,3.42,3.5,99.58,100.31,0.07,0.12,3
1682339309.52035999,86719343,1.04,1.08,4.22,4.29,99.58,100.36,0.07,0.13,3
1682339309.62034607,86819329,0.8200000000000001,0.84,5.0200000000000005,5.03,99.58,100.33,0.08,0.13,3
1682339309.72008395,86919067,0.65,0.64,5.82,5.79,99.58,100.27,0.08,0.12,3
1682339309.82013297,87019116,0.51,0.48,6.62,6.61,99.58,100.19,0.07,0.11,3
1682339309.92001104,87118994,0.46,0.33,7.42,7.38,99.58,100.08,0.07,0.12,3
1682339310.02001500,87218998,0.47000000000000003,0.31,7.8500000000000005,8.08,99.58,99.94,0.08,0.12,3
1682339310.11993599,87318919,0.48,0.41000000000000003,7.71,8.21,99.58,99.75,0.08,0.11,3
1682339310.22007298,87419056,0.52,0.37,7.22,7.48,99.58,99.55,0.07,0.12,3
1682339310.32008815,87519071,0.53,0.38,5.96,6.48,99.58,99.35000000000001,0.07,0.13,3
1682339310.42018914,87619172,0.5,0.36,4.5200000000000005,4.61,99.58,99.12,0.06,0.15,3
1682339310.52034307,87719326,0.47000000000000003,0.25,3.17,2.71,99.58,98.91,0.06,0.17,3
1682339310.62032199,87819305,0.41000000000000003,0.24,1.96,1.36,99.58,98.71000000000001,0.07,0.17,3
1682339310.72026014,87919243,0.34,0.33,1.05,0.3,99.58,98.55,0.07,0.18,3
1682339310.82026505,88019248,0.25,0.21,0.9,-0.22,99.58,98.38,0.07,0.18,3
1682339310.92026997,88119253,0.2,0.21,1.21,0.23,99.58,98.27,0.07,0.16,3
1682339311.02017212,88219155,0.17,0.11,1.76,1.12,99.58,98.2,0.06,0.14,3
1682339311.12019706,88319180,0.12,0.11,2.42,1.8800000000000001,99.58,98.16,0.06,0.11,3
1682339311.22025108,88419234,0.1,0.06,2.75,2.71,99.58,98.14,0.05,0.1,3
1682339311.32034397,88519327,0.08,-0.02,2.74,2.85,99.58,98.15,0.05,0.08,3
1682339311.42028403,88619267,0.07,0.02,2.5100000000000002,2.52,99.58,98.17,0.04,0.09,3
1682339311.52027106,88719254,0.09,0.11,2.12,2.13,99.58,98.23,0.04,0.08,3
1682339311.62031698,88819300,0.05,0.11,1.7,1.58,99.58,98.29,0.04,0.08,3
1682339311.72000504,88918988,0.02,0.04,1.31,1.05,99.58,98.37,0.04,0.08,3
1682339311.82034111,89019324,0.0,-0.01,0.99,0.72,99.58,98.46000000000001,0.03,0.08,3
1682339311.92029595,89119279,-0.04,0.07,0.8200000000000001,0.46,99.58,98.55,0.03,0.08,3
1682339312.02030396,89219287,-0.08,0.11,0.74,0.42,99.58,98.62,0.03,0.06,3
1682339312.12031007,89319293,-0.15,-0.03,0.75,0.42,99.58,98.73,0.03,0.07,3
1682339312.22044706,89419430,-0.21,-0.07,0.81,0.54,99.58,98.8,0.02,0.08,3
1682339312.32036304,89519346,-0.25,-0.17,0.9,0.74,99.58,98.89,0.02,0.09,3
1682339312.42032695,89619310,-0.25,-0.21,1.0,0.79,99.58,98.96000000000001,0.02,0.1,3
1682339312.52049899,89719482,-0.28,-0.18,1.07,1.0,99.58,99.07000000000001,0.02,0.09,3
1682339312.62032604,89819309,-0.27,-0.24,1.1500000000000001,1.02,99.58,99.13,0.01,0.08,3
1682339312.72034097,89919324,-0.28,-0.25,1.23,1.08,99.58,99.19,0.01,0.07,3
1682339312.81996107,90018944,-0.29,-0.34,1.26,1.17,99.58,99.23,0.01,0.08,3
1682339312.92005014,90119033,-0.31,-0.19,1.28,1.2,99.58,99.25,0.01,0.08,3
1682339313.02007914,90219062,-0.31,-0.33,1.28,1.19,99.58,99.25,0.01,0.07,3
1682339313.12018895,90319172,-0.36,-0.2,1.28,1.22,99.58,99.23,0.01,0.07,3
1682339313.22020316,90419186,-0.36,-0.29,1.28,1.21,99.58,99.22,0.01,0.06,3
1682339313.32017112,90519154,-0.3,-0.19,1.19,1.24,99.58,99.19,0.01,0.06,3
1682339313.42040396,90619387,-0.22,-0.16,1.06,1.09,99.58,99.15,0.02,0.05,3
1682339313.52031803,90719301,-0.08,0.01,0.8300000000000001,0.9500000000000001,99.58,99.12,0.02,0.06,3
1682339313.62003016,90819013,0.0,0.16,0.64,0.63,99.58,99.08,0.02,0.06,3
1682339313.71996403,90918947,0.07,0.28,0.52,0.49,99.58,99.02,0.02,0.06,3
1682339313.82002902,91019012,0.12,0.26,0.44,0.37,99.58,98.99000000000001,0.02,0.06,3
1682339313.92006993,91119053,0.13,0.32,0.42,0.37,99.58,98.95,0.02,0.07,3
1682339314.02019000,91219173,0.13,0.2,0.37,0.31,99.58,98.91,0.01,0.07,3
1682339314.12034512,91319328,0.1,0.25,0.35000000000000003,0.34,99.58,98.91,0.01,0.06,3
1682339314.22038794,91419371,0.14,0.11,0.31,0.28,99.58,98.91,0.01,0.05,3
1682339314.32033610,91519319,0.16,0.25,0.26,0.31,99.58,98.91,0.01,0.04,3
1682339314.42002416,91619007,0.18,0.21,0.22,0.22,99.58,98.93,0.01,0.06,3
1682339314.52001810,91719001,0.2,0.3,0.17,0.19,99.58,98.95,0.01,0.05,3
1682339314.61998105,91818964,0.21,0.19,0.14,0.15,99.58,98.97,0.01,0.05,3
1682339314.72004914,91919032,0.22,0.27,0.11,0.16,99.58,99.04,0.01,0.05,3
1682339314.82007194,92019055,0.25,0.24,0.08,0.13,99.58,99.08,0.01,0.04,3
1682339314.92019200,92119175,0.29,0.42,0.09,0.1,99.58,99.14,0.01,0.04,3
1682339315.02037001,92219353,0.34,0.27,0.08,0.1,99.58,99.2,0.01,0.04,3
1682339315.12033010,92319313,0.41000000000000003,0.44,0.1,0.12,99.58,99.24000000000001,0.01,0.05,3
1682339315.22030401,92419287,0.44,0.41000000000000003,0.12,0.12,99.58,99.29,0.01,0.04,3
1682339315.32028413,92519267,0.45,0.44,0.11,0.18,99.57000000000001,99.34,0.01,0.03,3
1682339315.42028403,92619267,0.44,0.33,0.12,0.09,99.57000000000001,99.36,0.01,0.04,3
1682339315.52027607,92719259,0.42,0.45,0.11,0.17,99.58,99.4,0.01,0.03,3
1682339315.62061214,92819595,0.42,0.3,0.13,0.13,99.57000000000001,99.42,0.01,0.03,3
1682339315.72008610,92919069,0.43,0.24,0.14,0.11,99.57000000000001,99.42,0.01,0.03,3
1682339315.82019901,93019182,0.48,0.41000000000000003,0.17,0.21,99.57000000000001,99.43,0.01,0.02,3
1682339315.92017412,93119157,0.55,0.39,0.17,0.18,99.57000000000001,99.44,0.01,0.03,3
1682339316.02012610,93219109,0.5700000000000001,0.67,0.18,0.22,99.57000000000001,99.42,0.01,0.04,3
1682339316.12013912,93319122,0.65,0.62,0.16,0.21,99.57000000000001,99.4,0.01,0.05,3
1682339316.22014713,93419130,0.67,0.8,0.25,0.18,99.57000000000001,99.38,0.01,0.05,3
1682339316.32001495,93518998,0.72,0.85,0.47000000000000003,0.37,99.57000000000001,99.38,0.01,0.05,3
1682339316.41995811,93618941,0.78,0.88,0.49,0.6900000000000001,99.57000000000001,99.35000000000001,0.01,0.04,3
1682339316.52027893,93719262,0.88,1.07,0.24,0.55,99.57000000000001,99.32000000000001,0.01,0.04,3
1682339316.62024808,93819231,0.97,0.9500000000000001,-0.24,0.03,99.57000000000001,99.3,0.01,0.05,3
1682339316.72037101,93919354,1.05,1.1300000000000001,-0.75,-0.62,99.57000000000001,99.27,0.01,0.06,3
1682339316.82032609,94019309,1.28,1.24,-1.18,-1.1300000000000001,99.57000000000001,99.23,0.01,0.06,3
1682339316.92012215,94119105,1.81,1.41,-1.46,-1.59,99.57000000000001,99.2,0.01,0.06,3
1682339317.02012515,94219108,2.12,2.22,-1.6,-1.68,99.57000000000001,99.17,0.01,0.06,3
1682339317.11999798,94318981,2.27,2.43,-1.56,-1.72,99.57000000000001,99.15,0.01,0.06,3
1682339317.22004795,94419031,2.35,2.39,-1.59,-1.53,99.57000000000001,99.12,0.01,0.05,3
1682339317.31996012,94518943,2.39,2.45,-1.74,-1.49,99.57000000000001,99.11,0.01,0.05,3
1682339317.42003107,94619014,2.35,2.38,-2.0300000000000002,-1.83,99.57000000000001,99.08,0.01,0.04,3
1682339317.52004695,94719030,2.32,2.18,-2.19,-2.21,99.57000000000001,99.07000000000001,0.01,0.04,3
1682339317.62038612,94819369,2.27,2.22,-2.19,-2.21,99.57000000000001,99.05,0.01,0.04,3
1682339317.72034597,94919329,2.24,2.05,-2.08,-2.11,99.57000000000001,99.08,0.01,0.04,3
1682339317.82032704,95019310,2.22,2.09,-1.8900000000000001,-1.8800000000000001,99.57000000000001,99.10000000000001,0.02,0.03,3
1682339317.92029905,95119282,2.23,2.15,-1.77,-1.61,99.57000000000001,99.11,0.02,0.03,3
1682339318.02031302,95219296,2.25,2.13,-1.69,-1.54,99.57000000000001,99.14,0.03,0.04,3
1682339318.12031698,95319300,2.23,2.15,-1.61,-1.48,99.57000000000001,99.18,0.03,0.04,3
1682339318.22030902,95419292,2.2,2.05,-1.67,-1.3800000000000001,99.57000000000001,99.18,0.04,0.03,3
1682339318.32030010,95519283,1.99,2.0300000000000002,-1.86,-1.56,99.57000000000001,99.21000000000001,0.04,0.03,3
1682339318.42031002,95619293,1.72,1.6400000000000001,-1.99,-1.86,99.57000000000001,99.26,0.04,0.04,3
1682339318.52036905,95719352,1.58,1.3800000000000001,-2.0,-1.97,99.57000000000001,99.29,0.04,0.04,3
1682339318.62034011,95819323,1.49,1.34,-1.9000000000000001,-1.85,99.57000000000001,99.32000000000001,0.05,0.05,3
1682339318.72033811,95919321,1.43,1.46,-1.75,-1.6600000000000001,99.57000000000001,99.36,0.05,0.05,3
1682339318.82029605,96019279,1.42,1.23,-1.53,-1.4000000000000001,99.57000000000001,99.4,0.04,0.06,3
1682339318.92001414,96118997,1.43,1.37,-1.4000000000000001,-1.17,99.57000000000001,99.43,0.04,0.05,3
1682339319.02027106,96219254,1.44,1.4000000000000001,-1.27,-1.06,99.66,99.47,0.05,0.04,3
1682339319.12016106,96319144,1.42,1.29,-1.28,-0.96,100.02,99.5,0.05,0.05,3
1682339319.22026205,96419245,1.3900000000000001,1.25,-1.29,-1.09,100.41,99.65,0.06,0.04,3
1682339319.32021999,96519203,1.37,1.35,-1.28,-1.09,100.72,99.83,0.06,0.05,3
1682339319.42033315,96619316,1.2,1.19,-1.22,-1.05,101.03,100.07000000000001,0.05,0.05,3
1682339319.52027512,96719258,0.9,1.1300000000000001,-1.17,-0.96,101.24000000000001,100.34,0.05,0.04,3
1682339319.62025213,96819235,0.32,0.53,-1.1300000000000001,-0.93,101.24000000000001,100.63,0.04,0.05,3
1682339319.72050810,96919491,-0.36,-0.2,-1.1,-0.9500000000000001,101.24000000000001,100.89,0.04,0.06,3
1682339319.82025099,97019234,-1.1,-1.09,-1.06,-0.9400000000000001,101.24000000000001,101.11,0.04,0.05,3
1682339319.92025900,97119242,-1.87,-1.77,-1.03,-0.89,101.24000000000001,101.33,0.04,0.08,3
1682339320.02016807,97219151,-2.66,-2.68,-1.03,-0.9,101.24000000000001,101.53,0.05,0.08,3
1682339320.12021708,97319200,-3.24,-3.56,-1.04,-0.89,101.24000000000001,101.69,0.05,0.07,3
1682339320.22027707,97419260,-3.21,-3.83,-1.03,-0.91,101.24000000000001,101.81,0.05,0.07,3
1682339320.32032704,97519310,-2.8000000000000003,-3.2600000000000002,-0.86,-0.8300000000000001,101.24000000000001,101.9,0.05,0.07,3
1682339320.42034101,97619324,-2.21,-2.48,-0.64,-0.52,101.24000000000001,101.96000000000001,0.06,0.06,3
1682339320.52008605,97719069,-1.6300000000000001,-1.82,-0.55,-0.34,101.24000000000001,101.98,0.06,0.06,3
1682339320.62011909,97819102,-1.01,-1.03,-0.59,-0.37,101.24000000000001,102.01,0.06,0.06,3
1682339320.72000194,97918985,-0.34,-0.35000000000000003,-0.59,-0.5,101.24000000000001,102.01,0.06,0.05,3
1682339320.82000613,98018989,0.31,0.49,-0.61,-0.52,101.24000000000001,101.99000000000001,0.06,0.05,3
1682339320.91995811,98118941,0.9500000000000001,1.02,-0.59,-0.6,101.24000000000001,101.94,0.06,0.05,3
1682339321.02002406,98219007,1.34,1.54,-0.5,-0.53,101.24000000000001,101.87,0.06,0.05,3
1682339321.12009406,98319077,1.54,1.77,-0.1,-0.34,101.24000000000001,101.81,0.06,0.06,3
1682339321.22022700,98419210,1.6400000000000001,1.87,0.5,0.27,101.24000000000001,101.75,0.05,0.07,3
1682339321.32034707,98519330,1.68,1.84,1.21,1.1300000000000001,101.24000000000001,101.67,0.05,0.06,3
1682339321.42010593,98619089,1.6400000000000001,1.72,1.96,1.9100000000000001,101.24000000000001,101.60000000000001,0.05,0.05,3
1682339321.52012014,98719103,1.6500000000000001,1.73,2.73,2.71,101.24000000000001,101.52,0.05,0.06,3
1682339321.62001204,98818995,1.74,1.6400000000000001,3.52,3.59,101.24000000000001,101.42,0.05,0.07,3
1682339321.72002411,98919007,1.95,1.74,4.32,4.34,101.24000000000001,101.35000000000001,0.05,0.06,3
1682339321.82000303,99018986,2.05,2.0300000000000002,5.11,5.14,101.24000000000001,101.27,0.07,0.05,3
1682339321.92003107,99119014,1.99,2.05,5.43,5.87,101.24000000000001,101.2,0.07,0.04,3
1682339322.02009296,99219076,1.9100000000000001,1.82,4.8100000000000005,5.76,101.24000000000001,101.11,0.07,0.04,3
1682339322.12017012,99319153,1.78,1.8,3.74,4.3100000000000005,101.24000000000001,101.01,0.07,0.04,3
1682339322.22037601,99419359,1.56,1.6600000000000001,2.54,2.63,101.24000000000001,100.93,0.06,0.06,3
1682339322.32031298,99519296,1.2,1.1400000000000001,1.28,1.27,101.24000000000001,100.86,0.06,0.09,3
1682339322.42031503,99619298,0.85,0.86,0.37,-0.13,101.24000000000001,100.85000000000001,0.06,0.1,3
1682339322.52000308,99718986,0.29,0.45,0.0,-0.88,101.24000000000001,100.87,0.06,0.1,3
1682339322.62002110,99819004,-0.38,-0.26,0.15,-0.66,101.24000000000001,100.9,0.06,0.1,3
1682339322.71994209,99918925,-1.12,-1.1500000000000001,0.64,0.0,101.24000000000001,100.94,0.06,0.08,3
1682339322.82001996,100019003,-1.8900000000000001,-2.05,1.28,0.87,101.24000000000001,101.0,0.07,0.07,3
1682339322.92007208,100119055,-2.6,-2.73,2.0,1.76,101.24000000000001,101.03,0.07,0.06,3
1682339323.02016306,100219146,-2.83,-3.35,2.7600000000000002,2.56,101.24000000000001,101.08,0.06,0.05,3
1682339323.12014198,100319125,-2.67,-3.24,3.14,3.39,101.24000000000001,101.15,0.06,0.05,3
1682339323.22018313,100419166,-2.27,-2.63,2.96,3.5,101.24000000000001,101.29,0.07,0.05,3
1682339323.32031608,100519299,-1.75,-1.98,2.49,2.75,101.24000000000001,101.47,0.07,0.04,3
1682339323.42000508,100618988,-1.21,-1.19,1.8800000000000001,2.06,101.24000000000001,101.62,0.06,0.05,3
1682339323.52003312,100719016,-0.62,-0.75,1.1500000000000001,1.21,101.24000000000001,101.75,0.06,0.05,3
1682339323.62026405,100819247,-0.11,0.04,0.49,0.33,101.24000000000001,101.87,0.06,0.05,3
1682339323.72028804,100919271,0.16,0.5,0.17,-0.21,101.24000000000001,101.97,0.06,0.06,3
1682339323.82025695,101019240,0.28,0.53,0.0,-0.2,101.24000000000001,102.05,0.05,0.06,3
1682339323.92038393,101119367,0.24,0.46,-0.06,-0.31,101.24000000000001,102.09,0.05,0.05,3
1682339324.02032900,101219312,0.12,0.43,0.04,-0.22,101.24000000000001,102.13,0.05,0.06,3
1682339324.12035108,101319334,-0.02,0.2,0.47000000000000003,0.2,101.24000000000001,102.17,0.05,0.06,3
1682339324.22035813,101419341,-0.14,0.02,0.74,0.8300000000000001,101.24000000000001,102.19,0.04,0.05,3
1682339324.32031798,101519301,-0.2,-0.25,0.64,0.99,101.24000000000001,102.19,0.04,0.05,3
1682339324.42034197,101619325,-0.22,-0.16,0.42,0.61,101.24000000000001,102.2,0.03,0.04,3
1682339324.51996207,101718945,-0.22,-0.14,0.15,0.24,101.24000000000001,102.22,0.03,0.04,3
1682339324.62025714,101819240,-0.19,-0.24,-0.18,-0.1,101.24000000000001,102.23,0.03,0.04,3
1682339324.72024012,101919223,-0.14,-0.14,-0.51,-0.56,101.24000000000001,102.22,0.03,0.04,3
1682339324.82034898,102019332,-0.06,0.0,-0.93,-0.93,101.24000000000001,102.2,0.03,0.04,3
1682339324.92030501,102119288,-0.02,0.02,-0.77,-1.26,101.24000000000001,102.18,0.03,0.04,3
1682339325.02027011,102219253,0.0,0.07,-0.27,-0.71,101.24000000000001,102.14,0.03,0.03,3
1682339325.12025714,102319240,0.0,-0.05,0.39,0.14,101.24000000000001,102.09,0.03,0.03,3
1682339325.22029996,102419283,0.0,-0.1,1.12,0.96,101.24000000000001,102.03,0.03,0.03,3
1682339325.32046294,102519446,0.0,0.04,1.8800000000000001,1.85,101.24000000000001,101.98,0.03,0.04,3
1682339325.41996002,102618943,0.02,0.07,2.66,2.67,101.24000000000001,101.93,0.03,0.04,3
1682339325.52003503,102719018,0.0,-0.01,2.94,3.29,101.24000000000001,101.88,0.03,0.04,3
1682339325.62011194,102819095,0.0,0.04,2.57,3.23,101.24000000000001,101.83,0.03,0.04,3
1682339325.72019410,102919177,-0.02,-0.02,1.83,2.21,101.24000000000001,101.78,0.03,0.04,3
1682339325.82017112,103019154,-0.02,-0.08,0.92,1.12,101.24000000000001,101.71000000000001,0.03,0.04,3
1682339325.92013502,103119118,0.0,-0.03,0.0,-0.01,101.24000000000001,101.67,0.03,0.04,3
1682339326.02019906,103219182,0.03,0.08,-0.42,-0.9400000000000001,101.24000000000001,101.61,0.03,0.05,3
1682339326.12002301,103319006,0.05,0.15,-0.51,-1.06,101.24000000000001,101.54,0.03,0.05,3
1682339326.22037101,103419354,0.08,0.15,-0.51,-0.74,101.24000000000001,101.49000000000001,0.02,0.04,3
1682339326.32027102,103519254,0.08,0.09,-0.44,-0.68,101.24000000000001,101.45,0.02,0.04,3
1682339326.42029905,103619282,0.14,0.13,-0.48,-0.43,101.24000000000001,101.38,0.02,0.04,3
1682339326.52030110,103719284,0.22,0.17,-0.45,-0.46,101.24000000000001,101.32000000000001,0.02,0.05,3
1682339326.62021995,103819203,0.38,0.27,-0.5,-0.53,101.24000000000001,101.27,0.02,0.05,3
1682339326.72014999,103919133,0.81,0.54,-0.5,-0.51,101.24000000000001,101.19,0.02,0.04,3
1682339326.82014894,104019132,1.3,1.11,-0.67,-0.63,101.24000000000001,101.14,0.02,0.05,3
1682339326.92011499,104119098,1.56,1.57,-0.81,-0.79,101.24000000000001,101.05,0.02,0.05,3
1682339327.02002215,104219005,1.67,1.76,-0.9,-1.01,101.24000000000001,101.01,0.02,0.04,3
1682339327.12002301,104319006,1.62,1.76,-0.9,-0.96,101.24000000000001,100.95,0.02,0.04,3
1682339327.21998811,104418971,1.36,1.5,-0.86,-0.93,101.24000000000001,100.91,0.02,0.03,3
1682339327.32029915,104519282,1.1300000000000001,1.1400000000000001,-0.76,-0.8,101.24000000000001,100.89,0.02,0.03,3
1682339327.42032599,104619309,0.76,0.93,-0.5,-0.63,101.24000000000001,100.88,0.02,0.03,3
1682339327.52019215,104719175,0.15,0.45,-0.05,-0.24,101.24000000000001,100.88,0.02,0.02,3
1682339327.62029195,104819275,-0.54,-0.45,0.5700000000000001,0.42,101.24000000000001,100.86,0.03,0.03,3
1682339327.72028494,104919268,-1.09,-1.1400000000000001,1.29,1.23,101.24000000000001,100.84,0.03,0.03,3
1682339327.82023907,105019222,-1.22,-1.69,2.04,2.0300000000000002,101.24000000000001,100.81,0.04,0.03,3
1682339327.92027211,105119255,-1.08,-1.45,2.82,2.82,101.24000000000001,100.84,0.04,0.03,3
1682339328.02026415,105219247,-0.8,-1.09,3.61,3.64,101.24000000000001,100.85000000000001,0.04,0.05,3
1682339328.12026501,105319248,-0.39,-0.66,4.0600000000000005,4.36,101.24000000000001,100.9,0.04,0.05,3
1682339328.22037911,105419362,0.01,-0.11,4.0,4.53,101.24000000000001,100.94,0.05,0.05,3
1682339328.32031703,105519300,0.36,0.34,3.64,4.0,101.24000000000001,100.98,0.05,0.05,3
1682339328.42019606,105619179,0.58,0.64,3.08,3.29,101.24000000000001,101.05,0.04,0.05,3
1682339328.52014613,105719129,0.6900000000000001,0.75,2.43,2.57,101.24000000000001,101.07000000000001,0.04,0.04,3
1682339328.62014198,105819125,0.7000000000000001,0.85,1.78,1.74,101.24000000000001,101.12,0.04,0.04,3
1682339328.72012115,105919104,0.64,0.77,1.23,1.06,101.24000000000001,101.17,0.04,0.03,3
1682339328.82001710,106019000,0.55,0.54,0.81,0.52,101.24000000000001,101.22,0.03,0.02,3
1682339328.92034101,106119324,0.46,0.46,0.53,0.25,101.24000000000001,101.24000000000001,0.03,0.02,3
1682339329.01996708,106218950,0.37,0.35000000000000003,0.4,0.1,101.24000000000001,101.27,0.03,0.02,3
1682339329.12004495,106319028,0.31,0.24,0.4,0.1,101.24000000000001,101.31,0.03,0.02,3
1682339329.22013903,106419122,0.27,0.21,0.46,0.25,101.24000000000001,101.31,0.02,0.03,3
1682339329.32022095,106519204,0.26,0.28,0.54,0.41000000000000003,101.24000000000001,101.3,0.02,0.03,3
1682339329.42016196,106619145,0.22,0.23,0.62,0.53,101.24000000000001,101.31,0.02,0.02,3
1682339329.52016306,106719146,0.19,0.14,0.68,0.62,101.24000000000001,101.29,0.02,0.03,3
1682339329.62014103,106819124,0.19,0.06,0.73,0.71,101.24000000000001,101.26,0.02,0.03,3
1682339329.72002411,106919007,0.21,0.14,0.75,0.72,101.24000000000001,101.24000000000001,0.02,0.03,3
1682339329.82035208,107019335,0.26,0.19,0.75,0.74,101.24000000000001,101.22,0.01,0.03,3
1682339329.91996408,107118947,0.32,0.32,0.74,0.6900000000000001,101.24000000000001,101.21000000000001,0.01,0.03,3
1682339330.02036405,107219347,0.36,0.41000000000000003,0.71,0.71,101.24000000000001,101.17,0.01,0.03,3
1682339330.12031507,107319298,0.41000000000000003,0.51,0.6900000000000001,0.72,101.24000000000001,101.13,0.01,0.04,3
1682339330.22057295,107419556,0.41000000000000003,0.39,0.6900000000000001,0.66,101.24000000000001,101.09,0.01,0.05,3
1682339330.32038307,107519366,0.44,0.47000000000000003,0.6900000000000001,0.68,101.24000000000001,101.07000000000001,0.01,0.05,3
1682339330.42034507,107619328,0.44,0.35000000000000003,0.6900000000000001,0.65,101.24000000000001,101.01,0.01,0.04,3
1682339330.52032399,107719307,0.45,0.43,0.6900000000000001,0.7000000000000001,101.24000000000001,100.99000000000001,0.01,0.04,3
1682339330.62033606,107819319,0.46,0.41000000000000003,0.68,0.61,101.24000000000001,100.97,0.01,0.04,3
1682339330.72057104,107919554,0.51,0.39,0.66,0.67,101.24000000000001,100.94,0.01,0.03,3
1682339330.81997395,108018957,0.53,0.32,0.61,0.6,101.24000000000001,100.92,0.01,0.03,3
1682339330.92005396,108119037,0.58,0.6,0.56,0.56,101.24000000000001,100.92,0.01,0.03,3
1682339331.02010703,108219090,0.55,0.54,0.51,0.5,101.24000000000001,100.9,0.01,0.03,3
1682339331.12021112,108319194,0.56,0.47000000000000003,0.49,0.46,101.24000000000001,100.87,0.01,0.04,3
1682339331.22021604,108419199,0.56,0.45,0.47000000000000003,0.43,101.24000000000001,100.85000000000001,0.01,0.05,3
1682339331.32018304,108519166,0.53,0.52,0.45,0.39,101.24000000000001,100.82000000000001,0.01,0.05,3
1682339331.42034316,108619326,0.54,0.61,0.47000000000000003,0.42,101.24000000000001,100.77,0.01,0.05,3
1682339331.52002907,108719012,0.52,0.52,0.46,0.42,101.24000000000001,100.75,0.01,0.06,3
1682339331.62004209,108819025,0.48,0.52,0.48,0.46,101.24000000000001,100.74000000000001,0.01,0.06,3
1682339331.71996808,108918951,0.43,0.45,0.49,0.44,101.24000000000001,100.7,0.01,0.05,3
1682339331.82003999,109019023,0.39,0.47000000000000003,0.51,0.46,101.24000000000001,100.69,0.01,0.05,3
1682339331.92009616,109119079,0.38,0.47000000000000003,0.54,0.48,101.24000000000001,100.68,0.01,0.05,3
1682339332.02019095,109219174,0.36,0.46,0.56,0.5700000000000001,101.24000000000001,100.69,0.01,0.05,3
1682339332.12015700,109319140,0.43,0.31,0.54,0.55,101.24000000000001,100.67,0.01,0.05,3
1682339332.22040606,109419389,0.42,0.43,0.55,0.56,101.24000000000001,100.66,0.01,0.06,3
1682339332.32042503,109519408,0.45,0.55,0.54,0.52,101.24000000000001,100.65,0.01,0.06,3
1682339332.42002106,109619004,0.45,0.54,0.55,0.52,101.24000000000001,100.67,0.01,0.07,3
1682339332.52002311,109719006,0.45,0.54,0.56,0.59,101.24000000000001,100.63,0.01,0.07,3
1682339332.62017703,109819160,0.45,0.44,0.56,0.55,101.24000000000001,100.64,0.01,0.07,3
1682339332.72021508,109919198,0.47000000000000003,0.56,0.55,0.5700000000000001,101.24000000000001,100.63,0.01,0.06,3
1682339332.82023811,110019221,0.48,0.5,0.55,0.55,101.24000000000001,100.62,0.0,0.05,3
1682339332.92034793,110119331,0.52,0.59,0.5700000000000001,0.5700000000000001,101.24000000000001,100.62,0.0,0.05,3
1682339333.02030110,110219284,0.5,0.53,0.58,0.6,101.24000000000001,100.64,0.0,0.05,3
1682339333.12030315,110319286,0.58,0.49,0.56,0.58,101.24000000000001,100.64,0.0,0.06,3
1682339333.22031403,110419297,0.58,0.61,0.54,0.59,101.24000000000001,100.67,0.01,0.05,3
1682339333.32029414,110519277,0.6,0.59,0.48,0.54,101.24000000000001,100.68,0.01,0.04,3
1682339333.42048001,110619463,0.56,0.62,0.46,0.48,101.24000000000001,100.7,0.0,0.05,3
1682339333.52017498,110719158,0.55,0.66,0.47000000000000003,0.42,101.24000000000001,100.75,0.0,0.05,3
1682339333.62025809,110819241,0.53,0.45,0.48,0.5,101.24000000000001,100.77,0.0,0.05,3
1682339333.72023606,110919219,0.52,0.48,0.52,0.48,101.24000000000001,100.82000000000001,0.0,0.06,3
1682339333.82033300,111019316,0.52,0.47000000000000003,0.53,0.63,101.24000000000001,100.84,0.01,0.05,3
1682339333.92031407,111119297,0.59,0.42,0.55,0.5700000000000001,101.24000000000001,100.88,0.01,0.04,3
1682339334.02029300,111219276,0.5700000000000001,0.5700000000000001,0.54,0.59,101.24000000000001,100.91,0.01,0.04,3
1682339334.12025404,111319237,1.0,0.5700000000000001,0.65,0.6,101.24000000000001,100.93,0.01,0.03,3
1682339334.22030497,111419288,1.83,1.24,1.0,0.81,101.24000000000001,100.94,0.01,0.02,3
1682339334.32046509,111519448,2.84,2.43,1.47,1.35,101.24000000000001,100.99000000000001,0.01,0.04,3
1682339334.42005897,111619042,4.67,3.79,2.19,1.99,101.24000000000001,101.04,0.01,0.04,3
1682339334.52003694,111719020,6.25,6.0600000000000005,2.7800000000000002,2.86,101.24000000000001,101.14,0.01,0.07,3
1682339334.62012601,111819109,6.36,7.640000000000001,3.22,3.43,101.24000000000001,101.21000000000001,0.01,0.07,3
1682339334.72019696,111919180,5.5200000000000005,6.97,2.93,3.52,101.24000000000001,101.21000000000001,0.01,0.06,3
1682339334.82016802,112019151,4.3,4.79,2.34,2.84,101.24000000000001,101.11,0.01,0.06,3
1682339334.92014313,112119126,3.19,3.06,1.6400000000000001,1.76,101.24000000000001,101.04,0.01,0.09,3
1682339335.02011800,112219101,2.22,1.81,0.8300000000000001,0.92,101.24000000000001,101.04,0.01,0.08,3
1682339335.12000704,112318990,1.28,0.88,0.02,-0.04,101.24000000000001,101.05,0.01,0.08,3
1682339335.22036099,112419344,0.45,0.11,-0.77,-0.89,101.24000000000001,101.05,0.02,0.07,3
1682339335.32027316,112519256,-0.34,-0.76,-1.43,-1.61,101.24000000000001,101.10000000000001,0.02,0.08,3
1682339335.42031097,112619294,-0.86,-1.5,-1.3900000000000001,-2.07,101.24000000000001,101.14,0.02,0.07,3
1682339335.52032614,112719309,-1.26,-1.56,-0.88,-1.48,101.24000000000001,101.15,0.02,0.07,3
1682339335.62044811,112819431,-2.05,-1.97,0.12,-0.41000000000000003,101.24000000000001,101.14,0.01,0.07,3
1682339335.72033811,112919321,-2.4,-2.9,1.53,1.1300000000000001,101.24000000000001,101.10000000000001,0.01,0.07,3
1682339335.82033706,113019320,-2.0300000000000002,-2.97,2.5100000000000002,2.93,101.24000000000001,101.01,0.02,0.08,3
1682339335.92060399,113119587,-2.16,-2.19,2.85,3.75,101.24000000000001,101.01,0.02,0.09,3
1682339336.02032399,113219307,-2.42,-2.13,3.0500000000000003,3.45,101.24000000000001,101.05,0.02,0.08,3
1682339336.12051797,113319501,-2.5,-2.61,2.83,3.29,101.24000000000001,101.08,0.02,0.07,3
1682339336.22035694,113419340,-2.47,-2.65,2.31,2.7800000000000002,101.24000000000001,101.15,0.02,0.05,3
1682339336.32030916,113519292,-2.5,-2.41,1.6600000000000001,1.84,101.24000000000001,101.21000000000001,0.02,0.05,3
1682339336.42030811,113619291,-2.42,-2.52,0.86,1.0,101.24000000000001,101.26,0.02,0.05,3
1682339336.52019715,113719180,-2.1,-2.2800000000000002,0.05,0.11,101.24000000000001,101.29,0.02,0.05,3
1682339336.62015510,113819138,-1.5,-1.6500000000000001,-0.74,-0.75,101.24000000000001,101.34,0.02,0.04,3
1682339336.72012997,113919113,-0.8,-0.89,-1.54,-1.57,101.24000000000001,101.34,0.02,0.03,3
1682339336.82007909,114019062,0.0,0.11,-2.2,-2.33,101.24000000000001,101.3,0.02,0.03,3
1682339336.92031193,114119295,0.74,0.87,-2.33,-2.81,101.24000000000001,101.26,0.02,0.03,3
1682339337.02002501,114219008,1.1500000000000001,1.6300000000000001,-2.08,-2.48,101.24000000000001,101.2,0.01,0.03,3
1682339337.11995316,114318936,1.24,1.6600000000000001,-1.6300000000000001,-1.86,101.24000000000001,101.15,0.01,0.04,3
1682339337.22032094,114419304,1.1,1.57,-1.06,-1.1400000000000001,101.24000000000001,101.09,0.02,0.03,3
1682339337.32031798,114519301,0.8300000000000001,1.1500000000000001,-0.5,-0.44,101.24000000000001,101.02,0.02,0.04,3
1682339337.42020702,114619190,0.56,0.64,-0.04,0.13,101.24000000000001,100.99000000000001,0.02,0.05,3
1682339337.52015400,114719137,0.34,0.35000000000000003,0.22,0.49,101.24000000000001,100.92,0.02,0.04,3
1682339337.62018299,114819166,0.18,0.16,0.34,0.6,101.24000000000001,100.88,0.02,0.04,3
1682339337.72013307,114919116,0.11,-0.03,0.33,0.54,101.24000000000001,100.82000000000001,0.02,0.03,3
1682339337.82002115,115019004,0.1,0.12,0.25,0.44,101.24000000000001,100.79,0.01,0.03,3
1682339337.92030907,115119292,0.17,-0.03,0.14,0.23,101.24000000000001,100.74000000000001,0.01,0.02,3
1682339338.01997709,115218960,0.24,0.32,0.05,0.1,101.24000000000001,100.73,0.01,0.02,3
1682339338.12029696,115319280,0.33,0.26,-0.02,0.01,101.24000000000001,100.69,0.01,0.02,3
1682339338.22039294,115419376,0.39,0.5,-0.05,-0.05,101.24000000000001,100.69,0.01,0.02,3
1682339338.32020903,115519192,0.46,0.38,-0.08,-0.06,101.24000000000001,100.66,0.01,0.02,3
1682339338.42030501,115619288,0.53,0.5700000000000001,-0.06,-0.1,101.24000000000001,100.67,0.01,0.03,3
1682339338.52029610,115719279,0.59,0.65,-0.05,-0.03,101.24000000000001,100.66,0.01,0.05,3
1682339338.62035799,115819341,0.61,0.66,-0.02,-0.03,101.24000000000001,100.67,0.01,0.04,3
1682339338.72027206,115919255,0.68,0.61,-0.01,0.01,101.24000000000001,100.68,0.01,0.04,3
1682339338.82027507,116019258,0.71,0.72,0.0,0.02,101.24000000000001,100.68,0.0,0.04,3
1682339338.92017913,116119162,0.77,0.77,-0.01,0.0,101.24000000000001,100.7,0.0,0.04,3
1682339339.02026796,116219251,0.78,0.78,0.03,0.05,101.24000000000001,100.72,0.0,0.04,3
1682339339.12024713,116319230,0.8300000000000001,0.78,0.08,0.08,101.24000000000001,100.73,0.0,0.07,3
1682339339.22038102,116419364,0.78,0.77,0.17,0.17,101.24000000000001,100.76,0.0,0.06,3
1682339339.32051110,116519494,0.76,0.8300000000000001,0.22,0.25,101.24000000000001,100.78,0.0,0.06,3
1682339339.42030001,116619283,0.68,0.73,0.31,0.3,101.24000000000001,100.82000000000001,0.0,0.05,3
1682339339.52027798,116719261,0.64,0.51,0.38,0.37,101.24000000000001,100.83,0.0,0.04,3
1682339339.62031507,116819298,0.56,0.67,0.45,0.5,101.24000000000001,100.85000000000001,0.01,0.04,3
1682339339.72026801,116919251,0.51,0.54,0.46,0.53,101.24000000000001,100.86,0.01,0.05,3
1682339339.82018304,117019166,0.47000000000000003,0.37,0.47000000000000003,0.52,101.24000000000001,100.88,0.01,0.04,3
1682339339.92037416,117119357,0.49,0.51,0.46,0.51,101.24000000000001,100.89,0.01,0.04,3
1682339340.02022409,117219207,0.43,0.47000000000000003,0.48,0.47000000000000003,101.24000000000001,100.89,0.01,0.04,3
1682339340.12033796,117319321,0.45,0.39,0.49,0.49,101.24000000000001,100.91,0.01,0.04,3
1682339340.22041416,117419397,0.41000000000000003,0.36,0.53,0.55,101.24000000000001,100.88,0.0,0.04,3
1682339340.32036304,117519346,0.39,0.47000000000000003,0.54,0.61,101.24000000000001,100.89,0.0,0.03,3
1682339340.42035294,117619336,0.32,0.32,0.54,0.58,101.24000000000001,100.9,0.0,0.03,3
1682339340.52033401,117719317,0.26,0.2,0.53,0.6,101.24000000000001,100.89,0.0,0.03,3
1682339340.62035298,117819336,0.21,0.3,0.52,0.56,101.24000000000001,100.88,0.0,0.02,3
1682339340.72042704,117919410,0.21,0.1,0.52,0.54,101.24000000000001,100.91,0.0,0.03,3
1682339340.82029295,118019276,0.17,0.24,0.54,0.54,101.24000000000001,100.9,0.0,0.04,3
1682339340.92034197,118119325,0.2,0.07,0.54,0.5700000000000001,101.24000000000001,100.88,0.0,0.05,3
1682339341.02037907,118219362,0.17,0.24,0.56,0.54,101.24000000000001,100.89,0.0,0.04,3
1682339341.12057805,118319561,0.19,0.15,0.59,0.62,101.24000000000001,100.88,0.0,0.05,3
1682339341.22037196,118419355,0.15,0.21,0.61,0.6,101.24000000000001,100.88,0.0,0.05,3
1682339341.32033110,118519314,0.14,0.15,0.61,0.67,101.24000000000001,100.86,0.0,0.05,3
1682339341.42012405,118619107,0.14,0.14,0.59,0.66,101.24000000000001,100.85000000000001,0.01,0.04,3
1682339341.52002001,118719003,0.15,0.11,0.56,0.6,101.24000000000001,100.86,0.01,0.04,3
1682339341.61996412,118818947,0.12,0.23,0.54,0.6,101.24000000000001,100.87,0.01,0.05,3
1682339341.72003698,118919020,0.14,0.18,0.54,0.6,101.24000000000001,100.88,0.01,0.04,3
1682339341.82009006,119019073,0.11,0.17,0.54,0.62,101.24000000000001,100.89,0.01,0.05,3
1682339341.92019606,119119179,0.08,0.21,0.52,0.61,101.24000000000001,100.92,0.01,0.04,3
1682339342.02015996,119219143,0.06,0.14,0.5,0.59,101.24000000000001,100.9,0.01,0.04,3
1682339342.12012911,119319112,0.11,0.01,0.44,0.51,101.24000000000001,100.92,0.01,0.04,3
1682339342.22037601,119419359,0.11,0.11,0.41000000000000003,0.39,101.24000000000001,100.91,0.01,0.04,3
1682339342.32003093,119519014,0.18,0.17,0.4,0.4,101.24000000000001,100.92,0.01,0.04,3
1682339342.42004895,119619032,0.18,0.21,0.41000000000000003,0.42,101.24000000000001,100.91,0.01,0.03,3
1682339342.51996708,119718950,0.21,0.22,0.42,0.46,101.24000000000001,100.87,0.01,0.03,3
1682339342.62004495,119819028,0.25,0.3,0.42,0.45,101.24000000000001,100.88,0.01,0.03,3
1682339342.72008610,119919069,0.32,0.32,0.39,0.45,101.24000000000001,100.85000000000001,0.01,0.04,3
1682339342.82021904,120019202,0.35000000000000003,0.35000000000000003,0.38,0.42,101.24000000000001,100.86,0.01,0.03,3
1682339342.92017698,120119160,0.37,0.44,0.34,0.36,101.24000000000001,100.85000000000001,0.01,0.04,3
1682339343.02035308,120219336,0.31,0.53,0.34,0.31,101.24000000000001,100.84,0.01,0.03,3
1682339343.12031913,120319302,0.31,0.35000000000000003,0.36,0.38,101.24000000000001,100.8,0.01,0.03,3
1682339343.22015715,120419140,0.28,0.31,0.4,0.41000000000000003,101.24000000000001,100.77,0.01,0.03,3
1682339343.32003498,120519018,0.3,0.3,0.47000000000000003,0.44,101.24000000000001,100.77,0.01,0.04,3
1682339343.41999102,120618974,0.3,0.35000000000000003,0.49,0.52,101.24000000000001,100.76,0.01,0.04,3
1682339343.52005601,120719039,0.33,0.38,0.53,0.54,101.24000000000001,100.73,0.01,0.04,3
1682339343.62009811,120819081,0.34,0.47000000000000003,0.55,0.56,101.24000000000001,100.7,0.01,0.03,3
1682339343.72020912,120919192,0.37,0.47000000000000003,0.53,0.58,101.24000000000001,100.69,0.01,0.03,3
1682339343.82016897,121019152,0.33,0.48,0.52,0.49,101.24000000000001,100.66,0.01,0.03,3
1682339343.92018604,121119169,0.35000000000000003,0.46,0.5,0.45,101.24000000000001,100.65,0.01,0.03,3
1682339344.02014613,121219129,0.31,0.36,0.5,0.48,101.24000000000001,100.64,0.01,0.03,3
1682339344.12003207,121319015,0.29,0.31,0.51,0.5,101.24000000000001,100.63,0.01,0.03,3
1682339344.22038603,121419369,0.22,0.33,0.53,0.5,101.24000000000001,100.64,0.01,0.04,3
1682339344.31996298,121518946,0.18,0.31,0.53,0.53,101.24000000000001,100.64,0.01,0.04,3
1682339344.42025995,121619243,0.16,0.1,0.55,0.51,101.24000000000001,100.65,0.01,0.04,3
1682339344.52024698,121719230,0.17,0.18,0.5700000000000001,0.55,101.24000000000001,100.65,0.01,0.04,3
1682339344.62034798,121819331,0.19,0.28,0.59,0.59,101.24000000000001,100.68,0.01,0.03,3
1682339344.72029710,121919280,0.23,0.27,0.62,0.6,101.24000000000001,100.69,0.01,0.04,3
1682339344.82027411,122019257,0.22,0.3,0.62,0.62,101.24000000000001,100.71000000000001,0.01,0.04,3
1682339344.92037296,122119356,0.21,0.27,0.61,0.63,101.24000000000001,100.71000000000001,0.01,0.04,3
1682339345.02028513,122219268,0.19,0.21,0.59,0.6,101.24000000000001,100.73,0.01,0.04,3
1682339345.12047696,122319460,0.19,0.16,0.59,0.58,101.24000000000001,100.73,0.01,0.04,3
1682339345.22002697,122419010,0.16,0.23,0.58,0.56,101.24000000000001,100.75,0.01,0.04,3
1682339345.32004213,122519025,0.2,0.17,0.58,0.54,101.24000000000001,100.76,0.01,0.03,3
1682339345.42010093,122619084,0.21,0.2,0.5700000000000001,0.5700000000000001,101.24000000000001,100.76,0.01,0.03,3
1682339345.52019310,122719176,0.24,0.21,0.56,0.5700000000000001,101.24000000000001,100.79,0.01,0.03,3
1682339345.62017298,122819156,0.24,0.31,0.55,0.5700000000000001,101.24000000000001,100.8,0.01,0.02,3
1682339345.72017193,122919155,0.23,0.3,0.54,0.56,101.24000000000001,100.83,0.01,0.02,3
1682339345.82013297,123019116,0.2,0.22,0.52,0.52,101.24000000000001,100.84,0.0,0.02,3
1682339345.92002702,123119010,0.21,0.11,0.52,0.52,101.24000000000001,100.86,0.0,0.02,3
1682339346.02034116,123219324,0.18,0.17,0.51,0.51,101.24000000000001,100.86,0.0,0.02,3
1682339346.11998606,123318969,0.23,0.19,0.53,0.52,101.24000000000001,100.89,0.0,0.02,3
1682339346.22038293,123419366,0.21,0.21,0.51,0.52,101.24000000000001,100.88,0.01,0.02,3
1682339346.32033205,123519315,0.2,0.19,0.52,0.52,101.24000000000001,100.91,0.01,0.03,3
1682339346.42042613,123619409,0.18,0.21,0.5,0.55,101.24000000000001,100.9,0.01,0.03,3
1682339346.52035093,123719334,0.17,0.19,0.48,0.52,101.24000000000001,100.9,0.01,0.02,3
1682339346.62035799,123819341,0.17,0.17,0.46,0.48,101.24000000000001,100.9,0.01,0.02,3
1682339346.72048903,123919472,0.19,0.2,0.42,0.49,101.24000000000001,100.92,0.01,0.02,3
1682339346.82002306,124019006,0.15,0.23,0.41000000000000003,0.38,101.24000000000001,100.92,0.0,0.02,3
1682339346.92002797,124119011,0.22,0.19,0.39,0.34,101.24000000000001,100.92,0.0,0.02,3
1682339347.02007699,124219060,0.23,0.24,0.4,0.36,101.24000000000001,100.91,0.0,0.02,3
1682339347.12006497,124319048,0.3,0.28,0.42,0.35000000000000003,101.24000000000001,100.93,0.0,0.01,3
1682339347.22013998,124419123,0.32,0.31,0.43,0.42,101.24000000000001,100.92,0.0,0.01,3
1682339347.32020307,124519186,0.37,0.28,0.43,0.45,101.24000000000001,100.92,0.0,0.02,3
1682339347.42017293,124619156,0.4,0.41000000000000003,0.42,0.43,101.24000000000001,100.91,0.0,0.02,3
1682339347.52013302,124719116,0.43,0.44,0.42,0.41000000000000003,101.24000000000001,100.92,0.0,0.02,3
1682339347.62031913,124819302,0.44,0.42,0.42,0.41000000000000003,101.24000000000001,100.92,0.0,0.03,3
1682339347.72002912,124919012,0.47000000000000003,0.46,0.42,0.45,101.24000000000001,100.9,0.0,0.03,3
1682339347.82002807,125019011,0.43,0.48,0.45,0.46,101.24000000000001,100.91,0.0,0.03,3
1682339347.91996098,125118944,0.42,0.45,0.45,0.49,101.24000000000001,100.89,0.0,0.03,3
1682339348.02005911,125219042,0.38,0.35000000000000003,0.45,0.47000000000000003,101.24000000000001,100.87,0.0,0.03,3
1682339348.12009311,125319076,0.38,0.42,0.44,0.48,101.24000000000001,100.87,0.0,0.02,3
1682339348.22025704,125419240,0.36,0.39,0.43,0.46,101.24000000000001,100.84,0.0,0.03,3
1682339348.32035398,125519337,0.38,0.37,0.43,0.41000000000000003,101.24000000000001,100.84,0.0,0.03,3
1682339348.42030001,125619283,0.37,0.32,0.45,0.42,101.24000000000001,100.84,0.0,0.03,3
1682339348.52025700,125719240,0.39,0.31,0.45,0.45,101.24000000000001,100.82000000000001,0.0,0.03,3
1682339348.62030005,125819283,0.35000000000000003,0.4,0.47000000000000003,0.46,101.24000000000001,100.82000000000001,0.0,0.02,3
1682339348.72029901,125919282,0.31,0.47000000000000003,0.46,0.47000000000000003,101.24000000000001,100.8,0.0,0.02,3
1682339348.82018113,126019164,0.27,0.31,0.46,0.45,101.24000000000001,100.81,0.0,0.02,3
1682339348.92059612,126119579,0.37,0.2,0.46,0.47000000000000003,101.24000000000001,100.8,0.0,0.02,3
1682339349.02030897,126219292,0.85,0.56,0.45,0.52,101.24000000000001,100.79,0.01,0.01,3
1682339349.12021899,126319202,1.28,1.24,0.42,0.47000000000000003,101.24000000000001,100.8,0.01,0.02,3
1682339349.22037911,126419362,1.54,1.74,0.34,0.42,101.24000000000001,100.78,0.01,0.03,3
1682339349.32035208,126519335,1.8900000000000001,1.8800000000000001,0.11,0.32,101.24000000000001,100.78,0.01,0.03,3
1682339349.42032099,126619304,1.8800000000000001,2.18,-0.32,-0.06,101.24000000000001,100.75,0.01,0.03,3
1682339349.52030802,126719291,1.48,2.0,-0.9500000000000001,-0.7000000000000001,101.24000000000001,100.73,0.01,0.03,3
1682339349.62033510,126819318,0.91,1.17,-0.97,-1.45,101.24000000000001,100.69,0.01,0.03,3
1682339349.72026110,126919244,0.24,0.27,-0.59,-1.1300000000000001,101.24000000000001,100.71000000000001,0.01,0.03,3
1682339349.82028198,127019265,-0.49,-0.45,0.05,-0.23,101.24000000000001,100.68,0.01,0.02,3
1682339349.92025805,127119241,-1.22,-1.31,0.78,0.59,101.24000000000001,100.68,0.01,0.04,3
1682339350.02036309,127219346,-1.57,-2.05,1.43,1.46,101.24000000000001,100.67,0.01,0.04,3
1682339350.12056398,127319547,-1.56,-2.14,1.69,2.04,101.24000000000001,100.66,0.01,0.05,3
1682339350.22037506,127419358,-1.29,-1.73,1.7,2.0,101.24000000000001,100.7,0.01,0.06,3
1682339350.32032013,127519303,-0.84,-1.23,1.51,1.77,101.24000000000001,100.74000000000001,0.01,0.05,3
1682339350.42037511,127619358,-0.38,-0.59,1.23,1.44,101.24000000000001,100.77,0.01,0.04,3
1682339350.52033806,127719321,0.02,0.01,0.96,0.98,101.24000000000001,100.82000000000001,0.01,0.04,3
1682339350.62030911,127819292,0.33,0.4,0.71,0.68,101.24000000000001,100.85000000000001,0.01,0.03,3
1682339350.72031498,127919298,0.49,0.5700000000000001,0.5700000000000001,0.45,101.24000000000001,100.89,0.01,0.03,3
1682339350.82031894,128019302,0.53,0.66,0.49,0.39,101.24000000000001,100.93,0.01,0.03,3
1682339350.92043900,128119422,0.5,0.64,0.48,0.44,101.24000000000001,100.96000000000001,0.01,0.03,3
1682339351.02036810,128219351,0.44,0.44,0.52,0.49,101.24000000000001,101.01,0.01,0.02,3
1682339351.12012410,128319107,0.37,0.35000000000000003,0.54,0.54,101.24000000000001,101.06,0.01,0.02,3
1682339351.22025013,128419233,0.34,0.34,0.56,0.56,101.24000000000001,101.12,0.01,0.01,3
1682339351.32003498,128519018,0.35000000000000003,0.27,0.55,0.62,101.24000000000001,101.16,0.01,0.02,3
1682339351.42005110,128619034,0.38,0.27,0.56,0.54,101.24000000000001,101.2,0.01,0.02,3
1682339351.51998401,128718967,0.44,0.4,0.55,0.55,101.24000000000001,101.22,0.01,0.01,3
1682339351.62006903,128819052,0.48,0.47000000000000003,0.54,0.58,101.24000000000001,101.28,0.01,0.01,3
1682339351.72008801,128919071,0.5,0.48,0.53,0.54,101.24000000000001,101.3,0.01,0.01,3
1682339351.82020807,129019191,0.5,0.46,0.5,0.58,101.24000000000001,101.31,0.01,0.02,3
1682339351.92037106,129119354,0.51,0.54,0.46,0.49,101.24000000000001,101.33,0.01,0.02,3
1682339352.02031708,129219300,0.48,0.41000000000000003,0.41000000000000003,0.43,101.24000000000001,101.36,0.0,0.02,3
1682339352.12028503,129319268,0.49,0.47000000000000003,0.38,0.39,101.24000000000001,101.35000000000001,0.0,0.02,3
1682339352.22032809,129419311,0.49,0.49,0.33,0.37,101.24000000000001,101.35000000000001,0.0,0.02,3
1682339352.32030416,129519287,0.45,0.48,0.3,0.28,101.24000000000001,101.35000000000001,0.0,0.02,3
1682339352.42025495,129619238,0.37,0.5,0.2,0.27,101.33,101.36,0.0,0.02,3
1682339352.52029395,129719277,0.13,0.25,0.13,0.16,102.18,101.38,0.0,0.02,3
1682339352.62024808,129819231,0.61,0.0,-0.55,-0.08,102.95,101.57000000000001,0.0,0.02,3
1682339352.72034907,129919332,1.79,0.88,-2.0,-1.09,102.99000000000001,101.87,0.0,0.02,3
1682339352.82037115,130019354,2.36,2.63,-2.56,-3.1,102.97,102.11,0.0,0.03,3
1682339352.92040014,130119383,2.7,3.25,-2.72,-3.5100000000000002,102.96000000000001,102.37,0.0,0.05,3
1682339353.02036214,130219345,2.38,3.0500000000000003,-2.24,-2.79,102.98,102.61,0.01,0.04,3
1682339353.12014008,130319123,1.69,2.22,-1.35,-1.84,103.02,102.86,0.01,0.03,3
1682339353.22015095,130419134,1.08,1.28,-0.68,-0.49,103.03,103.09,0.01,0.03,3
1682339353.32012796,130519111,0.55,0.41000000000000003,-0.08,0.26,103.04,103.27,0.01,0.03,3
1682339353.42007303,130619056,0.28,-0.05,0.19,0.65,103.04,103.43,0.01,0.04,3
1682339353.52010512,130719088,0.16,-0.05,0.37,0.79,103.04,103.55,0.01,0.04,3
1682339353.62021399,130819197,0.03,-0.05,0.5700000000000001,0.71,103.04,103.67,0.01,0.05,3
1682339353.72017312,130919156,0.0,-0.18,0.74,0.9400000000000001,103.04,103.72,0.01,0.05,3
1682339353.82016611,131019149,-0.14,-0.11,0.9500000000000001,1.03,103.04,103.78,0.01,0.06,3
1682339353.92035699,131119340,-0.24,-0.33,1.12,1.23,103.04,103.8,0.01,0.05,3
1682339354.02004004,131219023,-0.35000000000000003,-0.38,1.22,1.42,103.04,103.82000000000001,0.01,0.04,3
1682339354.12004399,131319027,-0.37,-0.47000000000000003,1.29,1.4000000000000001,103.04,103.8,0.01,0.04,3
1682339354.22005606,131419039,-0.35000000000000003,-0.46,1.29,1.45,103.04,103.75,0.01,0.04,3
1682339354.32006598,131519049,-0.3,-0.42,1.28,1.3800000000000001,103.04,103.71000000000001,0.01,0.05,3
1682339354.42009711,131619080,-0.27,-0.23,1.27,1.35,103.04,103.64,0.01,0.04,3
1682339354.52020502,131719188,-0.27,-0.26,1.23,1.35,103.04,103.57000000000001,0.01,0.04,3
1682339354.62016916,131819152,-0.27,-0.23,1.21,1.2,103.04,103.49000000000001,0.01,0.04,3
1682339354.72037315,131919356,-0.26,-0.22,1.17,1.16,103.04,103.41,0.01,0.03,3
1682339354.82034802,132019331,-0.24,-0.31,1.17,1.11,103.04,103.32000000000001,0.01,0.03,3
1682339354.92003393,132119017,-0.22,-0.09,1.1400000000000001,1.1,103.04,103.24000000000001,0.01,0.04,3
1682339355.02036595,132219349,-0.23,-0.25,1.1,1.07,103.04,103.19,0.01,0.04,3
1682339355.12029815,132319281,-0.21,-0.14,1.05,1.01,103.04,103.12,0.01,0.04,3
1682339355.22042704,132419410,-0.2,-0.15,1.02,0.97,103.04,103.06,0.01,0.04,3
1682339355.32034111,132519324,-0.13,-0.14,0.93,0.87,103.04,103.03,0.01,0.04,3
1682339355.42054415,132619527,-0.14,-0.06,0.87,0.79,103.04,103.01,0.01,0.03,3
1682339355.52037811,132719361,-0.15,-0.04,0.8,0.71,103.04,102.99000000000001,0.01,0.03,3
1682339355.62063313,132819616,-0.16,-0.1,0.8,0.71,103.04,102.95,0.01,0.03,3
1682339355.72061205,132919595,-0.14,-0.04,0.76,0.72,103.04,102.94,0.01,0.03,3
1682339355.82004404,133019027,-0.12,-0.06,0.75,0.67,103.04,102.92,0.01,0.03,3
1682339355.92004395,133119027,-0.07,-0.09,0.7000000000000001,0.7000000000000001,103.04,102.9,0.01,0.02,3
1682339356.02019310,133219176,-0.05,0.15,0.68,0.65,103.04,102.91,0.01,0.02,3
1682339356.12025595,133319239,-0.03,0.08,0.64,0.61,103.04,102.93,0.01,0.03,3
1682339356.22029901,133419282,-0.04,0.03,0.61,0.59,103.04,102.92,0.01,0.03,3
1682339356.32035613,133519339,-0.04,0.12,0.59,0.58,103.04,102.93,0.01,0.02,3
1682339356.42038107,133619364,-0.07,0.1,0.5700000000000001,0.52,103.04,102.95,0.01,0.02,3
1682339356.52020502,133719188,-0.07,0.04,0.55,0.51,103.04,102.97,0.01,0.02,3
1682339356.62017798,133819161,-0.07,0.06,0.54,0.48,103.04,103.0,0.01,0.01,3
1682339356.72013402,133919117,-0.06,-0.14,0.51,0.44,103.04,103.04,0.01,0.01,3
1682339356.82003903,134019022,-0.02,0.02,0.52,0.37,103.04,103.10000000000001,0.01,0.01,3
1682339356.91998696,134118970,0.0,0.12,0.54,0.42,103.04,103.13,0.01,0.02,3
1682339357.02005696,134219040,0.03,0.07,0.55,0.55,103.04,103.18,0.01,0.02,3
1682339357.12010503,134319088,0.05,0.15,0.5700000000000001,0.55,103.04,103.23,0.01,0.02,3
1682339357.22048211,134419465,0.09,0.13,0.5700000000000001,0.49,103.04,103.26,0.01,0.01,3
1682339357.32040000,134519383,0.13,0.17,0.54,0.55,103.04,103.3,0.01,0.01,3
1682339357.42017293,134619156,0.11,0.18,0.55,0.5,103.04,103.34,0.01,0.01,3
1682339357.52020311,134719186,0.1,0.2,0.49,0.61,103.04,103.35000000000001,0.01,0.01,3
1682339357.62004304,134819026,0.1,0.1,0.47000000000000003,0.53,103.04,103.37,0.0,0.01,3
1682339357.72004700,134919030,0.08,0.08,0.45,0.51,103.04,103.37,0.0,0.02,3
1682339357.81998301,135018966,0.11,0.01,0.46,0.5,103.04,103.36,0.0,0.02,3
1682339357.92006302,135119046,0.13,0.02,0.44,0.42,103.04,103.34,0.0,0.02,3
1682339358.02011204,135219095,0.15,0.05,0.42,0.38,103.04,103.33,0.0,0.03,3
1682339358.12043500,135319418,0.21,0.21,0.44,0.37,103.04,103.3,0.0,0.04,3
1682339358.22041202,135419395,0.2,0.33,0.44,0.36,103.04,103.28,0.01,0.03,3
1682339358.32020116,135519184,0.22,0.31,0.45,0.34,103.04,103.26,0.01,0.02,3
1682339358.42035007,135619333,0.17,0.21,0.45,0.33,103.04,103.26,0.01,0.03,3
1682339358.52034616,135719329,0.15,0.16,0.49,0.34,103.04,103.26,0.01,0.02,3
1682339358.62035108,135819334,0.15,0.09,0.51,0.37,103.04,103.25,0.01,0.03,3
1682339358.72030401,135919287,0.19,0.06,0.53,0.44,103.04,103.28,0.01,0.02,3
1682339358.82031393,136019297,0.26,0.15,0.55,0.46,103.04,103.28,0.01,0.03,3
1682339358.92039299,136119376,0.32,0.28,0.48,0.54,103.04,103.3,0.01,0.02,3
1682339359.02082705,136219810,0.37,0.41000000000000003,0.49,0.47000000000000003,103.04,103.33,0.01,0.02,3
1682339359.12065411,136319637,0.42,0.49,0.47000000000000003,0.52,103.04,103.33,0.01,0.04,3
1682339359.22040796,136419391,0.41000000000000003,0.48,0.48,0.52,103.04,103.32000000000001,0.01,0.03,3
1682339359.32034993,136519333,0.43,0.42,0.44,0.53,103.04,103.33,0.01,0.02,3
1682339359.42035604,136619339,0.41000000000000003,0.36,0.45,0.46,103.04,103.32000000000001,0.01,0.02,3
1682339359.52036214,136719345,0.43,0.44,0.47000000000000003,0.41000000000000003,103.04,103.31,0.01,0.02,3
1682339359.62045598,136819439,0.42,0.35000000000000003,0.46,0.35000000000000003,103.04,103.3,0.01,0.02,3
1682339359.72066712,136919650,0.44,0.3,0.51,0.27,103.04,103.31,0.01,0.02,3
1682339359.82031703,137019300,0.39,0.37,0.5,0.37,103.04,103.32000000000001,0.01,0.02,3
1682339359.92023396,137119217,0.43,0.31,0.58,0.43,103.04,103.33,0.01,0.01,3
1682339360.02019405,137219177,0.4,0.33,0.6,0.54,103.05,103.35000000000001,0.0,0.01,3
1682339360.12018895,137319172,0.38,0.53,0.6,0.61,103.05,103.38,0.0,0.01,3
1682339360.22019696,137419180,0.39,0.56,0.5700000000000001,0.62,103.04,103.39,0.01,0.01,3
1682339360.32003212,137519015,0.35000000000000003,0.61,0.51,0.59,103.04,103.4,0.01,0.01,3
1682339360.42004895,137619032,0.32,0.53,0.49,0.44,103.04,103.41,0.01,0.01,3
1682339360.51998496,137718968,0.33,0.48,0.42,0.46,103.04,103.41,0.01,0.01,3
1682339360.62032008,137819303,0.34,0.33,0.39,0.42,103.04,103.4,0.01,0.01,3
1682339360.72033906,137919322,0.38,0.35000000000000003,0.36,0.39,103.04,103.38,0.01,0.02,3
1682339360.82038713,138019370,0.33,0.41000000000000003,0.38,0.32,103.04,103.35000000000001,0.01,0.03,3
1682339360.92031908,138119302,0.37,0.28,0.38,0.38,103.04,103.34,0.01,0.03,3
1682339361.02029705,138219280,0.36,0.16,0.38,0.39,103.04,103.33,0.01,0.03,3
1682339361.12027216,138319255,0.41000000000000003,0.19,0.4,0.27,103.04,103.35000000000001,0.01,0.03,3
1682339361.22032499,138419308,0.39,0.33,0.37,0.36,103.04,103.37,0.01,0.03,3
1682339361.32050800,138519491,0.36,0.33,0.32,0.49,103.04,103.39,0.01,0.03,3
1682339361.42030716,138619290,0.34,0.24,0.29,0.56,103.04,103.4,0.0,0.03,3
1682339361.52005315,138719036,0.26,0.3,0.25,0.42,103.04,103.41,0.0,0.03,3
1682339361.62012911,138819112,0.25,0.24,0.21,0.29,103.04,103.37,0.01,0.02,3
1682339361.72024608,138919229,0.27,0.31,0.27,0.2,103.04,103.38,0.01,0.02,3
1682339361.82016802,139019151,0.26,0.28,0.32,0.23,103.04,103.4,0.01,0.03,3
1682339361.92018795,139119171,0.34,0.07,0.36,0.31,103.04,103.4,0.01,0.02,3
1682339362.02035594,139219339,0.26,0.19,0.45,0.12,103.04,103.42,0.01,0.02,3
1682339362.12031293,139319296,0.26,0.14,0.37,0.18,103.04,103.44,0.01,0.02,3
1682339362.22036409,139419347,0.13,-0.09,0.19,0.35000000000000003,103.04,103.47,0.01,0.02,3
1682339362.31996012,139518943,0.06,-0.18,0.09,0.06,103.04,103.47,0.01,0.02,3
1682339362.42037010,139619353,0.03,-0.06,0.05,0.1,102.98,103.51,0.01,0.02,3
1682339362.52031207,139719295,0.01,0.14,0.02,0.3,102.45,103.53,0.01,0.02,3
1682339362.62049508,139819478,0.0,0.35000000000000003,0.01,-0.13,101.98,103.4,0.01,0.02,3
1682339362.72035098,139919334,0.0,0.32,0.0,-0.45,101.7,103.19,0.01,0.04,3
1682339362.82034206,140019325,0.0,0.2,0.0,-0.34,101.64,102.93,0.02,0.05,3
1682339362.92032003,140119303,0.0,0.05,0.0,-0.23,101.64,102.7,0.02,0.05,3
1682339363.02032495,140219308,0.0,-0.14,0.0,0.0,101.64,102.5,0.01,0.05,3
1682339363.12051296,140319496,0.0,-0.26,0.0,0.24,101.64,102.33,0.01,0.04,3
1682339363.22000194,140418985,0.0,-0.22,0.0,0.23,101.64,102.17,0.01,0.04,3
1682339363.32003093,140519014,0.0,-0.18,0.0,0.14,101.64,102.03,0.01,0.03,3
1682339363.42009902,140619082,0.0,-0.04,0.0,-0.18,101.64,101.9,0.03,0.03,3
1682339363.52019811,140719181,0.0,-0.04,0.0,-0.18,101.64,101.79,0.03,0.03,3
1682339363.62015104,140819134,0.0,-0.09,0.0,-0.07,101.64,101.67,0.03,0.03,3
1682339363.72013903,140919122,0.0,-0.05,0.0,0.0,101.64,101.58,0.03,0.03,3
1682339363.82019305,141019176,0.0,0.03,0.0,0.2,101.64,101.53,0.03,0.03,3
1682339363.92001295,141118996,0.0,0.0,0.0,0.38,101.64,101.51,0.03,0.04,3
1682339364.02034998,141219333,0.0,-0.03,0.0,0.34,101.64,101.47,0.03,0.05,3
1682339364.11995196,141318935,0.0,-0.11,0.0,0.23,101.64,101.46000000000001,0.03,0.04,3
1682339364.22027898,141419262,0.0,-0.13,0.0,0.13,101.82000000000001,101.47,0.03,0.04,3
1682339364.32023215,141519215,0.0,-0.07,0.0,0.08,101.93,101.49000000000001,0.03,0.04,3
1682339364.42033911,141619322,0.0,-0.07,0.36,0.02,101.93,101.55,0.02,0.03,3
1682339364.52029896,141719282,0.0,-0.02,0.8,0.52,101.93,101.60000000000001,0.02,0.03,3
1682339364.62028599,141819269,0.0,0.05,1.42,1.03,101.93,101.7,0.02,0.04,3
1682339364.72026896,141919252,0.0,0.1,2.22,1.72,101.93,101.76,0.02,0.04,3
1682339364.82027316,142019256,0.0,0.09,2.7,2.7800000000000002,101.93,101.82000000000001,0.02,0.05,3
1682339364.92047405,142119457,0.0,0.18,3.0700000000000003,3.25,101.93,101.87,0.02,0.05,3
