timestamp,TimeUS,I,Status,GMS,GWk,NSats,HDop,Lat,Lng,Alt,Spd,GCrs,VZ,Yaw,U
1682339297.79999995,74998983,0,3,131315800,2259,15,0.7000000000000001,42.6899314,-84.48893079999999,268.68,0.02202271670103073,177.39743041992188,0.030000001192092896,0.0,1
1682339297.97980499,75178788,0,3,131316000,2259,15,0.7000000000000001,42.6899316,-84.4889307,268.74,0.014317820779979229,282.0947570800781,0.12200000882148743,0.0,1
1682339298.16021204,75359195,0,3,131316200,2259,15,0.7000000000000001,42.689931699999995,-84.48893059999999,268.76,0.025632012635469437,110.55603790283203,0.06200000271201134,0.0,1
1682339298.35990095,75558884,0,3,131316400,2259,15,0.7000000000000001,42.6899318,-84.48893059999999,268.81,0.014317821711301804,347.9052429199219,0.00800000037997961,0.0,1
1682339298.56019306,75759176,0,3,131316600,2259,15,0.7000000000000001,42.689932,-84.4889305,268.86,0.024186773225665092,97.12501525878906,0.10900000482797623,0.0,1
1682339298.76020503,75959188,0,3,131316800,2259,15,0.7000000000000001,42.6899321,-84.4889304,268.89,0.00412310566753149,75.96375274658203,0.027000000700354576,0.0,1
1682339298.97983503,76178818,0,3,131317000,2259,15,0.7000000000000001,42.6899322,-84.4889304,268.92,0.04103657230734825,223.0250701904297,0.04700000211596489,0.0,1
1682339299.16016793,76359151,0,3,131317200,2259,15,0.7000000000000001,42.689932299999995,-84.4889304,268.97,0.0353553406894207,225.0,0.15900000929832458,0.0,1
1682339299.36024094,76559224,0,3,131317400,2259,15,0.7000000000000001,42.6899324,-84.48893029999999,269.0,0.0269258264452219,148.67129516601562,0.10400000214576721,0.0,1
1682339299.56031203,76759295,0,3,131317600,2259,15,0.7000000000000001,42.6899325,-84.4889302,269.04,0.02789265289902687,194.5344696044922,0.1420000046491623,0.0,1
1682339299.76025105,76959234,0,3,131317800,2259,15,0.7000000000000001,42.6899326,-84.4889302,269.1,0.0152970589697361,11.309930801391602,0.13600000739097595,0.0,1
1682339299.95983315,77158816,0,3,131318000,2259,15,0.7000000000000001,42.6899327,-84.48893009999999,269.14,0.04104875400662422,182.792724609375,0.06400000303983688,0.0,1
1682339300.15988302,77358866,0,3,131318200,2259,15,0.7000000000000001,42.6899328,-84.48893009999999,269.19,0.0150332972407341,183.81407165527344,0.06599999964237213,0.0,1
1682339300.35979915,77558782,0,3,131318400,2259,15,0.7000000000000001,42.689932899999995,-84.48893,269.24,0.011704700998961926,199.9831085205078,0.12700000405311584,0.0,1
1682339300.55968809,77758671,0,3,131318600,2259,15,0.7000000000000001,42.6899331,-84.4889299,269.29,0.019416488707065582,34.508522033691406,0.049000002443790436,0.0,1
1682339300.75969601,77958679,0,3,131318800,2259,15,0.7000000000000001,42.6899332,-84.4889299,269.33,0.019416488707065582,191.888671875,0.09100000560283661,0.0,1
1682339300.98014498,78179128,0,3,131319000,2259,15,0.7000000000000001,42.6899333,-84.4889299,269.36,0.05408326908946037,356.8201599121094,0.10300000756978989,0.0,1
1682339301.15987802,78358861,0,3,131319200,2259,15,0.7000000000000001,42.689933499999995,-84.4889298,269.39,0.034669872373342514,146.76828002929688,0.1469999998807907,0.0,1
1682339301.35973310,78558716,0,3,131319400,2259,15,0.7000000000000001,42.689933599999996,-84.4889297,269.43,0.015231546945869923,156.8013916015625,0.17100000381469727,0.0,1
1682339301.55968499,78758668,0,3,131319600,2259,15,0.7000000000000001,42.689933599999996,-84.4889297,269.45,0.03551056236028671,189.7275848388672,0.020000001415610313,0.0,1
1682339301.76020694,78959190,0,3,131319800,2259,15,0.7000000000000001,42.6899337,-84.4889297,269.51,0.03471311181783676,221.49647521972656,0.12300000339746475,0.0,1
1682339301.96032810,79159311,0,3,131320000,2259,15,0.7000000000000001,42.6899337,-84.4889297,269.56,0.02202271670103073,129.4724578857422,0.09400000423192978,0.0,1
1682339302.15977716,79358760,0,3,131320200,2259,15,0.7000000000000001,42.6899338,-84.48892959999999,269.59000000000003,0.03324154019355774,186.91123962402344,0.017000000923871994,0.0,1
1682339302.36027908,79559262,0,3,131320400,2259,15,0.7000000000000001,42.6899339,-84.48892959999999,269.64,0.02080865204334259,54.782405853271484,0.036000002175569534,0.0,1
1682339302.56018209,79759165,0,3,131320600,2259,15,0.7000000000000001,42.689934,-84.48892959999999,269.69,0.015524175018072128,194.93142700195312,0.1080000028014183,0.0,1
1682339302.76025414,79959237,0,3,131320800,2259,15,0.7000000000000001,42.689934,-84.4889295,269.75,0.06185467168688774,124.46080780029297,-0.0820000022649765,0.0,1
1682339302.97977901,80178762,0,3,131321000,2259,15,0.7000000000000001,42.689934,-84.48892939999999,269.81,0.03753664717078209,228.2397003173828,-0.5750000476837158,0.0,1
1682339303.17975616,80378739,0,3,131321200,2259,15,0.7000000000000001,42.689934,-84.4889295,270.01,0.06280127912759781,232.76516723632812,-0.6580000519752502,0.0,1
1682339303.36024594,80559229,0,3,131321400,2259,15,0.7000000000000001,42.6899339,-84.48892959999999,270.11,0.03716180846095085,293.8059387207031,-0.41700002551078796,0.0,1
1682339303.57993793,80778921,0,3,131321600,2259,15,0.7000000000000001,42.6899339,-84.48892939999999,270.2,0.11081968247890472,100.39733123779297,-0.2980000078678131,0.0,1
1682339303.76031494,80959298,0,3,131321800,2259,15,0.7000000000000001,42.6899339,-84.4889292,270.21,0.10127191245555878,350.90972900390625,-0.04000000283122063,0.0,1
1682339303.97975993,81178743,0,3,131322000,2259,15,0.7000000000000001,42.689934199999996,-84.4889291,270.28000000000003,0.1213424950838089,8.530765533447266,-0.09000000357627869,0.0,1
1682339304.16022801,81359211,0,3,131322200,2259,14,0.7000000000000001,42.6899343,-84.488929,270.31,0.16201543807983398,14.293557167053223,-0.11500000208616257,0.0,1
1682339304.36009002,81559073,0,3,131322400,2259,14,0.7000000000000001,42.6899345,-84.48892889999999,270.35,0.14368368685245514,5.591557502746582,-0.18800000846385956,0.0,1
1682339304.56018806,81759171,0,3,131322600,2259,15,0.7000000000000001,42.689934699999995,-84.488929,270.37,0.11328283697366714,351.36920166015625,-0.10700000822544098,0.0,1
1682339304.76026511,81959248,0,3,131322800,2259,15,0.7000000000000001,42.689934799999996,-84.48892889999999,270.43,0.12391126155853271,6.9529571533203125,-0.35500001907348633,0.0,1
1682339304.97974610,82178729,0,3,131323000,2259,15,0.7000000000000001,42.689934799999996,-84.48892889999999,270.5,0.07026379555463791,24.376466751098633,-0.39100003242492676,0.0,1
1682339305.16029811,82359281,0,3,131323200,2259,15,0.7000000000000001,42.689934699999995,-84.4889287,270.54,0.16709280014038086,78.95906066894531,-0.43400001525878906,0.0,1
1682339305.35983706,82558820,0,3,131323400,2259,15,0.7000000000000001,42.6899346,-84.4889281,270.57,0.29896488785743713,61.205997467041016,-0.29200002551078796,0.0,1
1682339305.55998015,82758963,0,3,131323600,2259,15,0.7000000000000001,42.6899345,-84.48892719999999,270.61,0.3941383361816406,84.0290298461914,-0.44700002670288086,0.0,1
1682339305.75979805,82958781,0,3,131323800,2259,15,0.7000000000000001,42.6899345,-84.4889259,270.62,0.6262587904930115,70.40771484375,-0.44600000977516174,0.0,1
1682339305.95976210,83158745,0,3,131324000,2259,15,0.7000000000000001,42.6899346,-84.4889245,270.67,0.5710210204124451,85.17802429199219,-0.3960000276565552,0.0,1
1682339306.15976501,83358748,0,3,131324200,2259,15,0.7000000000000001,42.6899349,-84.4889228,270.91,0.6512173414230347,69.5057373046875,-0.7860000133514404,0.0,1
1682339306.35982895,83558812,0,3,131324400,2259,15,0.7000000000000001,42.6899349,-84.4889208,271.06,0.9864978790283203,94.82633972167969,-0.6390000581741333,0.0,1
1682339306.55989814,83758881,0,3,131324600,2259,15,0.7000000000000001,42.6899346,-84.48891809999999,271.11,1.1689504384994507,94.07164764404297,-0.48100003600120544,0.0,1
1682339306.75983405,83958817,0,3,131324800,2259,15,0.7000000000000001,42.689934199999996,-84.4889154,271.18,1.07734215259552,93.7786865234375,-0.5230000019073486,0.0,1
1682339306.97999406,84178977,0,3,131325000,2259,15,0.7000000000000001,42.689934099999995,-84.4889125,271.22,1.2197234630584717,88.02667999267578,-0.34700000286102295,0.0,1
1682339307.16026306,84359246,0,3,131325200,2259,15,0.7000000000000001,42.689934,-84.4889094,271.25,1.298712134361267,88.10260009765625,-0.3540000021457672,0.0,1
1682339307.35988903,84558872,0,3,131325400,2259,15,0.7000000000000001,42.6899339,-84.4889061,271.25,1.4430171251296997,90.2779312133789,-0.10500000417232513,0.0,1
1682339307.56032705,84759310,0,3,131325600,2259,14,0.7000000000000001,42.6899339,-84.4889026,271.26,1.4844703674316406,83.19094848632812,-0.2330000102519989,0.0,1
1682339307.77974916,84978732,0,3,131325800,2259,15,0.7000000000000001,42.689934099999995,-84.48889849999999,271.19,1.745829701423645,83.91712951660156,0.09200000762939453,0.0,1
1682339307.97986698,85178850,0,3,131326000,2259,15,0.7000000000000001,42.689934199999996,-84.4888943,271.18,1.7250350713729858,90.36534881591797,0.06700000166893005,0.0,1
1682339308.16079307,85359776,0,3,131326200,2259,15,0.7000000000000001,42.689934099999995,-84.4888903,271.2,1.527448296546936,91.38803100585938,0.10900000482797623,0.0,1
1682339308.36031103,85559294,0,3,131326400,2259,15,0.7000000000000001,42.689934199999996,-84.48888649999999,271.28000000000003,1.4897104501724243,88.23050689697266,-0.18700000643730164,0.0,1
1682339308.56014609,85759129,0,3,131326600,2259,15,0.7000000000000001,42.689934199999996,-84.488883,271.28000000000003,1.4035701751708984,91.63307189941406,-0.07200000435113907,0.0,1
1682339308.76023507,85959218,0,3,131326800,2259,15,0.7000000000000001,42.689934199999996,-84.4888793,271.45,1.6004512310028076,91.36051177978516,-0.2630000114440918,0.0,1
1682339308.96017504,86159158,0,3,131327000,2259,15,0.7000000000000001,42.6899343,-84.48887549999999,271.53000000000003,1.5360326766967773,84.9203872680664,-0.203000009059906,0.0,1
1682339309.16032600,86359309,0,3,131327200,2259,15,0.7000000000000001,42.6899343,-84.4888718,271.63,1.5073931217193604,94.37537384033203,-0.2670000195503235,0.0,1
1682339309.35977697,86558760,0,3,131327400,2259,15,0.7000000000000001,42.689934099999995,-84.4888683,271.82,1.3347368240356445,98.22722625732422,-0.531000018119812,0.0,1
1682339309.55975413,86758737,0,3,131327600,2259,15,0.7000000000000001,42.6899338,-84.4888651,271.88,1.4068180322647095,93.62713623046875,-0.2980000078678131,0.0,1
1682339309.75969696,86958680,0,3,131327800,2259,15,0.7000000000000001,42.6899337,-84.488862,271.97,1.164003849029541,89.85232543945312,-0.4150000214576721,0.0,1
1682339309.97988915,87178872,0,3,131328000,2259,15,0.7000000000000001,42.689933499999995,-84.4888593,271.96,0.9744024276733398,98.37957000732422,-0.13600000739097595,0.0,1
1682339310.15987206,87358855,0,3,131328200,2259,15,0.7000000000000001,42.6899331,-84.4888575,271.97,0.8272907733917236,102.07056427001953,0.1600000113248825,0.0,1
1682339310.36026096,87559244,0,3,131328400,2259,15,0.7000000000000001,42.689932899999995,-84.488856,271.94,0.6507757306098938,96.17489624023438,0.23000000417232513,0.0,1
1682339310.55969310,87758676,0,3,131328600,2259,15,0.7000000000000001,42.6899326,-84.4888548,271.97,0.42076122760772705,114.1283950805664,0.17500001192092896,0.0,1
1682339310.75982213,87958805,0,3,131328800,2259,15,0.7000000000000001,42.6899324,-84.48885399999999,271.96,0.32567620277404785,95.81561279296875,0.2290000170469284,0.0,1
1682339310.95992303,88158906,0,3,131329000,2259,15,0.7000000000000001,42.689932299999995,-84.4888534,271.9,0.25092828273773193,112.98871612548828,0.203000009059906,0.0,1
1682339311.18000293,88378986,0,3,131329200,2259,15,0.7000000000000001,42.689932,-84.48885279999999,271.85,0.25854402780532837,112.9948959350586,0.2290000170469284,0.0,1
1682339311.37996006,88578943,0,3,131329400,2259,15,0.7000000000000001,42.6899318,-84.4888524,271.8,0.21332840621471405,124.88199615478516,0.14100000262260437,0.0,1
1682339311.55974698,88758730,0,3,131329600,2259,15,0.7000000000000001,42.6899315,-84.488852,271.77,0.17360012233257294,126.80387878417969,0.1290000081062317,0.0,1
1682339311.76018596,88959169,0,3,131329800,2259,15,0.7000000000000001,42.6899314,-84.4888517,271.77,0.13934490084648132,133.5460968017578,0.007000000216066837,0.0,1
1682339311.97981811,89178801,0,3,131330000,2259,15,0.7000000000000001,42.6899312,-84.48885159999999,271.8,0.09243917465209961,148.7173309326172,0.029000001028180122,0.0,1
1682339312.16028595,89359269,0,3,131330200,2259,15,0.7000000000000001,42.689931099999995,-84.4888515,271.84000000000003,0.08802272379398346,111.31790161132812,-0.16300000250339508,0.0,1
1682339312.37984395,89578827,0,3,131330400,2259,15,0.7000000000000001,42.689931099999995,-84.4888513,271.89,0.10125710070133209,124.9456558227539,-0.16200000047683716,0.0,1
1682339312.56009316,89759076,0,3,131330600,2259,15,0.7000000000000001,42.689931,-84.48885109999999,271.91,0.09266067296266556,119.0545883178711,-0.1210000067949295,0.0,1
1682339312.76036310,89959346,0,3,131330800,2259,15,0.7000000000000001,42.6899309,-84.488851,271.91,0.053366657346487045,102.9946060180664,-0.19200000166893005,0.0,1
1682339312.97976303,90178746,0,3,131331000,2259,15,0.7000000000000001,42.6899308,-84.4888508,271.89,0.0375765897333622,115.20110321044922,-0.04500000178813934,0.0,1
1682339313.16030693,90359290,0,3,131331200,2259,15,0.7000000000000001,42.6899307,-84.4888508,271.85,0.07710383087396622,350.2933349609375,-0.07700000703334808,0.0,1
1682339313.36025906,90559242,0,3,131331400,2259,15,0.7000000000000001,42.6899308,-84.4888509,271.84000000000003,0.11985408514738083,319.3987121582031,-0.06200000271201134,0.0,1
1682339313.56024504,90759228,0,3,131331600,2259,15,0.7000000000000001,42.6899308,-84.488851,271.84000000000003,0.049244288355112076,347.09259033203125,-0.1210000067949295,0.0,1
1682339313.76030207,90959285,0,3,131331800,2259,15,0.7000000000000001,42.6899308,-84.488851,271.84000000000003,0.07780103385448456,322.8355407714844,-0.125,0.0,1
1682339313.97976613,91178749,0,3,131332000,2259,15,0.7000000000000001,42.6899308,-84.48885109999999,271.8,0.09102197736501694,324.38916015625,-0.015000000596046448,0.0,1
1682339314.15974808,91358731,0,3,131332200,2259,15,0.7000000000000001,42.6899309,-84.4888513,271.75,0.09765245020389557,325.00799560546875,-0.003000000026077032,0.0,1
1682339314.35983396,91558817,0,3,131332400,2259,15,0.7000000000000001,42.689931,-84.4888515,271.72,0.08417245000600815,336.1757507324219,0.012000000104308128,0.0,1
1682339314.55996299,91758946,0,3,131332600,2259,15,0.7000000000000001,42.689931099999995,-84.4888517,271.7,0.10688779503107071,333.9143981933594,0.010000000707805157,0.0,1
1682339314.76027393,91959257,0,3,131332800,2259,15,0.7000000000000001,42.6899312,-84.48885179999999,271.69,0.08062257617712021,336.6147766113281,0.16300000250339508,0.0,1
1682339314.95976996,92158753,0,3,131333000,2259,15,0.7000000000000001,42.6899312,-84.488852,271.66,0.0915914922952652,349.3034973144531,0.09400000423192978,0.0,1
1682339315.15976310,92358746,0,3,131333200,2259,15,0.7000000000000001,42.6899313,-84.4888521,271.61,0.08984431624412537,343.1785888671875,0.0990000069141388,0.0,1
1682339315.35981107,92558794,0,3,131333400,2259,15,0.7000000000000001,42.6899314,-84.48885229999999,271.57,0.09102197736501694,358.740966796875,0.11800000816583633,0.0,1
1682339315.56031513,92759298,0,3,131333600,2259,15,0.7000000000000001,42.6899315,-84.4888524,271.52,0.09009439498186111,8.93956470489502,0.12600000202655792,0.0,1
1682339315.76012206,92959105,0,3,131333800,2259,15,0.7000000000000001,42.689931699999995,-84.4888524,271.5,0.12050311267375946,5.237475872039795,0.11800000816583633,0.0,1
1682339315.97983193,93178815,0,3,131334000,2259,15,0.7000000000000001,42.6899318,-84.4888524,271.45,0.10447966307401657,354.5076904296875,0.19100001454353333,0.0,1
1682339316.16012907,93359112,0,3,131334200,2259,15,0.7000000000000001,42.6899319,-84.4888524,271.42,0.10255242884159088,23.565393447875977,0.15400001406669617,0.0,1
1682339316.36035013,93559333,0,3,131334400,2259,15,0.7000000000000001,42.689932,-84.4888522,271.39,0.09920182079076767,37.21643829345703,0.10200000554323196,0.0,1
1682339316.57999516,93778978,0,3,131334600,2259,15,0.7000000000000001,42.689932,-84.488852,271.33,0.08746428042650223,22.166345596313477,0.07800000160932541,0.0,1
1682339316.78001094,93978994,0,3,131334800,2259,15,0.7000000000000001,42.6899321,-84.48885179999999,271.33,0.044204071164131165,37.64761734008789,0.06800000369548798,0.0,1
1682339316.98006701,94179050,0,3,131335000,2259,15,0.7000000000000001,42.689932,-84.4888517,271.3,0.09394147992134094,62.071022033691406,0.01600000075995922,0.0,1
1682339317.15988207,94358865,0,3,131335200,2259,15,0.7000000000000001,42.689932,-84.4888513,271.29,0.15400326251983643,89.6279525756836,0.05100000277161598,0.0,1
1682339317.35989094,94558874,0,3,131335400,2259,15,0.7000000000000001,42.6899319,-84.4888509,271.24,0.1928989440202713,108.43494415283203,0.05100000277161598,0.0,1
1682339317.56026316,94759246,0,3,131335600,2259,15,0.7000000000000001,42.6899316,-84.4888502,271.21,0.2904617190361023,112.68055725097656,0.023000001907348633,0.0,1
1682339317.75969601,94958679,0,3,131335800,2259,15,0.7000000000000001,42.6899312,-84.4888493,271.15,0.5072839856147766,115.20110321044922,0.07300000637769699,0.0,1
1682339317.98018694,95179170,0,3,131336000,2259,15,0.7000000000000001,42.6899308,-84.4888483,271.14,0.3657895624637604,119.29801940917969,0.015000000596046448,0.0,1
1682339318.15995598,95358939,0,3,131336200,2259,15,0.7000000000000001,42.6899303,-84.4888471,271.13,0.6155526638031006,121.6501693725586,-0.024000000208616257,0.0,1
1682339318.37996006,95578943,0,3,131336400,2259,15,0.7000000000000001,42.6899295,-84.4888457,271.08,0.7230277061462402,122.1733627319336,0.06000000238418579,0.0,1
1682339318.57991195,95778895,0,3,131336600,2259,15,0.7000000000000001,42.6899288,-84.4888441,271.07,0.6142125725746155,115.14649200439453,0.07500000298023224,0.0,1
1682339318.75975394,95958737,0,3,131336800,2259,15,0.7000000000000001,42.6899282,-84.48884249999999,271.02,0.7459524273872375,120.0020980834961,-0.007000000216066837,0.0,1
1682339318.96023893,96159222,0,3,131337000,2259,15,0.7000000000000001,42.689927499999996,-84.48884079999999,271.09000000000003,0.6465369462966919,114.78132629394531,-0.1380000114440918,0.0,1
1682339319.16029716,96359280,0,3,131337200,2259,15,0.7000000000000001,42.689926799999995,-84.4888392,271.05,0.8581888675689697,120.6889419555664,-0.07000000029802322,0.0,1
1682339319.36028099,96559264,0,3,131337400,2259,15,0.7000000000000001,42.6899259,-84.4888374,271.04,0.9029064774513245,121.96501159667969,0.07600000500679016,0.0,1
1682339319.56067514,96759658,0,3,131337600,2259,15,0.7000000000000001,42.689924999999995,-84.48883529999999,271.03000000000003,0.9988399147987366,117.74517059326172,-0.04100000113248825,0.0,1
1682339319.75981498,96958798,0,3,131337800,2259,15,0.7000000000000001,42.689924,-84.4888331,270.96,1.0634796619415283,120.64036560058594,0.20800000429153442,0.0,1
1682339319.97977400,97178757,0,3,131338000,2259,15,0.7000000000000001,42.6899233,-84.4888308,270.95,1.0193846225738525,107.35066223144531,0.14800000190734863,0.0,1
1682339320.17976093,97378744,0,3,131338200,2259,15,0.7000000000000001,42.6899228,-84.4888284,270.96,0.9899662137031555,102.36558532714844,-0.06000000238418579,0.0,1
1682339320.35975695,97558740,0,3,131338400,2259,15,0.7000000000000001,42.6899223,-84.4888259,270.91,1.0877634286880493,106.11903381347656,0.14400000870227814,0.0,1
1682339320.56016994,97759153,0,3,131338600,2259,15,0.7000000000000001,42.689921899999995,-84.4888234,270.92,1.0041539669036865,99.28408813476562,0.010000000707805157,0.0,1
1682339320.76017213,97959155,0,3,131338800,2259,15,0.7000000000000001,42.6899216,-84.4888208,270.93,1.1271424293518066,98.41764831542969,-0.08000000566244125,0.0,1
1682339320.97978902,98178772,0,3,131339000,2259,15,0.7000000000000001,42.689921299999995,-84.4888182,270.9,1.042641520500183,96.94097900390625,0.024000000208616257,0.0,1
1682339321.16026998,98359253,0,3,131339200,2259,15,0.7000000000000001,42.689921,-84.4888155,270.91,1.1449017524719238,99.85722351074219,-0.01600000075995922,0.0,1
1682339321.35975909,98558742,0,3,131339400,2259,15,0.7000000000000001,42.6899206,-84.48881279999999,270.89,1.112016201019287,99.10655212402344,0.0820000022649765,0.0,1
1682339321.55983114,98758814,0,3,131339600,2259,15,0.7000000000000001,42.689920099999995,-84.4888101,270.88,1.12326180934906,107.0314712524414,-0.052000001072883606,0.0,1
1682339321.75995898,98958942,0,3,131339800,2259,15,0.7000000000000001,42.6899193,-84.4888079,270.82,0.8846163749694824,121.40806579589844,0.1510000079870224,0.0,1
1682339321.97999811,99178981,0,3,131340000,2259,15,0.7000000000000001,42.6899185,-84.48880609999999,270.82,0.8418859839439392,117.90432739257812,0.13500000536441803,0.0,1
1682339322.15974712,99358730,0,3,131340200,2259,15,0.7000000000000001,42.689917699999995,-84.4888045,270.83,0.7919255495071411,130.18536376953125,-0.15000000596046448,0.0,1
1682339322.38007808,99579061,0,3,131340400,2259,14,0.72,42.6899168,-84.4888031,270.8,0.679644763469696,127.5274658203125,-0.046000003814697266,0.0,1
1682339322.58032703,99779310,0,3,131340600,2259,15,0.72,42.689916,-84.48880179999999,270.78000000000003,0.7360461950302124,130.70260620117188,0.14000000059604645,0.0,1
1682339322.75990200,99958885,0,3,131340800,2259,15,0.72,42.689915,-84.4888007,270.74,0.7191279530525208,148.47601318359375,0.14900000393390656,0.0,1
1682339322.98001409,100178997,0,3,131341000,2259,15,0.72,42.689913999999995,-84.4887998,270.69,0.6407261490821838,138.9234161376953,0.16600000858306885,0.0,1
1682339323.16026115,100359244,0,3,131341200,2259,15,0.72,42.6899133,-84.4887988,270.66,0.4333786070346832,121.12246704101562,0.1300000101327896,0.0,1
1682339323.35985398,100558837,0,3,131341400,2259,15,0.7000000000000001,42.689913,-84.488798,270.67,0.37622469663619995,128.85008239746094,-0.07300000637769699,0.0,1
1682339323.58031416,100779297,0,3,131341600,2259,15,0.7000000000000001,42.6899125,-84.4887974,270.61,0.3272338807582855,121.5042495727539,0.02200000174343586,0.0,1
1682339323.77968907,100978672,0,3,131341800,2259,15,0.7000000000000001,42.689912199999995,-84.4887967,270.58,0.29557403922080994,134.72586059570312,0.09600000083446503,0.0,1
1682339323.97989607,101178879,0,3,131342000,2259,15,0.7000000000000001,42.6899118,-84.4887961,270.58,0.25406497716903687,124.25299072265625,0.012000000104308128,0.0,1
1682339324.16018605,101359169,0,3,131342200,2259,15,0.7000000000000001,42.6899115,-84.4887956,270.58,0.2732490003108978,119.84891510009766,-0.02200000174343586,0.0,1
1682339324.38009501,101579078,0,3,131342400,2259,15,0.7000000000000001,42.6899113,-84.488795,270.57,0.2769043445587158,125.29713439941406,0.06300000101327896,0.0,1
1682339324.56029510,101759278,0,3,131342600,2259,15,0.7000000000000001,42.689910999999995,-84.48879439999999,270.54,0.2970471680164337,115.09844970703125,-0.03800000250339508,0.0,1
1682339324.76031613,101959299,0,3,131342800,2259,15,0.7000000000000001,42.6899107,-84.4887938,270.53000000000003,0.2554153501987457,126.24177551269531,0.10600000619888306,0.0,1
1682339324.96067810,102159661,0,3,131343000,2259,15,0.7000000000000001,42.689910399999995,-84.48879319999999,270.5,0.34977707266807556,117.59069061279297,-0.006000000052154064,0.0,1
1682339325.16023302,102359216,0,3,131343200,2259,15,0.7000000000000001,42.6899101,-84.4887925,270.45,0.27788129448890686,106.08699798583984,0.13100001215934753,0.0,1
1682339325.36021495,102559198,0,3,131343400,2259,15,0.7000000000000001,42.689909799999995,-84.4887918,270.43,0.3613668978214264,113.65660095214844,0.04800000041723251,0.0,1
1682339325.56024504,102759228,0,3,131343600,2259,15,0.7000000000000001,42.6899095,-84.4887911,270.42,0.2447059452533722,118.0311508178711,-0.004000000189989805,0.0,1
1682339325.76021504,102959198,0,3,131343800,2259,15,0.7000000000000001,42.6899093,-84.4887905,270.37,0.258118212223053,111.59530639648438,0.0560000017285347,0.0,1
1682339326.00033808,103199321,0,3,131344000,2259,15,0.7000000000000001,42.689909,-84.48879,270.36,0.16123586893081665,125.6615982055664,-0.005000000353902578,0.0,1
1682339326.17987895,103378862,0,3,131344200,2259,15,0.7000000000000001,42.6899088,-84.48878959999999,270.36,0.15088075399398804,113.84680938720703,0.023000001907348633,0.0,1
1682339326.37978411,103578767,0,3,131344400,2259,15,0.7000000000000001,42.6899087,-84.4887892,270.36,0.2106466442346573,102.05675506591797,-0.01100000087171793,0.0,1
1682339326.55977011,103758753,0,3,131344600,2259,15,0.7000000000000001,42.6899085,-84.48878859999999,270.36,0.23318877816200256,100.8762435913086,0.06400000303983688,0.0,1
1682339326.75975299,103958736,0,3,131344800,2259,15,0.7000000000000001,42.6899084,-84.488788,270.38,0.23455916345119476,96.60993194580078,-0.029000001028180122,0.0,1
1682339326.95983601,104158819,0,3,131345000,2259,15,0.7000000000000001,42.6899083,-84.4887873,270.37,0.35685431957244873,102.79002380371094,-0.07800000160932541,0.0,1
1682339327.15996695,104358950,0,3,131345200,2259,15,0.7000000000000001,42.6899081,-84.48878649999999,270.35,0.31151247024536133,102.60860443115234,0.09600000083446503,0.0,1
1682339327.35978913,104558772,0,3,131345400,2259,15,0.7000000000000001,42.6899079,-84.4887857,270.33,0.4068722426891327,111.33070373535156,0.01600000075995922,0.0,1
1682339327.55975604,104758739,0,3,131345600,2259,15,0.7000000000000001,42.6899077,-84.4887846,270.3,0.4588431417942047,96.38155364990234,0.20900000631809235,0.0,1
1682339327.75969100,104958674,0,3,131345800,2259,15,0.7000000000000001,42.6899075,-84.48878359999999,270.28000000000003,0.40787866711616516,117.13043975830078,0.10500000417232513,0.0,1
1682339327.97989511,105178878,0,3,131346000,2259,15,0.7000000000000001,42.6899073,-84.4887827,270.25,0.37500137090682983,89.84720611572266,0.032999999821186066,0.0,1
1682339328.16032100,105359304,0,3,131346200,2259,15,0.7000000000000001,42.6899073,-84.4887818,270.28000000000003,0.3212880492210388,108.32215881347656,0.11700000613927841,0.0,1
1682339328.38001299,105578996,0,3,131346400,2259,15,0.7000000000000001,42.6899072,-84.48878119999999,270.26,0.20195049047470093,82.03038024902344,0.010000000707805157,0.0,1
1682339328.56017494,105759158,0,3,131346600,2259,15,0.7000000000000001,42.6899072,-84.4887809,270.26,0.0570087768137455,74.744873046875,-0.00800000037997961,0.0,1
1682339328.76017594,105959159,0,3,131346800,2259,15,0.7000000000000001,42.6899073,-84.4887808,270.25,0.02024845778942108,20.2248592376709,0.013000000268220901,0.0,1
1682339328.96032596,106159309,0,3,131347000,2259,15,0.7000000000000001,42.6899073,-84.4887808,270.24,0.021260293200612068,228.8140869140625,0.07400000095367432,0.0,1
1682339329.16022515,106359208,0,3,131347200,2259,15,0.7000000000000001,42.6899073,-84.48878069999999,270.2,0.010295630432665348,60.94539260864258,-0.03400000184774399,0.0,1
1682339329.36024714,106559230,0,3,131347400,2259,15,0.7000000000000001,42.6899073,-84.4887806,270.2,0.01612451672554016,97.12501525878906,0.12800000607967377,0.0,1
1682339329.56014204,106759125,0,3,131347600,2259,15,0.7000000000000001,42.6899073,-84.48878049999999,270.17,0.027202943339943886,36.02737045288086,0.08900000154972076,0.0,1
1682339329.76077414,106959757,0,3,131347800,2259,15,0.7000000000000001,42.6899073,-84.4887804,270.14,0.036124784499406815,4.763641357421875,0.06700000166893005,0.0,1
1682339329.95988894,107158872,0,3,131348000,2259,15,0.7000000000000001,42.689907399999996,-84.4887803,270.12,0.04317406937479973,13.392497062683105,0.03500000014901161,0.0,1
1682339330.15978098,107358764,0,3,131348200,2259,15,0.7000000000000001,42.689907399999996,-84.4887803,270.11,0.033526111394166946,342.6459655761719,0.07600000500679016,0.0,1
1682339330.35975814,107558741,0,3,131348400,2259,15,0.7000000000000001,42.6899075,-84.4887802,270.1,0.049477268010377884,345.9637451171875,0.14000000059604645,0.0,1
1682339330.56027198,107759255,0,3,131348600,2259,15,0.7000000000000001,42.6899076,-84.4887802,270.07,0.05500909313559532,1.0416265726089478,0.05000000074505806,0.0,1
1682339330.75989604,107958879,0,3,131348800,2259,15,0.7000000000000001,42.6899076,-84.4887802,270.06,0.05724509060382843,332.9873352050781,0.03500000014901161,0.0,1
1682339330.96033001,108159313,0,3,131349000,2259,15,0.7000000000000001,42.6899077,-84.4887802,270.04,0.06560488045215607,322.431396484375,0.06400000303983688,0.0,1
1682339331.16028714,108359270,0,3,131349200,2259,15,0.7000000000000001,42.6899077,-84.4887802,270.03000000000003,0.05100000277161598,331.9275207519531,0.07800000160932541,0.0,1
1682339331.36024594,108559229,0,3,131349400,2259,15,0.7000000000000001,42.6899078,-84.4887802,270.02,0.05300000309944153,328.1092224121094,0.1469999998807907,0.0,1
1682339331.58013701,108779120,0,3,131349600,2259,15,0.7000000000000001,42.6899078,-84.4887803,269.98,0.03858756273984909,328.7815856933594,0.03700000047683716,0.0,1
1682339331.76031494,108959298,0,3,131349800,2259,15,0.7000000000000001,42.6899077,-84.4887802,269.94,0.03178049996495247,12.72435474395752,0.0820000022649765,0.0,1
1682339331.96030498,109159288,0,3,131350000,2259,15,0.7000000000000001,42.6899077,-84.4887802,269.91,0.05578530579805374,345.4655456542969,0.01100000087171793,0.0,1
1682339332.16068506,109359668,0,3,131350200,2259,15,0.7000000000000001,42.6899078,-84.4887802,269.89,0.0652533546090126,344.8988952636719,0.1300000101327896,0.0,1
1682339332.35985804,109558841,0,3,131350400,2259,15,0.7000000000000001,42.6899078,-84.4887802,269.87,0.04404543340206146,2.6025619506835938,0.16600000858306885,0.0,1
1682339332.55998302,109758966,0,3,131350600,2259,15,0.7000000000000001,42.6899079,-84.4887802,269.84000000000003,0.0650307685136795,358.23760986328125,0.07500000298023224,0.0,1
1682339332.75980616,109958789,0,3,131350800,2259,15,0.7000000000000001,42.689907999999996,-84.4887802,269.81,0.06264982372522354,8.259437561035156,0.1210000067949295,0.0,1
1682339332.97979498,110178778,0,3,131351000,2259,15,0.7000000000000001,42.6899081,-84.4887802,269.79,0.0538516528904438,328.67132568359375,0.06300000101327896,0.0,1
1682339333.16039515,110359378,0,3,131351200,2259,15,0.7000000000000001,42.6899082,-84.4887802,269.76,0.025612499564886093,321.3402099609375,0.2200000137090683,0.0,1
1682339333.36030316,110559286,0,3,131351400,2259,15,0.7000000000000001,42.6899083,-84.4887802,269.73,0.021095024421811104,328.5704345703125,0.1850000023841858,0.0,1
1682339333.55987597,110758859,0,3,131351600,2259,15,0.7000000000000001,42.6899083,-84.4887803,269.7,0.01100000087171793,0.0,0.15300001204013824,0.0,1
1682339333.75978994,110958773,0,3,131351800,2259,15,0.7000000000000001,42.6899084,-84.4887802,269.67,0.040804412215948105,17.10272789001465,0.1469999998807907,0.0,1
1682339333.97983909,111178822,0,3,131352000,2259,15,0.7000000000000001,42.6899085,-84.4887803,269.64,0.0505964457988739,288.4349365234375,0.1730000078678131,0.0,1
1682339334.16025615,111359239,0,3,131352200,2259,15,0.7000000000000001,42.689908599999995,-84.4887803,269.61,0.03041381575167179,316.33221435546875,0.18800000846385956,0.0,1
1682339334.35990405,111558887,0,3,131352400,2259,15,0.7000000000000001,42.689908599999995,-84.4887803,269.57,0.04560701921582222,195.255126953125,0.13300000131130219,0.0,1
1682339334.56022310,111759206,0,3,131352600,2259,15,0.7000000000000001,42.6899085,-84.4887804,269.54,0.13720059394836426,216.70285034179688,0.13199999928474426,0.0,1
1682339334.76022601,111959209,0,3,131352800,2259,15,0.7000000000000001,42.6899082,-84.4887806,269.54,0.2874334752559662,210.75865173339844,0.15400001406669617,0.0,1
1682339334.98007512,112179058,0,3,131353000,2259,16,0.7000000000000001,42.6899077,-84.488781,269.51,0.45079487562179565,206.3376922607422,0.0990000069141388,0.0,1
1682339335.16072297,112359706,0,3,131353200,2259,16,0.7000000000000001,42.6899069,-84.4887815,269.51,0.517501711845398,209.14064025878906,0.07400000095367432,0.0,1
1682339335.35986805,112558851,0,3,131353400,2259,16,0.66,42.689906,-84.488782,269.51,0.5841318964958191,204.1517333984375,0.04700000211596489,0.0,1
1682339335.58031106,112779294,0,3,131353600,2259,16,0.66,42.6899051,-84.48878239999999,269.54,0.546154797077179,195.6139678955078,0.07200000435113907,0.0,1
1682339335.77983904,112978822,0,3,131353800,2259,16,0.66,42.689904299999995,-84.4887827,269.53000000000003,0.3851986825466156,197.68235778808594,-0.12000000476837158,0.0,1
1682339335.97991395,113178897,0,3,131354000,2259,16,0.66,42.689903699999995,-84.48878309999999,269.51,0.3438168168067932,217.43650817871094,0.06000000238418579,0.0,1
1682339336.15993094,113358914,0,3,131354200,2259,16,0.66,42.6899034,-84.4887835,269.51,0.27628427743911743,239.0718231201172,0.09300000220537186,0.0,1
1682339336.36031103,113559294,0,3,131354400,2259,16,0.66,42.689903099999995,-84.4887842,269.51,0.3220093250274658,250.2145233154297,-0.00800000037997961,0.0,1
1682339336.56027293,113759256,0,3,131354600,2259,16,0.66,42.689903099999995,-84.4887849,269.51,0.3736482560634613,273.3754577636719,0.03200000151991844,0.0,1
1682339336.76017094,113959154,0,3,131354800,2259,16,0.66,42.689903199999996,-84.4887857,269.51,0.31854984164237976,285.4759826660156,0.05300000309944153,0.0,1
1682339336.96029401,114159277,0,3,131355000,2259,16,0.66,42.6899033,-84.4887863,269.5,0.24985197186470032,281.3099365234375,0.024000000208616257,0.0,1
1682339337.16032004,114359303,0,3,131355200,2259,16,0.66,42.6899034,-84.4887868,269.49,0.22160550951957703,303.4032287597656,0.0020000000949949026,0.0,1
1682339337.35983396,114558817,0,3,131355400,2259,16,0.66,42.6899036,-84.48878719999999,269.48,0.1647574007511139,304.365234375,0.010000000707805157,0.0,1
1682339337.55977297,114758756,0,3,131355600,2259,16,0.66,42.689903799999996,-84.48878739999999,269.46,0.09415412694215775,300.6506652832031,-0.026000000536441803,0.0,1
1682339337.77995110,114978934,0,3,131355800,2259,16,0.66,42.6899039,-84.4887875,269.46,0.08241965621709824,305.6184997558594,-0.010000000707805157,0.0,1
1682339337.95998812,115158971,0,3,131356000,2259,16,0.66,42.6899039,-84.4887877,269.45,0.08542833477258682,308.3455810546875,0.024000000208616257,0.0,1
1682339338.17995906,115378942,0,3,131356200,2259,16,0.66,42.689904,-84.4887878,269.46,0.07582216709852219,318.74298095703125,0.03200000151991844,0.0,1
1682339338.35977006,115558753,0,3,131356400,2259,16,0.66,42.689904,-84.4887878,269.46,0.044407207518815994,324.162353515625,-0.04200000315904617,0.0,1
1682339338.58008003,115779063,0,3,131356600,2259,16,0.66,42.6899041,-84.4887878,269.47,0.07907591760158539,350.5376892089844,0.03800000250339508,0.0,1
1682339338.75982499,115958808,0,3,131356800,2259,16,0.66,42.6899041,-84.4887877,269.47,0.07907591760158539,350.5376892089844,0.1600000113248825,0.0,1
1682339338.96031713,116159300,0,3,131357000,2259,16,0.66,42.6899041,-84.4887877,269.45,0.06477653980255127,351.1193542480469,0.17600001394748688,0.0,1
1682339339.16031814,116359301,0,3,131357200,2259,16,0.66,42.6899041,-84.4887876,269.44,0.03324154019355774,353.0887756347656,0.17100000381469727,0.0,1
1682339339.35976410,116558747,0,3,131357400,2259,16,0.66,42.6899041,-84.4887875,269.41,0.033600594848394394,53.47114181518555,0.13500000536441803,0.0,1
1682339339.55983114,116758814,0,3,131357600,2259,16,0.66,42.6899041,-84.4887875,269.39,0.012041594833135605,355.2363586425781,0.28700000047683716,0.0,1
1682339339.75992703,116958910,0,3,131357800,2259,16,0.66,42.6899041,-84.48878739999999,269.35,0.033060550689697266,3.468229293823242,0.14800000190734863,0.0,1
1682339339.98002601,117179009,0,3,131358000,2259,16,0.66,42.6899041,-84.4887873,269.33,0.02024845778942108,57.09475326538086,0.20600001513957977,0.0,1
1682339340.17996216,117378945,0,3,131358200,2259,16,0.66,42.689904,-84.4887873,269.29,0.01345362514257431,138.01278686523438,0.13600000739097595,0.0,1
1682339340.36015296,117559136,0,3,131358400,2259,16,0.66,42.689904,-84.48878719999999,269.26,0.036000002175569534,180.0,0.16600000858306885,0.0,1
1682339340.56018305,117759166,0,3,131358600,2259,16,0.66,42.6899039,-84.48878719999999,269.22,0.014422205276787281,123.6900634765625,0.1770000010728836,0.0,1
1682339340.76031113,117959294,0,3,131358800,2259,16,0.66,42.689903799999996,-84.4887871,269.17,0.011180341243743896,153.43495178222656,0.1980000138282776,0.0,1
1682339340.96030211,118159285,0,3,131359000,2259,16,0.66,42.689903799999996,-84.488787,269.12,0.014764823950827122,118.3007583618164,0.2580000162124634,0.0,1
1682339341.15977097,118358754,0,3,131359200,2259,16,0.66,42.689903699999995,-84.4887869,269.09000000000003,0.02325940877199173,205.46336364746094,0.2110000103712082,0.0,1
1682339341.36028004,118559263,0,3,131359400,2259,16,0.66,42.689903699999995,-84.4887869,269.04,0.02831960655748844,312.1376037597656,0.28300002217292786,0.0,1
1682339341.56037498,118759358,0,3,131359600,2259,16,0.66,42.689903699999995,-84.4887868,268.97,0.007615773472934961,23.198589324951172,0.29600000381469727,0.0,1
1682339341.76029897,118959282,0,3,131359800,2259,16,0.66,42.689903699999995,-84.4887868,268.91,0.022360682487487793,259.6951599121094,0.25699999928474426,0.0,1
1682339341.97977901,119178762,0,3,131360000,2259,16,0.66,42.689903699999995,-84.4887868,268.88,0.044204071164131165,307.6476135253906,0.2980000078678131,0.0,1
1682339342.16019297,119359176,0,3,131360200,2259,16,0.66,42.689903699999995,-84.48878669999999,268.84000000000003,0.018867963925004005,302.00537109375,0.26900002360343933,0.0,1
1682339342.36025906,119559242,0,3,131360400,2259,16,0.66,42.689903699999995,-84.4887868,268.79,0.03546829894185066,310.42608642578125,0.07300000637769699,0.0,1
1682339342.56031108,119759294,0,3,131360600,2259,16,0.66,42.689903799999996,-84.4887868,268.78000000000003,0.053150732070207596,318.8140869140625,0.22500000894069672,0.0,1
1682339342.76027799,119959261,0,3,131360800,2259,16,0.66,42.689903799999996,-84.4887868,268.74,0.03635932132601738,301.5042724609375,0.16200000047683716,0.0,1
1682339342.96073508,120159718,0,3,131361000,2259,16,0.66,42.689903799999996,-84.4887868,268.72,0.02332380972802639,300.9637451171875,0.06599999964237213,0.0,1
1682339343.15983605,120358819,0,3,131361200,2259,16,0.66,42.689903799999996,-84.4887868,268.71,0.010198039934039116,11.309930801391602,0.11600000411272049,0.0,1
1682339343.35995603,120558939,0,3,131361400,2259,16,0.66,42.689903799999996,-84.48878669999999,268.68,0.040792159736156464,11.309930801391602,-0.0990000069141388,0.0,1
1682339343.55980897,120758792,0,3,131361600,2259,16,0.66,42.6899039,-84.48878669999999,268.69,0.02973213791847229,289.6538391113281,0.036000002175569534,0.0,1
1682339343.75976610,120958749,0,3,131361800,2259,16,0.66,42.689903799999996,-84.48878669999999,268.67,0.029966648668050766,334.2900390625,-0.010000000707805157,0.0,1
1682339343.98000813,121178991,0,3,131362000,2259,16,0.66,42.689903799999996,-84.48878669999999,268.67,0.03189043700695038,228.8140869140625,0.06000000238418579,0.0,1
1682339344.16024899,121359232,0,3,131362200,2259,16,0.66,42.689903799999996,-84.48878669999999,268.63,0.00800000037997961,0.0,-0.06400000303983688,0.0,1
1682339344.35989094,121558874,0,3,131362400,2259,16,0.66,42.689903699999995,-84.4887866,268.62,0.004999999888241291,306.8699035644531,0.10700000822544098,0.0,1
1682339344.55981112,121758794,0,3,131362600,2259,16,0.66,42.689903699999995,-84.4887866,268.59000000000003,0.015652475878596306,296.5650634765625,0.006000000052154064,0.0,1
1682339344.76027894,121959262,0,3,131362800,2259,16,0.66,42.689903699999995,-84.4887866,268.57,0.02846050076186657,288.4349365234375,0.03700000047683716,0.0,1
1682339344.96029115,122159274,0,3,131363000,2259,16,0.66,42.689903699999995,-84.4887866,268.54,0.009055386297404766,186.34019470214844,-0.003000000026077032,0.0,1
1682339345.15995097,122358934,0,3,131363200,2259,16,0.66,42.6899036,-84.4887866,268.51,0.018027756363153458,340.5599670410156,0.04000000283122063,0.0,1
1682339345.36026716,122559250,0,3,131363400,2259,16,0.66,42.6899036,-84.4887866,268.49,0.03413209691643715,275.0424499511719,0.0,0.0,1
1682339345.56025314,122759236,0,3,131363600,2259,16,0.66,42.6899036,-84.48878669999999,268.46,0.03014962747693062,275.7106018066406,-0.023000001907348633,0.0,1
1682339345.76024604,122959229,0,3,131363800,2259,16,0.66,42.6899036,-84.48878669999999,268.45,0.02420743741095066,321.7098388671875,-0.005000000353902578,0.0,1
1682339345.98016906,123179152,0,3,131364000,2259,16,0.66,42.6899036,-84.48878669999999,268.43,0.024041632190346718,286.9275207519531,0.039000000804662704,0.0,1
1682339346.16028404,123359267,0,3,131364200,2259,16,0.66,42.6899035,-84.48878669999999,268.41,0.02202271670103073,267.3974609375,0.02800000086426735,0.0,1
1682339346.36023402,123559217,0,3,131364400,2259,16,0.66,42.6899035,-84.4887868,268.39,0.05215362459421158,302.47119140625,0.05100000277161598,0.0,1
1682339346.57983494,123778818,0,3,131364600,2259,16,0.66,42.6899036,-84.4887868,268.37,0.05685947835445404,304.2490234375,0.06300000101327896,0.0,1
1682339346.77995610,123978939,0,3,131364800,2259,16,0.66,42.6899036,-84.4887869,268.36,0.055901702493429184,312.82525634765625,0.08300000429153442,0.0,1
1682339346.96038294,124159366,0,3,131365000,2259,16,0.66,42.6899036,-84.488787,268.32,0.04468780755996704,319.53778076171875,0.032999999821186066,0.0,1
1682339347.17976904,124378752,0,3,131365200,2259,16,0.66,42.689903699999995,-84.488787,268.31,0.054644305258989334,325.4374694824219,0.07600000500679016,0.0,1
1682339347.36069512,124559678,0,3,131365400,2259,16,0.66,42.689903699999995,-84.488787,268.28000000000003,0.03342154994606972,308.92755126953125,0.1469999998807907,0.0,1
1682339347.55975509,124758738,0,3,131365600,2259,16,0.66,42.689903699999995,-84.488787,268.24,0.04201190546154976,358.6360778808594,0.08100000023841858,0.0,1
1682339347.75987911,124958862,0,3,131365800,2259,16,0.66,42.689903799999996,-84.488787,268.22,0.05536244437098503,343.2016296386719,0.1300000101327896,0.0,1
1682339347.95989394,125158877,0,3,131366000,2259,16,0.66,42.689903799999996,-84.488787,268.19,0.03500000014901161,323.1300964355469,0.0820000022649765,0.0,1
1682339348.16026306,125359246,0,3,131366200,2259,16,0.66,42.689903799999996,-84.488787,268.16,0.019798990339040756,315.0,0.0860000029206276,0.0,1
1682339348.35976696,125558750,0,3,131366400,2259,16,0.66,42.689903799999996,-84.488787,268.14,0.019924860447645187,342.47442626953125,0.05000000074505806,0.0,1
1682339348.57993412,125778917,0,3,131366600,2259,16,0.66,42.689903699999995,-84.488787,268.12,0.0305941179394722,258.6900634765625,0.15000000596046448,0.0,1
1682339348.75995803,125958941,0,3,131366800,2259,16,0.66,42.689903699999995,-84.488787,268.1,0.015652475878596306,296.5650634765625,0.05400000140070915,0.0,1
1682339348.96015310,126159136,0,3,131367000,2259,16,0.66,42.689903699999995,-84.488787,268.08,0.03546829894185066,310.42608642578125,0.0430000014603138,0.0,1
1682339349.16022611,126359209,0,3,131367200,2259,16,0.66,42.689903699999995,-84.488787,268.08,0.027018513530492783,218.99099731445312,0.030000001192092896,0.0,1
1682339349.36013293,126559116,0,3,131367400,2259,16,0.66,42.689903699999995,-84.488787,268.07,0.04104875400662422,182.792724609375,0.06300000101327896,0.0,1
1682339349.56018901,126759172,0,3,131367600,2259,16,0.66,42.6899035,-84.488787,268.06,0.09200543910264969,180.62277221679688,0.13199999928474426,0.0,1
1682339349.76031709,126959300,0,3,131367800,2259,16,0.66,42.6899034,-84.4887869,268.04,0.11720068752765656,154.746826171875,0.007000000216066837,0.0,1
1682339349.96036911,127159352,0,3,131368000,2259,16,0.66,42.689903199999996,-84.4887866,268.04,0.12702755630016327,146.5601348876953,0.08500000089406967,0.0,1
1682339350.15974712,127358730,0,3,131368200,2259,16,0.66,42.689903,-84.4887864,268.04,0.09604686498641968,141.34017944335938,0.10700000822544098,0.0,1
1682339350.35983801,127558821,0,3,131368400,2259,16,0.66,42.689903,-84.4887863,268.03000000000003,0.023600848391652107,53.61564636230469,-0.027000000700354576,0.0,1
1682339350.55994010,127758923,0,3,131368600,2259,16,0.66,42.689903,-84.48878619999999,268.05,0.05092150717973709,340.49755859375,0.05700000375509262,0.0,1
1682339350.76031709,127959300,0,3,131368800,2259,16,0.66,42.689903199999996,-84.48878619999999,268.05,0.0655515119433403,338.5232238769531,0.09200000762939453,0.0,1
1682339350.95976496,128158748,0,3,131369000,2259,16,0.66,42.6899033,-84.48878619999999,268.05,0.06652819365262985,317.4366455078125,0.01600000075995922,0.0,1
1682339351.16024494,128359228,0,3,131369200,2259,16,0.66,42.6899035,-84.48878619999999,268.05,0.07032780349254608,330.1540832519531,0.014000000432133675,0.0,1
1682339351.36025715,128559240,0,3,131369400,2259,16,0.66,42.6899036,-84.4887863,268.05,0.04036087170243263,311.9872131347656,0.05000000074505806,0.0,1
1682339351.56031299,128759296,0,3,131369600,2259,16,0.66,42.689903699999995,-84.4887863,268.06,0.04640043154358864,307.1168518066406,0.01100000087171793,0.0,1
1682339351.76068115,128959664,0,3,131369800,2259,16,0.66,42.689903699999995,-84.4887863,268.06,0.041593268513679504,279.68878173828125,0.06400000303983688,0.0,1
1682339351.98003411,129179017,0,3,131370000,2259,16,0.66,42.689903799999996,-84.4887864,268.05,0.03400000184774399,298.0724792480469,0.0,0.0,1
1682339352.15982699,129358810,0,3,131370200,2259,16,0.66,42.689903799999996,-84.4887864,268.06,0.04365776106715202,249.90478515625,0.1380000114440918,0.0,1
1682339352.37989402,129578877,0,3,131370400,2259,16,0.66,42.689903799999996,-84.4887864,268.04,0.04648656025528908,251.17529296875,0.05900000408291817,0.0,1
1682339352.56032896,129759312,0,3,131370600,2259,16,0.66,42.689903799999996,-84.4887864,268.03000000000003,0.032557640224695206,222.5104522705078,0.08800000697374344,0.0,1
1682339352.75977397,129958757,0,3,131370800,2259,16,0.66,42.689903799999996,-84.4887864,268.02,0.01726267673075199,280.00799560546875,0.1860000044107437,0.0,1
1682339352.97990608,130178889,0,3,131371000,2259,16,0.66,42.689903799999996,-84.4887861,268.01,0.1552192121744156,131.0817413330078,0.07500000298023224,0.0,1
1682339353.16022015,130359203,0,3,131371200,2259,16,0.66,42.6899036,-84.4887858,267.99,0.19321750104427338,127.64089965820312,0.1210000067949295,0.0,1
1682339353.36031604,130559299,0,3,131371400,2259,16,0.66,42.6899034,-84.48878529999999,267.96,0.24893775582313538,134.02345275878906,0.1469999998807907,0.0,1
1682339353.56027913,130759262,0,3,131371600,2259,16,0.66,42.689903199999996,-84.4887847,267.94,0.31297287344932556,128.774169921875,0.22500000894069672,0.0,1
1682339353.76065707,130959640,0,3,131371800,2259,16,0.66,42.6899028,-84.48878409999999,267.92,0.301390141248703,136.8822784423828,0.11600000411272049,0.0,1
1682339353.95984602,131158829,0,3,131372000,2259,16,0.66,42.689902499999995,-84.4887835,267.91,0.24980394542217255,130.12860107421875,0.18700000643730164,0.0,1
1682339354.15998316,131358966,0,3,131372200,2259,16,0.66,42.6899023,-84.488783,267.9,0.21426387131214142,134.4327392578125,0.22300000488758087,0.0,1
1682339354.35987711,131558860,0,3,131372400,2259,16,0.66,42.6899021,-84.4887826,267.9,0.1784040331840515,127.25527954101562,0.017000000923871994,0.0,1
1682339354.55977702,131758760,0,3,131372600,2259,16,0.66,42.689902,-84.4887823,267.89,0.17618173360824585,129.4724578857422,0.08400000631809235,0.0,1
1682339354.75976014,131958743,0,3,131372800,2259,16,0.66,42.6899018,-84.488782,267.88,0.13688316941261292,130.55589294433594,0.09600000083446503,0.0,1
1682339354.95988011,132158863,0,3,131373000,2259,16,0.66,42.6899017,-84.4887818,267.89,0.08919641375541687,137.72630310058594,0.17500001192092896,0.0,1
1682339355.15989995,132358883,0,3,131373200,2259,16,0.66,42.6899015,-84.48878169999999,267.88,0.0785493478178978,148.5358428955078,0.07900000363588333,0.0,1
1682339355.35982203,132558805,0,3,131373400,2259,16,0.66,42.6899014,-84.4887816,267.87,0.0915914922952652,169.30348205566406,0.11300000548362732,0.0,1
1682339355.56029606,132759279,0,3,131373600,2259,16,0.66,42.689901299999995,-84.4887816,267.85,0.045967381447553635,135.88140869140625,0.19300000369548798,0.0,1
1682339355.75985312,132958836,0,3,131373800,2259,16,0.66,42.6899012,-84.4887816,267.82,0.033837851136922836,161.0295867919922,0.1850000023841858,0.0,1
1682339355.96038413,133159367,0,3,131374000,2259,16,0.66,42.6899012,-84.4887816,267.8,0.018601076677441597,36.25383758544922,0.19100001454353333,0.0,1
1682339356.16033506,133359318,0,3,131374200,2259,16,0.66,42.6899012,-84.4887816,267.79,0.01708800718188286,159.44393920898438,0.23100000619888306,0.0,1
1682339356.35978007,133558763,0,3,131374400,2259,16,0.66,42.6899012,-84.4887816,267.77,0.02751363441348076,160.90650939941406,0.21400001645088196,0.0,1
1682339356.56017709,133759160,0,3,131374600,2259,16,0.66,42.6899011,-84.4887816,267.74,0.00824621133506298,345.9637451171875,0.19100001454353333,0.0,1
1682339356.76020312,133959186,0,3,131374800,2259,16,0.66,42.6899011,-84.4887816,267.72,0.012369317002594471,104.0362319946289,0.23000000417232513,0.0,1
1682339356.96031499,134159298,0,3,131375000,2259,16,0.66,42.6899011,-84.4887816,267.71,0.03195309266448021,339.86370849609375,0.242000013589859,0.0,1
1682339357.16065598,134359639,0,3,131375200,2259,16,0.66,42.6899012,-84.48878169999999,267.7,0.038052596151828766,3.012787342071533,0.15700000524520874,0.0,1
1682339357.35976911,134558752,0,3,131375400,2259,16,0.66,42.6899012,-84.48878169999999,267.69,0.011704700998961926,250.01690673828125,0.1210000067949295,0.0,1
1682339357.55986595,134758849,0,3,131375600,2259,16,0.66,42.689901299999995,-84.48878169999999,267.68,0.012727922759950161,315.0,0.17800000309944153,0.0,1
1682339357.75998116,134958964,0,3,131375800,2259,16,0.66,42.689901299999995,-84.4887818,267.65,0.01603122055530548,356.4236755371094,0.2630000114440918,0.0,1
1682339357.98003316,135179016,0,3,131376000,2259,16,0.66,42.6899014,-84.4887818,267.62,0.03847077116370201,8.972625732421875,0.25600001215934753,0.0,1
1682339358.15977001,135358753,0,3,131376200,2259,16,0.66,42.6899015,-84.4887818,267.58,0.029681645333766937,327.3807678222656,0.18200001120567322,0.0,1
1682339358.38035607,135579339,0,3,131376400,2259,16,0.66,42.6899015,-84.48878189999999,267.55,0.014142136089503765,315.0,0.2150000035762787,0.0,1
1682339358.55987716,135758860,0,3,131376600,2259,16,0.66,42.6899016,-84.48878189999999,267.5,0.030016662552952766,29.98163604736328,0.24900001287460327,0.0,1
1682339358.75990915,135958892,0,3,131376800,2259,16,0.66,42.6899017,-84.48878189999999,267.44,0.060207974165678024,355.2363586425781,0.30100002884864807,0.0,1
1682339358.96031499,136159298,0,3,131377000,2259,16,0.66,42.689901899999995,-84.48878189999999,267.39,0.04100000113248825,0.0,0.24400001764297485,0.0,1
1682339359.15976310,136358746,0,3,131377200,2259,16,0.66,42.689901899999995,-84.48878189999999,267.34000000000003,0.03996248543262482,31.701427459716797,0.18200001120567322,0.0,1
1682339359.35984302,136558826,0,3,131377400,2259,16,0.66,42.689902,-84.4887818,267.33,0.05345091596245766,17.417970657348633,0.1990000158548355,0.0,1
1682339359.55999398,136758977,0,3,131377600,2259,16,0.66,42.689902,-84.48878169999999,267.3,0.029966648668050766,25.70995330810547,0.10400000214576721,0.0,1
1682339359.75987911,136958862,0,3,131377800,2259,16,0.66,42.6899021,-84.4887816,267.29,0.021931713446974754,46.84761047363281,0.17100000381469727,0.0,1
1682339359.96031904,137159302,0,3,131378000,2259,16,0.66,42.6899021,-84.4887816,267.26,0.01664331741631031,57.264766693115234,0.13199999928474426,0.0,1
1682339360.16026711,137359250,0,3,131378200,2259,16,0.66,42.6899022,-84.48878169999999,267.22,0.020615529268980026,309.0938720703125,0.20100000500679016,0.0,1
1682339360.38013506,137579118,0,3,131378400,2259,16,0.66,42.6899022,-84.48878169999999,267.19,0.02376973070204258,14.620871543884277,0.2770000100135803,0.0,1
1682339360.56034994,137759333,0,3,131378600,2259,16,0.66,42.6899023,-84.48878169999999,267.16,0.014866068959236145,109.65381622314453,0.18900001049041748,0.0,1
1682339360.75983214,137958815,0,3,131378800,2259,16,0.66,42.6899022,-84.48878169999999,267.13,0.022561030462384224,167.1957244873047,0.13500000536441803,0.0,1
1682339360.95976496,138158748,0,3,131379000,2259,16,0.66,42.6899022,-84.4887818,267.11,0.021931713446974754,204.22775268554688,0.18000000715255737,0.0,1
1682339361.15985298,138358836,0,3,131379200,2259,16,0.66,42.6899022,-84.4887818,267.08,0.015811389312148094,251.5650634765625,0.1990000158548355,0.0,1
1682339361.35999107,138558974,0,3,131379400,2259,16,0.66,42.6899022,-84.48878189999999,267.05,0.03546829894185066,220.42608642578125,0.29500001668930054,0.0,1
1682339361.56026697,138759250,0,3,131379600,2259,16,0.66,42.6899022,-84.48878189999999,267.02,0.02154066041111946,68.1985855102539,0.21700000762939453,0.0,1
1682339361.77997398,138978957,0,3,131379800,2259,16,0.66,42.6899023,-84.48878189999999,267.0,0.038897302001714706,287.9691467285156,0.2240000069141388,0.0,1
1682339361.98011208,139179095,0,3,131380000,2259,16,0.66,42.6899022,-84.4887821,266.97,0.046861499547958374,219.8055877685547,0.23400001227855682,0.0,1
1682339362.18014598,139379129,0,3,131380200,2259,16,0.66,42.6899022,-84.4887821,266.94,0.06103277951478958,161.86190795898438,0.18900001049041748,0.0,1
1682339362.38031912,139579302,0,3,131380400,2259,16,0.66,42.6899021,-84.4887821,266.94,0.025019992142915726,357.7093811035156,0.21800000965595245,0.0,1
1682339362.55979514,139758778,0,3,131380600,2259,16,0.66,42.6899022,-84.4887821,266.94,0.047381430864334106,315.8551025390625,0.08500000089406967,0.0,1
1682339362.77983594,139978819,0,3,131380800,2259,16,0.66,42.6899023,-84.4887821,266.97,0.0439658984541893,72.80145263671875,0.009000000543892384,0.0,1
1682339362.97995806,140178941,0,3,131381000,2259,16,0.66,42.6899024,-84.488782,267.02,0.035468295216560364,68.49856567382812,-0.328000009059906,0.0,1
1682339363.17987013,140378853,0,3,131381200,2259,16,0.66,42.6899024,-84.4887818,267.1,0.11603879183530807,91.48145294189453,-0.36400002241134644,0.0,1
1682339363.37975001,140578733,0,3,131381400,2259,16,0.66,42.6899024,-84.48878169999999,267.21,0.0788479596376419,344.5536804199219,-0.46700000762939453,0.0,1
1682339363.57989407,140778877,0,3,131381600,2259,16,0.66,42.689902499999995,-84.4887816,267.3,0.0859883725643158,81.30448913574219,-0.2290000170469284,0.0,1
1682339363.78002715,140979010,0,3,131381800,2259,16,0.66,42.689902599999996,-84.4887814,267.36,0.13319535553455353,77.4245376586914,-0.398000031709671,0.0,1
1682339363.98007607,141179059,0,3,131382000,2259,16,0.66,42.689902599999996,-84.4887811,267.45,0.09217917919158936,61.488746643066406,-0.24000000953674316,0.0,1
1682339364.18021703,141379200,0,3,131382200,2259,16,0.66,42.6899027,-84.4887808,267.47,0.1210826188325882,41.98720932006836,-0.18900001049041748,0.0,1
1682339364.38001299,141578996,0,3,131382400,2259,16,0.66,42.6899028,-84.4887804,267.54,0.1727425903081894,47.8155517578125,-0.23500001430511475,0.0,1
1682339364.57983708,141778820,0,3,131382600,2259,15,0.66,42.689903,-84.4887801,267.56,0.1258014440536499,53.40336608886719,-0.1550000011920929,0.0,1
1682339364.77989507,141978878,0,3,131382800,2259,16,0.66,42.689903099999995,-84.4887798,267.59000000000003,0.1624315232038498,52.00126647949219,-0.1290000081062317,0.0,1
1682339364.97981596,142178799,0,3,131383000,2259,16,0.66,42.6899034,-84.4887796,267.59000000000003,0.13727709650993347,14.33992862701416,-0.0860000029206276,0.0,1
1682339365.17999816,142378981,0,3,131383200,2259,16,0.66,42.6899036,-84.4887797,267.58,0.08221922069787979,341.5650634765625,0.012000000104308128,0.0,1
1682339365.36023998,142559223,0,3,131383400,2259,16,0.66,42.689903799999996,-84.4887799,267.56,0.16447797417640686,300.30657958984375,0.05100000277161598,0.0,1
1682339365.57982898,142778812,0,3,131383600,2259,16,0.66,42.689904,-84.4887804,267.53000000000003,0.2377772182226181,299.47589111328125,0.11500000208616257,0.0,1
1682339365.77989507,142978878,0,3,131383800,2259,16,0.66,42.6899042,-84.488781,267.53000000000003,0.3096126616001129,285.7420349121094,0.10100000351667404,0.0,1
1682339365.97976804,143178751,0,3,131384000,2259,16,0.66,42.6899045,-84.48878189999999,267.51,0.4178468883037567,292.514404296875,0.0990000069141388,0.0,1
1682339366.18000793,143378991,0,3,131384200,2259,16,0.66,42.6899048,-84.48878289999999,267.5,0.4036335051059723,286.99835205078125,-0.06700000166893005,0.0,1
1682339366.37981009,143578793,0,3,131384400,2259,16,0.66,42.689904999999996,-84.488784,267.45,0.4995858669281006,285.6775817871094,0.08800000697374344,0.0,1
1682339366.58023405,143779217,0,3,131384600,2259,16,0.66,42.6899053,-84.4887852,267.43,0.5103655457496643,284.9892578125,0.15300001204013824,0.0,1
1682339366.78002906,143979012,0,3,131384800,2259,16,0.66,42.689905499999995,-84.4887864,267.44,0.48003751039505005,270.7161865234375,0.018000001087784767,0.0,1
1682339366.97996211,144178945,0,3,131385000,2259,16,0.66,42.6899054,-84.4887877,267.29,0.5020488500595093,270.79888916015625,0.4790000319480896,0.0,1
1682339367.17990112,144378884,0,3,131385200,2259,16,0.66,42.689905599999996,-84.4887889,267.23,0.4884802997112274,284.4629821777344,0.32200002670288086,0.0,1
1682339367.35969305,144558676,0,3,131385400,2259,16,0.66,42.6899058,-84.4887902,267.26,0.5380083918571472,269.6805114746094,0.11100000888109207,0.0,1
1682339367.55987310,144758856,0,3,131385600,2259,16,0.66,42.6899059,-84.48879149999999,267.25,0.5412024259567261,286.0908203125,0.08800000697374344,0.0,1
1682339367.76030016,144959283,0,3,131385800,2259,16,0.66,42.689906199999996,-84.48879269999999,267.21,0.5252552032470703,288.5384521484375,0.039000000804662704,0.0,1
1682339367.96012807,145159111,0,3,131386000,2259,16,0.66,42.6899065,-84.4887938,267.24,0.3993620276451111,296.62921142578125,-0.10500000417232513,0.0,1
1682339368.17982101,145378804,0,3,131386200,2259,16,0.66,42.689906699999995,-84.4887948,267.22,0.49071890115737915,284.9991149902344,-0.03200000151991844,0.0,1
1682339368.37994695,145578930,0,3,131386400,2259,16,0.66,42.6899069,-84.488796,267.21,0.47268804907798767,286.5947570800781,0.0430000014603138,0.0,1
1682339368.57980514,145778788,0,3,131386600,2259,16,0.66,42.6899073,-84.4887972,267.23,0.5435301661491394,295.150634765625,-0.07200000435113907,0.0,1
1682339368.75976896,145958752,0,3,131386800,2259,16,0.66,42.6899076,-84.4887984,267.24,0.5088703632354736,283.40814208984375,0.10100000351667404,0.0,1
1682339368.97975016,146178733,0,3,131387000,2259,16,0.66,42.689907999999996,-84.4887996,267.23,0.5528562664985657,299.114990234375,0.055000003427267075,0.0,1
1682339369.18007302,146379056,0,3,131387200,2259,16,0.66,42.6899085,-84.48880079999999,267.27,0.5817258954048157,294.58251953125,-0.04200000315904617,0.0,1
1682339369.36025214,146559235,0,3,131387400,2259,16,0.66,42.689909,-84.4888023,267.25,0.7120147347450256,297.24884033203125,0.06400000303983688,0.0,1
1682339369.57978797,146778771,0,3,131387600,2259,16,0.66,42.6899095,-84.4888039,267.28000000000003,0.7336552739143372,288.6819152832031,-0.01100000087171793,0.0,1
1682339369.77975011,146978733,0,3,131387800,2259,16,0.66,42.68991,-84.48880559999999,267.25,0.7828282117843628,295.25567626953125,0.1380000114440918,0.0,1
1682339370.00018406,147199167,0,3,131388000,2259,16,0.66,42.689910499999996,-84.4888074,267.21,0.7832253575325012,287.00054931640625,0.03800000250339508,0.0,1
1682339370.17990994,147378893,0,3,131388200,2259,16,0.66,42.6899108,-84.4888093,267.19,0.8652288913726807,282.41387939453125,0.1900000125169754,0.0,1
1682339370.35994411,147558927,0,3,131388400,2259,16,0.66,42.689911099999996,-84.4888115,267.15,0.9574633836746216,279.6197204589844,0.15800000727176666,0.0,1
1682339370.57994604,147778929,0,3,131388600,2259,16,0.66,42.6899114,-84.4888138,267.15,0.9917349219322205,283.8260498046875,0.04400000348687172,0.0,1
1682339370.75969100,147958674,0,3,131388800,2259,16,0.66,42.6899118,-84.4888163,267.17,1.1716690063476562,282.92132568359375,-0.02200000174343586,0.0,1
1682339370.98021197,148179195,0,3,131389000,2259,16,0.66,42.689912299999996,-84.48881899999999,267.15,1.075106143951416,287.20458984375,0.02200000174343586,0.0,1
1682339371.18012309,148379106,0,3,131389200,2259,16,0.66,42.689912899999996,-84.4888213,267.14,1.0269513130187988,293.04473876953125,0.11500000208616257,0.0,1
1682339371.37982702,148578810,0,3,131389400,2259,16,0.66,42.689913499999996,-84.48882379999999,267.12,1.1243888139724731,285.2104187011719,0.02800000086426735,0.0,1
