timestamp,TimeUS,Lat,Lng,Alt,RelHomeAlt,RelOriginAlt
1682339297.82064295,75019626,42.6899295,-84.48893029999999,271.7900085449219,0.003009563311934471,-0.7069904208183289
1682339297.92043805,75119421,42.6899296,-84.4889302,271.7900085449219,0.0037014540284872055,-0.7062985301017761
1682339298.02043200,75219415,42.6899296,-84.4889302,271.7900085449219,0.0019300039857625961,-0.7080699801445007
1682339298.12037897,75319362,42.6899297,-84.48893009999999,271.7799987792969,-0.0019726697355508804,-0.7119726538658142
1682339298.22043204,75419415,42.6899298,-84.48893009999999,271.7799987792969,-0.00627707876265049,-0.7162770628929138
1682339298.32066512,75519648,42.689929899999996,-84.48893,271.7699890136719,-0.010495418682694435,-0.7204954028129578
1682339298.42014313,75619126,42.68993,-84.4889299,271.7699890136719,-0.013241047039628029,-0.7232410311698914
1682339298.52019310,75719176,42.68993,-84.4889299,271.7699890136719,-0.015516037121415138,-0.7255160212516785
1682339298.62019610,75819179,42.6899301,-84.4889298,271.7699890136719,-0.019650215283036232,-0.7296501994132996
1682339298.72031593,75919299,42.6899302,-84.4889298,271.7599792480469,-0.024363989010453224,-0.7343639731407166
1682339298.82027197,76019255,42.6899303,-84.4889297,271.7599792480469,-0.0281903687864542,-0.7381903529167175
1682339298.92025304,76119236,42.6899304,-84.48892959999999,271.75,-0.031688205897808075,-0.7416881918907166
1682339299.02043509,76219418,42.689930499999996,-84.48892959999999,271.75,-0.03468155115842819,-0.7446815371513367
1682339299.12026215,76319245,42.689930499999996,-84.48892959999999,271.75,-0.037611477077007294,-0.7476114630699158
1682339299.22029805,76419281,42.6899306,-84.48892959999999,271.739990234375,-0.04403304308652878,-0.7540330290794373
1682339299.32015514,76519138,42.6899307,-84.48892959999999,271.72998046875,-0.05082821100950241,-0.7608281970024109
1682339299.42019200,76619175,42.6899307,-84.4889295,271.72998046875,-0.0581967756152153,-0.7681967616081238
1682339299.52019596,76719179,42.6899308,-84.4889295,271.7200012207031,-0.0651998445391655,-0.775199830532074
1682339299.62031794,76819301,42.6899309,-84.4889295,271.7099914550781,-0.07354401797056198,-0.7835440039634705
1682339299.72027302,76919256,42.6899309,-84.4889295,271.6999816894531,-0.08164500445127487,-0.7916449904441833
1682339299.82029009,77019273,42.689931,-84.48892939999999,271.69000244140625,-0.09096311777830124,-0.8009631037712097
1682339299.92045212,77119435,42.689931,-84.48892939999999,271.69000244140625,-0.09995650500059128,-0.8099564909934998
1682339300.02046609,77219449,42.689931099999995,-84.48892939999999,271.67999267578125,-0.10755728930234909,-0.8175572752952576
1682339300.12045693,77319440,42.689931099999995,-84.4889293,271.66998291015625,-0.1138768121600151,-0.8238767981529236
1682339300.22024012,77419223,42.6899312,-84.4889293,271.66998291015625,-0.11963700503110886,-0.8296369910240173
1682339300.32020593,77519189,42.6899313,-84.4889293,271.6600036621094,-0.12467025965452194,-0.8346702456474304
1682339300.42019606,77619179,42.6899313,-84.4889292,271.6499938964844,-0.1309964656829834,-0.8409964442253113
1682339300.52032614,77719309,42.6899314,-84.4889292,271.6499938964844,-0.13708257675170898,-0.8470825552940369
1682339300.62028098,77819264,42.6899315,-84.4889292,271.6399841308594,-0.14183640480041504,-0.8518363833427429
1682339300.72028112,77919264,42.6899315,-84.4889291,271.6399841308594,-0.14531493186950684,-0.8553149104118347
1682339300.82031393,78019297,42.6899316,-84.4889291,271.6399841308594,-0.14980602264404297,-0.8598060011863708
1682339300.92026401,78119247,42.689931699999995,-84.488929,271.6300048828125,-0.15431833267211914,-0.864318311214447
1682339301.02046800,78219451,42.689931699999995,-84.488929,271.6300048828125,-0.15911078453063965,-0.8691107630729675
1682339301.12015510,78319138,42.6899318,-84.488929,271.6199951171875,-0.16478657722473145,-0.8747865557670593
1682339301.22061706,78419600,42.6899319,-84.48892889999999,271.6099853515625,-0.17226099967956543,-0.8822609782218933
1682339301.32055712,78519540,42.689932,-84.48892889999999,271.6000061035156,-0.18050551414489746,-0.8905054926872253
1682339301.42056513,78619548,42.6899321,-84.4889288,271.5899963378906,-0.19039678573608398,-0.9003967642784119
1682339301.52048016,78719463,42.6899322,-84.4889288,271.5899963378906,-0.19981074333190918,-0.9098107218742371
1682339301.62047100,78819454,42.6899322,-84.4889288,271.5799865722656,-0.20512890815734863,-0.9151288866996765
1682339301.72044301,78919426,42.689932299999995,-84.4889287,271.5799865722656,-0.2081904411315918,-0.9181904196739197
1682339301.82046294,79019446,42.689932299999995,-84.4889287,271.57000732421875,-0.21168255805969238,-0.9216825366020203
1682339301.92047095,79119454,42.6899324,-84.4889286,271.57000732421875,-0.21540284156799316,-0.925402820110321
1682339302.02048016,79219463,42.6899324,-84.4889286,271.57000732421875,-0.21922826766967773,-0.9292282462120056
1682339302.12080503,79319788,42.6899325,-84.4889286,271.55999755859375,-0.22252559661865234,-0.9325255751609802
1682339302.22063398,79419617,42.6899325,-84.4889285,271.55999755859375,-0.22403931617736816,-0.934039294719696
1682339302.32034397,79519327,42.6899325,-84.4889285,271.55999755859375,-0.22336077690124512,-0.933360755443573
1682339302.42043900,79619422,42.6899326,-84.4889285,271.55999755859375,-0.2216935157775879,-0.9316934943199158
1682339302.52041411,79719397,42.6899326,-84.48892839999999,271.57000732421875,-0.21970844268798828,-0.9297084212303162
1682339302.62068510,79819668,42.6899327,-84.48892839999999,271.57000732421875,-0.21751856803894043,-0.9275185465812683
1682339302.72040796,79919391,42.6899327,-84.4889283,271.5899963378906,-0.19829368591308594,-0.9082936644554138
1682339302.82046103,80019444,42.6899327,-84.48892819999999,271.6399841308594,-0.14487457275390625,-0.8548745512962341
1682339302.92051196,80119495,42.6899328,-84.48892819999999,271.7099914550781,-0.07344412058591843,-0.7834441065788269
1682339303.02078414,80219767,42.6899328,-84.4889281,271.7900085449219,0.0018413122743368149,-0.7081586718559265
1682339303.12060308,80319586,42.6899328,-84.4889281,271.8599853515625,0.07668638974428177,-0.6333135962486267
1682339303.22075009,80419733,42.689932899999995,-84.4889281,271.92999267578125,0.14565396308898926,-0.5643460154533386
1682339303.32055497,80519538,42.689932999999996,-84.4889281,271.989990234375,0.20589041709899902,-0.5041095614433289
1682339303.42030311,80619286,42.689932999999996,-84.4889281,272.0400085449219,0.2515275478363037,-0.45847243070602417
1682339303.52027416,80719257,42.6899331,-84.4889281,272.07000732421875,0.2877542972564697,-0.42224568128585815
1682339303.62046194,80819445,42.6899332,-84.4889281,272.1099853515625,0.32471632957458496,-0.3852836489677429
1682339303.72026110,80919244,42.6899333,-84.4889281,272.1499938964844,0.36364102363586426,-0.3463589549064636
1682339303.82016301,81019146,42.689933499999995,-84.4889281,272.17999267578125,0.39612627029418945,-0.3138737082481384
1682339303.92023110,81119214,42.689933599999996,-84.488928,272.2200012207031,0.4314877986907959,-0.278512179851532
1682339304.02026200,81219245,42.6899337,-84.488928,272.25,0.4689457416534424,-0.2410542368888855
1682339304.12064815,81319631,42.6899339,-84.4889279,272.2900085449219,0.5028939247131348,-0.20710605382919312
1682339304.22057915,81419562,42.689934,-84.4889278,272.32000732421875,0.5347435474395752,-0.17525643110275269
1682339304.32033396,81519317,42.689934099999995,-84.4889278,272.3500061035156,0.5693497657775879,-0.14065021276474
1682339304.42028308,81619266,42.689934199999996,-84.48892769999999,272.3899841308594,0.6074628829956055,-0.10253709554672241
1682339304.52028894,81719272,42.6899343,-84.48892769999999,272.42999267578125,0.6454975605010986,-0.06450241804122925
1682339304.62044001,81819423,42.6899343,-84.48892769999999,272.4700012207031,0.684943675994873,-0.025056300684809685
1682339304.72015810,81919141,42.6899344,-84.4889276,272.5099792480469,0.729327917098999,0.019327940419316292
1682339304.82020307,82019186,42.6899345,-84.4889276,272.57000732421875,0.7817444801330566,0.07174450159072876
1682339304.92023396,82119217,42.6899345,-84.4889275,272.6199951171875,0.8374097347259521,0.12740975618362427
1682339305.02037406,82219357,42.6899346,-84.4889274,272.67999267578125,0.8960268497467041,0.18602687120437622
1682339305.12031007,82319293,42.6899346,-84.4889273,272.739990234375,0.9586458206176758,0.2486458420753479
1682339305.22035098,82419334,42.689934699999995,-84.48892699999999,272.80999755859375,1.0206470489501953,0.31064707040786743
1682339305.32048416,82519467,42.689934699999995,-84.4889266,272.8699951171875,1.0851503610610962,0.3751503825187683
1682339305.42028308,82619266,42.689934699999995,-84.4889261,272.92999267578125,1.148373007774353,0.43837302923202515
1682339305.52025795,82719241,42.689934799999996,-84.4889256,273.0,1.2128206491470337,0.5028206706047058
1682339305.62025094,82819234,42.689934799999996,-84.4889249,273.05999755859375,1.2771824598312378,0.5671824812889099
1682339305.72019911,82919182,42.689934799999996,-84.4889242,273.1300048828125,1.340514063835144,0.6305140852928162
1682339305.82020116,83019184,42.6899349,-84.48892339999999,273.19000244140625,1.4000693559646606,0.6900693774223328
1682339305.92034101,83119324,42.6899349,-84.48892239999999,273.25,1.4608533382415771,0.7508533596992493
1682339306.02030611,83219289,42.6899349,-84.48892149999999,273.29998779296875,1.5173970460891724,0.8073970675468445
1682339306.12030911,83319292,42.6899349,-84.48892049999999,273.3500061035156,1.5696473121643066,0.8596473336219788
1682339306.22051406,83419497,42.689935,-84.4889194,273.4100036621094,1.6249316930770874,0.9149317145347595
1682339306.32049394,83519477,42.6899351,-84.4889183,273.4599914550781,1.6793444156646729,0.969344437122345
1682339306.42047596,83619459,42.6899351,-84.4889171,273.5199890136719,1.732646107673645,1.0226460695266724
1682339306.52016401,83719147,42.6899351,-84.4889158,273.57000732421875,1.7824615240097046,1.072461485862732
1682339306.62065411,83819637,42.689935,-84.48891429999999,273.6099853515625,1.8296233415603638,1.1196233034133911
1682339306.72054315,83919526,42.6899349,-84.4889128,273.6600036621094,1.8744933605194092,1.1644933223724365
1682339306.82064295,84019626,42.689934799999996,-84.48891119999999,273.6999816894531,1.9189393520355225,1.2089393138885498
1682339306.92051101,84119494,42.689934699999995,-84.4889096,273.739990234375,1.9597920179367065,1.2497919797897339
1682339307.02051306,84219496,42.6899346,-84.488908,273.7799987792969,1.9964998960494995,1.2864998579025269
1682339307.12059212,84319575,42.6899345,-84.4889063,273.80999755859375,2.0289859771728516,1.318985939025879
1682339307.22055793,84419541,42.6899344,-84.48890449999999,273.8399963378906,2.0579586029052734,1.3479585647583008
1682339307.32077694,84519760,42.6899343,-84.4889027,273.8699951171875,2.083057403564453,1.37305748462677
1682339307.42017198,84619155,42.6899343,-84.4889008,273.8899841308594,2.1012017726898193,1.3912018537521362
1682339307.52020311,84719186,42.689934199999996,-84.4888988,273.8999938964844,2.117745876312256,1.4077458381652832
1682339307.62051415,84819497,42.689934199999996,-84.4888969,273.91998291015625,2.135483980178833,1.4254839420318604
1682339307.72056293,84919546,42.689934099999995,-84.48889489999999,273.94000244140625,2.1537561416625977,1.4437562227249146
1682339307.82045102,85019434,42.689934099999995,-84.4888928,273.9499816894531,2.1679134368896484,1.4579133987426758
1682339307.92044115,85119424,42.689934199999996,-84.48889059999999,273.9599914550781,2.1772613525390625,1.4672613143920898
1682339308.02041912,85219402,42.689934199999996,-84.4888885,273.9700012207031,2.1843435764312744,1.4743435382843018
1682339308.12042499,85319408,42.689934199999996,-84.4888864,273.9700012207031,2.188812494277954,1.478812575340271
1682339308.22045493,85419438,42.689934099999995,-84.48888439999999,273.97998046875,2.191941738128662,1.481941819190979
1682339308.32043505,85519418,42.689934099999995,-84.4888824,273.97998046875,2.195756435394287,1.485756516456604
1682339308.42076802,85619751,42.689934,-84.4888805,273.989990234375,2.20495867729187,1.4949586391448975
1682339308.52021813,85719201,42.689934,-84.4888787,274.0,2.216428279876709,1.5064282417297363
1682339308.62033105,85819314,42.6899339,-84.4888769,274.0099792480469,2.226428270339966,1.5164282321929932
1682339308.72028303,85919266,42.6899338,-84.488875,274.0199890136719,2.234575033187866,1.524575114250183
1682339308.82028508,86019268,42.6899338,-84.48887309999999,274.0299987792969,2.243067502975464,1.5330675840377808
1682339308.92028809,86119271,42.6899337,-84.48887119999999,274.0299987792969,2.2494521141052246,1.5394521951675415
1682339309.02027106,86219254,42.689933599999996,-84.4888692,274.0400085449219,2.2565832138061523,1.5465831756591797
1682339309.12026405,86319247,42.689933599999996,-84.4888673,274.04998779296875,2.2606194019317627,1.55061936378479
1682339309.22038198,86419365,42.689933499999995,-84.4888654,274.04998779296875,2.2667462825775146,1.5567463636398315
1682339309.32060003,86519583,42.6899334,-84.4888636,274.05999755859375,2.2706732749938965,1.5606732368469238
1682339309.42056108,86619544,42.6899332,-84.488862,274.07000732421875,2.2812275886535645,1.5712275505065918
1682339309.52061915,86719602,42.6899331,-84.4888604,274.0799865722656,2.2910051345825195,1.5810050964355469
1682339309.62049794,86819481,42.689932999999996,-84.4888589,274.0899963378906,2.300971031188965,1.5909711122512817
1682339309.72029400,86919277,42.6899328,-84.4888576,274.0899963378906,2.3071751594543457,1.597175121307373
1682339309.82028294,87019266,42.6899328,-84.4888564,274.1000061035156,2.3167383670806885,1.6067384481430054
1682339309.92027712,87119260,42.6899328,-84.4888553,274.1099853515625,2.323621988296509,1.6136219501495361
1682339310.02027202,87219255,42.6899327,-84.4888544,274.1099853515625,2.325943946838379,1.6159439086914062
1682339310.12015700,87319140,42.6899327,-84.48885369999999,274.1099853515625,2.3262367248535156,1.6162368059158325
1682339310.22028708,87419270,42.6899327,-84.4888531,274.1099853515625,2.3204798698425293,1.6104799509048462
1682339310.32023907,87519222,42.6899327,-84.4888527,274.1000061035156,2.3110344409942627,1.6010345220565796
1682339310.42033696,87619320,42.6899327,-84.48885229999999,274.0799865722656,2.296786308288574,1.5867863893508911
1682339310.52049994,87719483,42.6899327,-84.488852,274.05999755859375,2.279006004333496,1.5690059661865234
1682339310.62047410,87819457,42.6899326,-84.4888517,274.0400085449219,2.2599029541015625,1.5499029159545898
1682339310.72041416,87919397,42.6899325,-84.4888514,274.0199890136719,2.2396745681762695,1.5296745300292969
1682339310.82041693,88019400,42.6899325,-84.48885109999999,274.0,2.219895362854004,1.5098954439163208
1682339310.92045116,88119434,42.6899324,-84.4888509,273.989990234375,2.2015671730041504,1.4915671348571777
1682339311.02045608,88219439,42.689932299999995,-84.48885059999999,273.9700012207031,2.182528495788574,1.4725285768508911
1682339311.12048101,88319464,42.689932299999995,-84.4888503,273.9499816894531,2.164949655532837,1.4549496173858643
1682339311.22051811,88419501,42.6899322,-84.4888501,273.92999267578125,2.1481704711914062,1.4381704330444336
1682339311.32066202,88519645,42.689932,-84.48885,273.91998291015625,2.130840301513672,1.4208402633666992
1682339311.42043495,88619418,42.689932,-84.4888498,273.8999938964844,2.11655592918396,1.4065558910369873
1682339311.52042198,88719405,42.689932,-84.4888498,273.8899841308594,2.104008674621582,1.3940086364746094
1682339311.62046409,88819447,42.6899319,-84.4888497,273.8800048828125,2.0914340019226074,1.3814340829849243
1682339311.72027802,88919261,42.6899318,-84.4888497,273.8699951171875,2.0839309692382812,1.3739310503005981
1682339311.82050300,89019486,42.689931699999995,-84.4888497,273.8599853515625,2.0792529582977295,1.3692530393600464
1682339311.92050695,89119490,42.6899316,-84.4888497,273.8599853515625,2.078070640563965,1.3680707216262817
1682339312.02060914,89219592,42.6899315,-84.4888496,273.8599853515625,2.0788397789001465,1.3688398599624634
1682339312.12055707,89319540,42.6899315,-84.4888496,273.8599853515625,2.0797712802886963,1.3697713613510132
1682339312.22068596,89419669,42.6899314,-84.4888496,273.8699951171875,2.084077835083008,1.3740779161453247
1682339312.32055807,89519541,42.6899312,-84.4888495,273.8800048828125,2.0911319255828857,1.3811320066452026
1682339312.42047906,89619462,42.6899312,-84.4888495,273.8899841308594,2.100625514984131,1.3906255960464478
1682339312.52068400,89719667,42.6899312,-84.48884939999999,273.8999938964844,2.1141347885131836,1.4041348695755005
1682339312.62047911,89819462,42.6899312,-84.48884939999999,273.9100036621094,2.1295735836029053,1.4195735454559326
1682339312.72048807,89919471,42.6899312,-84.4888493,273.92999267578125,2.142444610595703,1.4324445724487305
1682339312.82018304,90019166,42.689931099999995,-84.4888493,273.94000244140625,2.15511417388916,1.4451141357421875
1682339312.92026210,90119245,42.689931099999995,-84.4888493,273.9499816894531,2.168513059616089,1.4585130214691162
1682339313.02022314,90219206,42.689931099999995,-84.4888493,273.9599914550781,2.1786956787109375,1.4686956405639648
1682339313.12033010,90319313,42.689931099999995,-84.4888493,273.9700012207031,2.185605049133301,1.4756050109863281
1682339313.22035098,90419334,42.689931099999995,-84.4888493,273.97998046875,2.191596031188965,1.4815961122512817
1682339313.32033515,90519318,42.6899312,-84.4888493,273.97998046875,2.1965532302856445,1.4865531921386719
1682339313.42059207,90619575,42.689931099999995,-84.4888493,273.989990234375,2.201225519180298,1.4912254810333252
1682339313.52047110,90719454,42.6899312,-84.48884939999999,273.989990234375,2.204779863357544,1.4947798252105713
1682339313.62030602,90819289,42.6899313,-84.4888495,273.989990234375,2.2079944610595703,1.4979945421218872
1682339313.72017908,90919162,42.6899313,-84.4888496,274.0,2.2104415893554688,1.5004416704177856
1682339313.82021594,91019199,42.6899314,-84.4888496,274.0,2.2119104862213135,1.5019105672836304
1682339313.92022109,91119204,42.6899314,-84.4888497,274.0,2.2136592864990234,1.5036593675613403
1682339314.02033710,91219320,42.6899314,-84.4888498,274.0,2.216034412384033,1.50603449344635
1682339314.12050009,91319483,42.6899315,-84.4888498,274.0,2.2178080081939697,1.5078080892562866
1682339314.22057509,91419558,42.6899315,-84.48884989999999,274.0,2.2176952362060547,1.507695198059082
1682339314.32049394,91519477,42.6899315,-84.48884989999999,274.0,2.2172491550445557,1.5072492361068726
1682339314.42027712,91619260,42.6899316,-84.48885,274.0,2.2161567211151123,1.5061568021774292
1682339314.52027202,91719255,42.6899316,-84.48885,274.0,2.215268135070801,1.5052682161331177
1682339314.62019110,91819174,42.6899316,-84.4888501,274.0,2.2136223316192627,1.50362229347229
1682339314.72026396,91919247,42.689931699999995,-84.4888501,274.0,2.2110843658447266,1.5010844469070435
1682339314.82022500,92019208,42.689931699999995,-84.4888502,273.989990234375,2.204078435897827,1.494078516960144
1682339314.92033815,92119321,42.689931699999995,-84.4888502,273.97998046875,2.195756196975708,1.4857561588287354
1682339315.02055097,92219534,42.6899318,-84.4888502,273.9700012207031,2.1868929862976074,1.4768929481506348
1682339315.12048912,92319472,42.6899318,-84.4888502,273.9599914550781,2.1780035495758057,1.4680036306381226
1682339315.22045398,92419437,42.6899318,-84.4888503,273.9499816894531,2.167414426803589,1.4574145078659058
1682339315.32044005,92519423,42.6899318,-84.4888503,273.94000244140625,2.1565191745758057,1.4465192556381226
1682339315.42045903,92619442,42.6899319,-84.4888503,273.92999267578125,2.1443753242492676,1.4343754053115845
1682339315.52056408,92719547,42.6899319,-84.4888503,273.91998291015625,2.1329240798950195,1.4229241609573364
1682339315.62080503,92819788,42.6899319,-84.4888503,273.9100036621094,2.1216113567352295,1.4116114377975464
1682339315.72022605,92919209,42.6899319,-84.4888503,273.8999938964844,2.1108133792877197,1.400813341140747
1682339315.82036304,93019346,42.6899319,-84.4888503,273.8899841308594,2.1004598140716553,1.3904598951339722
1682339315.92032194,93119305,42.689932,-84.4888503,273.8800048828125,2.0906074047088623,1.3806073665618896
1682339316.02034616,93219329,42.689932,-84.4888503,273.8599853515625,2.07957124710083,1.369571328163147
1682339316.12028313,93319266,42.6899321,-84.4888503,273.8500061035156,2.0669119358062744,1.3569118976593018
1682339316.22031713,93419300,42.6899321,-84.4888503,273.8399963378906,2.0543642044067383,1.3443642854690552
1682339316.32030511,93519288,42.6899321,-84.4888503,273.8299865722656,2.043375015258789,1.3333749771118164
1682339316.42017007,93619153,42.6899322,-84.48885039999999,273.82000732421875,2.0325870513916016,1.3225871324539185
1682339316.52059913,93719582,42.6899322,-84.4888503,273.80999755859375,2.0229434967041016,1.312943458557129
1682339316.62050700,93819490,42.6899322,-84.4888503,273.79998779296875,2.0152673721313477,1.305267333984375
1682339316.72063899,93919622,42.6899322,-84.4888503,273.7900085449219,2.0093319416046143,1.2993319034576416
1682339316.82048512,94019468,42.6899322,-84.4888502,273.7900085449219,2.003668785095215,1.2936688661575317
1682339316.92031097,94119294,42.6899322,-84.4888501,273.7799987792969,1.9977577924728394,1.2877577543258667
1682339317.02027202,94219255,42.6899321,-84.48885,273.7799987792969,1.9932247400283813,1.2832247018814087
1682339317.12026715,94319250,42.689932,-84.4888498,273.7699890136719,1.9898812770843506,1.279881238937378
1682339317.22031593,94419299,42.6899319,-84.4888496,273.7699890136719,1.9873203039169312,1.2773202657699585
1682339317.32017708,94519160,42.689931699999995,-84.4888493,273.7699890136719,1.985776424407959,1.2757763862609863
1682339317.42021298,94619196,42.6899315,-84.488849,273.7699890136719,1.984133005142212,1.2741329669952393
1682339317.52019215,94719175,42.6899313,-84.48884869999999,273.7699890136719,1.9831147193908691,1.2731146812438965
1682339317.62073994,94819723,42.689931099999995,-84.4888483,273.7699890136719,1.981874704360962,1.2718746662139893
1682339317.72049308,94919476,42.6899308,-84.4888478,273.7699890136719,1.9805314540863037,1.270531415939331
1682339317.82049608,95019479,42.689930499999996,-84.48884729999999,273.7599792480469,1.9787042140960693,1.2687041759490967
1682339317.92044711,95119430,42.6899302,-84.4888467,273.7599792480469,1.9767638444900513,1.2667638063430786
1682339318.02046108,95219444,42.6899298,-84.48884609999999,273.7599792480469,1.975348711013794,1.2653486728668213
1682339318.12046909,95319452,42.6899295,-84.4888455,273.7599792480469,1.9747390747070312,1.2647390365600586
1682339318.22051501,95419498,42.6899291,-84.4888448,273.7599792480469,1.976395845413208,1.2663958072662354
1682339318.32061315,95519596,42.689928699999996,-84.4888441,273.7599792480469,1.9793918132781982,1.2693917751312256
1682339318.42061210,95619595,42.6899283,-84.4888433,273.7699890136719,1.980553388595581,1.2705533504486084
1682339318.52063203,95719615,42.6899278,-84.48884249999999,273.7699890136719,1.9802696704864502,1.2702696323394775
1682339318.62049198,95819475,42.689927399999995,-84.4888417,273.7599792480469,1.9781216382980347,1.268121600151062
1682339318.72048497,95919468,42.689926899999996,-84.48884079999999,273.7599792480469,1.9743938446044922,1.2643938064575195
1682339318.82045293,96019436,42.6899265,-84.4888399,273.7599792480469,1.9727243185043335,1.2627242803573608
1682339318.92027116,96119254,42.6899261,-84.48883889999999,273.7599792480469,1.9725674390792847,1.262567400932312
1682339319.02042913,96219412,42.689925699999996,-84.488838,273.7599792480469,1.9758387804031372,1.2658387422561646
1682339319.12042308,96319406,42.6899253,-84.4888371,273.7699890136719,1.981187105178833,1.2711870670318604
1682339319.22053003,96419513,42.6899249,-84.4888361,273.7699890136719,1.9876899719238281,1.2776899337768555
1682339319.32049799,96519481,42.6899245,-84.4888351,273.7799987792969,1.9943156242370605,1.284315586090088
1682339319.42055416,96619537,42.689924,-84.48883409999999,273.7799987792969,1.9972020387649536,1.287202000617981
1682339319.52042007,96719403,42.6899236,-84.4888331,273.7799987792969,1.9973348379135132,1.2873347997665405
1682339319.62040710,96819390,42.6899231,-84.488832,273.7799987792969,1.9988248348236084,1.2888247966766357
1682339319.72075009,96919733,42.689922599999996,-84.4888309,273.7900085449219,2.00024151802063,1.2902415990829468
1682339319.82041502,97019398,42.6899222,-84.4888297,273.7799987792969,1.994400143623352,1.2844001054763794
1682339319.92041206,97119395,42.6899217,-84.4888285,273.7699890136719,1.9867053031921387,1.276705265045166
1682339320.02042603,97219409,42.689921299999995,-84.4888273,273.7599792480469,1.9777525663375854,1.2677525281906128
1682339320.12050509,97319488,42.6899211,-84.488826,273.75,1.9670315980911255,1.2570315599441528
1682339320.22052407,97419507,42.6899209,-84.4888247,273.75,1.9605076313018799,1.2505075931549072
1682339320.32055497,97519538,42.689920799999996,-84.48882329999999,273.739990234375,1.9577454328536987,1.247745394706726
1682339320.42049599,97619479,42.689920699999995,-84.48882189999999,273.739990234375,1.9518969058990479,1.2418968677520752
1682339320.52029300,97719276,42.689920699999995,-84.4888205,273.72998046875,1.9445549249649048,1.2345548868179321
1682339320.62026596,97819249,42.689920699999995,-84.4888191,273.7200012207031,1.9399256706237793,1.2299256324768066
1682339320.72027016,97919253,42.689920699999995,-84.48881779999999,273.7200012207031,1.9365838766098022,1.2265838384628296
1682339320.82026505,98019248,42.6899206,-84.4888163,273.7200012207031,1.9365631341934204,1.2265630960464478
1682339320.92017794,98119161,42.6899205,-84.4888149,273.7200012207031,1.9381577968597412,1.2281577587127686
1682339321.02020001,98219183,42.6899205,-84.48881349999999,273.7200012207031,1.9388810396194458,1.2288810014724731
1682339321.12023616,98319219,42.6899204,-84.4888122,273.7200012207031,1.9382742643356323,1.2282742261886597
1682339321.22037315,98419356,42.689920199999996,-84.4888108,273.7200012207031,1.937997579574585,1.2279975414276123
1682339321.32050395,98519487,42.68992,-84.4888094,273.7200012207031,1.937336802482605,1.2273367643356323
1682339321.42031813,98619301,42.6899198,-84.4888081,273.7200012207031,1.9335408210754395,1.2235407829284668
1682339321.52027011,98719253,42.689919599999996,-84.48880679999999,273.7099914550781,1.9284710884094238,1.2184710502624512
1682339321.62028098,98819264,42.6899193,-84.48880559999999,273.7099914550781,1.9256550073623657,1.215654969215393
1682339321.72026706,98919250,42.689918999999996,-84.48880439999999,273.7099914550781,1.9229624271392822,1.2129623889923096
1682339321.82026505,99019248,42.6899187,-84.4888035,273.6999816894531,1.9164413213729858,1.2064412832260132
1682339321.92021394,99119197,42.689918299999995,-84.4888027,273.69000244140625,1.9092955589294434,1.1992955207824707
1682339322.02023602,99219219,42.6899179,-84.48880199999999,273.69000244140625,1.901685357093811,1.1916853189468384
1682339322.12031507,99319298,42.6899175,-84.4888014,273.67999267578125,1.8929290771484375,1.1829290390014648
1682339322.22056198,99419545,42.689917099999995,-84.4888009,273.67999267578125,1.8906238079071045,1.1806237697601318
1682339322.32047009,99519453,42.6899166,-84.4888004,273.67999267578125,1.8901071548461914,1.1801071166992188
1682339322.42047310,99619456,42.6899161,-84.48879989999999,273.66998291015625,1.8898158073425293,1.1798157691955566
1682339322.52027893,99719262,42.6899157,-84.48879939999999,273.67999267578125,1.8906506299972534,1.1806505918502808
1682339322.62027001,99819253,42.6899152,-84.4887988,273.66998291015625,1.8889681100845337,1.178968071937561
1682339322.72015715,99919140,42.6899148,-84.48879819999999,273.66998291015625,1.8843462467193604,1.1743462085723877
1682339322.82023215,100019215,42.6899144,-84.48879769999999,273.6600036621094,1.8782132863998413,1.1682132482528687
1682339322.92022705,100119210,42.689913999999995,-84.4887971,273.6600036621094,1.8716416358947754,1.1616415977478027
1682339323.02032113,100219304,42.6899136,-84.4887966,273.6499938964844,1.8630543947219849,1.1530543565750122
1682339323.12028909,100319272,42.6899133,-84.4887961,273.6399841308594,1.853088140487671,1.1430881023406982
1682339323.22032595,100419309,42.6899131,-84.4887957,273.6300048828125,1.8441550731658936,1.134155035018921
1682339323.32047415,100519457,42.689912899999996,-84.48879529999999,273.6199951171875,1.8350441455841064,1.1250441074371338
1682339323.42026997,100619253,42.689912799999995,-84.488795,273.6199951171875,1.8307753801345825,1.1207753419876099
1682339323.52030015,100719283,42.6899127,-84.4887947,273.6099853515625,1.8276392221450806,1.117639183998108
1682339323.62047815,100819461,42.6899126,-84.48879439999999,273.6099853515625,1.8253369331359863,1.1153368949890137
1682339323.72058105,100919564,42.6899125,-84.4887942,273.6099853515625,1.824493408203125,1.1144933700561523
1682339323.82055402,101019537,42.6899124,-84.48879389999999,273.6099853515625,1.822285771369934,1.1122857332229614
1682339323.92080116,101119784,42.689912199999995,-84.4887937,273.6000061035156,1.819216251373291,1.1092162132263184
1682339324.02047515,101219458,42.689912,-84.48879339999999,273.6000061035156,1.8169844150543213,1.1069843769073486
1682339324.12050009,101319483,42.6899119,-84.4887931,273.6000061035156,1.8152269124984741,1.1052268743515015
1682339324.22050714,101419490,42.689911699999996,-84.4887928,273.6000061035156,1.8142306804656982,1.1042306423187256
1682339324.32048416,101519467,42.6899115,-84.4887926,273.6000061035156,1.813413381576538,1.1034133434295654
1682339324.42048907,101619472,42.6899114,-84.4887923,273.6000061035156,1.811462163925171,1.1014621257781982
1682339324.52017713,101719160,42.6899113,-84.48879199999999,273.5899963378906,1.809556007385254,1.0995559692382812
1682339324.62051296,101819496,42.689911099999996,-84.4887917,273.5899963378906,1.8089319467544556,1.098931908607483
1682339324.72049999,101919483,42.689910999999995,-84.4887914,273.5899963378906,1.8091408014297485,1.0991407632827759
1682339324.82062507,102019608,42.6899109,-84.4887911,273.5899963378906,1.807875633239746,1.0978755950927734
1682339324.92045712,102119440,42.6899107,-84.48879079999999,273.5899963378906,1.8059269189834595,1.0959268808364868
1682339325.02041602,102219399,42.6899106,-84.4887904,273.5899963378906,1.8055377006530762,1.0955376625061035
1682339325.12040710,102319390,42.689910399999995,-84.48879,273.5899963378906,1.805741310119629,1.0957412719726562
1682339325.22045302,102419436,42.6899103,-84.48878959999999,273.5899963378906,1.8039315938949585,1.0939315557479858
1682339325.32065105,102519634,42.6899101,-84.4887892,273.5899963378906,1.8048721551895142,1.0948721170425415
1682339325.42018294,102619166,42.68991,-84.4887889,273.5899963378906,1.8099725246429443,1.0999724864959717
1682339325.52021408,102719197,42.689909899999996,-84.48878859999999,273.6000061035156,1.8155879974365234,1.1055879592895508
1682339325.62026215,102819245,42.689909799999995,-84.48878839999999,273.6099853515625,1.8220322132110596,1.112032175064087
1682339325.72034407,102919327,42.6899097,-84.4887882,273.6099853515625,1.8295708894729614,1.1195708513259888
1682339325.82032108,103019304,42.6899096,-84.4887881,273.6199951171875,1.8354346752166748,1.1254346370697021
1682339325.92028999,103119273,42.6899095,-84.48878789999999,273.6300048828125,1.8412131071090698,1.1312130689620972
1682339326.02035403,103219337,42.6899094,-84.4887877,273.6300048828125,1.8442069292068481,1.1342068910598755
1682339326.12029004,103319273,42.6899093,-84.4887876,273.6300048828125,1.8443955183029175,1.1343954801559448
1682339326.22053194,103419515,42.689909199999995,-84.48878739999999,273.6300048828125,1.8436893224716187,1.133689284324646
1682339326.32051206,103519495,42.689909,-84.4887871,273.6300048828125,1.844495415687561,1.1344953775405884
1682339326.42060614,103619589,42.6899089,-84.4887869,273.6300048828125,1.8448246717453003,1.1348246335983276
1682339326.52054596,103719529,42.6899088,-84.4887866,273.6300048828125,1.845592975616455,1.1355929374694824
1682339326.62036204,103819345,42.6899087,-84.4887863,273.6300048828125,1.8489868640899658,1.1389868259429932
1682339326.72030711,103919290,42.689908599999995,-84.4887859,273.6399841308594,1.8544970750808716,1.144497036933899
1682339326.82031798,104019301,42.6899085,-84.4887856,273.6499938964844,1.861021637916565,1.1510215997695923
1682339326.92026305,104119246,42.6899084,-84.4887852,273.6499938964844,1.8676499128341675,1.1576498746871948
1682339327.02029109,104219274,42.6899083,-84.48878479999999,273.6600036621094,1.8743085861206055,1.1643085479736328
1682339327.12026596,104319249,42.6899081,-84.4887844,273.66998291015625,1.881117820739746,1.1711177825927734
1682339327.22025013,104419233,42.689907999999996,-84.4887839,273.66998291015625,1.8845070600509644,1.1745070219039917
1682339327.32061100,104519594,42.6899078,-84.4887834,273.66998291015625,1.8854526281356812,1.1754525899887085
1682339327.42061901,104619602,42.6899076,-84.488783,273.66998291015625,1.8856559991836548,1.1756559610366821
1682339327.52033401,104719317,42.689907399999996,-84.48878239999999,273.66998291015625,1.8852390050888062,1.1752389669418335
1682339327.62044096,104819424,42.6899072,-84.48878189999999,273.66998291015625,1.8805201053619385,1.1705200672149658
1682339327.72044516,104919428,42.6899071,-84.4887813,273.6600036621094,1.874118447303772,1.1641184091567993
1682339327.82039595,105019379,42.689907,-84.4887808,273.6499938964844,1.8671647310256958,1.1571646928787231
1682339327.92041516,105119398,42.6899069,-84.4887804,273.6499938964844,1.8604106903076172,1.1504106521606445
1682339328.02042508,105219408,42.6899069,-84.48877999999999,273.6399841308594,1.8550690412521362,1.1450690031051636
1682339328.12050915,105319492,42.6899069,-84.4887796,273.6399841308594,1.8505244255065918,1.1405243873596191
1682339328.22062707,105419610,42.689907,-84.4887794,273.6300048828125,1.8458915948867798,1.1358915567398071
1682339328.32062912,105519612,42.689907,-84.4887792,273.6300048828125,1.8423831462860107,1.132383108139038
1682339328.42034507,105619328,42.6899071,-84.4887791,273.6199951171875,1.8397859334945679,1.1297858953475952
1682339328.52028799,105719271,42.6899071,-84.488779,273.6199951171875,1.8376866579055786,1.127686619758606
1682339328.62030315,105819286,42.6899071,-84.488779,273.6199951171875,1.836214542388916,1.1262145042419434
1682339328.72026801,105919251,42.6899072,-84.488779,273.6199951171875,1.8351811170578003,1.1251810789108276
1682339328.82027698,106019260,42.6899072,-84.4887791,273.6199951171875,1.8340036869049072,1.1240036487579346
1682339328.92049599,106119479,42.6899072,-84.4887791,273.6199951171875,1.8335248231887817,1.123524785041809
1682339329.02018905,106219172,42.6899072,-84.4887792,273.6199951171875,1.8310871124267578,1.1210870742797852
1682339329.12025809,106319241,42.6899072,-84.4887792,273.6099853515625,1.8276413679122925,1.1176413297653198
1682339329.22031713,106419300,42.6899072,-84.4887792,273.6099853515625,1.8257038593292236,1.115703821182251
1682339329.32037306,106519356,42.6899072,-84.4887792,273.6099853515625,1.8232486248016357,1.113248586654663
1682339329.42031312,106619296,42.6899072,-84.4887791,273.6000061035156,1.8193440437316895,1.1093440055847168
1682339329.52030611,106719289,42.6899071,-84.4887791,273.6000061035156,1.8148890733718872,1.1048890352249146
1682339329.62029600,106819279,42.6899071,-84.4887791,273.6000061035156,1.8102225065231323,1.1002224683761597
1682339329.72028208,106919265,42.6899071,-84.4887791,273.5899963378906,1.8069541454315186,1.096954107284546
1682339329.82051611,107019499,42.6899071,-84.4887791,273.5899963378906,1.8038225173950195,1.0938224792480469
1682339329.92019510,107119178,42.6899072,-84.4887791,273.5899963378906,1.8012422323226929,1.0912421941757202
1682339330.02061701,107219600,42.6899072,-84.4887791,273.5799865722656,1.7992609739303589,1.0892609357833862
1682339330.12054205,107319525,42.6899072,-84.488779,273.5799865722656,1.7974613904953003,1.0874613523483276
1682339330.22089601,107419879,42.6899072,-84.488779,273.5799865722656,1.7948991060256958,1.0848990678787231
1682339330.32058716,107519570,42.6899072,-84.488779,273.5799865722656,1.7937610149383545,1.0837609767913818
1682339330.42049313,107619476,42.6899072,-84.488779,273.5799865722656,1.7910035848617554,1.0810035467147827
1682339330.52047515,107719458,42.6899072,-84.488779,273.57000732421875,1.7882015705108643,1.0782015323638916
1682339330.62048697,107819470,42.6899072,-84.488779,273.57000732421875,1.786415457725525,1.0764154195785522
1682339330.72076201,107919745,42.6899073,-84.488779,273.57000732421875,1.7858206033706665,1.0758205652236938
1682339330.82024097,108019224,42.6899073,-84.488779,273.57000732421875,1.7853063344955444,1.0753062963485718
1682339330.92026997,108119253,42.6899073,-84.488779,273.57000732421875,1.7845535278320312,1.0745534896850586
1682339331.02025294,108219236,42.689907399999996,-84.488779,273.57000732421875,1.7826244831085205,1.0726244449615479
1682339331.12036705,108319350,42.689907399999996,-84.488779,273.57000732421875,1.7805551290512085,1.0705550909042358
1682339331.22035694,108419340,42.689907399999996,-84.488779,273.55999755859375,1.7769067287445068,1.0669066905975342
1682339331.32033896,108519322,42.689907399999996,-84.488779,273.55999755859375,1.7719956636428833,1.0619956254959106
1682339331.42049193,108619475,42.6899075,-84.4887791,273.54998779296875,1.7651156187057495,1.0551155805587769
1682339331.52028513,108719268,42.6899075,-84.4887791,273.5400085449219,1.7573472261428833,1.0473471879959106
1682339331.62029099,108819274,42.6899075,-84.4887791,273.5400085449219,1.750629186630249,1.0406291484832764
1682339331.72018003,108919163,42.6899075,-84.4887791,273.5299987792969,1.7455295324325562,1.0355294942855835
1682339331.82025814,109019241,42.6899075,-84.4887791,273.5299987792969,1.7412256002426147,1.031225562095642
1682339331.92025208,109119235,42.6899075,-84.4887791,273.5199890136719,1.7372900247573853,1.0272899866104126
1682339332.02034307,109219326,42.6899075,-84.4887791,273.5199890136719,1.7349721193313599,1.0249720811843872
1682339332.12030196,109319285,42.6899075,-84.488779,273.5199890136719,1.7335929870605469,1.0235929489135742
1682339332.22058702,109419570,42.6899075,-84.488779,273.5199890136719,1.730216145515442,1.0202161073684692
1682339332.32062006,109519603,42.6899075,-84.488779,273.5099792480469,1.7251144647598267,1.015114426612854
1682339332.42029214,109619275,42.6899076,-84.488779,273.5,1.7169396877288818,1.0069396495819092
1682339332.52029514,109719278,42.6899076,-84.488779,273.489990234375,1.7079752683639526,0.9979752898216248
1682339332.62044597,109819429,42.6899076,-84.488779,273.489990234375,1.7000788450241089,0.990078866481781
1682339332.72049713,109919480,42.6899076,-84.488779,273.47998046875,1.6924519538879395,0.9824519753456116
1682339332.82050514,110019488,42.6899076,-84.488779,273.4700012207031,1.6841561794281006,0.9741562008857727
1682339332.92061496,110119598,42.6899076,-84.488779,273.4599914550781,1.6762291193008423,0.9662291407585144
1682339333.02045012,110219433,42.6899076,-84.488779,273.4599914550781,1.6700608730316162,0.9600608944892883
1682339333.12046099,110319444,42.6899076,-84.488779,273.4499816894531,1.6649582386016846,0.9549582600593567
1682339333.22046709,110419450,42.6899076,-84.488779,273.44000244140625,1.655919075012207,0.9459190964698792
1682339333.32045007,110519433,42.6899076,-84.488779,273.42999267578125,1.6462324857711792,0.9362325072288513
1682339333.42066407,110619647,42.6899077,-84.488779,273.41998291015625,1.6351401805877686,0.9251402020454407
1682339333.52043796,110719421,42.6899077,-84.488779,273.4100036621094,1.624004602432251,0.9140046238899231
1682339333.62051415,110819497,42.6899078,-84.488779,273.3999938964844,1.6120070219039917,0.9020070433616638
1682339333.72049212,110919475,42.6899078,-84.488779,273.3800048828125,1.5986696481704712,0.8886696696281433
1682339333.82055998,111019543,42.6899078,-84.488779,273.3699951171875,1.5860406160354614,0.8760406374931335
1682339333.92046213,111119445,42.6899078,-84.488779,273.3599853515625,1.5751992464065552,0.8651992678642273
1682339334.02044106,111219424,42.6899078,-84.488779,273.3500061035156,1.564592719078064,0.8545927405357361
1682339334.12040305,111319386,42.6899078,-84.488779,273.3399963378906,1.5535262823104858,0.843526303768158
1682339334.22046208,111419445,42.6899078,-84.488779,273.3299865722656,1.543633222579956,0.8336332440376282
1682339334.32066703,111519650,42.6899078,-84.488779,273.32000732421875,1.5354448556900024,0.8254448771476746
1682339334.42028594,111619269,42.6899077,-84.4887791,273.30999755859375,1.5277373790740967,0.8177374005317688
1682339334.52024412,111719227,42.6899076,-84.4887792,273.30999755859375,1.5218703746795654,0.8118703961372375
1682339334.62030506,111819288,42.689907399999996,-84.4887794,273.29998779296875,1.5176196098327637,0.8076196312904358
1682339334.72034597,111919329,42.6899071,-84.4887797,273.29998779296875,1.5157222747802734,0.8057222962379456
1682339334.82031894,112019302,42.689906799999996,-84.48877999999999,273.29998779296875,1.5118118524551392,0.8018118739128113
1682339334.92030907,112119292,42.6899063,-84.4887804,273.2900085449219,1.5086960792541504,0.7986961007118225
1682339335.02026796,112219251,42.6899059,-84.4887808,273.2900085449219,1.5056941509246826,0.7956941723823547
1682339335.12027001,112319253,42.6899054,-84.48878119999999,273.2900085449219,1.501815676689148,0.7918156981468201
1682339335.22051406,112419497,42.689904999999996,-84.4887815,273.2799987792969,1.4988300800323486,0.7888301014900208
1682339335.32050800,112519491,42.6899045,-84.4887818,273.2799987792969,1.497127890586853,0.7871279120445251
1682339335.42061210,112619595,42.6899041,-84.488782,273.2799987792969,1.495457649230957,0.7854576706886292
1682339335.52061510,112719598,42.689903699999995,-84.4887822,273.2799987792969,1.4949054718017578,0.7849054932594299
1682339335.62075806,112819741,42.6899033,-84.4887823,273.2799987792969,1.494276762008667,0.7842767834663391
1682339335.72048497,112919468,42.689903,-84.48878239999999,273.2799987792969,1.4939788579940796,0.7839788794517517
1682339335.82049513,113019478,42.6899027,-84.4887825,273.2900085449219,1.5032577514648438,0.7932577729225159
1682339335.92080212,113119785,42.689902499999995,-84.4887826,273.30999755859375,1.5211008787155151,0.8111009001731873
1682339336.02047205,113219455,42.6899024,-84.4887827,273.32000732421875,1.5387203693389893,0.8287203907966614
1682339336.12069607,113319679,42.6899023,-84.488783,273.3399963378906,1.5542716979980469,0.844271719455719
1682339336.22058010,113419563,42.6899023,-84.4887833,273.3500061035156,1.5651371479034424,0.8551371693611145
1682339336.32063103,113519614,42.6899023,-84.48878359999999,273.3599853515625,1.5764596462249756,0.8664596676826477
1682339336.42055106,113619534,42.6899024,-84.488784,273.3699951171875,1.587270975112915,0.8772709965705872
1682339336.52034402,113719327,42.689902499999995,-84.48878429999999,273.3800048828125,1.5981190204620361,0.8881190419197083
1682339336.62030315,113819286,42.689902599999996,-84.4887847,273.3899841308594,1.6076010465621948,0.8976010680198669
1682339336.72027612,113919259,42.689902599999996,-84.488785,273.3999938964844,1.617984414100647,0.9079844355583191
1682339336.82026005,114019243,42.6899028,-84.4887852,273.4100036621094,1.6259275674819946,0.9159275889396667
1682339336.92046404,114119447,42.6899029,-84.48878549999999,273.41998291015625,1.6323872804641724,0.9223873019218445
1682339337.02027416,114219257,42.689903,-84.4887856,273.42999267578125,1.6400102376937866,0.9300102591514587
1682339337.12017012,114319153,42.689903,-84.4887857,273.44000244140625,1.6506826877593994,0.9406827092170715
1682339337.22062612,114419609,42.689903,-84.4887858,273.4499816894531,1.6616121530532837,0.9516121745109558
1682339337.32061195,114519595,42.689903099999995,-84.4887858,273.4599914550781,1.6728503704071045,0.9628503918647766
1682339337.42035413,114619337,42.689903099999995,-84.48878599999999,273.4700012207031,1.6829813718795776,0.9729813933372498
1682339337.52030396,114719287,42.689903099999995,-84.48878599999999,273.47998046875,1.6932066679000854,0.9832066893577576
1682339337.62032914,114819312,42.689903099999995,-84.48878599999999,273.489990234375,1.7011866569519043,0.9911866784095764
1682339337.72027516,114919258,42.689903099999995,-84.48878599999999,273.489990234375,1.7087332010269165,0.9987332224845886
1682339337.82027698,115019260,42.689903099999995,-84.4887861,273.5,1.7160093784332275,1.0060093402862549
1682339337.92045903,115119442,42.689903199999996,-84.48878619999999,273.5099792480469,1.7234320640563965,1.0134320259094238
1682339338.02018809,115219171,42.689903199999996,-84.48878619999999,273.5099792480469,1.7286179065704346,1.018617868423462
1682339338.12059712,115319580,42.6899033,-84.4887863,273.5199890136719,1.7328851222991943,1.0228850841522217
1682339338.22069216,115419675,42.6899033,-84.4887863,273.5199890136719,1.7368807792663574,1.0268807411193848
1682339338.32036400,115519347,42.6899034,-84.4887864,273.5299987792969,1.7402198314666748,1.0302197933197021
1682339338.42045498,115619438,42.6899035,-84.4887864,273.5299987792969,1.7418936491012573,1.0318936109542847
1682339338.52045012,115719433,42.6899035,-84.4887864,273.5199890136719,1.7395141124725342,1.0295140743255615
1682339338.62050915,115819492,42.6899035,-84.4887864,273.5199890136719,1.7340754270553589,1.0240753889083862
1682339338.72041702,115919400,42.6899035,-84.4887864,273.5099792480469,1.7278059720993042,1.0178059339523315
1682339338.82044411,116019427,42.6899036,-84.4887864,273.5,1.719508409500122,1.0095083713531494
1682339338.92044902,116119432,42.6899036,-84.4887864,273.5,1.71033775806427,1.0003377199172974
1682339339.02057314,116219556,42.689903699999995,-84.4887863,273.47998046875,1.699057936668396,0.9890579581260681
1682339339.12050605,116319489,42.689903699999995,-84.4887863,273.4700012207031,1.6875574588775635,0.9775574803352356
1682339339.22063899,116419622,42.689903699999995,-84.48878619999999,273.4599914550781,1.6756303310394287,0.9656303524971008
1682339339.32079816,116519781,42.689903699999995,-84.48878619999999,273.4499816894531,1.6639773845672607,0.9539774060249329
1682339339.42045116,116619434,42.689903799999996,-84.4887861,273.44000244140625,1.6524862051010132,0.9424862265586853
1682339339.52043104,116719414,42.689903799999996,-84.4887861,273.42999267578125,1.6413307189941406,0.9313307404518127
1682339339.62046194,116819445,42.689903799999996,-84.48878599999999,273.4100036621094,1.6276365518569946,0.9176365733146667
1682339339.72045016,116919433,42.689903799999996,-84.48878599999999,273.3999938964844,1.614162802696228,0.9041628241539001
1682339339.82046413,117019447,42.689903799999996,-84.4887859,273.3899841308594,1.6022610664367676,0.8922610878944397
1682339339.92063212,117119615,42.689903799999996,-84.4887859,273.3800048828125,1.5913795232772827,0.8813795447349548
1682339340.02043605,117219419,42.689903699999995,-84.4887859,273.3699951171875,1.5800851583480835,0.8700851798057556
1682339340.12056303,117319546,42.689903699999995,-84.4887859,273.3500061035156,1.5685296058654785,0.8585296273231506
1682339340.22061896,117419602,42.689903699999995,-84.4887858,273.3399963378906,1.5577113628387451,0.8477113842964172
1682339340.32056403,117519547,42.689903699999995,-84.4887858,273.3299865722656,1.5478712320327759,0.837871253490448
1682339340.42050004,117619483,42.689903699999995,-84.4887858,273.32000732421875,1.5374726057052612,0.8274726271629333
1682339340.52048397,117719467,42.6899036,-84.4887858,273.30999755859375,1.5272446870803833,0.8172447085380554
1682339340.62050796,117819491,42.6899036,-84.4887858,273.29998779296875,1.51642644405365,0.806426465511322
1682339340.72062302,117919606,42.6899036,-84.4887858,273.2900085449219,1.504907488822937,0.7949075102806091
1682339340.82060313,118019586,42.6899035,-84.4887858,273.2799987792969,1.4909310340881348,0.7809310555458069
1682339340.92067313,118119656,42.6899035,-84.4887858,273.2599792480469,1.4757894277572632,0.7657894492149353
1682339341.02064610,118219629,42.6899035,-84.4887858,273.239990234375,1.4582269191741943,0.7482269406318665
1682339341.12086415,118319847,42.6899035,-84.4887857,273.2200012207031,1.4399690628051758,0.7299690842628479
1682339341.22056293,118419546,42.6899034,-84.4887857,273.2099914550781,1.4205714464187622,0.7105714678764343
1682339341.32049704,118519480,42.6899034,-84.4887857,273.19000244140625,1.400301218032837,0.690301239490509
1682339341.42028809,118619271,42.6899034,-84.4887857,273.1600036621094,1.37872314453125,0.6687231659889221
1682339341.52028203,118719265,42.6899034,-84.4887857,273.1399841308594,1.3568682670593262,0.6468682885169983
1682339341.62018204,118819165,42.6899034,-84.4887857,273.1199951171875,1.3345662355422974,0.6245662569999695
1682339341.72021294,118919196,42.6899034,-84.4887857,273.1000061035156,1.3123096227645874,0.6023096442222595
1682339341.82024002,119019223,42.6899033,-84.4887857,273.0799865722656,1.2919909954071045,0.5819910168647766
1682339341.92034006,119119323,42.6899033,-84.4887857,273.05999755859375,1.2739475965499878,0.5639476180076599
1682339342.02031898,119219302,42.6899033,-84.4887857,273.0400085449219,1.2573846578598022,0.5473846793174744
1682339342.12029195,119319275,42.6899033,-84.4887857,273.0299987792969,1.2427449226379395,0.5327449440956116
1682339342.22056413,119419547,42.6899033,-84.4887857,273.0099792480469,1.229344129562378,0.51934415102005
1682339342.32029510,119519278,42.6899033,-84.4887857,273.0,1.217442512512207,0.5074425339698792
1682339342.42029595,119619279,42.6899033,-84.4887857,273.0,1.210748553276062,0.5007485747337341
1682339342.52018905,119719172,42.6899034,-84.4887857,272.989990234375,1.2078478336334229,0.49784785509109497
1682339342.62026596,119819249,42.6899034,-84.4887857,272.989990234375,1.2038377523422241,0.49383777379989624
1682339342.72023201,119919215,42.6899034,-84.4887857,272.97998046875,1.199581265449524,0.48958128690719604
1682339342.82036805,120019351,42.6899034,-84.4887857,272.97998046875,1.1965960264205933,0.4865960478782654
1682339342.92032099,120119304,42.6899034,-84.4887857,272.97998046875,1.1949462890625,0.4849463105201721
1682339343.02050114,120219484,42.6899034,-84.4887857,272.97998046875,1.1948809623718262,0.4848809838294983
1682339343.12047005,120319453,42.6899034,-84.4887857,272.97998046875,1.1976213455200195,0.48762136697769165
1682339343.22030997,120419293,42.6899034,-84.4887857,272.989990234375,1.2076863050460815,0.49768632650375366
1682339343.32030916,120519292,42.6899034,-84.4887857,273.0099792480469,1.2248209714889526,0.5148209929466248
1682339343.42024398,120619227,42.6899034,-84.4887857,273.0299987792969,1.245152235031128,0.5351522564888
1682339343.52026606,120719249,42.6899034,-84.4887857,273.04998779296875,1.2674003839492798,0.5574004054069519
1682339343.62026095,120819244,42.6899034,-84.4887857,273.07000732421875,1.2879447937011719,0.577944815158844
1682339343.72035408,120919337,42.6899034,-84.4887857,273.0899963378906,1.3086096048355103,0.5986096262931824
1682339343.82032299,121019306,42.6899034,-84.4887857,273.1199951171875,1.330878734588623,0.6208787560462952
1682339343.92033601,121119319,42.6899034,-84.4887857,273.1399841308594,1.3522708415985107,0.6422708630561829
1682339344.02029204,121219275,42.6899034,-84.4887857,273.1600036621094,1.3731834888458252,0.6631835103034973
1682339344.12029696,121319280,42.6899034,-84.4887857,273.17999267578125,1.3931028842926025,0.6831029057502747
1682339344.22056794,121419551,42.6899034,-84.4887857,273.1999816894531,1.4133148193359375,0.7033148407936096
1682339344.32019114,121519174,42.6899034,-84.4887857,273.2200012207031,1.4345413446426392,0.7245413661003113
1682339344.42057896,121619562,42.6899034,-84.4887856,273.239990234375,1.4532520771026611,0.7432520985603333
1682339344.52050710,121719490,42.6899034,-84.4887856,273.25,1.4686713218688965,0.7586713433265686
1682339344.62056494,121819548,42.6899034,-84.4887856,273.2699890136719,1.4830509424209595,0.7730509638786316
1682339344.72044897,121919432,42.6899034,-84.4887856,273.2799987792969,1.4981484413146973,0.7881484627723694
1682339344.82043099,122019414,42.6899034,-84.4887856,273.29998779296875,1.512562870979309,0.8025628924369812
1682339344.92055511,122119538,42.6899034,-84.4887856,273.30999755859375,1.528526782989502,0.8185268044471741
1682339345.02043414,122219417,42.6899034,-84.4887856,273.3299865722656,1.5456464290618896,0.8356464505195618
1682339345.12066412,122319647,42.6899034,-84.4887856,273.3399963378906,1.5589617490768433,0.8489617705345154
1682339345.22027111,122419254,42.6899034,-84.4887856,273.3599853515625,1.570745825767517,0.8607458472251892
1682339345.32026911,122519252,42.6899034,-84.4887856,273.3699951171875,1.5813730955123901,0.8713731169700623
1682339345.42025995,122619243,42.6899034,-84.48878549999999,273.3800048828125,1.5907974243164062,0.8807974457740784
1682339345.52033401,122719317,42.6899034,-84.48878549999999,273.3899841308594,1.6005219221115112,0.8905219435691833
1682339345.62031794,122819301,42.6899034,-84.48878549999999,273.3999938964844,1.6103954315185547,0.9003954529762268
1682339345.72031808,122919301,42.6899034,-84.48878549999999,273.4100036621094,1.6220743656158447,0.9120743870735168
1682339345.82028294,123019266,42.6899034,-84.4887856,273.41998291015625,1.6332629919052124,0.9232630133628845
1682339345.92029214,123119275,42.6899034,-84.4887856,273.42999267578125,1.6447967290878296,0.9347967505455017
1682339346.02049613,123219479,42.6899034,-84.4887856,273.44000244140625,1.655081868171692,0.945081889629364
1682339346.12020397,123319187,42.6899034,-84.4887856,273.4499816894531,1.664107322692871,0.9541073441505432
1682339346.22063804,123419621,42.6899034,-84.4887856,273.4599914550781,1.6708273887634277,0.9608274102210999
1682339346.32063103,123519614,42.6899034,-84.4887856,273.4599914550781,1.676262617111206,0.9662626385688782
1682339346.42068410,123619667,42.6899034,-84.4887856,273.4700012207031,1.6810075044631958,0.9710075259208679
1682339346.52050114,123719484,42.6899034,-84.4887856,273.4700012207031,1.685448169708252,0.9754481911659241
1682339346.62051797,123819501,42.6899034,-84.4887857,273.47998046875,1.691288948059082,0.9812889695167542
1682339346.72067094,123919654,42.6899034,-84.4887857,273.47998046875,1.6970794200897217,0.9870794415473938
1682339346.82028508,124019268,42.6899034,-84.4887857,273.489990234375,1.7016569375991821,0.9916569590568542
1682339346.92030406,124119287,42.6899034,-84.4887857,273.489990234375,1.7048546075820923,0.9948546290397644
1682339347.02039695,124219380,42.6899034,-84.4887857,273.489990234375,1.7084053754806519,0.998405396938324
1682339347.12027216,124319255,42.6899034,-84.4887858,273.5,1.7111207246780396,1.001120686531067
1682339347.22031498,124419298,42.6899034,-84.4887858,273.5,1.712557315826416,1.0025572776794434
1682339347.32036209,124519345,42.6899034,-84.4887858,273.5,1.713260293006897,1.0032602548599243
1682339347.42032003,124619303,42.6899034,-84.4887858,273.5,1.7119656801223755,1.0019656419754028
1682339347.52027607,124719259,42.6899034,-84.4887858,273.489990234375,1.7095493078231812,0.9995493292808533
1682339347.62046599,124819449,42.6899034,-84.4887858,273.489990234375,1.708918571472168,0.9989185929298401
1682339347.72028494,124919268,42.6899034,-84.4887858,273.489990234375,1.707050085067749,0.9970501065254211
1682339347.82031894,125019302,42.6899035,-84.4887858,273.489990234375,1.7023506164550781,0.9923506379127502
1682339347.92018008,125119163,42.6899035,-84.4887858,273.47998046875,1.696000576019287,0.9860005974769592
1682339348.02027297,125219256,42.6899035,-84.4887858,273.4700012207031,1.6892523765563965,0.9792523980140686
1682339348.12023497,125319218,42.6899035,-84.4887858,273.4700012207031,1.6821166276931763,0.9721166491508484
1682339348.22043395,125419417,42.6899035,-84.4887858,273.4599914550781,1.6756699085235596,0.9656699299812317
1682339348.32052898,125519512,42.6899035,-84.4887858,273.4499816894531,1.669756531715393,0.9597565531730652
1682339348.42044902,125619432,42.6899036,-84.4887858,273.4499816894531,1.6643115282058716,0.9543115496635437
1682339348.52040911,125719392,42.6899036,-84.4887858,273.44000244140625,1.6595531702041626,0.9495531916618347
1682339348.62045097,125819434,42.6899036,-84.4887858,273.44000244140625,1.6545101404190063,0.9445101618766785
1682339348.72044611,125919429,42.6899036,-84.4887858,273.42999267578125,1.6490062475204468,0.9390062689781189
1682339348.82047510,126019458,42.6899035,-84.4887858,273.42999267578125,1.644483208656311,0.9344832301139832
1682339348.92078805,126119771,42.6899035,-84.4887858,273.42999267578125,1.6411019563674927,0.9311019778251648
1682339349.02055311,126219536,42.6899035,-84.4887858,273.41998291015625,1.6394394636154175,0.9294394850730896
1682339349.12037206,126319355,42.6899035,-84.4887858,273.41998291015625,1.638593316078186,0.9285933375358582
1682339349.22056103,126419544,42.6899035,-84.4887858,273.41998291015625,1.6377763748168945,0.9277763962745667
1682339349.32050800,126519491,42.6899034,-84.4887858,273.41998291015625,1.6371618509292603,0.9271618723869324
1682339349.42047000,126619453,42.6899033,-84.4887858,273.41998291015625,1.6361430883407593,0.9261431097984314
1682339349.52047610,126719459,42.689903199999996,-84.4887858,273.41998291015625,1.6364703178405762,0.9264703392982483
1682339349.62048411,126819467,42.689903099999995,-84.4887857,273.41998291015625,1.636963129043579,0.9269631505012512
1682339349.72048306,126919466,42.6899029,-84.4887857,273.41998291015625,1.6395542621612549,0.929554283618927
1682339349.82059002,127019573,42.6899028,-84.4887857,273.42999267578125,1.6437551975250244,0.9337552189826965
1682339349.92052007,127119503,42.689902599999996,-84.48878549999999,273.44000244140625,1.650268316268921,0.940268337726593
1682339350.02063298,127219616,42.689902499999995,-84.4887854,273.44000244140625,1.657170295715332,0.9471703171730042
1682339350.12080503,127319788,42.689902499999995,-84.48878529999999,273.4499816894531,1.6650911569595337,0.9550911784172058
1682339350.22055507,127419538,42.689902499999995,-84.4887852,273.4599914550781,1.6703146696090698,0.9603146910667419
1682339350.32048416,127519467,42.689902499999995,-84.4887851,273.4599914550781,1.6743800640106201,0.9643800854682922
1682339350.42056298,127619546,42.689902599999996,-84.4887851,273.4700012207031,1.680254340171814,0.9702543616294861
1682339350.52048802,127719471,42.689902599999996,-84.4887851,273.47998046875,1.6909382343292236,0.9809382557868958
1682339350.62053204,127819515,42.6899027,-84.4887851,273.489990234375,1.7003177404403687,0.9903177618980408
1682339350.72061110,127919594,42.6899027,-84.4887851,273.489990234375,1.708783507347107,0.998783528804779
1682339350.82060909,128019592,42.6899027,-84.4887851,273.5,1.7144807577133179,1.0044807195663452
1682339350.92069006,128119673,42.6899028,-84.4887851,273.5,1.7190959453582764,1.0090959072113037
1682339351.02052903,128219512,42.6899028,-84.4887852,273.5099792480469,1.7231096029281616,1.013109564781189
1682339351.12034893,128319332,42.6899029,-84.4887852,273.5099792480469,1.7299039363861084,1.0199038982391357
1682339351.22043896,128419422,42.6899029,-84.4887852,273.5199890136719,1.7399568557739258,1.0299568176269531
1682339351.32029700,128519280,42.689903,-84.4887852,273.5400085449219,1.752386212348938,1.0423861742019653
1682339351.42032909,128619312,42.689903,-84.4887852,273.54998779296875,1.7639379501342773,1.0539379119873047
1682339351.52025008,128719233,42.689903099999995,-84.4887852,273.55999755859375,1.7741729021072388,1.0641728639602661
1682339351.62028599,128819269,42.689903099999995,-84.4887852,273.57000732421875,1.7850682735443115,1.0750682353973389
1682339351.72023916,128919222,42.689903099999995,-84.4887852,273.5799865722656,1.7944194078445435,1.0844193696975708
