timestamp,TimeUS,C,Q1,Q2,Q3,Q4
1682339297.81945610,75018439,2,0.6673339009284973,-0.010938734747469425,0.002253845101222396,0.7446749210357666
1682339297.91946602,75118449,2,0.6673485636711121,-0.010998150333762169,0.0022863091435283422,0.7446607947349548
1682339298.01942396,75218407,2,0.6673526763916016,-0.011037242598831654,0.002302709734067321,0.744656503200531
1682339298.11942697,75318410,2,0.6673660278320312,-0.011079535819590092,0.0022968044504523277,0.7446439266204834
1682339298.21941996,75418403,2,0.6673831939697266,-0.01105465367436409,0.002242796588689089,0.7446290254592896
1682339298.31942296,75518406,2,0.6673720479011536,-0.011073567904531956,0.002173940185457468,0.744638979434967
1682339298.41941714,75618400,2,0.6673216819763184,-0.011150484904646873,0.0021455634851008654,0.744683027267456
1682339298.51947212,75718455,2,0.667298436164856,-0.011187604628503323,0.0021260548382997513,0.7447033524513245
1682339298.61952209,75818505,2,0.6672499775886536,-0.011212713085114956,0.0021152161061763763,0.7447464466094971
1682339298.71949410,75918477,2,0.6672500371932983,-0.01123611070215702,0.0021002492867410183,0.7447460889816284
1682339298.81945515,76018438,2,0.667286217212677,-0.011296759359538555,0.0021072393283247948,0.744712769985199
1682339298.91942406,76118407,2,0.66731196641922,-0.011368829756975174,0.002109639113768935,0.7446885704994202
1682339299.01943111,76218414,2,0.6673799157142639,-0.011447610333561897,0.0020714907441288233,0.744626522064209
1682339299.11941695,76318400,2,0.6674536466598511,-0.0114773353561759,0.0020424919202923775,0.7445601224899292
1682339299.21941996,76418403,2,0.6675874590873718,-0.01149818766862154,0.001967213349416852,0.7444400191307068
1682339299.31942105,76518404,2,0.6676892042160034,-0.011520927771925926,0.0019645586144179106,0.744348406791687
1682339299.41946507,76618448,2,0.6677300333976746,-0.01155437994748354,0.001941245747730136,0.7443113327026367
1682339299.51952195,76718505,2,0.667758584022522,-0.011583358980715275,0.001942718168720603,0.7442852854728699
1682339299.61949110,76818474,2,0.6677386164665222,-0.01158610638231039,0.0019231205806136131,0.7443031668663025
1682339299.71945596,76918439,2,0.667754054069519,-0.01161638367921114,0.0019394484115764499,0.7442888021469116
1682339299.81941795,77018401,2,0.6678078174591064,-0.011687875725328922,0.0019789922516793013,0.744239330291748
1682339299.91943216,77118415,2,0.6678398251533508,-0.011759506538510323,0.00196613441221416,0.7442095279693604
1682339300.01944304,77218426,2,0.667934775352478,-0.01184205524623394,0.0019340442959219217,0.744123101234436
1682339300.11941910,77318402,2,0.668024480342865,-0.011883880011737347,0.0019239095272496343,0.744041919708252
1682339300.21942401,77418407,2,0.6681806445121765,-0.011893264017999172,0.0019045463996008039,0.7439016103744507
1682339300.31947708,77518460,2,0.6682971119880676,-0.011916210874915123,0.0019404897466301918,0.7437964677810669
1682339300.41951203,77618495,2,0.6684468984603882,-0.011928335763514042,0.0019320861902087927,0.7436617016792297
1682339300.51950502,77718488,2,0.668518602848053,-0.011996220797300339,0.0019062587525695562,0.7435962557792664
1682339300.61945701,77818440,2,0.6685466766357422,-0.012084255926311016,0.0018686797702684999,0.7435696721076965
1682339300.71942306,77918406,2,0.6686915159225464,-0.012119244784116745,0.0017771520651876926,0.7434390783309937
1682339300.81942296,78018406,2,0.6685090661048889,-0.012171821668744087,0.001789679517969489,0.7436022162437439
1682339300.91942716,78118410,2,0.6686537265777588,-0.012227240018546581,0.001798862125724554,0.7434712052345276
1682339301.01942801,78218411,2,0.6687727570533752,-0.01232445240020752,0.0017464917618781328,0.7433626651763916
1682339301.11942816,78318411,2,0.6686923503875732,-0.012358077801764011,0.0015272630844265223,0.7434349060058594
1682339301.21947098,78418454,2,0.6686662435531616,-0.011844716966152191,0.001818941324017942,0.7434660792350769
1682339301.31951714,78518500,2,0.6689226031303406,-0.011868536472320557,0.001592643908225,0.7432355880737305
1682339301.41950297,78618486,2,0.6687910556793213,-0.011901230551302433,0.0016651551704853773,0.7433533072471619
1682339301.51945615,78718439,2,0.6686004996299744,-0.01193228643387556,0.0014183775056153536,0.7435247302055359
1682339301.61942601,78818409,2,0.6689411997795105,-0.01199448574334383,0.001500821323134005,0.7432170510292053
1682339301.71942616,78918409,2,0.6688582897186279,-0.012159746140241623,0.001311690779402852,0.7432892918586731
1682339301.81942916,79018412,2,0.6686728596687317,-0.011995157226920128,0.0014779665507376194,0.7434585094451904
1682339301.91942716,79118410,2,0.6687189936637878,-0.011893375776708126,0.0016582030802965164,0.743418276309967
1682339302.01943612,79218419,2,0.668554961681366,-0.012152745388448238,0.0012913865502923727,0.7435622811317444
1682339302.11946511,79318448,2,0.6684149503707886,-0.012113500386476517,0.001425865339115262,0.7436885237693787
1682339302.21952796,79418511,2,0.6684021353721619,-0.01232459582388401,0.0014087222516536713,0.7436966300010681
1682339302.31950402,79518487,2,0.6685189604759216,-0.01225031167268753,0.0012546229409053922,0.743593156337738
1682339302.41946197,79618445,2,0.6682554483413696,-0.01211788970977068,0.001459621824324131,0.7438317537307739
1682339302.51943493,79718418,2,0.6680465936660767,-0.01212488953024149,0.0009169270633719862,0.7440201044082642
1682339302.61943603,79818419,2,0.6677535176277161,-0.009431429207324982,-0.00012120077735744417,0.7443227171897888
1682339302.71944213,79918425,2,0.6675183176994324,-0.0029875647742301226,9.08000729396008e-05,0.7445873618125916
1682339302.81942701,80018410,2,0.6673256754875183,-0.003429502947255969,0.0028597600758075714,0.7447526454925537
1682339302.91942716,80118410,2,0.6671618223190308,-0.005419016815721989,0.0035074963234364986,0.7448848485946655
1682339303.01947713,80218460,2,0.6672822833061218,-0.006174097768962383,0.0021904073655605316,0.7447761297225952
1682339303.11954999,80318533,2,0.6675510406494141,-0.006833644583821297,0.0019902358762919903,0.7445300221443176
1682339303.21950197,80418485,2,0.6680256724357605,-0.009997550398111343,-0.0009908314095810056,0.7440704107284546
1682339303.31946206,80518445,2,0.6687204241752625,-0.012241045013070107,-0.004554169252514839,0.7433992028236389
1682339303.41943407,80618417,2,0.6696372628211975,-0.011816777288913727,-0.003795142052695155,0.7425845861434937
1682339303.51943302,80718416,2,0.6708080768585205,-0.01273002102971077,-0.0031760637648403645,0.7415149211883545
1682339303.61943603,80818419,2,0.672003448009491,-0.013229001313447952,-0.004849053453654051,0.7404139637947083
1682339303.71942806,80918411,2,0.6731100082397461,-0.012160920538008213,-0.005061125848442316,0.7394250631332397
1682339303.81942201,81018405,2,0.674116849899292,-0.011734535917639732,-0.006145432125777006,0.7385058999061584
1682339303.91946912,81118452,2,0.6748944520950317,-0.010195434093475342,-0.0052092536352574825,0.7378254532814026
1682339304.01951694,81218500,2,0.6756451725959778,-0.0061491383239626884,0.0017459106165915728,0.7371992468833923
1682339304.11946106,81318444,2,0.6763107776641846,-0.0013773422688245773,0.00972979236394167,0.7365508675575256
1682339304.21946406,81418447,2,0.6768428087234497,0.0027669123373925686,0.015071703121066093,0.7359681129455566
1682339304.31943107,81518414,2,0.6773533225059509,0.004163043573498726,0.017098281532526016,0.735447347164154
1682339304.41943407,81618417,2,0.6780011653900146,0.003558793803676963,0.01467105746269226,0.7349057793617249
1682339304.51943612,81718419,2,0.6785162687301636,0.002470862353220582,0.010088037699460983,0.7345119714736938
1682339304.61942601,81818409,2,0.678715169429779,0.0009087183861993253,0.0071471501141786575,0.734366238117218
1682339304.71942806,81918411,2,0.6788709759712219,0.0003072174440603703,0.00278175319544971,0.7342522144317627
1682339304.81946898,82018452,2,0.6789137721061707,0.0001204386426252313,-0.001470348215661943,0.7342165112495422
1682339304.91951895,82118502,2,0.6788672804832458,0.0025344188325107098,-0.006113632116466761,0.734231173992157
1682339305.01950598,82218489,2,0.6786941885948181,0.01107825804501772,-0.014970109798014164,0.7341848611831665
1682339305.11946201,82318445,2,0.6785006523132324,0.015717696398496628,-0.02029162272810936,0.734151303768158
1682339305.21944094,82418424,2,0.6782450079917908,0.018323594704270363,-0.023079318925738335,0.734244704246521
1682339305.31943393,82518417,2,0.6779721975326538,0.020002955570816994,-0.023026196286082268,0.7344544529914856
1682339305.41942716,82618410,2,0.6777016520500183,0.017517592757940292,-0.019041286781430244,0.7348816394805908
1682339305.51942301,82718406,2,0.677290141582489,0.01804286055266857,-0.018218006938695908,0.7352690696716309
1682339305.61942697,82818410,2,0.6768156886100769,0.019561612978577614,-0.018136505037546158,0.7356690764427185
1682339305.71947694,82918460,2,0.6763595938682556,0.018615541979670525,-0.0166303813457489,0.736148476600647
1682339305.81951809,83018501,2,0.6759093999862671,0.01882193051278591,-0.017083384096622467,0.7365462779998779
1682339305.91950703,83118490,2,0.6755434274673462,0.019791001453995705,-0.017692148685455322,0.736842155456543
1682339306.01946402,83218447,2,0.6751025319099426,0.01946362294256687,-0.017478739842772484,0.7372599244117737
1682339306.11942196,83318405,2,0.674738347530365,0.0200670063495636,-0.017979389056563377,0.7375650405883789
1682339306.21942902,83418412,2,0.6743647456169128,0.020728589966893196,-0.01817447692155838,0.7378835678100586
1682339306.31944394,83518427,2,0.6739509105682373,0.02030234970152378,-0.018476054072380066,0.7382659316062927
1682339306.41942406,83618407,2,0.6736018061637878,0.019764143973588943,-0.017199043184518814,0.738629937171936
1682339306.51942301,83718406,2,0.6730281114578247,0.019401509314775467,-0.01599297858774662,0.7391893863677979
1682339306.61947012,83818453,2,0.6725142598152161,0.019125722348690033,-0.015896908938884735,0.739666223526001
1682339306.71951509,83918498,2,0.6719618439674377,0.016739703714847565,-0.015444121323525906,0.7402355074882507
1682339306.81950498,84018488,2,0.6714537143707275,0.015022248961031437,-0.014919387176632881,0.7407439947128296
1682339306.91945601,84118439,2,0.6709263920783997,0.014258792623877525,-0.014979084953665733,0.7412354946136475
1682339307.01943207,84218415,2,0.6705113053321838,0.013993923552334309,-0.015932172536849976,0.7415962219238281
1682339307.11942697,84318410,2,0.6702127456665039,0.013774651102721691,-0.015904998406767845,0.7418707013130188
1682339307.21942902,84418412,2,0.6697986125946045,0.014118727296590805,-0.016323359683156013,0.7422291040420532
1682339307.31943393,84518417,2,0.6692835688591003,0.0152523098513484,-0.016941789537668228,0.7426573038101196
1682339307.41942596,84618409,2,0.6687595248222351,0.017005886882543564,-0.01723131537437439,0.7430844902992249
1682339307.51947212,84718455,2,0.668317973613739,0.017961585894227028,-0.016802893951535225,0.7434689998626709
1682339307.61952615,84818509,2,0.6679434180259705,0.015818053856492043,-0.01371376309543848,0.7439175248146057
1682339307.71950603,84918489,2,0.6675200462341309,0.010237899608910084,-0.008158262819051743,0.7444767355918884
1682339307.81946397,85018447,2,0.6672846078872681,0.005180171690881252,-0.002860479289665818,0.7447793483734131
1682339307.91943097,85118414,2,0.6670055389404297,0.0007452524732798338,0.001946252305060625,0.7450498342514038
1682339308.01944494,85218428,2,0.6666406989097595,-0.004886279813945293,0.007419922389090061,0.7453262805938721
1682339308.11944413,85318427,2,0.666159451007843,-0.00989126693457365,0.012207132764160633,0.7456437945365906
1682339308.21942306,85418406,2,0.6654675602912903,-0.012799223884940147,0.01549849845468998,0.7461560964584351
1682339308.31943107,85518414,2,0.6645249128341675,-0.01060775388032198,0.01412734854966402,0.7470572590827942
1682339308.41946912,85618452,2,0.6622836589813232,-0.006568619515746832,0.010083393193781376,0.7491565942764282
1682339308.51952004,85718503,2,0.6593859791755676,0.00357840140350163,-0.0009434428066015244,0.7517954707145691
1682339308.61950397,85818487,2,0.6562544107437134,0.013190669007599354,-0.013216371648013592,0.7543085813522339
1682339308.71945715,85918440,2,0.6530729532241821,0.012506643310189247,-0.013649581000208855,0.7570686340332031
1682339308.81943512,86018418,2,0.6502032279968262,0.00769005436450243,-0.0044146194122731686,0.75970858335495
1682339308.91945195,86118435,2,0.6476168036460876,0.004839363042265177,0.0034347262699157,0.7619431018829346
1682339309.01944208,86218425,2,0.645453691482544,0.00023891749151516706,0.0097796730697155,0.7637367844581604
1682339309.11942315,86318406,2,0.643578827381134,-0.0052202376537024975,0.015628047287464142,0.7652024626731873
1682339309.21942210,86418405,2,0.6420043110847473,-0.010133025236427784,0.020280659198760986,0.7663657665252686
1682339309.31946993,86518453,2,0.6408951282501221,-0.01571117714047432,0.02405201457440853,0.7670906782150269
1682339309.41951108,86618494,2,0.6400260329246521,-0.021942054852843285,0.02736259438097477,0.7675522565841675
1682339309.51949596,86718479,2,0.6395581960678101,-0.02848123572766781,0.03033682145178318,0.7676156759262085
1682339309.61945701,86818440,2,0.6394448280334473,-0.034737467765808105,0.033226773142814636,0.7673327922821045
1682339309.71942997,86918413,2,0.6395983695983887,-0.04137857258319855,0.035714950412511826,0.76676344871521
1682339309.81942201,87018405,2,0.6398612260818481,-0.047790635377168655,0.038905415683984756,0.7660157084465027
1682339309.91942906,87118412,2,0.6403003334999084,-0.05354239419102669,0.042459357529878616,0.7650790214538574
1682339310.01943111,87218414,2,0.6410650610923767,-0.05846558138728142,0.04621068760752678,0.7638598680496216
1682339310.11942410,87318407,2,0.6423794031143188,-0.05866501107811928,0.04729786887764931,0.7626729607582092
1682339310.21948409,87418467,2,0.6441197395324707,-0.053670648485422134,0.04365530237555504,0.7617896199226379
1682339310.31951308,87518496,2,0.6462084054946899,-0.04666375368833542,0.03845147788524628,0.7607619166374207
1682339310.41950011,87618483,2,0.6484909653663635,-0.03415699303150177,0.028012042865157127,0.7599395513534546
1682339310.51946115,87718444,2,0.6504704356193542,-0.021471688523888588,0.016888901591300964,0.7590401768684387
1682339310.61943197,87818415,2,0.6521309614181519,-0.012661248445510864,0.009476144798099995,0.7579413652420044
1682339310.71942306,87918406,2,0.6535599827766418,-0.00570844579488039,0.0031269884202629328,0.7568467259407043
1682339310.81942201,88018405,2,0.654900312423706,-0.0022141796071082354,-0.0001524962135590613,0.7557120323181152
1682339310.91943312,88118416,2,0.6557381749153137,-0.005702209193259478,0.0023983085993677378,0.7549630403518677
1682339311.01942611,88218409,2,0.6562608480453491,-0.011966455727815628,0.006412672344595194,0.7544119358062744
1682339311.11947107,88318454,2,0.6566371321678162,-0.017161713913083076,0.010953624732792377,0.7539317607879639
1682339311.21950912,88418492,2,0.6567139029502869,-0.02316589467227459,0.01519821211695671,0.7536306977272034
1682339311.31949997,88518483,2,0.6567872166633606,-0.02414349839091301,0.015909647569060326,0.7535213828086853
1682339311.41945910,88618442,2,0.6568812727928162,-0.021665219217538834,0.014131924137473106,0.7535501718521118
1682339311.51942706,88718410,2,0.656835675239563,-0.018865488469600677,0.012300590053200722,0.7536973357200623
1682339311.61943316,88818416,2,0.6567156910896301,-0.014975184574723244,0.009388435631990433,0.7539311051368713
1682339311.71943498,88918418,2,0.6565482020378113,-0.011995472945272923,0.00603919243440032,0.7541645169258118
1682339311.81942916,89018412,2,0.6561656594276428,-0.009836768731474876,0.004074804484844208,0.7545417547225952
1682339311.91942596,89118409,2,0.6557371616363525,-0.007802865467965603,0.002655849326401949,0.7549442648887634
1682339312.01947403,89218457,2,0.6553663015365601,-0.007413661107420921,0.002367317443713546,0.7552711367607117
1682339312.11952114,89318504,2,0.6548534631729126,-0.007725236471742392,0.0022614048793911934,0.7557129859924316
1682339312.21950698,89418490,2,0.6544273495674133,-0.008786143735051155,0.0024467534385621548,0.7560698986053467
1682339312.31946611,89518449,2,0.653917670249939,-0.010405763983726501,0.0029422184452414513,0.7564883828163147
1682339312.41942811,89618411,2,0.6533907055854797,-0.01124251913279295,0.0032445734832435846,0.756930410861969
1682339312.51943016,89718413,2,0.652699887752533,-0.012525607831776142,0.0038078073412179947,0.7575034499168396
1682339312.61943603,89818419,2,0.6523812413215637,-0.013172541745007038,0.0038346031215041876,0.7577667832374573
1682339312.71942616,89918409,2,0.6520043015480042,-0.013526192866265774,0.0041958726942539215,0.7580829858779907
1682339312.81942606,90018409,2,0.6517472267150879,-0.014093433506786823,0.004919461440294981,0.7582893371582031
1682339312.91947508,90118458,2,0.6516686677932739,-0.013930896297097206,0.005161813460290432,0.7583582401275635
1682339313.01950812,90218491,2,0.651777446269989,-0.0142162274569273,0.0050928290002048016,0.7582599520683289
1682339313.11950302,90318486,2,0.6518862247467041,-0.014139041304588318,0.005287283565849066,0.7581665515899658
1682339313.21945906,90418442,2,0.6520442962646484,-0.014277276583015919,0.005082986783236265,0.7580294013023376
1682339313.31944203,90518425,2,0.6522836685180664,-0.014156690798699856,0.005310801789164543,0.7578241229057312
1682339313.41943002,90618413,2,0.6525401473045349,-0.01280862558633089,0.005424073897302151,0.757626473903656
1682339313.51943898,90718422,2,0.6528715491294861,-0.011022685095667839,0.005094902124255896,0.7573713064193726
1682339313.61943102,90818414,2,0.6532533764839172,-0.007917901501059532,0.004691735841333866,0.7570834159851074
1682339313.71944094,90918424,2,0.6536538004875183,-0.006213760003447533,0.0041258567944169044,0.7567569613456726
1682339313.81946397,91018447,2,0.6539403796195984,-0.005326780490577221,0.00412641279399395,0.7565160989761353
1682339313.91952109,91118504,2,0.6542045474052429,-0.005022688303142786,0.0039007561281323433,0.7562909126281738
1682339314.01950312,91218486,2,0.6543952226638794,-0.00530943414196372,0.00324126984924078,0.756127119064331
1682339314.11945701,91318440,2,0.6544163227081299,-0.005315636750310659,0.0029857575427740812,0.756109893321991
1682339314.21942902,91418412,2,0.6545480489730835,-0.005504482425749302,0.002717565046623349,0.755995512008667
1682339314.31944013,91518423,2,0.6544928550720215,-0.005268617998808622,0.0027272184379398823,0.7560449242591858
1682339314.41942596,91618409,2,0.6543611288070679,-0.004707038402557373,0.0024431822821497917,0.7561635971069336
1682339314.51942396,91718407,2,0.6541774272918701,-0.004481733776628971,0.0021079559810459614,0.7563248872756958
1682339314.61944008,91818423,2,0.654017984867096,-0.004274792969226837,0.0020426958799362183,0.7564641237258911
1682339314.71947408,91918457,2,0.6535694003105164,-0.004031050950288773,0.0021098379511386156,0.756852924823761
1682339314.81950998,92018493,2,0.6532425880432129,-0.004017429891973734,0.0018608443206176162,0.7571357488632202
1682339314.91950202,92118485,2,0.6528781652450562,-0.0032438586931675673,0.0017603449523448944,0.757453978061676
1682339315.01945710,92218440,2,0.6523833274841309,-0.0034054152201861143,0.0022748077753931284,0.7578780651092529
1682339315.11944008,92318423,2,0.6521164774894714,-0.0031220412347465754,0.002550241770222783,0.7581080794334412
1682339315.21943307,92418416,2,0.6516662836074829,-0.0027116555720567703,0.002962562022730708,0.7584951519966125
1682339315.31943202,92518415,2,0.6512240767478943,-0.0029477791395038366,0.0031341949943453074,0.7588732838630676
1682339315.41942811,92618411,2,0.6510959267616272,-0.002945695072412491,0.002681223675608635,0.7589849829673767
1682339315.51942897,92718412,2,0.6508328318595886,-0.003104950999841094,0.002905280562117696,0.759209156036377
1682339315.61947012,92818453,2,0.6506112217903137,-0.0035303111653774977,0.002408004133030772,0.7593989968299866
1682339315.71952415,92918507,2,0.6505449414253235,-0.0035544265992939472,0.0025800131261348724,0.7594550848007202
1682339315.81950307,93018486,2,0.6504244208335876,-0.0033588146325200796,0.0031611155718564987,0.7595569491386414
1682339315.91945601,93118439,2,0.6504514813423157,-0.0030144560150802135,0.003838773351162672,0.75953209400177
1682339316.01942897,93218412,2,0.6505175828933716,-0.0022646256256848574,0.004829468671232462,0.7594724893569946
1682339316.11942315,93318406,2,0.6505394577980042,-0.0020583546720445156,0.0048980554565787315,0.7594538927078247
1682339316.21942902,93418412,2,0.6505685448646545,-0.0014211846282705665,0.005448632873594761,0.7594266533851624
1682339316.31943011,93518413,2,0.6505897641181946,-0.0024757394567131996,0.006722350604832172,0.7593955397605896
1682339316.41943502,93618418,2,0.6506004929542542,-0.004215824417769909,0.008952436968684196,0.7593557238578796
1682339316.51946497,93718448,2,0.6507355570793152,-0.0025424095802009106,0.008641769178211689,0.759251058101654
1682339316.61952209,93818505,2,0.6508821845054626,0.0013213775819167495,0.0062898132018744946,0.7591515183448792
1682339316.71949911,93918482,2,0.6511535048484802,0.006185677368193865,0.0032210620120167732,0.758914053440094
1682339316.81945610,94018439,2,0.6512620449066162,0.010336742736399174,0.000559107749722898,0.7587823271751404
1682339316.91942596,94118409,2,0.6513633131980896,0.014778213575482368,0.00040713491034694016,0.7586219906806946
1682339317.01943111,94218414,2,0.6513749957084656,0.01960972137749195,0.004293124657124281,0.7584903240203857
1682339317.11942697,94318410,2,0.6513715982437134,0.020859936252236366,0.005673801526427269,0.7584508657455444
1682339317.21942401,94418407,2,0.6514827609062195,0.019405856728553772,0.006596963386982679,0.758386492729187
1682339317.31943393,94518417,2,0.6514904499053955,0.01968543231487274,0.006982882507145405,0.7583692073822021
1682339317.41947508,94618458,2,0.6516059637069702,0.021645186468958855,0.004812878090888262,0.7582334876060486
1682339317.51951313,94718496,2,0.6516197919845581,0.0232242438942194,0.002142527373507619,0.7581871151924133
1682339317.61950612,94818489,2,0.6516035795211792,0.023251455277204514,0.0015743460971862078,0.7582015991210938
1682339317.71946502,94918448,2,0.651364266872406,0.02197152003645897,0.0017284380737692118,0.7584450244903564
1682339317.81943607,95018419,2,0.6512569189071655,0.020314516499638557,0.0025922965724021196,0.7585809230804443
1682339317.91942406,95118407,2,0.6510797739028931,0.01863360032439232,0.004005531780421734,0.7587699890136719
1682339318.01943207,95218415,2,0.6508690714836121,0.0180719792842865,0.004844757728278637,0.7589594125747681
1682339318.11942410,95318407,2,0.650526762008667,0.017643239349126816,0.005401454400271177,0.7592591643333435
1682339318.21942210,95418405,2,0.6503502130508423,0.016935603693127632,0.005402411799877882,0.759426474571228
1682339318.31949210,95518475,2,0.6500542759895325,0.017749743536114693,0.004106211941689253,0.7596693634986877
1682339318.41951203,95618495,2,0.6497135162353516,0.0179213248193264,0.00010138870857190341,0.7599678635597229
1682339318.51949906,95718482,2,0.6494600176811218,0.016665473580360413,-0.002436805283650756,0.7602091431617737
1682339318.61945796,95818441,2,0.6491867303848267,0.015857845544815063,-0.0018882245058193803,0.7604614496231079
1682339318.71942711,95918410,2,0.6488852500915527,0.01451919600367546,-0.0011726131197065115,0.7607468366622925
1682339318.81943011,96018413,2,0.6485204696655273,0.012203306891024113,-0.00013322279846761376,0.7610993981361389
1682339318.91943002,96118413,2,0.6481941938400269,0.011120384559035301,0.001885905396193266,0.7613915205001831
1682339319.01943398,96218417,2,0.6478526592254639,0.01070110872387886,0.0027206232771277428,0.7616856694221497
1682339319.11943316,96318416,2,0.6475186944007874,0.009907988831400871,0.0033329816069453955,0.7619778513908386
1682339319.21946502,96418448,2,0.6465075612068176,0.010735971853137016,0.0028553304728120565,0.762826681137085
1682339319.31954694,96518530,2,0.6450914144515991,0.011116204783320427,0.0023502225521951914,0.7640209197998047
1682339319.41951203,96618495,2,0.643397331237793,0.010196095332503319,0.002187564270570874,0.7654613852500916
1682339319.51946402,96718447,2,0.6414931416511536,0.008599684573709965,0.0010737794218584895,0.7670798301696777
1682339319.61942911,96818412,2,0.6394602656364441,0.005661010276526213,-0.0020649342332035303,0.7688005566596985
1682339319.71943998,96918423,2,0.6377553939819336,0.0013657491654157639,-0.00701112812384963,0.7702058553695679
1682339319.81942415,97018407,2,0.6361099481582642,-0.003120188135653734,-0.012248686514794827,0.7714949250221252
1682339319.91942406,97118407,2,0.634447455406189,-0.007584506180137396,-0.017668012529611588,0.7727267742156982
1682339320.01945305,97218436,2,0.6330010890960693,-0.012200537137687206,-0.023169418796896935,0.773707926273346
1682339320.11946702,97318450,2,0.6318191289901733,-0.01643400825560093,-0.028311295434832573,0.7744243144989014
1682339320.21952701,97418510,2,0.6307729482650757,-0.018231818452477455,-0.030831381678581238,0.7751403450965881
1682339320.31950498,97518488,2,0.6301150918006897,-0.01598993130028248,-0.027013327926397324,0.7758669853210449
1682339320.41946316,97618446,2,0.6296759247779846,-0.013361363671720028,-0.020356114953756332,0.7764762043952942
1682339320.51942301,97718406,2,0.6294259428977966,-0.01079336367547512,-0.013710309751331806,0.7768645286560059
1682339320.61943603,97818419,2,0.6292346715927124,-0.006622043903917074,-0.00919222179800272,0.7771328091621399
1682339320.71944213,97918425,2,0.6292025446891785,-0.0019409280503168702,-0.005065589211881161,0.7772224545478821
1682339320.81942415,98018407,2,0.6292383074760437,0.002349781570956111,0.00010439952893648297,0.7772088646888733
1682339320.91942906,98118412,2,0.6294264793395996,0.006274762097746134,0.003895368194207549,0.7770249843597412
1682339321.01946998,98218453,2,0.629673421382904,0.009279615245759487,0.0077638933435082436,0.7767657041549683
1682339321.11951208,98318495,2,0.6300890445709229,0.00886064488440752,0.010675521567463875,0.7763989567756653
1682339321.21950412,98418487,2,0.6305134892463684,0.004709077998995781,0.014094177633523941,0.7760360240936279
1682339321.31945801,98518441,2,0.630918562412262,-0.0011150952195748687,0.01887865737080574,0.7756185531616211
1682339321.41942906,98618412,2,0.6312811374664307,-0.006719120312482119,0.02269669808447361,0.7751927375793457
1682339321.51942301,98718406,2,0.6317179799079895,-0.01303249504417181,0.02630556933581829,0.7746421694755554
1682339321.61942697,98818410,2,0.632189154624939,-0.01864481344819069,0.030921660363674164,0.7739722728729248
1682339321.71942997,98918413,2,0.6325545310974121,-0.023136423900723457,0.03615512698888779,0.773325502872467
1682339321.81943011,99018413,2,0.6329110860824585,-0.027011625468730927,0.04243047162890434,0.772588849067688
1682339321.91947603,99118459,2,0.6332188844680786,-0.03175799548625946,0.04691527038812637,0.7718965411186218
1682339322.01952100,99218504,2,0.6337882876396179,-0.032180506736040115,0.04496004059910774,0.7715280055999756
1682339322.11950111,99318484,2,0.6348409652709961,-0.02283860743045807,0.035984430462121964,0.7714664340019226
1682339322.21945715,99418440,2,0.6356942653656006,-0.012281510047614574,0.0260353721678257,0.7714040279388428
1682339322.31942701,99518410,2,0.636244535446167,-0.004988094326108694,0.01539764553308487,0.7713176608085632
1682339322.41943097,99618414,2,0.6364918351173401,0.002086927415803075,0.004622206091880798,0.771266758441925
1682339322.51942706,99718410,2,0.63651442527771,0.0050107017159461975,-0.0018463158048689365,0.7712463140487671
1682339322.61942506,99818408,2,0.6363008618354797,-0.00034274463541805744,-0.005507218185812235,0.7714212536811829
1682339322.71942616,99918409,2,0.6360148191452026,-0.009787649847567081,-0.007871386595070362,0.7715746164321899
1682339322.81948209,100018465,2,0.6354539394378662,-0.019909454509615898,-0.008484037593007088,0.771835446357727
1682339322.91952205,100118505,2,0.634913444519043,-0.030281580984592438,-0.008990738540887833,0.7719372510910034
1682339323.01950312,100218486,2,0.6341662406921387,-0.03915166109800339,-0.0082051707431674,0.7721612453460693
1682339323.11945510,100318438,2,0.6333969235420227,-0.04378533735871315,-0.003237884258851409,0.7725805640220642
1682339323.21942210,100418405,2,0.6327193975448608,-0.04111325368285179,0.00131031998898834,0.773287832736969
1682339323.31942701,100518410,2,0.6321462988853455,-0.03274190053343773,0.0019446196965873241,0.774154543876648
1682339323.41942811,100618411,2,0.6315699219703674,-0.02378070168197155,0.002801088849082589,0.7749490737915039
1682339323.51942396,100718407,2,0.6309964656829834,-0.014734535478055477,0.002749586245045066,0.7756409049034119
1682339323.61942816,100818411,2,0.6304028034210205,-0.005053287837654352,0.0019956754986196756,0.7762491703033447
1682339323.71948409,100918467,2,0.6298923492431641,0.001151706906966865,0.0020751445554196835,0.7766788005828857
1682339323.81951904,101018502,2,0.6294029355049133,0.0018324528355151415,0.0025424479972571135,0.7770727872848511
1682339323.91950512,101118488,2,0.6292003989219666,0.0019173857290297747,0.0019660380203276873,0.7772382497787476
1682339324.01946616,101218449,2,0.6288952231407166,0.0005285305087454617,0.0014299321919679642,0.7774885892868042
1682339324.11942911,101318412,2,0.628620445728302,-0.0033759039361029863,0.0021796440705657005,0.7777018547058105
1682339324.21942902,101418412,2,0.6284210085868835,-0.008558128960430622,0.004420129582285881,0.7778137922286987
1682339324.31943202,101518415,2,0.628364622592926,-0.010615133680403233,0.004491087049245834,0.7778335809707642
1682339324.41942215,101618405,2,0.628298282623291,-0.007828940637409687,0.0021936215925961733,0.7779300212860107
1682339324.51942301,101718406,2,0.6283246278762817,-0.005258944351226091,0.00026011449517682195,0.7779334783554077
1682339324.61947894,101818462,2,0.6283460855484009,-0.0032605226151645184,-0.0018693911843001842,0.7779248356819153
1682339324.71952105,101918504,2,0.6284642219543457,0.00024271983420476317,-0.003932861611247063,0.7778285145759583
1682339324.81946611,102018449,2,0.6286524534225464,0.003569345921278,-0.0055092410184443,0.7776586413383484
1682339324.91946101,102118444,2,0.628812313079834,0.005982544738799334,-0.007047941442579031,0.777502179145813
1682339325.01942706,102218410,2,0.6290785074234009,0.002405571984127164,-0.00391411641612649,0.7773281931877136
1682339325.11943793,102318421,2,0.6293386220932007,-0.003703340422362089,0.0009988159872591496,0.7771217226982117
1682339325.21943116,102418414,2,0.6295849084854126,-0.009247921407222748,0.005683291237801313,0.7768558859825134
1682339325.31942606,102518409,2,0.6297827363014221,-0.015146259218454361,0.010427046567201614,0.7765536308288574
1682339325.41943502,102618418,2,0.6299359798431396,-0.02062506601214409,0.015100069344043732,0.776226282119751
1682339325.51946998,102718453,2,0.6301930546760559,-0.02503116801381111,0.01876700110733509,0.7758079171180725
1682339325.61952496,102818508,2,0.6305329203605652,-0.024630259722471237,0.017953576520085335,0.7755638360977173
1682339325.71950698,102918490,2,0.6310665607452393,-0.01803656667470932,0.012301602400839329,0.7754213809967041
1682339325.81946015,103018443,2,0.6316921710968018,-0.010463430546224117,0.006146276369690895,0.7751243114471436
1682339325.91942811,103118411,2,0.6321715712547302,-0.002725986996665597,0.00015396650996990502,0.7748236060142517
1682339326.01943398,103218417,2,0.632603645324707,0.004050370771437883,-0.004905712325125933,0.7744495868682861
1682339326.11943603,103318419,2,0.633027970790863,0.005228069145232439,-0.00502230878919363,0.7740949988365173
1682339326.21942210,103418405,2,0.6333568096160889,0.0030819012317806482,-0.0033433563075959682,0.7738465666770935
1682339326.31942606,103518409,2,0.633618950843811,0.002187215257436037,-0.003021473530679941,0.7736362814903259
1682339326.41948104,103618464,2,0.6340234279632568,0.0010228753089904785,-0.0018275363836437464,0.7733110189437866
1682339326.51953816,103718521,2,0.6344304084777832,0.0015259473584592342,-0.0015628945548087358,0.7729768753051758
1682339326.61950111,103818484,2,0.6348594427108765,0.002168207196518779,-0.0009601659257896245,0.7726240158081055
1682339326.71946502,103918448,2,0.6353833079338074,0.0037945108488202095,0.0006989041576161981,0.7721872925758362
1682339326.81942916,104018412,2,0.635768711566925,0.007495044730603695,0.0042659263126552105,0.7718314528465271
1682339326.91942310,104118406,2,0.6361549496650696,0.011887278407812119,0.006757546216249466,0.7714401483535767
1682339327.01942801,104218411,2,0.6364586353302002,0.01382519118487835,0.006740135606378317,0.771157443523407
1682339327.11942816,104318411,2,0.6368246078491211,0.013823186978697777,0.006630921270698309,0.7708562612533569
1682339327.21942306,104418406,2,0.6371449828147888,0.012442104518413544,0.005605564918369055,0.7706231474876404
1682339327.31947803,104518461,2,0.6372807025909424,0.00929667241871357,0.003362983465194702,0.770568311214447
1682339327.41951895,104618502,2,0.6373540759086609,0.006489675957709551,0.0026362466160207987,0.7705392241477966
1682339327.51949716,104718480,2,0.6373287439346313,0.0014581454452127218,0.0019266814924776554,0.770588219165802
1682339327.61945701,104818440,2,0.6373181939125061,-0.00789467990398407,-0.00027659611077979207,0.7705602645874023
1682339327.71943998,104918423,2,0.6371669769287109,-0.017703615128993988,-0.001200944185256958,0.7705215215682983
1682339327.81942415,105018407,2,0.6370283961296082,-0.025508245453238487,0.00035780679900199175,0.7704180479049683
1682339327.91942501,105118408,2,0.6366549730300903,-0.03002084419131279,0.005950607359409332,0.770541250705719
1682339328.01943207,105218415,2,0.6364135146141052,-0.03330172225832939,0.013067587278783321,0.7705180644989014
1682339328.11942816,105318411,2,0.6360636949539185,-0.036003634333610535,0.02021220698952675,0.7705311179161072
1682339328.21946597,105418449,2,0.6359057426452637,-0.03409113362431526,0.024832643568515778,0.7706133723258972
1682339328.31952095,105518504,2,0.6357813477516174,-0.02768767811357975,0.025049105286598206,0.7709656357765198
1682339328.41950703,105618490,2,0.6355820894241333,-0.02147863805294037,0.023508146405220032,0.7713763117790222
1682339328.51945210,105718435,2,0.635545551776886,-0.015379232354462147,0.02009645849466324,0.7716485261917114
1682339328.61943197,105818415,2,0.6353678703308105,-0.009634779766201973,0.015977807343006134,0.7719841599464417
1682339328.71943498,105918418,2,0.6351091861724854,-0.0054549421183764935,0.011428550817072392,0.7723185420036316
1682339328.81942296,106018406,2,0.634904146194458,-0.0030217973981052637,0.007765051443129778,0.7725459933280945
1682339328.91942406,106118407,2,0.6347054243087769,-0.0015692375600337982,0.005189427640289068,0.7727351784706116
1682339329.01943207,106218415,2,0.6345326900482178,-0.001272854977287352,0.0036107527557760477,0.7728865742683411
1682339329.11947298,106318456,2,0.6343771815299988,-0.0018168797250837088,0.002788315759971738,0.7730165123939514
1682339329.21951103,106418494,2,0.634320855140686,-0.0027972881216555834,0.003244304098188877,0.7730579972267151
1682339329.31950116,106518484,2,0.6343806982040405,-0.00398647878319025,0.003695438848808408,0.7730016708374023
1682339329.41946101,106618444,2,0.6343812346458435,-0.005069427657872438,0.004233569838106632,0.7729921340942383
1682339329.51942301,106718406,2,0.6344821453094482,-0.005918561015278101,0.004426213912665844,0.7729021906852722
1682339329.61943007,106818413,2,0.6346534490585327,-0.006334532517939806,0.004704687278717756,0.7727565765380859
1682339329.71942997,106918413,2,0.6347838640213013,-0.006209281273186207,0.005096240900456905,0.7726479768753052
1682339329.81943607,107018419,2,0.6348686218261719,-0.006009163334965706,0.005469112191349268,0.7725774049758911
1682339329.91943002,107118413,2,0.6350600123405457,-0.005524029023945332,0.005962866824120283,0.7724200487136841
1682339330.01947594,107218459,2,0.6353147625923157,-0.004992179572582245,0.006539342924952507,0.7722094655036926
1682339330.11952400,107318507,2,0.6355386972427368,-0.004845994058996439,0.006590877193957567,0.7720257043838501
1682339330.21950102,107418484,2,0.6358399391174316,-0.0042672911658883095,0.006579464767128229,0.7717810869216919
1682339330.31946707,107518450,2,0.635998010635376,-0.004280886147171259,0.006536288186907768,0.7716511487960815
1682339330.41942906,107618412,2,0.6362748146057129,-0.004309887532144785,0.006585627794265747,0.7714223265647888
1682339330.51943207,107718415,2,0.6364720463752747,-0.004380546044558287,0.0067581906914711,0.7712576985359192
1682339330.61943197,107818415,2,0.6366850137710571,-0.004113466013222933,0.0064876144751906395,0.7710856795310974
1682339330.71942616,107918409,2,0.6368200182914734,-0.004099530633538961,0.006490609608590603,0.7709742784500122
1682339330.81943011,108018413,2,0.6369684934616089,-0.0039059033151715994,0.006552976556122303,0.7708520889282227
1682339330.91947412,108118457,2,0.6369978189468384,-0.003003572579473257,0.006505008786916733,0.7708323001861572
1682339331.01952815,108218511,2,0.6371225118637085,-0.0025341706350445747,0.006285888142883778,0.7707327008247375
1682339331.11950707,108318490,2,0.6372042298316956,-0.0021251647267490625,0.006075747311115265,0.770668089389801
1682339331.21945906,108418442,2,0.6373346447944641,-0.001889160368591547,0.005852621980011463,0.7705626487731934
1682339331.31944609,108518429,2,0.6375400424003601,-0.0016514608869329095,0.0060985758900642395,0.7703913450241089
1682339331.41944194,108618425,2,0.637844443321228,-0.0017064879648387432,0.005999292712658644,0.7701399326324463
1682339331.51942897,108718412,2,0.6379908919334412,-0.001790942857041955,0.006287206895649433,0.7700161933898926
1682339331.61943102,108818414,2,0.6381084322929382,-0.0019826311618089676,0.006257757544517517,0.7699185013771057
1682339331.71942902,108918412,2,0.6383847594261169,-0.0023464069236069918,0.005888315383344889,0.7696912884712219
1682339331.81946707,109018450,2,0.6383541226387024,-0.0026237911079078913,0.005837570410221815,0.769716203212738
1682339331.91952109,109118504,2,0.638427734375,-0.002921512583270669,0.005916442256420851,0.7696534991264343
1682339332.01950216,109218485,2,0.6384274959564209,-0.0035622776485979557,0.005947247613221407,0.7696507573127747
1682339332.11945915,109318442,2,0.6385207772254944,-0.003639599774032831,0.005831528455018997,0.7695738673210144
1682339332.21942210,109418405,2,0.6386021971702576,-0.0029705590568482876,0.0064753941260278225,0.7695040702819824
1682339332.31942701,109518410,2,0.6386592984199524,-0.0026455060578882694,0.006753103341907263,0.7694554328918457
1682339332.41942596,109618409,2,0.6385196447372437,-0.0026309711392968893,0.006652248557657003,0.7695722579956055
1682339332.51942396,109718407,2,0.638717532157898,-0.0027455247472971678,0.006731786765158176,0.7694069147109985
1682339332.61943197,109818415,2,0.6387013792991638,-0.0026722559705376625,0.006803297437727451,0.7694199681282043
1682339332.71947002,109918453,2,0.6387079358100891,-0.0029427786357700825,0.006726362276822329,0.7694142460823059
1682339332.81952906,110018512,2,0.6387366056442261,-0.002748042345046997,0.006972176488488913,0.7693889737129211
1682339332.91949916,110118482,2,0.6386814713478088,-0.0027473210357129574,0.0068116080947220325,0.7694361805915833
1682339333.01945496,110218438,2,0.6385620832443237,-0.002910557435825467,0.0072876703925430775,0.7695302963256836
1682339333.11944008,110318423,2,0.6385090947151184,-0.0031347263138741255,0.007055915426462889,0.7695755362510681
1682339333.21943116,110418414,2,0.6382827758789062,-0.0025486231315881014,0.007368157152086496,0.7697625160217285
1682339333.31943512,110518418,2,0.6382576823234558,-0.002307172631844878,0.00711505813524127,0.7697864174842834
1682339333.41942596,110618409,2,0.6380640268325806,-0.0018208972178399563,0.006578031461685896,0.7699530720710754
1682339333.51942396,110718407,2,0.6378012895584106,-0.001875382149592042,0.006122879683971405,0.7701743245124817
1682339333.61947513,110818458,2,0.6375583410263062,-0.00263002491556108,0.005815222393721342,0.7703756093978882
1682339333.71951008,110918493,2,0.6372024416923523,-0.0028188072610646486,0.0056901052594184875,0.7706702947616577
1682339333.81950712,111018490,2,0.6369569897651672,-0.003295280272141099,0.006108184345066547,0.7708681225776672
1682339333.91945910,111118442,2,0.6368124485015869,-0.0032926646526902914,0.006036677863448858,0.7709880471229553
1682339334.01944494,111218428,2,0.6365758776664734,-0.00286461366340518,0.006735111121088266,0.7711793184280396
1682339334.11943316,111318416,2,0.6364505887031555,-0.0028118304908275604,0.006703506223857403,0.7712832093238831
1682339334.21944499,111418428,2,0.6362991333007812,-0.000327051617205143,0.012464669533073902,0.7713416218757629
1682339334.31942797,111518411,2,0.6359233260154724,0.002597142243757844,0.02394379861652851,0.771376371383667
1682339334.41943002,111618413,2,0.6354662179946899,0.005324501544237137,0.03620842844247818,0.7712608575820923
1682339334.51946998,111718453,2,0.6346714496612549,0.011713138781487942,0.05540793016552925,0.7707042098045349
1682339334.61952901,111818512,2,0.6340512037277222,0.01716235652565956,0.07054278999567032,0.7698754668235779
1682339334.71949911,111918482,2,0.6342054009437561,0.011944584548473358,0.06572306901216507,0.7702735066413879
1682339334.81946301,112018446,2,0.6349372267723083,0.005518743302673101,0.04732261970639229,0.7710932493209839
1682339334.91942811,112118411,2,0.6354702711105347,0.002992656547576189,0.030094560235738754,0.7715328335762024
1682339335.01942611,112218409,2,0.635578989982605,0.002280170563608408,0.01703302189707756,0.7718445658683777
1682339335.11942601,112318409,2,0.6356095671653748,0.0035404330119490623,0.005032185465097427,0.771986186504364
1682339335.21942306,112418406,2,0.635578453540802,0.004675673320889473,-0.00510145490989089,0.7720052599906921
1682339335.31943297,112518416,2,0.6353480815887451,0.005471706856042147,-0.014512383379042149,0.7720701098442078
1682339335.41947913,112618462,2,0.6352366209030151,0.0049037812277674675,-0.021272212266921997,0.772009015083313
1682339335.51951313,112718496,2,0.6351540088653564,-0.0004580371605698019,-0.019720029085874557,0.7721335887908936
1682339335.61951399,112818497,2,0.6351179480552673,-0.009599234908819199,-0.015846308320760727,0.7721928954124451
1682339335.71946216,112918445,2,0.6349630355834961,-0.02526797726750374,-0.014080778695642948,0.772000789642334
1682339335.81943297,113018416,2,0.6348386406898499,-0.0384572334587574,-0.005091160535812378,0.7716702818870544
1682339335.91944003,113118423,2,0.6347575187683105,-0.039144888520240784,0.005202564876526594,0.7717016935348511
1682339336.01944399,113218427,2,0.6344937086105347,-0.036839790642261505,0.0039028141181916,0.7720397114753723
1682339336.11942816,113318411,2,0.6341938972473145,-0.03879602998495102,-0.0002751640568021685,0.7722000479698181
1682339336.21942616,113418409,2,0.6339136958122253,-0.035109613090753555,-0.0028227653820067644,0.772601306438446
1682339336.31948996,113518473,2,0.6339157223701477,-0.02773330546915531,-0.0068307495675981045,0.7728745341300964
1682339336.41950893,113618492,2,0.6338806748390198,-0.022263985127210617,-0.011670797131955624,0.7730222344398499
1682339336.51950097,113718484,2,0.6338459253311157,-0.014919955283403397,-0.01548425666987896,0.7731603980064392
1682339336.61946201,113818445,2,0.6338067054748535,-0.005597637966275215,-0.01632363721728325,0.773298978805542
1682339336.71943712,113918420,2,0.633849024772644,0.004031859803944826,-0.01499937940388918,0.77330082654953
1682339336.81943607,114018419,2,0.6340349912643433,0.014244726859033108,-0.01372880395501852,0.7730512619018555
1682339336.91942501,114118408,2,0.6341862678527832,0.022491443902254105,-0.010024157352745533,0.7727880477905273
1682339337.01943302,114218416,2,0.6343984603881836,0.02405104599893093,-0.003703604219481349,0.7726230621337891
1682339337.11942506,114318408,2,0.6347781419754028,0.020169610157608986,0.0006362178828567266,0.7724308967590332
1682339337.21946812,114418451,2,0.6351938843727112,0.014605116099119186,0.003165882546454668,0.7722081542015076
1682339337.31951213,114518495,2,0.6356645822525024,0.007529507856816053,0.004707528278231621,0.7719143033027649
1682339337.41950297,114618486,2,0.6359151601791382,0.0008321827626787126,0.004607583861798048,0.7717447876930237
1682339337.51945615,114718439,2,0.6362501382827759,-0.0032450822181999683,0.004303461406379938,0.7714640498161316
1682339337.61943316,114818416,2,0.6365163922309875,-0.005277968943119049,0.0036755213513970375,0.7712363600730896
1682339337.71942902,114918412,2,0.636824369430542,-0.005773777607828379,0.002546206582337618,0.770983099937439
1682339337.81942296,115018406,2,0.6370819807052612,-0.0047006672248244286,0.0018508160719648004,0.7707794904708862
1682339337.91942406,115118407,2,0.6373438239097595,-0.0031384569592773914,0.0012109404196962714,0.7705721855163574
1682339338.01943302,115218416,2,0.6375020146369934,-0.0014059855602681637,0.0014880775706842542,0.7704459428787231
1682339338.11946893,115318452,2,0.6377117037773132,-0.0004097753553651273,0.001466797781176865,0.7702736258506775
1682339338.21952915,115418512,2,0.6377531886100769,0.0006288419826887548,0.0018017166294157505,0.77023845911026
1682339338.31945801,115518441,2,0.6378121376037598,0.0011496578808873892,0.00202152319252491,0.7701884508132935
1682339338.41945601,115618439,2,0.6377883553504944,0.0017169606871902943,0.0024138230364769697,0.7702059745788574
1682339338.51942611,115718409,2,0.6378058791160583,0.0017637494020164013,0.003085873555392027,0.7701889872550964
1682339338.61942601,115818409,2,0.6377326250076294,0.0017451397143304348,0.003565114224329591,0.7702475786209106
1682339338.71943498,115918418,2,0.6376679539680481,0.0014414486940950155,0.0037001795135438442,0.770301103591919
1682339338.81942201,116018405,2,0.6375906467437744,0.0019503404619172215,0.004251548554748297,0.7703611254692078
1682339338.91943002,116118413,2,0.6374766826629639,0.002225408097729087,0.004325483925640583,0.7704542875289917
1682339339.01947713,116218460,2,0.637263834476471,0.0020323796197772026,0.004681446589529514,0.770628809928894
1682339339.11951303,116318496,2,0.6371282339096069,0.0019359647994861007,0.005174383521080017,0.7707380056381226
1682339339.21950006,116418483,2,0.6368591785430908,0.001523123704828322,0.005902823060750961,0.7709560394287109
1682339339.31945610,116518439,2,0.6367021799087524,0.0005871630273759365,0.006083634681999683,0.7710856199264526
1682339339.41943097,116618414,2,0.63651043176651,-6.175582529976964e-05,0.005923946853727102,0.7712453603744507
1682339339.51942301,116718406,2,0.6363245844841003,-0.001080887857824564,0.005760453175753355,0.7713991403579712
1682339339.61942506,116818408,2,0.636153519153595,-0.0018157295417040586,0.0060738311149179935,0.7715364694595337
1682339339.71942902,116918412,2,0.6359747052192688,-0.002562741283327341,0.005772550590336323,0.7716840505599976
1682339339.81943393,117018417,2,0.6358296871185303,-0.002900530584156513,0.0050846547819674015,0.7718071937561035
1682339339.91948104,117118464,2,0.6357107758522034,-0.002926139859482646,0.005201833788305521,0.7719042897224426
1682339340.01951408,117218497,2,0.6357066035270691,-0.0027020347770303488,0.005301645491272211,0.7719078660011292
1682339340.11950612,117318489,2,0.6356074213981628,-0.003278522752225399,0.005052069667726755,0.7719889283180237
1682339340.21945810,117418441,2,0.6356762647628784,-0.003345425007864833,0.00529840961098671,0.7719303369522095
1682339340.31943297,117518416,2,0.6356654167175293,-0.0038399340119212866,0.005340214818716049,0.7719366550445557
1682339340.41944313,117618426,2,0.6355987191200256,-0.004244938958436251,0.004778440576046705,0.7719931602478027
1682339340.51943803,117718421,2,0.635570228099823,-0.004327470902353525,0.00435209646821022,0.7720186710357666
1682339340.61943316,117818416,2,0.6355873346328735,-0.004410776309669018,0.003934857435524464,0.7720063924789429
1682339340.71943307,117918416,2,0.6354625821113586,-0.004577850457280874,0.0036322129890322685,0.7721095681190491
1682339340.81946802,118018451,2,0.6355941891670227,-0.004408291075378656,0.0036236816085875034,0.7720022201538086
1682339340.91951299,118118496,2,0.6356236338615417,-0.004669517278671265,0.003593157045543194,0.7719765901565552
1682339341.01949906,118218482,2,0.6355934143066406,-0.004638198297470808,0.003952053841203451,0.7719999551773071
1682339341.11946201,118318445,2,0.6356053352355957,-0.005020610522478819,0.0038144320715218782,0.7719884514808655
1682339341.21943593,118418419,2,0.6356345415115356,-0.005013125017285347,0.003895569359883666,0.7719640135765076
1682339341.31943893,118518422,2,0.6356276273727417,-0.005398984532803297,0.003896541427820921,0.7719671130180359
1682339341.41943502,118618418,2,0.6356354355812073,-0.005518576130270958,0.003830950940027833,0.7719601392745972
1682339341.51942205,118718405,2,0.6355304718017578,-0.00509599968791008,0.0037395828403532505,0.7720499038696289
1682339341.61942911,118818412,2,0.6355122327804565,-0.004894740879535675,0.0036908783949911594,0.7720664143562317
1682339341.71948695,118918470,2,0.6354656219482422,-0.004966946318745613,0.003454632358625531,0.7721054553985596
1682339341.81951404,119018497,2,0.6353334188461304,-0.005167752504348755,0.00355252786539495,0.7722124457359314
1682339341.91950297,119118486,2,0.6352013349533081,-0.005313508212566376,0.0033916933462023735,0.7723208665847778
1682339342.01945806,119218441,2,0.6352189183235168,-0.005245949607342482,0.002920982427895069,0.7723088264465332
1682339342.11942410,119318407,2,0.6351451873779297,-0.004942317958921194,0.002479995135217905,0.7723729610443115
1682339342.21943116,119418414,2,0.6351662278175354,-0.003926329780369997,0.002370633650571108,0.7723618149757385
1682339342.31943202,119518415,2,0.6351379156112671,-0.0036746407859027386,0.0023072361946105957,0.7723865509033203
1682339342.41943407,119618417,2,0.6351453065872192,-0.0036409124732017517,0.0027725680265575647,0.7723791003227234
1682339342.51942801,119718411,2,0.6353561282157898,-0.003655505133792758,0.0030880356207489967,0.7722044587135315
1682339342.61947012,119818453,2,0.6353358626365662,-0.0035259798169136047,0.0033382705878466368,0.7722206711769104
1682339342.71951914,119918502,2,0.6354293823242188,-0.00292848888784647,0.00385806942358613,0.7721437811851501
1682339342.81950307,120018486,2,0.6354440450668335,-0.0023414520546793938,0.004093674942851067,0.7721325159072876
1682339342.91945410,120118437,2,0.635532557964325,-0.0019099183846265078,0.004359033424407244,0.7720593810081482
1682339343.01943612,120218419,2,0.6356489062309265,-0.0016334513202309608,0.004006740637123585,0.7719661593437195
1682339343.11943507,120318418,2,0.6357671618461609,-0.0022608290892094374,0.0037817189004272223,0.7718683481216431
1682339343.21942210,120418405,2,0.635929524898529,-0.0024643943179398775,0.0039798058569431305,0.7717329263687134
1682339343.31943202,120518415,2,0.6358979344367981,-0.002771766623482108,0.003951794933527708,0.7717580795288086
1682339343.41944194,120618425,2,0.6360463500022888,-0.0034275196958333254,0.00434783985838294,0.7716310024261475
1682339343.51946616,120718449,2,0.6362012624740601,-0.003390978090465069,0.004818242974579334,0.7715006470680237
1682339343.61950803,120818491,2,0.6363643407821655,-0.00308694108389318,0.005303600803017616,0.7713642120361328
1682339343.71951795,120918501,2,0.6364503502845764,-0.0033028710167855024,0.005438655614852905,0.7712914347648621
1682339343.81945300,121018436,2,0.6365650296211243,-0.0027238160837441683,0.0053434171713888645,0.7711997032165527
1682339343.91942406,121118407,2,0.6366749405860901,-0.002856288570910692,0.004822520539164543,0.7711119651794434
1682339344.01943302,121218416,2,0.6366680264472961,-0.0029687208589166403,0.004707182291895151,0.7711179256439209
1682339344.11942816,121318411,2,0.63662189245224,-0.0032795495353639126,0.004275954328477383,0.7711572647094727
1682339344.21942306,121418406,2,0.6366181373596191,-0.0038093042094260454,0.0038874901365488768,0.7711599469184875
1682339344.31942606,121518409,2,0.6365113258361816,-0.0044074286706745625,0.0036191365215927362,0.7712462544441223
1682339344.41946816,121618451,2,0.6364707946777344,-0.0047177281230688095,0.0030961441807448864,0.7712801694869995
1682339344.51952314,121718506,2,0.6364200711250305,-0.004833589773625135,0.0032113436609506607,0.7713208198547363
1682339344.61945915,121818442,2,0.636237621307373,-0.0046472810208797455,0.003822694066911936,0.7714697122573853
1682339344.71945810,121918441,2,0.6361643075942993,-0.004765257705003023,0.0042740944772958755,0.7715270519256592
1682339344.81942511,122018408,2,0.636034369468689,-0.0048313443548977375,0.004774163942784071,0.7716308236122131
1682339344.91942596,122118409,2,0.6360362768173218,-0.0050295558758080006,0.00423013512045145,0.7716311812400818
1682339345.01943302,122218416,2,0.6359508037567139,-0.004970975685864687,0.003804269013926387,0.7717041969299316
1682339345.11942697,122318410,2,0.6359638571739197,-0.0050638350658118725,0.0035232286900281906,0.7716941833496094
1682339345.21942902,122418412,2,0.6358801126480103,-0.0050958809442818165,0.0033783167600631714,0.7717636227607727
1682339345.31946898,122518452,2,0.635807991027832,-0.004940598737448454,0.0033257417380809784,0.771824300289154
1682339345.41952300,122618506,2,0.6357530951499939,-0.004830241668969393,0.0036586716305464506,0.7718687057495117
1682339345.51949596,122718479,2,0.6355448961257935,-0.004794463515281677,0.0038584356661885977,0.7720393538475037
1682339345.61946106,122818444,2,0.6354135870933533,-0.004721642006188631,0.003883873578161001,0.7721477746963501
1682339345.71943307,122918416,2,0.6352667808532715,-0.004557339940220118,0.003878202522173524,0.772269606590271
1682339345.81942916,123018412,2,0.635129988193512,-0.00454855989664793,0.0035475813783705235,0.7723837494850159
1682339345.91942310,123118406,2,0.6349568367004395,-0.00485589075833559,0.0031622154638171196,0.7725258469581604
1682339346.01943707,123218420,2,0.6349104642868042,-0.004829923622310162,0.003346548415720463,0.7725633978843689
1682339346.11945701,123318440,2,0.6348224878311157,-0.004983511753380299,0.0032125457655638456,0.7726352214813232
1682339346.21946502,123418448,2,0.6348110437393188,-0.004765557590872049,0.003592420369386673,0.7726443409919739
1682339346.31951213,123518495,2,0.6346548795700073,-0.004838061053305864,0.003280587960034609,0.7727735638618469
1682339346.41950703,123618490,2,0.6347163915634155,-0.005197066348046064,0.003250480629503727,0.7727208733558655
1682339346.51946115,123718444,2,0.6346895098686218,-0.00488548306748271,0.003199693514034152,0.7727451920509338
1682339346.61943102,123818414,2,0.6346913576126099,-0.004695316310971975,0.0027888701297342777,0.7727464437484741
1682339346.71943593,123918419,2,0.6345898509025574,-0.004622177220880985,0.002937082899734378,0.7728296518325806
1682339346.81942606,124018409,2,0.6346341371536255,-0.003683514893054962,0.0026649076025933027,0.7727993726730347
1682339346.91942501,124118408,2,0.634574830532074,-0.003706967458128929,0.002384921070188284,0.7728488445281982
1682339347.01945400,124218437,2,0.6346405148506165,-0.0035326459910720587,0.0026504381094127893,0.7727949023246765
1682339347.11947799,124318461,2,0.634604275226593,-0.003386445576325059,0.0028591626323759556,0.7728245258331299
1682339347.21951199,124418495,2,0.6346704959869385,-0.0035706288181245327,0.0036876648664474487,0.7727658152580261
1682339347.31950712,124518490,2,0.6346712112426758,-0.0035391298588365316,0.003911653067916632,0.772764265537262
1682339347.41945910,124618442,2,0.6347159147262573,-0.003249331144616008,0.004289166070520878,0.772726833820343
1682339347.51942801,124718411,2,0.6346111297607422,-0.0028369647916406393,0.004707455635070801,0.7728120684623718
1682339347.61942911,124818412,2,0.6346372961997986,-0.002732936292886734,0.00474593648687005,0.7727907299995422
1682339347.71942902,124918412,2,0.6347450017929077,-0.002997188363224268,0.0047824992798268795,0.7727010846138
1682339347.81942296,125018406,2,0.6347403526306152,-0.0027253488078713417,0.005165852140635252,0.7727034091949463
1682339347.91942501,125118408,2,0.6348363757133484,-0.0031767203472554684,0.005053295753896236,0.7726235389709473
1682339348.01947594,125218459,2,0.6349955201148987,-0.003365119220688939,0.004899611696600914,0.7724929451942444
1682339348.11951709,125318500,2,0.634981632232666,-0.003451010910794139,0.004555723629891872,0.772506058216095
1682339348.21950006,125418483,2,0.6351595520973206,-0.0033053592778742313,0.004376985598355532,0.7723615169525146
1682339348.31945705,125518440,2,0.6351737380027771,-0.0031696665100753307,0.004181244410574436,0.7723514437675476
1682339348.41942716,125618410,2,0.6351613998413086,-0.003197964746505022,0.0043013812974095345,0.7723608613014221
1682339348.51943016,125718413,2,0.635263204574585,-0.0034585262183099985,0.004098459146916866,0.7722770571708679
1682339348.61942506,125818408,2,0.6352606415748596,-0.003217454766854644,0.004366828128695488,0.7722787857055664
1682339348.71942616,125918409,2,0.635405957698822,-0.003590281819924712,0.00425608130171895,0.7721582055091858
1682339348.81943297,126018416,2,0.6353816390037537,-0.0038146113511174917,0.0038272461388260126,0.772179365158081
1682339348.91946816,126118451,2,0.6354141235351562,-0.004052269738167524,0.0037734087090939283,0.7721517086029053
1682339349.01952004,126218503,2,0.6354689002037048,-0.0030594568233937025,0.005322581622749567,0.7721020579338074
1682339349.11946702,126318450,2,0.6354560852050781,0.0011718934401869774,0.00994188990443945,0.7720721364021301
1682339349.21945906,126418442,2,0.6355063319206238,0.004127655643969774,0.012869905680418015,0.7719773650169373
1682339349.31943512,126518418,2,0.6354922652244568,0.006085612345486879,0.01317345816642046,0.7719708681106567
1682339349.41944599,126618429,2,0.6356781125068665,0.01045721210539341,0.013569435104727745,0.7717640995979309
1682339349.51942396,126718407,2,0.6358147263526917,0.013748252764344215,0.00858315359801054,0.7716715335845947
1682339349.61942315,126818406,2,0.6361224055290222,0.014268054626882076,-0.0010938268387690187,0.7714554667472839
1682339349.71942902,126918412,2,0.6360737681388855,0.007630584761500359,-0.004788062535226345,0.7715756893157959
1682339349.81946516,127018448,2,0.6361578702926636,-0.0027093635872006416,-0.005284961313009262,0.7715360522270203
1682339349.91950893,127118492,2,0.6360282301902771,-0.013383866287767887,-0.0064184460788965225,0.7715229988098145
1682339350.01950693,127218490,2,0.6358503699302673,-0.02314729243516922,-0.006195202935487032,0.7714402675628662
1682339350.11945510,127318438,2,0.6356361508369446,-0.027581168338656425,-0.003840445075184107,0.7714863419532776
1682339350.21942210,127418405,2,0.635482907295227,-0.025240419432520866,-0.0015763546107336879,0.7717006802558899
1682339350.31943607,127518419,2,0.6353236436843872,-0.020816147327423096,0.000839216576423496,0.771964967250824
1682339350.41944909,127618432,2,0.6353051066398621,-0.01475414726883173,0.0031740707345306873,0.7721138000488281
1682339350.51942301,127718406,2,0.6351038217544556,-0.008572348393499851,0.004661858081817627,0.772365152835846
1682339350.61944103,127818424,2,0.6349582672119141,-0.00451692333444953,0.00557745574042201,0.7725130915641785
1682339350.71946812,127918451,2,0.6346103549003601,-0.0018316699424758554,0.005724751856178045,0.7728089094161987
1682339350.81951094,128018494,2,0.6343274712562561,-0.0009760128450579941,0.00582713121548295,0.773041844367981
1682339350.91950798,128118491,2,0.6341003179550171,-0.001480471226386726,0.0058337426744401455,0.773227334022522
1682339351.01945615,128218439,2,0.633804440498352,-0.0023384441155940294,0.005291540641337633,0.7734717130661011
