timestamp,TimeUS,C,Roll,Pitch,Yaw,VN,VE,VD,dPD,PN,PE,PD,GX,GY,GZ,OH
1682339297.81945610,75018439,2,-0.64,1.1,96.26,0.02941330149769783,0.006205760408192873,0.05680403113365173,-0.019169572740793228,1.5949370861053467,-0.8624585270881653,0.743625819683075,-0.06,0.06,0.14,274.86
1682339297.91946602,75118449,2,-0.64,1.11,96.26,0.030092859640717506,0.006680311635136604,0.05567063391208649,-0.011601326055824757,1.602759599685669,-0.858340859413147,0.7428788542747498,-0.06,0.06,0.14,274.86
1682339298.01942396,75218407,2,-0.64,1.11,96.26,0.031025193631649017,0.006813520565629005,0.05654267966747284,0.01649964414536953,1.6111760139465332,-0.8544244170188904,0.7451090216636658,-0.06,0.06,0.14,274.86
1682339298.11942697,75318410,2,-0.65,1.12,96.25,0.033333469182252884,0.007055111229419708,0.05699599161744118,0.04807659983634949,1.6197762489318848,-0.8508087992668152,0.7491390109062195,-0.06,0.06,0.14,274.86
1682339298.21941996,75418403,2,-0.65,1.11,96.25,0.0333176888525486,0.008089590817689896,0.057141538709402084,0.055661480873823166,1.6288114786148071,-0.8459694385528564,0.7535952925682068,-0.06,0.06,0.14,274.86
1682339298.31942296,75518406,2,-0.66,1.11,96.25,0.03340383246541023,0.009132470935583115,0.05700671672821045,0.053295571357011795,1.6369469165802002,-0.8411582708358765,0.7579936385154724,-0.06,0.06,0.14,274.86
1682339298.41941714,75618400,2,-0.66,1.11,96.26,0.03326229378581047,0.009959751740098,0.05694492533802986,0.038206446915864944,1.645246148109436,-0.8368127942085266,0.7611188292503357,-0.06,0.06,0.14,274.86
1682339298.51947212,75718455,2,-0.67,1.11,96.26,0.033304255455732346,0.010280602611601353,0.05580722540616989,0.02041664905846119,1.65395188331604,-0.8324251174926758,0.7633761763572693,-0.06,0.06,0.14,274.86
1682339298.61952209,75818505,2,-0.67,1.11,96.27,0.03134565427899361,0.010833442211151123,0.05515506491065025,0.02990862913429737,1.662459135055542,-0.8275778889656067,0.7670900225639343,-0.06,0.06,0.14,274.86
1682339298.71949410,75918477,2,-0.68,1.11,96.27,0.02939348667860031,0.013050699606537819,0.05377306044101715,0.04623784124851227,1.6703236103057861,-0.8223937749862671,0.7717050909996033,-0.06,0.06,0.14,274.86
1682339298.81945515,76018438,2,-0.68,1.12,96.27,0.02729111909866333,0.012854151427745819,0.05397253856062889,0.04400018975138664,1.6780561208724976,-0.8173801898956299,0.7755305171012878,-0.06,0.06,0.14,274.86
1682339298.91942406,76118407,2,-0.68,1.1300000000000001,96.26,0.02405652590095997,0.01181531511247158,0.054654642939567566,0.03568940609693527,1.6852152347564697,-0.8128124475479126,0.7789496779441833,-0.06,0.06,0.14,274.86
1682339299.01943111,76218414,2,-0.6900000000000001,1.1300000000000001,96.25,0.020613107830286026,0.010420437902212143,0.05456756800413132,0.029503773897886276,1.691150188446045,-0.8094740509986877,0.7819289565086365,-0.06,0.06,0.14,274.86
1682339299.11941695,76318400,2,-0.7000000000000001,1.1300000000000001,96.24000000000001,0.016013912856578827,0.0071698580868542194,0.052869416773319244,0.024082059040665627,1.6961199045181274,-0.8074347972869873,0.7847108244895935,-0.06,0.06,0.14,274.86
1682339299.21941996,76418403,2,-0.71,1.1300000000000001,96.22,0.011605892330408096,0.002825181931257248,0.05331045761704445,0.0473492294549942,1.7007232904434204,-0.8062366247177124,0.7902643084526062,-0.06,0.06,0.14,274.86
1682339299.31942105,76518404,2,-0.71,1.1300000000000001,96.2,0.006508976686745882,-0.0020982488058507442,0.05435234680771828,0.07470295578241348,1.704537272453308,-0.80599445104599,0.7970079779624939,-0.06,0.06,0.13,274.86
1682339299.41946507,76618448,2,-0.71,1.1300000000000001,96.2,0.0029287941288203,-0.004502301570028067,0.05577843636274338,0.07641005516052246,1.7082891464233398,-0.8049878478050232,0.8039206862449646,-0.06,0.06,0.13,274.86
1682339299.51952195,76718505,2,-0.72,1.1300000000000001,96.19,-0.0018502065213397145,-0.0053116511553525925,0.05703684687614441,0.077525794506073,1.7116891145706177,-0.8033064603805542,0.8109411597251892,-0.06,0.06,0.13,274.86
1682339299.61949110,76818474,2,-0.72,1.1300000000000001,96.2,-0.005807192530483007,-0.005883966572582722,0.059260156005620956,0.08303618431091309,1.7155743837356567,-0.8011725544929504,0.8192126154899597,-0.06,0.06,0.13,274.86
1682339299.71945596,76918439,2,-0.72,1.1300000000000001,96.19,-0.009211133234202862,-0.006802759598940611,0.0599338561296463,0.08651573956012726,1.7186334133148193,-0.7993307709693909,0.8272420763969421,-0.06,0.06,0.13,274.86
1682339299.81941795,77018401,2,-0.72,1.1400000000000001,96.18,-0.009670073166489601,-0.006156825460493565,0.06296329945325851,0.09197773784399033,1.7239892482757568,-0.7967686057090759,0.8363804221153259,-0.06,0.06,0.13,274.86
1682339299.91943216,77118415,2,-0.73,1.1500000000000001,96.18,-0.00846579484641552,-0.006787591613829136,0.06398904323577881,0.0938563272356987,1.7295303344726562,-0.7943430542945862,0.8451341986656189,-0.06,0.06,0.13,274.86
1682339300.01944304,77218426,2,-0.74,1.1500000000000001,96.16,-0.008943689055740833,-0.006945651490241289,0.06466322392225266,0.07621466368436813,1.735005497932434,-0.7914743423461914,0.8523880839347839,-0.06,0.06,0.13,274.86
1682339300.11941910,77318402,2,-0.74,1.16,96.15,-0.011375943198800087,-0.007697482593357563,0.06544716656208038,0.058062899857759476,1.7392542362213135,-0.7889806628227234,0.8583044409751892,-0.06,0.06,0.13,274.86
1682339300.21942401,77418407,2,-0.74,1.1500000000000001,96.13,-0.0120511744171381,-0.00920571107417345,0.06649968773126602,0.048411693423986435,1.7445240020751953,-0.7862378358840942,0.8637394309043884,-0.06,0.06,0.14,274.86
1682339300.31947708,77518460,2,-0.74,1.16,96.11,-0.01274452917277813,-0.0097947483882308,0.06695551425218582,0.042463574558496475,1.7492492198944092,-0.7839462161064148,0.8683797717094421,-0.06,0.06,0.13,274.86
1682339300.41951203,77618495,2,-0.74,1.16,96.09,-0.013533681631088257,-0.009597091004252434,0.06830710172653198,0.051690034568309784,1.7551192045211792,-0.7812805771827698,0.8744563460350037,-0.06,0.06,0.13,274.86
1682339300.51950502,77718488,2,-0.75,1.16,96.07000000000001,-0.013929677195847034,-0.010225703939795494,0.06971126794815063,0.06087290123105049,1.7603845596313477,-0.7790337800979614,0.8803419470787048,-0.06,0.06,0.13,274.86
1682339300.61945701,77818440,2,-0.76,1.17,96.07000000000001,-0.011850597336888313,-0.009617372415959835,0.06980512291193008,0.048520706593990326,1.767972707748413,-0.7757484316825867,0.8849336504936218,-0.06,0.06,0.13,274.86
1682339300.71942306,77918406,2,-0.77,1.16,96.05,-0.007996542379260063,-0.009958585724234581,0.07090464234352112,0.03474201634526253,1.7755310535430908,-0.7725131511688232,0.8885485529899597,-0.06,0.06,0.13,274.86
1682339300.81942296,78018406,2,-0.78,1.17,96.08,-0.005364249460399151,-0.007395296357572079,0.07110688835382462,0.03597141057252884,1.783752202987671,-0.7692084312438965,0.8929333090782166,-0.06,0.06,0.13,274.86
1682339300.91942716,78118410,2,-0.78,1.17,96.05,-0.004076093435287476,-0.0052412389777600765,0.06903882324695587,0.04134058952331543,1.7910257577896118,-0.7662452459335327,0.8973342776298523,-0.06,0.06,0.13,274.86
1682339301.01942801,78218411,2,-0.79,1.18,96.03,0.010104509070515633,-0.007042817305773497,0.06822192668914795,0.0410822257399559,1.7996035814285278,-0.7637298107147217,0.9017810225486755,-0.06,0.06,0.13,274.86
1682339301.11942816,78318411,2,-0.81,1.16,96.05,0.020900780335068703,-0.014105414040386677,0.06514976173639297,0.04701051115989685,1.8106366395950317,-0.760785698890686,0.9068741202354431,-0.06,0.06,0.13,274.86
1682339301.21947098,78418454,2,-0.75,1.1400000000000001,96.05,0.009368815459311008,-0.005799559410661459,0.06510399281978607,0.06253901869058609,1.8215283155441284,-0.7568500638008118,0.9138769507408142,-0.06,0.06,0.13,274.86
1682339301.31951714,78518500,2,-0.77,1.1300000000000001,96.01,0.0020378369372338057,0.010223479010164738,0.07917387038469315,0.09151696413755417,1.830808162689209,-0.7529149055480957,0.921552836894989,-0.06,0.06,0.13,274.86
1682339301.41950297,78618486,2,-0.77,1.1400000000000001,96.03,0.022551873698830605,0.018085241317749023,0.07765211910009384,0.10146604478359222,1.840157151222229,-0.7491063475608826,0.9310330748558044,-0.06,0.06,0.13,274.86
1682339301.51945615,78718439,2,-0.79,1.12,96.06,0.01938413828611374,0.007006092928349972,0.07290058583021164,0.10023635625839233,1.8482469320297241,-0.7457476258277893,0.9399341940879822,-0.06,0.06,0.13,274.86
1682339301.61942601,78818409,2,-0.79,1.1300000000000001,96.01,0.01603306271135807,0.011782745830714703,0.07095193862915039,0.05519520118832588,1.855910301208496,-0.7425466775894165,0.9441463351249695,-0.06,0.06,0.13,274.86
1682339301.71942616,78918409,2,-0.8200000000000001,1.1300000000000001,96.02,0.04069092124700546,0.027363896369934082,0.07040522247552872,0.006840543355792761,1.861853837966919,-0.7390308380126953,0.9457864165306091,-0.06,0.06,0.13,274.86
1682339301.81942916,79018412,2,-0.79,1.1300000000000001,96.05,0.043034397065639496,-0.00018556341819930822,0.0750838965177536,0.0076714311726391315,1.868166446685791,-0.7359089851379395,0.948234498500824,-0.06,0.06,0.13,274.86
1682339301.91942716,79118410,2,-0.77,1.1400000000000001,96.04,0.026853548362851143,-0.026590311899781227,0.06678075343370438,0.009404871612787247,1.8735506534576416,-0.7343165874481201,0.9505924582481384,-0.06,0.06,0.13,274.86
1682339302.01943612,79218419,2,-0.8200000000000001,1.1300000000000001,96.07000000000001,-0.004702994599938393,-0.014694619923830032,0.0752294510602951,0.028495164588093758,1.8798387050628662,-0.7310062050819397,0.9537681937217712,-0.06,0.06,0.13,274.86
1682339302.11946511,79318448,2,-0.8,1.1400000000000001,96.09,-0.0047841002233326435,0.014789854176342487,0.06340329349040985,0.021394211798906326,1.8861199617385864,-0.7269389033317566,0.9563981890678406,-0.06,0.06,0.13,274.86
1682339302.21952796,79418511,2,-0.8200000000000001,1.1500000000000001,96.09,0.02396606095135212,0.027001915499567986,0.06629890948534012,0.0035956264473497868,1.8916767835617065,-0.7238543033599854,0.9565247893333435,-0.06,0.06,0.13,274.86
1682339302.31950402,79518487,2,-0.8300000000000001,1.1400000000000001,96.07000000000001,0.03518340736627579,0.011871607974171638,0.07021330296993256,-0.019500376656651497,1.8971359729766846,-0.7219246625900269,0.9548653960227966,-0.06,0.06,0.13,274.86
1682339302.41946197,79618445,2,-0.8,1.1400000000000001,96.11,0.051483381539583206,-0.006530774291604757,0.0606776624917984,-0.035308077931404114,1.9034026861190796,-0.7189868092536926,0.952279269695282,-0.06,0.06,0.13,274.86
1682339302.51943493,79718418,2,-0.85,1.1,96.15,0.02016596496105194,0.013013280928134918,0.060522593557834625,-0.03533376008272171,1.9096100330352783,-0.7156597971916199,0.9495808482170105,-0.06,0.06,0.13,274.86
1682339302.61943603,79818419,2,-0.73,0.79,96.2,0.01493634283542633,0.03324994072318077,-0.01656280644237995,-0.0899541825056076,1.915860891342163,-0.7111438512802124,0.946842610836029,-0.06,0.06,0.12,274.86
1682339302.71944213,79918425,2,-0.22,0.26,96.24000000000001,0.022199740633368492,0.019866088405251503,-0.2599807381629944,-0.3209042549133301,1.921690821647644,-0.706468939781189,0.9266638159751892,-0.06,0.06,0.12,274.86
1682339302.81942701,80018410,2,-0.01,0.51,96.27,0.027361629530787468,0.024791140109300613,-0.5071569085121155,-0.6169966459274292,1.9275809526443481,-0.7011117339134216,0.8721217513084412,-0.06,0.06,0.12,274.86
1682339302.91942716,80118410,2,-0.11,0.73,96.3,0.04250580444931984,0.035156261175870895,-0.5930730700492859,-0.749955952167511,1.933142900466919,-0.695086658000946,0.8013114333152771,-0.06,0.06,0.11,274.86
1682339303.01947713,80218460,2,-0.28,0.6900000000000001,96.28,0.053247686475515366,0.03098839521408081,-0.5945542454719543,-0.7633834481239319,1.9389511346817017,-0.6909162402153015,0.7261783480644226,-0.06,0.06,0.11,274.86
1682339303.11954999,80318533,2,-0.35000000000000003,0.73,96.23,0.06343434005975723,0.025622090324759483,-0.558262288570404,-0.7550340294837952,1.9450238943099976,-0.6885563135147095,0.6521758437156677,-0.06,0.06,0.11,274.86
1682339303.21950197,80418485,2,-0.84,0.77,96.15,0.07474216818809509,0.02226761355996132,-0.5093787908554077,-0.6845446228981018,1.9518903493881226,-0.6877514719963074,0.5829102396965027,-0.06,0.06,0.11,274.86
1682339303.31946206,80518445,2,-1.32,0.6900000000000001,96.04,0.08478167653083801,0.018963811919093132,-0.4268728196620941,-0.5685870051383972,1.9597535133361816,-0.6887056231498718,0.523129403591156,-0.06,0.06,0.11,274.86
1682339303.41943407,80618417,2,-1.22,0.71,95.9,0.10917840898036957,0.014202548190951347,-0.3559679388999939,-0.4334617257118225,1.9695913791656494,-0.6904957294464111,0.4771420359611511,-0.06,0.06,0.11,274.86
1682339303.51943302,80718416,2,-1.24,0.8300000000000001,95.72,0.14467060565948486,0.011767278425395489,-0.3030417263507843,-0.320316880941391,1.982303261756897,-0.6930172443389893,0.4410492777824402,-0.06,0.06,0.1,274.86
1682339303.61943603,80818419,2,-1.43,0.74,95.53,0.16058947145938873,0.013633876107633114,-0.26762887835502625,-0.3310074210166931,1.9957339763641357,-0.6925604939460754,0.4036948084831238,-0.06,0.06,0.1,274.86
1682339303.71942806,80918411,2,-1.36,0.64,95.36,0.17592158913612366,0.012829297222197056,-0.22592400014400482,-0.370155394077301,2.0087571144104004,-0.6884956359863281,0.36428993940353394,-0.06,0.06,0.1,274.86
1682339303.81942201,81018405,2,-1.42,0.51,95.21000000000001,0.18720747530460358,0.018840814009308815,-0.21025338768959045,-0.3789578676223755,2.02480411529541,-0.6848860383033752,0.3292621970176697,-0.06,0.06,0.1,274.86
1682339303.91946912,81118452,2,-1.22,0.45,95.09,0.20550759136676788,0.025634977966547012,-0.20173056423664093,-0.3648363947868347,2.0427446365356445,-0.6812330484390259,0.29313820600509644,-0.06,0.06,0.1,274.86
1682339304.01951694,81218500,2,-0.32,0.65,94.98,0.20677097141742706,0.02892666682600975,-0.20277203619480133,-0.39805981516838074,2.0614359378814697,-0.6770875453948975,0.25440067052841187,-0.06,0.06,0.09,274.86
1682339304.11946106,81318444,2,0.71,0.87,94.88,0.20640411972999573,0.031551674008369446,-0.2043263167142868,-0.3599800765514374,2.079996347427368,-0.6722559928894043,0.21973365545272827,-0.06,0.06,0.09,274.86
1682339304.21946406,81418447,2,1.48,0.93,94.8,0.18354099988937378,0.02870527282357216,-0.20607982575893402,-0.33675268292427063,2.097238540649414,-0.6671155095100403,0.18576735258102417,-0.06,0.06,0.09,274.86
1682339304.31943107,81518414,2,1.76,0.97,94.72,0.17478986084461212,0.027929820120334625,-0.2234543412923813,-0.3572903871536255,2.1123318672180176,-0.6623644232749939,0.1490737795829773,-0.06,0.06,0.09,274.86
1682339304.41943407,81618417,2,1.51,0.84,94.62,0.15252016484737396,0.0214618518948555,-0.2399057298898697,-0.40159228444099426,2.124633312225342,-0.6584930419921875,0.10883922129869461,-0.06,0.06,0.09,274.86
1682339304.51943612,81718419,2,1.04,0.5700000000000001,94.54,0.1257469207048416,0.013737124390900135,-0.26212558150291443,-0.4209396243095398,2.13430118560791,-0.6555353999137878,0.06879181414842606,-0.06,0.06,0.09,274.86
1682339304.61942601,81818409,2,0.67,0.47000000000000003,94.51,0.1115337461233139,0.01093242596834898,-0.3017745912075043,-0.4448204040527344,2.142259359359741,-0.6539096236228943,0.027068324387073517,-0.06,0.06,0.09,274.86
1682339304.71942806,81918411,2,0.25,0.19,94.48,0.10255934298038483,0.021528402343392372,-0.3453693389892578,-0.48040422797203064,2.149568557739258,-0.6525306105613708,-0.019043974578380585,-0.06,0.06,0.08,274.86
1682339304.81946898,82018452,2,-0.11,-0.12,94.48,0.10310938209295273,0.02710595726966858,-0.3918944299221039,-0.5510824918746948,2.1574974060058594,-0.6499107480049133,-0.07217936962842941,-0.06,0.06,0.08,274.86
1682339304.91951895,82118502,2,-0.31,-0.68,94.48,0.09850884228944778,0.05778137221932411,-0.42541512846946716,-0.6043588519096375,2.1663529872894287,-0.6452313661575317,-0.12994295358657837,-0.06,0.06,0.08,274.86
1682339305.01950598,82218489,2,-0.39,-2.09,94.5,0.10144481062889099,0.0940048098564148,-0.462756872177124,-0.6255463361740112,2.1746861934661865,-0.6365099549293518,-0.18965822458267212,-0.06,0.06,0.08,274.86
1682339305.11946201,82318445,2,-0.48,-2.9,94.52,0.09941498190164566,0.14345191419124603,-0.4789380431175232,-0.6391677260398865,2.1827571392059326,-0.6234092712402344,-0.2531614899635315,-0.06,0.06,0.08,274.86
1682339305.21944094,82418424,2,-0.51,-3.33,94.55,0.10988952964544296,0.20864032208919525,-0.509113073348999,-0.6524120569229126,2.1888649463653564,-0.6011115312576294,-0.31632381677627563,-0.06,0.06,0.08,274.86
1682339305.31943393,82518417,2,-0.38,-3.47,94.59,0.10575205832719803,0.27649492025375366,-0.5284579396247864,-0.6655079126358032,2.194227457046509,-0.5712499022483826,-0.3822384476661682,-0.06,0.06,0.08,274.86
1682339305.41942716,82618410,2,-0.24,-2.95,94.64,0.09890257567167282,0.3411005437374115,-0.5491219162940979,-0.6633775234222412,2.201118230819702,-0.5331577658653259,-0.4464089274406433,-0.06,0.06,0.08,274.86
1682339305.51942301,82718406,2,-0.13,-2.93,94.7,0.09768006205558777,0.42061033844947815,-0.5712953805923462,-0.6565613746643066,2.208355665206909,-0.4876198470592499,-0.5118405222892761,-0.06,0.06,0.07,274.86
1682339305.61942697,82818410,2,-0.01,-3.0500000000000003,94.77,0.08448897302150726,0.48282524943351746,-0.5696671009063721,-0.6482628583908081,2.2121622562408447,-0.4340095818042755,-0.5769496560096741,-0.06,0.06,0.07,274.86
1682339305.71947694,82918460,2,0.03,-2.86,94.84,0.08933490514755249,0.5459996461868286,-0.5783109664916992,-0.6388614177703857,2.2148382663726807,-0.375200480222702,-0.6407729983329773,-0.06,0.06,0.07,274.86
1682339305.81951809,83018501,2,0.01,-2.91,94.91,0.06807791441679001,0.6149368286132812,-0.5847527980804443,-0.6124378442764282,2.2192912101745605,-0.30625271797180176,-0.7016156315803528,-0.06,0.06,0.07,274.86
1682339305.91950703,83118490,2,0.03,-3.04,94.96000000000001,0.07789331674575806,0.6738847494125366,-0.5667319893836975,-0.5775858759880066,2.2248375415802,-0.23093196749687195,-0.7621796727180481,-0.06,0.06,0.07,274.86
1682339306.01946402,83218447,2,0.02,-2.99,95.03,0.06320637464523315,0.7347005605697632,-0.5297399163246155,-0.5418546199798584,2.227083206176758,-0.15190593898296356,-0.8194066882133484,-0.06,0.06,0.07,274.86
1682339306.11942196,83318405,2,0.03,-3.08,95.09,0.05514194816350937,0.7967243790626526,-0.49046164751052856,-0.5025896430015564,2.228363275527954,-0.0687427893280983,-0.8729332089424133,-0.06,0.06,0.07,274.86
1682339306.21942902,83418412,2,0.06,-3.15,95.14,0.05887044593691826,0.858158528804779,-0.46013325452804565,-0.5310535430908203,2.2330825328826904,0.017108161002397537,-0.9291157126426697,-0.06,0.06,0.07,274.86
1682339306.31944394,83518427,2,0.0,-3.14,95.21000000000001,0.04794836416840553,0.9116255044937134,-0.4095132350921631,-0.543530285358429,2.239560842514038,0.10674252361059189,-0.9844339489936829,-0.06,0.06,0.07,274.86
1682339306.41942406,83618407,2,0.06,-3.0,95.27,0.043270405381917953,0.9661213755607605,-0.37173351645469666,-0.5344175696372986,2.2390193939208984,0.20739752054214478,-1.038636565208435,-0.06,0.06,0.06,274.86
1682339306.51942301,83718406,2,0.14,-2.87,95.36,0.03342651203274727,1.0271822214126587,-0.33869126439094543,-0.5139405727386475,2.235537528991699,0.3151663541793823,-1.0896551609039307,-0.06,0.06,0.06,274.86
1682339306.61947012,83818453,2,0.12,-2.84,95.44,0.018796274438500404,1.0882337093353271,-0.3134554922580719,-0.48240429162979126,2.227053642272949,0.43359190225601196,-1.137148380279541,-0.06,0.06,0.06,274.86
1682339306.71951509,83918498,2,-0.02,-2.61,95.53,0.003019195282831788,1.1472110748291016,-0.26962536573410034,-0.44320541620254517,2.217080593109131,0.5592879056930542,-1.18257737159729,-0.06,0.06,0.06,274.86
1682339306.81950498,84018488,2,-0.11,-2.42,95.62,0.004181714728474617,1.1947722434997559,-0.2323305606842041,-0.42444872856140137,2.2036328315734863,0.6882320046424866,-1.227513074874878,-0.06,0.06,0.06,274.86
1682339306.91945601,84118439,2,-0.17,-2.36,95.7,-0.018484601750969887,1.2487024068832397,-0.21883252263069153,-0.4257602095603943,2.1898674964904785,0.8200012445449829,-1.2687307596206665,-0.06,0.06,0.06,274.86
1682339307.01943207,84218415,2,-0.27,-2.41,95.76,-0.02543024718761444,1.299206256866455,-0.1932026594877243,-0.3742377758026123,2.17792010307312,0.9551636576652527,-1.3056336641311646,-0.06,0.06,0.06,274.86
1682339307.11942697,84318410,2,-0.29,-2.39,95.81,-0.016055308282375336,1.3452413082122803,-0.16489985585212708,-0.3316756784915924,2.1672699451446533,1.0943200588226318,-1.3390023708343506,-0.06,0.06,0.05,274.86
1682339307.21942902,84418412,2,-0.3,-2.45,95.87,-0.028039924800395966,1.3920611143112183,-0.13313499093055725,-0.2784602642059326,2.1580750942230225,1.238313913345337,-1.3685448169708252,-0.06,0.06,0.05,274.86
1682339307.31943393,84518417,2,-0.27,-2.59,95.95,-0.029593970626592636,1.4399315118789673,-0.11868151277303696,-0.2503686547279358,2.1504032611846924,1.3862675428390503,-1.394476294517517,-0.06,0.06,0.05,274.86
1682339307.41942596,84618409,2,-0.16,-2.7600000000000002,96.03,-0.033668193966150284,1.492749571800232,-0.11642176657915115,-0.20634128153324127,2.141855478286743,1.540906548500061,-1.4144927263259888,-0.06,0.07,0.05,274.86
1682339307.51947212,84718455,2,-0.05,-2.81,96.09,-0.038934990763664246,1.5420948266983032,-0.0882801041007042,-0.14687947928905487,2.133716583251953,1.6989121437072754,-1.4319754838943481,-0.06,0.07,0.05,274.86
1682339307.61952615,84818509,2,0.04,-2.39,96.15,-0.028141189366579056,1.5904194116592407,-0.08943038433790207,-0.15805311501026154,2.129983901977539,1.8619760274887085,-1.45074462890625,-0.06,0.07,0.05,274.86
1682339307.71950603,84918489,2,0.08,-1.49,96.23,-0.040525007992982864,1.6218345165252686,-0.09207212179899216,-0.18085728585720062,2.1285812854766846,2.027400493621826,-1.4694854021072388,-0.06,0.07,0.05,274.86
1682339307.81946397,85018447,2,0.15,-0.66,96.28,-0.030765878036618233,1.6450693607330322,-0.07642258703708649,-0.14223521947860718,2.129842519760132,2.198763370513916,-1.4836074113845825,-0.06,0.07,0.05,274.86
1682339307.91943097,85118414,2,0.22,0.08,96.32000000000001,-0.0252399742603302,1.6558927297592163,-0.07844811677932739,-0.08857233077287674,2.1332123279571533,2.3737053871154785,-1.4934439659118652,-0.06,0.07,0.05,274.86
1682339308.01944494,85218428,2,0.26,0.98,96.38,-0.039561279118061066,1.6481926441192627,-0.09343194961547852,-0.07770506292581558,2.1338260173797607,2.548011064529419,-1.5009490251541138,-0.06,0.07,0.05,274.86
1682339308.11944413,85318427,2,0.28,1.77,96.44,-0.023164574056863785,1.627503752708435,-0.08641573786735535,-0.03812190890312195,2.132406234741211,2.7205097675323486,-1.5061768293380737,-0.06,0.07,0.05,274.86
1682339308.21942306,85418406,2,0.34,2.27,96.54,-0.037256691604852676,1.6054192781448364,-0.0903545618057251,-0.026174290105700493,2.128248929977417,2.8850815296173096,-1.509542465209961,-0.06,0.07,0.05,274.86
1682339308.31943107,85518414,2,0.4,1.98,96.69,-0.03797103837132454,1.572286605834961,-0.07933016121387482,-0.014662904664874077,2.122724771499634,3.0441226959228516,-1.5142656564712524,-0.06,0.07,0.05,274.86
1682339308.41946912,85618452,2,0.36,1.32,97.04,-0.046047937124967575,1.554779052734375,-0.11700301617383957,-0.09332074970006943,2.118391990661621,3.19431471824646,-1.5233516693115234,-0.06,0.06,0.05,274.86
1682339308.51952004,85718503,2,0.18,-0.37,97.49000000000001,-0.03960033506155014,1.5569093227386475,-0.07818490266799927,-0.09918573498725891,2.114213705062866,3.3469953536987305,-1.5347777605056763,-0.06,0.06,0.04,274.86
1682339308.61950397,85818487,2,-0.15,-2.13,97.95,-0.048504289239645004,1.5582606792449951,-0.059629857540130615,-0.08602017909288406,2.108717203140259,3.4968204498291016,-1.5444259643554688,-0.06,0.06,0.04,274.86
1682339308.71945715,85918440,2,-0.24,-2.1,98.44,-0.04718572646379471,1.56351900100708,-0.06581398844718933,-0.07804308086633682,2.102064847946167,3.6460843086242676,-1.5525423288345337,-0.06,0.06,0.04,274.86
1682339308.81943512,86018418,2,0.18,-0.99,98.88,-0.06462068110704422,1.590920090675354,-0.04116678982973099,-0.05847128853201866,2.0940327644348145,3.8007044792175293,-1.5603294372558594,-0.06,0.06,0.04,274.86
1682339308.91945195,86118435,2,0.65,-0.16,99.27,-0.07393935322761536,1.6045187711715698,-0.019922910258173943,-0.05140182003378868,2.0845720767974854,3.960080862045288,-1.566658854484558,-0.06,0.06,0.04,274.86
1682339309.01944208,86218425,2,0.87,0.7000000000000001,99.60000000000001,-0.0720352828502655,1.5952695608139038,-0.0002018528466578573,-0.04643142595887184,2.0787196159362793,4.1181721687316895,-1.5724318027496338,-0.05,0.06,0.04,274.86
1682339309.11942315,86318406,2,0.98,1.61,99.88,-0.08211679756641388,1.570593237876892,0.018364164978265762,-0.03859429806470871,2.074782371520996,4.273629188537598,-1.5758522748947144,-0.05,0.06,0.04,274.86
1682339309.21942210,86418405,2,1.03,2.38,100.11,-0.09731440246105194,1.5294805765151978,0.02162359654903412,-0.05263058468699455,2.0663697719573975,4.4242987632751465,-1.5811196565628052,-0.05,0.06,0.03,274.86
1682339309.31946993,86518453,2,0.96,3.14,100.26,-0.10659125447273254,1.4808599948883057,0.06428650766611099,-0.02907145768404007,2.055872917175293,4.567432403564453,-1.5843697786331177,-0.05,0.06,0.03,274.86
1682339309.41951108,86618494,2,0.79,3.93,100.38,-0.11111844331026077,1.4134521484375,0.07010632008314133,-0.06996385008096695,2.0411529541015625,4.701765060424805,-1.5940806865692139,-0.06,0.06,0.03,274.86
1682339309.51949596,86718479,2,0.58,4.73,100.42,-0.12144313007593155,1.3349889516830444,0.07672321796417236,-0.11763022840023041,2.025174379348755,4.827475547790527,-1.6030335426330566,-0.06,0.06,0.03,274.86
1682339309.61945701,86818440,2,0.37,5.49,100.4,-0.10979963839054108,1.2452118396759033,0.08578837662935257,-0.10723090171813965,2.010732889175415,4.946391582489014,-1.6123946905136108,-0.06,0.06,0.03,274.86
1682339309.71942997,86918413,2,0.1,6.26,100.33,-0.09614098072052002,1.1433316469192505,0.11481568217277527,-0.07106809318065643,1.9982107877731323,5.057488918304443,-1.6178990602493286,-0.06,0.06,0.02,274.86
1682339309.81942201,87018405,2,-0.08,7.0600000000000005,100.24000000000001,-0.06383460015058517,1.0330274105072021,0.13214480876922607,-0.06622064113616943,1.9910720586776733,5.155961513519287,-1.6270551681518555,-0.05,0.06,0.02,274.86
1682339309.91942906,87118412,2,-0.2,7.83,100.13,-0.0498809888958931,0.9066161513328552,0.13715100288391113,-0.08505159616470337,1.9879653453826904,5.2428717613220215,-1.633829116821289,-0.05,0.06,0.02,274.86
1682339310.01943111,87218414,2,-0.25,8.540000000000001,99.97,-0.02557515539228916,0.7717589139938354,0.14798545837402344,-0.021606894209980965,1.9855884313583374,5.3168768882751465,-1.6363564729690552,-0.05,0.06,0.02,274.86
1682339310.11942410,87318407,2,-0.18,8.64,99.77,0.017601290717720985,0.6479476094245911,0.1567993462085724,-0.005681112874299288,1.9834412336349487,5.376712322235107,-1.6372926235198975,-0.05,0.06,0.02,274.86
1682339310.21948409,87418467,2,-0.15,7.930000000000001,99.55,0.03547974303364754,0.517928957939148,0.1493944674730301,0.044338203966617584,1.9797863960266113,5.42404317855835,-1.6315155029296875,-0.06,0.06,0.02,274.86
1682339310.31951308,87518496,2,-0.1,6.93,99.3,0.041621316224336624,0.3995887041091919,0.15308262407779694,0.10506684333086014,1.977320671081543,5.461026191711426,-1.621147632598877,-0.06,0.06,0.02,274.86
1682339310.41950011,87618483,2,-0.09,5.0600000000000005,99.04,0.06449208408594131,0.32085609436035156,0.15166868269443512,0.1509842872619629,1.9745326042175293,5.492092132568359,-1.6061627864837646,-0.06,0.06,0.02,274.86
1682339310.51946115,87718444,2,-0.13,3.12,98.8,0.0686565712094307,0.2643030285835266,0.15166203677654266,0.1994883418083191,1.9731897115707397,5.518078804016113,-1.587467074394226,-0.06,0.06,0.02,274.86
1682339310.61943197,87818415,2,-0.12,1.8,98.58,0.07376309484243393,0.2222333401441574,0.12296611815690994,0.19630186259746552,1.9667398929595947,5.540507793426514,-1.5673311948776245,-0.06,0.06,0.02,274.86
1682339310.71942306,87918406,2,-0.15,0.72,98.37,0.06492879241704941,0.2142285406589508,0.11651763319969177,0.2107558250427246,1.9594782590866089,5.561819553375244,-1.5461097955703735,-0.06,0.06,0.02,274.86
1682339310.81942201,88018405,2,-0.17,0.18,98.17,0.06959797441959381,0.20898890495300293,0.10319649428129196,0.21520864963531494,1.9519306421279907,5.5852179527282715,-1.5245050191879272,-0.06,0.06,0.02,274.86
1682339310.91943312,88118416,2,-0.22,0.67,98.04,0.07612308114767075,0.2059890478849411,0.0884203091263771,0.21966403722763062,1.946140170097351,5.60917854309082,-1.5040348768234253,-0.06,0.06,0.02,274.86
1682339311.01942611,88218409,2,-0.34,1.51,97.95,0.055051110684871674,0.20149412751197815,0.07667398452758789,0.22264140844345093,1.9380037784576416,5.632260799407959,-1.4835485219955444,-0.06,0.06,0.02,274.86
1682339311.11947107,88318454,2,-0.34,2.3000000000000003,97.88,0.07685822248458862,0.17918182909488678,0.03821130096912384,0.19522640109062195,1.9306972026824951,5.653504371643066,-1.4647489786148071,-0.06,0.06,0.02,274.86
1682339311.21950912,88418492,2,-0.43,3.14,97.85000000000001,0.06791780889034271,0.14614422619342804,0.010585271753370762,0.1723058670759201,1.9227097034454346,5.6715312004089355,-1.4464401006698608,-0.06,0.06,0.02,274.86
1682339311.31949997,88518483,2,-0.44,3.2800000000000002,97.83,0.06737203896045685,0.1196196973323822,-0.0015061449958011508,0.18666799366474152,1.9146127700805664,5.686038494110107,-1.4289103746414185,-0.06,0.06,0.02,274.86
1682339311.41945910,88618442,2,-0.41000000000000003,2.93,97.83,0.07789871841669083,0.07847326993942261,-0.025061458349227905,0.16527323424816132,1.9051352739334106,5.6957106590271,-1.4135609865188599,-0.07,0.06,0.02,274.86
1682339311.51942706,88718410,2,-0.35000000000000003,2.5500000000000003,97.84,0.08237572014331818,0.046440038830041885,-0.06997931748628616,0.1280059516429901,1.895198106765747,5.700688362121582,-1.4001333713531494,-0.07,0.06,0.02,274.86
1682339311.61943316,88818416,2,-0.31,2.0,97.87,0.0740646943449974,0.020509686321020126,-0.08000000566244125,0.13158829510211945,1.885890007019043,5.703737735748291,-1.3891361951828003,-0.07,0.06,0.02,274.86
1682339311.71943498,88918418,2,-0.38,1.49,97.91,0.08686558902263641,0.002213736530393362,-0.1146092414855957,0.10041655600070953,1.8747761249542236,5.705089092254639,-1.3795076608657837,-0.07,0.06,0.02,274.86
1682339311.81942916,89018412,2,-0.38,1.1500000000000001,97.97,0.07564668357372284,-0.010119417682290077,-0.14336256682872772,0.04430941492319107,1.8630808591842651,5.706313133239746,-1.3740699291229248,-0.07,0.06,0.02,274.86
1682339311.91942596,89118409,2,-0.35000000000000003,0.87,98.04,0.06772380322217941,-0.017506299540400505,-0.17240425944328308,-0.0011235671117901802,1.851374864578247,5.707827568054199,-1.3718551397323608,-0.07,0.06,0.02,274.86
1682339312.01947403,89218457,2,-0.35000000000000003,0.81,98.09,0.07612866163253784,-0.01174156740307808,-0.19027797877788544,-0.03119128942489624,1.8407989740371704,5.709174633026123,-1.3722777366638184,-0.07,0.06,0.02,274.86
1682339312.11952114,89318504,2,-0.38,0.8300000000000001,98.17,0.06619551032781601,-0.014190697111189365,-0.18765157461166382,-0.00906089786440134,1.8297460079193115,5.711147785186768,-1.3728082180023193,-0.07,0.06,0.02,274.86
1682339312.21950698,89418490,2,-0.44,0.9400000000000001,98.23,0.07074573636054993,-0.013448209501802921,-0.21770955622196198,-0.047292616218328476,1.8202416896820068,5.714191436767578,-1.376207947731018,-0.07,0.06,0.02,274.86
1682339312.31946611,89518449,2,-0.52,1.12,98.31,0.07016570121049881,-0.007583173457533121,-0.21400581300258636,-0.06652388721704483,1.812619686126709,5.717814922332764,-1.3825081586837769,-0.07,0.06,0.02,274.86
1682339312.41942811,89618411,2,-0.56,1.21,98.39,0.08227422833442688,-0.01471187174320221,-0.23157130181789398,-0.10680831968784332,1.8066600561141968,5.7215986251831055,-1.3911051750183105,-0.07,0.06,0.02,274.86
1682339312.51943016,89718413,2,-0.6,1.37,98.49000000000001,0.07794053107500076,-0.01985834538936615,-0.22380763292312622,-0.12564073503017426,1.8007837533950806,5.725706100463867,-1.4034370183944702,-0.07,0.06,0.02,274.86
1682339312.61943603,89818419,2,-0.65,1.43,98.53,0.08948784321546555,-0.021944474428892136,-0.22113417088985443,-0.13580486178398132,1.794933795928955,5.730105400085449,-1.4159200191497803,-0.07,0.07,0.02,274.86
1682339312.71942616,89918409,2,-0.64,1.48,98.59,0.08560748398303986,-0.0366828516125679,-0.21101021766662598,-0.11432930827140808,1.7912753820419312,5.733524799346924,-1.4273860454559326,-0.07,0.07,0.01,274.86
1682339312.81942606,90018409,2,-0.62,1.59,98.63,0.10336567461490631,-0.03552363067865372,-0.2038550227880478,-0.09588339179754257,1.7877883911132812,5.736273765563965,-1.4380717277526855,-0.07,0.07,0.01,274.86
1682339312.91947508,90118458,2,-0.59,1.59,98.64,0.11081463098526001,-0.04671638086438179,-0.2226412147283554,-0.12002268433570862,1.7867860794067383,5.737639427185059,-1.4497299194335938,-0.07,0.07,0.01,274.86
1682339313.01950812,90218491,2,-0.61,1.61,98.62,0.10480621457099915,-0.05881299823522568,-0.1938198357820511,-0.08758021146059036,1.7867220640182495,5.737680912017822,-1.4585355520248413,-0.08,0.07,0.01,274.86
1682339313.11950302,90318486,2,-0.59,1.62,98.61,0.12483644485473633,-0.06797639280557632,-0.1818542331457138,-0.04275147616863251,1.7860199213027954,5.736788272857666,-1.4647325277328491,-0.08,0.07,0.01,274.86
1682339313.21945906,90418442,2,-0.62,1.62,98.58,0.13555976748466492,-0.07658352702856064,-0.18909011781215668,-0.045552756637334824,1.7870798110961914,5.734257221221924,-1.469147801399231,-0.08,0.07,0.01,274.86
1682339313.31944203,90518425,2,-0.59,1.62,98.55,0.13096295297145844,-0.08635110408067703,-0.1678457111120224,-0.020752521231770515,1.791142225265503,5.729902744293213,-1.4729052782058716,-0.08,0.07,0.01,274.86
1682339313.41943002,90618413,2,-0.48,1.51,98.51,0.14369012415409088,-0.09786321967840195,-0.16319148242473602,-0.02235567197203636,1.795729160308838,5.723191738128662,-1.4755699634552002,-0.08,0.07,0.01,274.86
1682339313.51943898,90718422,2,-0.38,1.33,98.47,0.14459893107414246,-0.11194709688425064,-0.1487269550561905,-0.010087482631206512,1.8024600744247437,5.714632511138916,-1.4773311614990234,-0.08,0.07,0.01,274.86
1682339313.61943102,90818414,2,-0.18,1.03,98.41,0.144098699092865,-0.1099637895822525,-0.14527100324630737,-0.019719628617167473,1.8071058988571167,5.7072978019714355,-1.4790329933166504,-0.08,0.07,0.01,274.86
1682339313.71944094,90918424,2,-0.1,0.84,98.36,0.1493028998374939,-0.11181972175836563,-0.13291054964065552,-0.017135441303253174,1.8124988079071045,5.699959754943848,-1.4802035093307495,-0.08,0.07,0.01,274.86
1682339313.81946397,91018447,2,-0.04,0.77,98.31,0.15215186774730682,-0.1160593330860138,-0.11835060268640518,-0.008312489837408066,1.8161001205444336,5.693809986114502,-1.4806864261627197,-0.08,0.07,0.01,274.86
1682339313.91952109,91118504,2,-0.03,0.72,98.27,0.1339423954486847,-0.10628020018339157,-0.08936844021081924,0.0034737964160740376,1.820706844329834,5.68779993057251,-1.4820687770843506,-0.08,0.07,0.01,274.86
1682339314.01950312,91218486,2,-0.11,0.7000000000000001,98.24000000000001,0.14127671718597412,-0.10430176556110382,-0.09573421627283096,-0.026494577527046204,1.8250607252120972,5.682148456573486,-1.48356032371521,-0.08,0.07,0.01,274.86
1682339314.11945701,91318440,2,-0.13,0.68,98.24000000000001,0.13599900901317596,-0.10237066447734833,-0.07357345521450043,-0.007272252347320318,1.8274871110916138,5.677618980407715,-1.4843218326568604,-0.08,0.07,0.0,274.86
1682339314.21942902,91418412,2,-0.17,0.68,98.22,0.12562604248523712,-0.09398336708545685,-0.0589468888938427,0.0037764785811305046,1.8292790651321411,5.673423767089844,-1.483819603919983,-0.08,0.07,0.0,274.86
1682339314.31944013,91518423,2,-0.15,0.66,98.23,0.13186199963092804,-0.09063182026147842,-0.047617629170417786,0.011984302662312984,1.8322705030441284,5.66899299621582,-1.4826818704605103,-0.08,0.07,0.0,274.86
1682339314.41942596,91618409,2,-0.14,0.59,98.25,0.11962351948022842,-0.08615290373563766,-0.036183103919029236,0.014424566179513931,1.8344546556472778,5.665712833404541,-1.4805529117584229,-0.08,0.07,0.0,274.86
1682339314.51942396,91718407,2,-0.15,0.54,98.28,0.12293171882629395,-0.07754714041948318,-0.008634297177195549,0.03269391879439354,1.8377825021743774,5.662537097930908,-1.4782636165618896,-0.08,0.07,0.0,274.86
1682339314.61944008,91818423,2,-0.14,0.52,98.3,0.12697090208530426,-0.07178010046482086,-0.00806392077356577,0.025310177356004715,1.8404526710510254,5.659906387329102,-1.4746403694152832,-0.08,0.07,0.0,274.86
1682339314.71947408,91918457,2,-0.11,0.5,98.37,0.12202566862106323,-0.06532522290945053,0.00785081647336483,0.04238078370690346,1.84437894821167,5.657290458679199,-1.4697842597961426,-0.08,0.07,0.0,274.86
1682339314.81950998,92018493,2,-0.13,0.48,98.42,0.10893106460571289,-0.057759396731853485,0.02203146182000637,0.07255180180072784,1.8470507860183716,5.655393123626709,-1.461194634437561,-0.08,0.07,0.0,274.86
1682339314.91950202,92118485,2,-0.08,0.41000000000000003,98.48,0.12555529177188873,-0.04611574485898018,0.04686887562274933,0.11702097952365875,1.8505275249481201,5.653841018676758,-1.4510403871536255,-0.08,0.07,0.0,274.86
1682339315.01945710,92218440,2,-0.05,0.46,98.55,0.10832515358924866,-0.044976357370615005,0.053684912621974945,0.11315040290355682,1.8531599044799805,5.652948379516602,-1.4406685829162598,-0.08,0.07,0.0,274.86
1682339315.11944008,92318423,2,-0.01,0.46,98.59,0.10994426906108856,-0.02775498293340206,0.0699562355875969,0.12052004039287567,1.8567121028900146,5.652374744415283,-1.4299077987670898,-0.08,0.07,0.0,274.86
1682339315.21943307,92418416,2,0.05,0.45,98.66,0.10574793070554733,-0.032845474779605865,0.07443277537822723,0.11878460645675659,1.8595515489578247,5.65183687210083,-1.418241024017334,-0.08,0.07,0.0,274.86
1682339315.31943202,92518415,2,0.05,0.49,98.73,0.10245876014232635,-0.020707951858639717,0.10265687108039856,0.14787673950195312,1.863229513168335,5.651204586029053,-1.4064606428146362,-0.08,0.07,0.0,274.86
1682339315.41942811,92618411,2,0.01,0.45,98.75,0.10015884786844254,-0.015535310842096806,0.08062580972909927,0.12237599492073059,1.865987777709961,5.651158332824707,-1.39434015750885,-0.08,0.07,0.0,274.86
1682339315.51942897,92718412,2,0.02,0.48,98.79,0.09837907552719116,-0.008274368941783905,0.09570711106061935,0.1310574859380722,1.8696175813674927,5.651203155517578,-1.3830024003982544,-0.08,0.07,0.0,274.86
1682339315.61947012,92818453,2,-0.05,0.48,98.82000000000001,0.08339257538318634,-0.00633562495931983,0.10375712066888809,0.13074585795402527,1.8722639083862305,5.651850700378418,-1.3715237379074097,-0.08,0.07,0.0,274.86
1682339315.71952415,92918507,2,-0.04,0.5,98.83,0.09714005887508392,-0.004414401948451996,0.09011509269475937,0.11672621220350266,1.8764139413833618,5.6525702476501465,-1.3603219985961914,-0.08,0.07,0.0,274.86
1682339315.81950307,93018486,2,0.02,0.52,98.85000000000001,0.09203044325113297,-0.0007876494782976806,0.09027668088674545,0.1174965426325798,1.8802119493484497,5.6535468101501465,-1.3485809564590454,-0.08,0.07,0.0,274.86
1682339315.91945601,93118439,2,0.1,0.54,98.84,0.0890517458319664,0.007999761030077934,0.09791012108325958,0.12877726554870605,1.8843539953231812,5.654538154602051,-1.3367999792099,-0.08,0.07,0.0,274.86
1682339316.01942897,93218412,2,0.25,0.55,98.83,0.09400240331888199,0.00534417200833559,0.10308235883712769,0.13840219378471375,1.88883376121521,5.654930114746094,-1.3242279291152954,-0.08,0.07,0.0,274.86
1682339316.11942315,93318406,2,0.27,0.54,98.83,0.07718605548143387,0.006266246549785137,0.09350423514842987,0.14548371732234955,1.8928117752075195,5.654515266418457,-1.3105461597442627,-0.08,0.07,0.0,274.86
1682339316.21942902,93418412,2,0.36,0.52,98.83,0.0787566676735878,0.008510551415383816,0.08249246329069138,0.12985020875930786,1.8964087963104248,5.654958724975586,-1.297234058380127,-0.08,0.07,0.0,274.86
1682339316.31943011,93518413,2,0.4,0.71,98.82000000000001,0.07675687223672867,0.000920047692488879,0.09287426620721817,0.13379289209842682,1.8997963666915894,5.655730247497559,-1.284991979598999,-0.08,0.07,0.0,274.86
1682339316.41943502,93618418,2,0.46,1.03,98.82000000000001,0.05745255947113037,-0.0004971824237145483,0.08239191770553589,0.11208683252334595,1.902029037475586,5.657613754272461,-1.2738653421401978,-0.08,0.07,0.0,274.86
1682339316.51946497,93718448,2,0.56,0.86,98.8,0.056415118277072906,0.009488087147474289,0.08217742294073105,0.10446279495954514,1.9040850400924683,5.660059452056885,-1.2638872861862183,-0.08,0.07,0.0,274.86
1682339316.61952209,93818505,2,0.64,0.35000000000000003,98.78,0.035331469029188156,0.011587094515562057,0.07077870517969131,0.08007193356752396,1.9055042266845703,5.662501335144043,-1.2556416988372803,-0.08,0.07,0.0,274.86
1682339316.71949911,93918482,2,0.74,-0.29,98.73,0.023707499727606773,0.016665019094944,0.06660719215869904,0.060308560729026794,1.9056774377822876,5.6657633781433105,-1.2492998838424683,-0.08,0.07,0.0,274.86
1682339316.81945610,94018439,2,0.8200000000000001,-0.85,98.71000000000001,0.012457952834665775,0.04125760495662689,0.07346619665622711,0.06055564433336258,1.9041142463684082,5.670567512512207,-1.244030475616455,-0.08,0.07,0.0,274.86
1682339316.91942596,94118409,2,1.1300000000000001,-1.25,98.68,-0.013019709847867489,0.06753646582365036,0.0632510781288147,0.05148285999894142,1.8994354009628296,5.6779937744140625,-1.2392363548278809,-0.08,0.07,0.0,274.86
1682339317.01943111,94218414,2,1.83,-1.3800000000000001,98.66,-0.04508432373404503,0.09544138610363007,0.041626978665590286,0.032609548419713974,1.892577052116394,5.688626766204834,-1.2352670431137085,-0.08,0.07,0.0,274.86
1682339317.11942697,94318410,2,2.05,-1.3800000000000001,98.66,-0.07701142132282257,0.12524260580539703,0.043503083288669586,0.03247888386249542,1.883068561553955,5.70353364944458,-1.2321075201034546,-0.08,0.07,0.0,274.86
1682339317.21942401,94418407,2,2.02,-1.19,98.65,-0.10599756240844727,0.155404731631279,0.03066622093319893,0.01737619750201702,1.869742512702942,5.722911357879639,-1.2299020290374756,-0.08,0.08,-0.01,274.86
1682339317.31943393,94518417,2,2.07,-1.18,98.64,-0.15827324986457825,0.18939805030822754,0.042280714958906174,0.02501058019697666,1.8529611825942993,5.745458126068115,-1.2284173965454102,-0.08,0.08,-0.01,274.86
1682339317.41947508,94618458,2,2.0300000000000002,-1.52,98.62,-0.18148350715637207,0.2267974615097046,0.034276846796274185,0.019638068974018097,1.832745909690857,5.771389961242676,-1.226914882659912,-0.08,0.08,-0.01,274.86
1682339317.51951313,94718496,2,1.92,-1.85,98.61,-0.22503653168678284,0.25327935814857483,0.03239128366112709,0.021935774013400078,1.809295415878296,5.800187110900879,-1.2257715463638306,-0.08,0.08,-0.01,274.86
1682339317.61950612,94818489,2,1.87,-1.9000000000000001,98.61,-0.25267717242240906,0.29558178782463074,0.015056246891617775,0.011105948127806187,1.7828125953674316,5.833463191986084,-1.2242276668548584,-0.08,0.08,-0.01,274.86
1682339317.71946502,94918448,2,1.79,-1.78,98.65,-0.2934144139289856,0.33276012539863586,0.018960116431117058,0.026002706959843636,1.7537496089935303,5.869986057281494,-1.222000002861023,-0.08,0.08,-0.01,274.86
1682339317.81943607,95018419,2,1.74,-1.57,98.68,-0.32715287804603577,0.3652493953704834,0.006900055333971977,0.018787933513522148,1.720680832862854,5.9149017333984375,-1.2195478677749634,-0.08,0.08,-0.01,274.86
1682339317.91942406,95118407,2,1.73,-1.32,98.71000000000001,-0.35850104689598083,0.40527617931365967,0.023923711851239204,0.035676226019859314,1.6845401525497437,5.964225769042969,-1.2174016237258911,-0.08,0.08,-0.01,274.86
1682339318.01943207,95218415,2,1.76,-1.21,98.74000000000001,-0.3825526833534241,0.4403995871543884,0.003028069855645299,0.005563317332416773,1.647573709487915,6.013704299926758,-1.2162036895751953,-0.08,0.08,-0.01,274.86
1682339318.11942410,95318407,2,1.78,-1.1300000000000001,98.8,-0.4147588312625885,0.45673638582229614,0.016761183738708496,0.002392025664448738,1.6100267171859741,6.063199996948242,-1.2162683010101318,-0.08,0.08,-0.01,274.86
1682339318.21942210,95418405,2,1.73,-1.07,98.83,-0.4357421100139618,0.49092260003089905,0.011061452329158783,-0.017842233180999756,1.5690683126449585,6.118037700653076,-1.217842698097229,-0.08,0.08,-0.01,274.86
1682339318.31949210,95518475,2,1.68,-1.23,98.87,-0.4655173122882843,0.5206041932106018,0.017141059041023254,-0.024988235905766487,1.52560293674469,6.175447463989258,-1.2204078435897827,-0.08,0.08,-0.01,274.86
1682339318.41951203,95618495,2,1.34,-1.55,98.92,-0.4905015528202057,0.5575587153434753,0.0019631062168627977,-0.03434745967388153,1.4792512655258179,6.2373433113098145,-1.2216860055923462,-0.08,0.08,-0.01,274.86
1682339318.51949906,95718482,2,1.02,-1.6300000000000001,98.96000000000001,-0.4966563582420349,0.5869604349136353,0.004274849314242601,-0.003921987488865852,1.4302805662155151,6.3044352531433105,-1.2208799123764038,-0.08,0.08,-0.01,274.86
1682339318.61945796,95818441,2,1.01,-1.52,99.01,-0.5240792036056519,0.6233526468276978,0.00155049585737288,0.01067002210766077,1.3824878931045532,6.373067378997803,-1.218490481376648,-0.08,0.08,-0.01,274.86
1682339318.71942711,95918410,2,0.97,-1.35,99.06,-0.5177996158599854,0.6593543887138367,0.016810443252325058,0.05185658484697342,1.337424874305725,6.444116592407227,-1.2139939069747925,-0.08,0.08,-0.01,274.86
1682339318.81943011,96018413,2,0.89,-1.07,99.12,-0.539889931678772,0.6881436109542847,0.028078654780983925,0.052506301552057266,1.2918452024459839,6.518915176391602,-1.2111736536026,-0.08,0.08,-0.01,274.86
1682339318.91943002,96118413,2,0.99,-0.8300000000000001,99.17,-0.5391682386398315,0.7084311842918396,0.02710031531751156,0.025064559653401375,1.2447482347488403,6.59558629989624,-1.2096601724624634,-0.08,0.08,-0.01,274.86
1682339319.01943398,96218417,2,1.03,-0.73,99.22,-0.5463000535964966,0.7308656573295593,0.03624207526445389,-0.011810260824859142,1.2014639377593994,6.671936988830566,-1.2133516073226929,-0.08,0.08,-0.01,274.86
1682339319.11943316,96318416,2,1.02,-0.61,99.27,-0.5453892946243286,0.7555453777313232,0.028457950800657272,-0.06625136733055115,1.1584967374801636,6.748055458068848,-1.218349814414978,-0.08,0.08,-0.01,274.86
1682339319.21946502,96418448,2,1.04,-0.72,99.42,-0.5658064484596252,0.7600853443145752,0.015203041955828667,-0.08795735239982605,1.113778829574585,6.826511383056641,-1.2246311902999878,-0.08,0.08,-0.01,274.86
1682339319.31954694,96518530,2,1.02,-0.79,99.64,-0.5671790242195129,0.7806434035301208,0.03494427353143692,-0.06945109367370605,1.0661125183105469,6.907138824462891,-1.2301318645477295,-0.08,0.08,-0.01,274.86
1682339319.41951203,96618495,2,0.9400000000000001,-0.73,99.89,-0.5838508009910583,0.7974997758865356,0.04343660920858383,-0.02626693993806839,1.0161689519882202,6.99002742767334,-1.2318509817123413,-0.08,0.08,-0.01,274.86
1682339319.51946402,96718447,2,0.72,-0.67,100.18,-0.5765719413757324,0.8200478553771973,0.03629106283187866,0.004948176443576813,0.9642665982246399,7.074397563934326,-1.2312451601028442,-0.08,0.08,-0.01,274.86
1682339319.61942911,96818412,2,0.23,-0.65,100.49000000000001,-0.5778797268867493,0.8404430747032166,0.0597381629049778,0.02390207163989544,0.911998987197876,7.163688659667969,-1.2323325872421265,-0.08,0.08,-0.01,274.86
1682339319.71943998,96918423,2,-0.51,-0.63,100.75,-0.5639593601226807,0.86481112241745,0.05237232893705368,0.002755272900685668,0.859715461730957,7.25543212890625,-1.2324644327163696,-0.08,0.08,-0.01,274.86
1682339319.81942415,97018407,2,-1.31,-0.61,100.99000000000001,-0.5441566109657288,0.891075849533081,0.038982924073934555,0.036983147263526917,0.8075005412101746,7.351378917694092,-1.2259891033172607,-0.08,0.08,-0.01,274.86
1682339319.91942406,97118407,2,-2.11,-0.61,101.23,-0.511033296585083,0.915733814239502,0.04575294628739357,0.09924028813838959,0.757034420967102,7.449573993682861,-1.2175085544586182,-0.08,0.08,-0.01,274.86
1682339320.01945305,97218436,2,-2.94,-0.59,101.43,-0.45411643385887146,0.9484685659408569,0.04118531197309494,0.10226275026798248,0.7161412835121155,7.550692558288574,-1.2078382968902588,-0.07,0.08,-0.01,274.86
1682339320.11946702,97318450,2,-3.7,-0.59,101.60000000000001,-0.39699453115463257,0.9834936261177063,0.03450719267129898,0.10246347635984421,0.6841424107551575,7.655261039733887,-1.1982574462890625,-0.07,0.08,-0.01,274.86
1682339320.21952701,97418510,2,-4.0600000000000005,-0.6,101.74000000000001,-0.32883843779563904,1.0195245742797852,0.04089255630970001,0.06956000626087189,0.6619245409965515,7.76319694519043,-1.1936296224594116,-0.07,0.08,-0.01,274.86
1682339320.31950498,97518488,2,-3.5500000000000003,-0.52,101.85000000000001,-0.2538236975669861,1.0490683317184448,0.036473944783210754,0.005341597832739353,0.6485834121704102,7.873443603515625,-1.1921318769454956,-0.07,0.08,-0.01,274.86
1682339320.41946316,97618446,2,-2.77,-0.27,101.92,-0.20877088606357574,1.0681613683700562,0.05375107005238533,0.03774433583021164,0.6372000575065613,7.985962867736816,-1.1867163181304932,-0.07,0.08,-0.01,274.86
1682339320.51942301,97718406,2,-1.99,-0.02,101.97,-0.15226079523563385,1.0904210805892944,0.04397197812795639,0.07148739695549011,0.6303943991661072,8.101398468017578,-1.178700566291809,-0.07,0.08,-0.01,274.86
1682339320.61943603,97818419,2,-1.29,-0.07,102.0,-0.11493725329637527,1.1057724952697754,0.05486278608441353,0.07351537048816681,0.6255154609680176,8.216012001037598,-1.1727291345596313,-0.07,0.08,-0.02,274.86
1682339320.71944213,97918425,2,-0.59,-0.19,102.01,-0.10299773514270782,1.1147353649139404,0.06368820369243622,0.05642145499587059,0.6215143203735352,8.329682350158691,-1.1680418252944946,-0.07,0.08,-0.02,274.86
1682339320.81942415,98018407,2,0.17,-0.2,102.01,-0.09931149333715439,1.126955509185791,0.07048170268535614,0.030936991795897484,0.6153542995452881,8.444602012634277,-1.1667444705963135,-0.07,0.08,-0.02,274.86
1682339320.91942906,98118412,2,0.79,-0.27,101.97,-0.10300197452306747,1.133965253829956,0.05111604183912277,-0.031112149357795715,0.6066965460777283,8.560697555541992,-1.1679496765136719,-0.07,0.08,-0.02,274.86
1682339321.01946998,98218453,2,1.36,-0.26,101.93,-0.12179934978485107,1.1390358209609985,0.06262876838445663,-0.01739320158958435,0.595139741897583,8.674203872680664,-1.1686195135116577,-0.07,0.08,-0.02,274.86
1682339321.11951208,98318495,2,1.58,-0.01,101.87,-0.13897500932216644,1.1387592554092407,0.06178523600101471,-0.007846103981137276,0.5799689888954163,8.786486625671387,-1.1683650016784668,-0.07,0.08,-0.02,274.86
1682339321.21950412,98418487,2,1.59,0.59,101.82000000000001,-0.16266177594661713,1.1327893733978271,0.06614565849304199,0.003574684029445052,0.5596988201141357,8.899269104003906,-1.1682857275009155,-0.07,0.08,-0.02,274.86
1682339321.31945801,98518441,2,1.59,1.46,101.76,-0.1840449422597885,1.114282250404358,0.05915706604719162,0.0008920168620534241,0.5359495282173157,9.01087760925293,-1.167420506477356,-0.07,0.08,-0.02,274.86
1682339321.41942906,98618412,2,1.53,2.23,101.71000000000001,-0.20880481600761414,1.0790843963623047,0.07326680421829224,0.036834944039583206,0.510535717010498,9.11968994140625,-1.1641267538070679,-0.07,0.08,-0.02,274.86
1682339321.51942301,98718406,2,1.3900000000000001,3.06,101.64,-0.22662779688835144,1.0291650295257568,0.07484789937734604,0.05780840292572975,0.4840114414691925,9.224303245544434,-1.1593462228775024,-0.07,0.08,-0.02,274.86
1682339321.61942697,98818410,2,1.3900000000000001,3.89,101.56,-0.23540718853473663,0.9778001308441162,0.0759810283780098,0.04071073234081268,0.4528375566005707,9.323614120483398,-1.1569560766220093,-0.07,0.08,-0.02,274.86
1682339321.71942997,98918413,2,1.53,4.67,101.49000000000001,-0.2728860378265381,0.8997383117675781,0.07819969952106476,0.026194950565695763,0.41953423619270325,9.416362762451172,-1.1543649435043335,-0.07,0.08,-0.02,274.86
1682339321.81943011,99018413,2,1.8,5.47,101.43,-0.275219202041626,0.8148281574249268,0.09119128435850143,0.06351523846387863,0.37973085045814514,9.494163513183594,-1.1486494541168213,-0.07,0.08,-0.02,274.86
1682339321.91947603,99118459,2,1.85,6.22,101.37,-0.2977094054222107,0.7114183306694031,0.07821311801671982,0.06984807550907135,0.33803895115852356,9.559589385986328,-1.1419519186019897,-0.07,0.08,-0.03,274.86
1682339322.01952100,99218504,2,1.6400000000000001,6.12,101.28,-0.31330958008766174,0.630924642086029,0.08316343277692795,0.07348109781742096,0.2954077124595642,9.616288185119629,-1.135095477104187,-0.08,0.08,-0.03,274.86
1682339322.11950111,99318484,2,1.52,4.64,101.15,-0.3278872072696686,0.543899416923523,0.07222523540258408,0.06680681556463242,0.25055190920829773,9.663887977600098,-1.1273154020309448,-0.08,0.08,-0.03,274.86
1682339322.21945715,99418440,2,1.4000000000000001,2.98,101.05,-0.3479621112346649,0.47303763031959534,0.10037636756896973,0.043096911162137985,0.20092210173606873,9.70455265045166,-1.1260812282562256,-0.08,0.08,-0.03,274.86
1682339322.31942701,99518410,2,0.99,1.56,100.97,-0.35416093468666077,0.4307088851928711,0.07818939536809921,-0.027862844988703728,0.15055637061595917,9.741267204284668,-1.1264082193374634,-0.08,0.08,-0.03,274.86
1682339322.41943097,99618414,2,0.56,0.15,100.93,-0.38264304399490356,0.42370522022247314,0.09021994471549988,-0.010858974419534206,0.10047361254692078,9.77924633026123,-1.1264227628707886,-0.08,0.08,-0.03,274.86
1682339322.51942706,99718410,2,0.2,-0.5700000000000001,100.93,-0.36800891160964966,0.42256566882133484,0.07324758917093277,-0.03028653934597969,0.05012071132659912,9.820115089416504,-1.1275731325149536,-0.08,0.08,-0.03,274.86
1682339322.61942506,99818408,2,-0.51,-0.37,100.96000000000001,-0.3721454441547394,0.4363216161727905,0.08976765722036362,0.01734885759651661,0.0007590972236357629,9.864829063415527,-1.125792384147644,-0.08,0.08,-0.03,274.86
1682339322.71942616,99918409,2,-1.4000000000000001,0.29,100.99000000000001,-0.34267568588256836,0.45299476385116577,0.07979688048362732,0.0555378720164299,-0.04794882982969284,9.91488265991211,-1.1204551458358765,-0.08,0.08,-0.03,274.86
1682339322.81948209,100018465,2,-2.2,1.1400000000000001,101.04,-0.32310548424720764,0.45270201563835144,0.07751583307981491,0.07581775635480881,-0.09848890453577042,9.962577819824219,-1.1133122444152832,-0.08,0.08,-0.03,274.86
1682339322.91952205,100118505,2,-3.0,2.02,101.07000000000001,-0.28031107783317566,0.44421008229255676,0.07392463088035583,0.08534754067659378,-0.14536602795124054,10.009220123291016,-1.1053541898727417,-0.08,0.08,-0.03,274.86
1682339323.01950312,100218486,2,-3.5700000000000003,2.86,101.11,-0.22877804934978485,0.4309326708316803,0.0810597762465477,0.09511249512434006,-0.18608123064041138,10.053215980529785,-1.0962934494018555,-0.08,0.08,-0.03,274.86
1682339323.11945510,100318438,2,-3.47,3.64,101.19,-0.1749725043773651,0.39670127630233765,0.07772185653448105,0.1072426289319992,-0.22171922028064728,10.092778205871582,-1.086560606956482,-0.08,0.08,-0.03,274.86
1682339323.21942210,100418405,2,-2.87,3.74,101.32000000000001,-0.1285412311553955,0.365505576133728,0.06694421917200089,0.0890815481543541,-0.24701733887195587,10.126941680908203,-1.077628493309021,-0.08,0.08,-0.03,274.86
1682339323.31942701,100518410,2,-2.2,3.04,101.47,-0.06493837386369705,0.32248181104660034,0.07530038803815842,0.0969904214143753,-0.26318225264549255,10.157265663146973,-1.0684566497802734,-0.08,0.08,-0.03,274.86
1682339323.41942811,100618411,2,-1.47,2.31,101.61,-0.03972475230693817,0.2849509119987488,0.06608769297599792,0.0548735149204731,-0.2763863801956177,10.181885719299316,-1.0640053749084473,-0.08,0.08,-0.03,274.86
1682339323.51942396,100718407,2,-0.8200000000000001,1.5,101.73,-0.006035882513970137,0.2755211293697357,0.06478381156921387,0.023132124915719032,-0.2859025299549103,10.203713417053223,-1.06047523021698,-0.08,0.08,-0.03,274.86
1682339323.61942816,100818411,2,-0.18,0.59,101.83,0.01058624405413866,0.26534390449523926,0.05544226989150047,0.019616520032286644,-0.295104444026947,10.225266456604004,-1.0570982694625854,-0.08,0.08,-0.03,274.86
1682339323.71948409,100918467,2,0.26,0.04,101.91,-0.0010266158496960998,0.25703930854797363,0.06202327087521553,0.01786184124648571,-0.30664101243019104,10.246685981750488,-1.0554522275924683,-0.08,0.08,-0.03,274.86
1682339323.81951904,101018502,2,0.35000000000000003,0.02,101.98,-0.017744489014148712,0.2606680393218994,0.05707279592752457,0.018707649782299995,-0.3201105296611786,10.268425941467285,-1.0530016422271729,-0.09,0.08,-0.03,274.86
1682339323.91950512,101118488,2,0.31,-0.02,102.01,-0.022814759984612465,0.26800528168678284,0.0488206185400486,0.032007135450839996,-0.33851125836372375,10.290607452392578,-1.0488953590393066,-0.09,0.08,-0.03,274.86
1682339324.01946616,101218449,2,0.16,0.05,102.06,-0.018204184249043465,0.2740153968334198,0.07022979110479355,0.05162937194108963,-0.3566330671310425,10.313650131225586,-1.0456593036651611,-0.09,0.08,-0.03,274.86
1682339324.11942911,101318412,2,-0.04,0.45,102.10000000000001,-0.03913958743214607,0.2711220383644104,0.04688780754804611,0.014025278389453888,-0.3759756088256836,10.336664199829102,-1.043304443359375,-0.09,0.08,-0.03,274.86
1682339324.21942902,101418412,2,-0.22,1.08,102.12,-0.04369882866740227,0.2665250301361084,0.03929312527179718,-0.005468600895255804,-0.3958931863307953,10.359660148620605,-1.0421407222747803,-0.09,0.08,-0.03,274.86
1682339324.31943202,101518415,2,-0.36,1.26,102.13,-0.03199191763997078,0.2728433310985565,0.05659608915448189,0.0046059731394052505,-0.4137611389160156,10.38304615020752,-1.0410701036453247,-0.09,0.08,-0.03,274.86
1682339324.41942215,101618405,2,-0.36,0.85,102.14,-0.02716652676463127,0.26706933975219727,0.051124460995197296,0.011941141448915005,-0.43031251430511475,10.406145095825195,-1.0384353399276733,-0.09,0.08,-0.03,274.86
1682339324.51942301,101718406,2,-0.35000000000000003,0.48,102.14,-0.03643243387341499,0.25691473484039307,0.05304688960313797,0.022485977038741112,-0.44694221019744873,10.428093910217285,-1.0358580350875854,-0.09,0.08,-0.03,274.86
1682339324.61947894,101818462,2,-0.4,0.15,102.14,-0.03784140571951866,0.2657564580440521,0.06296039372682571,0.0221850648522377,-0.4634256660938263,10.451190948486328,-1.034990906715393,-0.09,0.08,-0.03,274.86
1682339324.71952105,101918504,2,-0.33,-0.3,102.12,-0.03865617886185646,0.2780941128730774,0.046831585466861725,-0.007954427041113377,-0.47810617089271545,10.476709365844727,-1.034211277961731,-0.09,0.08,-0.03,274.86
1682339324.81946611,102018449,2,-0.23,-0.71,102.09,-0.0314670205116272,0.29907506704330444,0.05947623401880264,0.01706956885755062,-0.4943958818912506,10.502717018127441,-1.0318796634674072,-0.09,0.08,-0.03,274.86
1682339324.91946101,102118444,2,-0.19,-1.04,102.07000000000001,-0.033268239349126816,0.3195784091949463,0.045472461730241776,0.020007194951176643,-0.5098466873168945,10.530801773071289,-1.029157280921936,-0.09,0.08,-0.03,274.86
1682339325.01942706,102218410,2,-0.17,-0.49,102.03,-0.052215851843357086,0.3276965320110321,0.04895099252462387,0.017632998526096344,-0.5276311039924622,10.561896324157715,-1.0282626152038574,-0.09,0.08,-0.03,274.86
1682339325.11943793,102318421,2,-0.17,0.4,101.99000000000001,-0.045284271240234375,0.3407942056655884,0.039708591997623444,-0.0021491425577551126,-0.5445326566696167,10.59487533569336,-1.0276083946228027,-0.09,0.08,-0.04,274.86
1682339325.21943116,102418414,2,-0.16,1.23,101.95,-0.034085292369127274,0.3365602195262909,0.03887498006224632,-0.0017091190675273538,-0.5608353018760681,10.626460075378418,-1.0269908905029297,-0.09,0.08,-0.04,274.86
1682339325.31942606,102518409,2,-0.16,2.1,101.91,-0.03640430420637131,0.31914836168289185,0.041568394750356674,-0.01589791290462017,-0.5747174024581909,10.656465530395508,-1.029534101486206,-0.09,0.08,-0.04,274.86
1682339325.41943502,102618418,2,-0.14,2.92,101.87,-0.03632550686597824,0.28421178460121155,0.030669154599308968,-0.06493721157312393,-0.5881032943725586,10.68410587310791,-1.0347176790237427,-0.09,0.08,-0.04,274.86
