timestamp,TimeUS,DesRoll,Roll,DesPitch,Pitch,DesYaw,Yaw,ErrRP,ErrYaw,AEKF
10.49457600,10494576,0.0,-0.17,0.0,0.14,0.0,0.0,1.0,1.0,0
10.59430700,10594307,0.0,-0.18,0.0,0.15,137.96,137.96,1.0,0.8,0
10.69439800,10694398,0.0,-0.17,0.0,0.14,137.91,137.91,0.8,0.64,0
10.79438100,10794381,0.0,-0.15,0.0,0.12,136.48,136.48,0.8,0.5700000000000001,0
10.89440500,10894405,0.0,-0.17,0.0,0.14,135.07,135.07,0.64,0.51,0
10.99441200,10994412,0.0,-0.18,0.0,0.16,133.8,133.8,0.64,0.46,0
11.09444500,11094445,0.0,-0.17,0.0,0.18,132.59,132.59,0.51,0.42,0
11.19438600,11194386,0.0,-0.16,0.0,0.19,131.53,131.53,0.51,0.38,0
11.29427300,11294273,0.0,-0.14,0.0,0.21,131.9,131.9,0.41000000000000003,0.32,0
11.39426500,11394265,0.0,-0.11,0.0,0.22,132.44,132.44,0.41000000000000003,0.28,0
11.49441600,11494416,0.0,-0.09,0.0,0.22,132.95,132.95,0.32,0.24,0
11.59450800,11594508,0.0,-0.08,0.0,0.22,133.39000000000001,133.39000000000001,0.32,0.21,0
11.69449900,11694499,0.0,-0.07,0.0,0.23,133.81,133.81,0.26,0.18,0
11.79451400,11794514,0.0,-0.06,0.0,0.23,134.23,134.23,0.26,0.16,0
11.89454100,11894541,0.0,-0.05,0.0,0.24,134.59,134.59,0.21,0.14,0
11.99454400,11994544,0.0,-0.05,0.0,0.24,134.89000000000001,134.89000000000001,0.21,0.13,0
12.09455900,12094559,0.0,-0.04,0.0,0.23,135.23,135.23,0.16,0.11,0
12.19444300,12194443,0.0,-0.04,0.0,0.23,135.53,135.53,0.16,0.1,0
12.29437000,12294370,0.0,-0.03,0.0,0.23,135.78,135.78,0.13,0.09,0
12.39441800,12394418,0.0,-0.04,0.0,0.23,136.01,136.01,0.13,0.08,0
12.49454000,12494540,-0.14,-0.31,0.02,0.28,359.99,0.0,0.1,0.07,3
12.59473100,12594731,-0.07,-0.3,0.01,0.28,359.99,0.0,0.1,0.07,3
12.69480200,12694802,-0.03,-0.3,0.0,0.28,359.99,0.0,0.08,0.06,3
12.79458200,12794582,-0.01,-0.3,0.0,0.29,359.99,0.0,0.08,0.06,3
12.89461300,12894613,-0.01,-0.3,0.0,0.29,359.99,0.0,0.06,0.05,3
12.99464200,12994642,0.0,-0.3,0.0,0.29,359.99,0.0,0.06,0.05,3
13.09450200,13094502,0.0,-0.29,0.0,0.29,359.99,0.0,0.05,0.04,3
13.19441300,13194413,0.0,-0.29,0.0,0.3,0.0,0.0,0.05,0.04,3
13.29443500,13294435,0.0,-0.29,0.0,0.3,359.99,0.0,0.04,0.03,3
13.39452700,13394527,0.0,-0.29,0.0,0.29,359.99,0.0,0.04,0.03,3
13.49453300,13494533,0.0,-0.29,0.0,0.29,359.99,0.0,0.03,0.02,3
13.59461400,13594614,0.0,-0.28,0.0,0.29,359.99,0.0,0.03,0.02,3
13.69459000,13694590,0.0,-0.27,0.0,0.29,359.99,0.0,0.02,0.02,3
13.79459200,13794592,0.0,-0.26,0.0,0.29,359.98,359.99,0.02,0.02,3
13.89464300,13894643,0.0,-0.25,0.0,0.29,359.98,359.99,0.02,0.02,3
13.99450000,13994500,0.0,-0.26,0.0,0.29,138.73,138.73,0.02,0.02,3
14.09442500,14094425,0.0,-0.25,0.0,0.29,138.76,138.76,0.01,0.02,3
14.19443800,14194438,0.0,-0.25,0.0,0.29,138.76,138.76,0.01,0.01,3
14.29452800,14294528,0.0,-0.24,0.0,0.28,138.73,138.73,0.01,0.01,3
14.39456700,14394567,0.0,-0.24,0.0,0.28,138.69,138.69,0.01,0.01,3
14.49457300,14494573,0.0,-0.24,0.0,0.28,138.66,138.66,0.01,0.01,3
14.59458300,14594583,0.0,-0.23,0.0,0.28,138.66,138.66,0.01,0.01,3
14.69482400,14694824,0.0,-0.23,0.0,0.28,138.71,138.71,0.0,0.01,3
14.79485700,14794857,0.0,-0.23,0.0,0.28,138.75,138.75,0.0,0.01,3
14.89451700,14894517,0.0,-0.22,0.0,0.28,138.79,138.79,0.0,0.01,3
14.99444600,14994446,0.0,-0.22,0.0,0.28,138.82,138.82,0.0,0.01,3
15.09450600,15094506,0.0,-0.22,0.0,0.28,138.84,138.84,0.0,0.01,3
15.19451000,15194510,0.0,-0.22,0.0,0.28,138.85,138.85,0.0,0.01,3
15.29476800,15294768,0.0,-0.21,0.0,0.28,138.86,138.86,0.0,0.0,3
15.39480300,15394803,0.0,-0.21,0.0,0.28,138.87,138.87,0.0,0.0,3
15.49481800,15494818,0.0,-0.2,0.0,0.29,138.87,138.87,0.0,0.0,3
15.59482100,15594821,0.0,-0.21,0.0,0.29,138.86,138.86,0.0,0.0,3
15.69466200,15694662,0.0,-0.2,0.0,0.29,138.85,138.85,0.0,0.0,3
15.79453100,15794531,0.0,-0.2,0.0,0.29,138.81,138.81,0.0,0.0,3
15.89442200,15894422,0.0,-0.2,0.0,0.3,138.79,138.79,0.0,0.0,3
15.99446600,15994466,0.0,-0.2,0.0,0.3,138.76,138.76,0.0,0.0,3
16.09455100,16094551,0.0,-0.2,0.0,0.3,138.75,138.75,0.0,0.0,3
16.19454700,16194547,0.0,-0.2,0.0,0.31,138.73,138.73,0.0,0.0,3
16.29458700,16294587,0.0,-0.2,0.0,0.31,138.71,138.71,0.0,0.0,3
16.39485300,16394853,0.0,-0.19,0.0,0.31,138.70000000000002,138.70000000000002,0.0,0.0,3
16.49482600,16494826,0.0,-0.19,0.0,0.31,138.69,138.69,0.0,0.0,3
16.59465800,16594658,0.0,-0.19,0.0,0.31,138.70000000000002,138.70000000000002,0.0,0.0,3
16.69480300,16694803,0.0,-0.19,0.0,0.32,138.70000000000002,138.70000000000002,0.0,0.01,3
16.79465900,16794659,0.0,-0.19,0.0,0.32,138.71,138.71,0.0,0.0,3
16.89472500,16894725,0.0,-0.19,0.0,0.32,138.72,138.72,0.0,0.0,3
16.99478300,16994783,0.0,-0.19,0.0,0.32,138.73,138.73,0.0,0.0,3
17.09474400,17094744,0.0,-0.19,0.0,0.32,138.74,138.74,0.0,0.0,3
17.19475200,17194752,0.0,-0.19,0.0,0.32,138.73,138.73,0.0,0.0,3
17.29480400,17294804,0.0,-0.19,0.0,0.32,138.73,138.73,0.0,0.0,3
17.39483400,17394834,0.0,-0.19,0.0,0.32,138.74,138.74,0.0,0.0,3
17.49485400,17494854,0.0,-0.19,0.0,0.32,138.75,138.75,0.0,0.0,3
17.59499600,17594996,0.0,-0.19,0.0,0.32,138.76,138.76,0.0,0.0,3
17.69466000,17694660,0.0,-0.19,0.0,0.33,138.78,138.78,0.0,0.0,3
17.79477100,17794771,0.0,-0.19,0.0,0.33,138.79,138.79,0.0,0.0,3
17.89476900,17894769,0.0,-0.19,0.0,0.33,138.79,138.79,0.0,0.0,3
17.99471300,17994713,0.0,-0.19,0.0,0.34,138.78,138.78,0.0,0.0,3
18.09479100,18094791,0.0,-0.19,0.0,0.33,138.79,138.79,0.0,0.0,3
18.19477700,18194777,0.0,-0.19,0.0,0.33,138.79,138.79,0.0,0.0,3
18.29481900,18294819,0.0,-0.19,0.0,0.34,138.8,138.8,0.0,0.0,3
18.39487000,18394870,0.0,-0.19,0.0,0.34,138.81,138.81,0.0,0.0,3
18.49500200,18495002,0.0,-0.2,0.0,0.34,138.82,138.82,0.0,0.0,3
18.59468000,18594680,0.0,-0.19,0.0,0.34,138.83,138.83,0.0,0.0,3
18.69450000,18694500,0.0,-0.19,0.0,0.34,138.83,138.83,0.0,0.0,3
18.79450400,18794504,0.0,-0.19,0.0,0.34,138.82,138.82,0.0,0.0,3
18.89453100,18894531,0.0,-0.19,0.0,0.34,138.8,138.8,0.0,0.0,3
18.99454800,18994548,0.0,-0.19,0.0,0.34,138.79,138.79,0.0,0.0,3
19.09460300,19094603,0.0,-0.19,0.0,0.34,138.78,138.78,0.0,0.0,3
19.19460100,19194601,0.0,-0.19,0.0,0.34,138.76,138.76,0.0,0.0,3
19.29471100,19294711,0.0,-0.19,0.0,0.34,138.75,138.75,0.0,0.0,3
19.39453500,19394535,0.0,-0.19,0.0,0.34,138.75,138.75,0.0,0.0,3
19.49471300,19494713,0.0,-0.19,0.0,0.35000000000000003,138.75,138.75,0.0,0.0,3
19.59475300,19594753,0.0,-0.19,0.0,0.35000000000000003,138.75,138.75,0.0,0.0,3
19.69482200,19694822,0.0,-0.19,0.0,0.35000000000000003,138.76,138.76,0.0,0.0,3
19.79453600,19794536,0.0,-0.19,0.0,0.35000000000000003,138.77,138.77,0.0,0.0,3
19.89464300,19894643,0.0,-0.19,0.0,0.35000000000000003,138.77,138.77,0.0,0.0,3
19.99459300,19994593,0.0,-0.19,0.0,0.36,138.76,138.76,0.0,0.0,3
20.09460800,20094608,0.0,-0.19,0.0,0.36,138.76,138.76,0.0,0.0,3
20.19464600,20194646,0.0,-0.19,0.0,0.36,138.75,138.75,0.0,0.0,3
20.29453200,20294532,0.0,-0.19,0.0,0.36,138.73,138.73,0.0,0.0,3
20.39444800,20394448,0.0,-0.19,0.0,0.37,138.72,138.72,0.0,0.0,3
20.49450600,20494506,0.0,-0.19,0.0,0.37,138.72,138.72,0.0,0.0,3
20.59456000,20594560,0.0,-0.19,0.0,0.37,138.72,138.72,0.0,0.0,3
20.69477600,20694776,0.0,-0.18,0.0,0.37,138.72,138.72,0.0,0.0,3
20.79455500,20794555,0.0,-0.18,0.0,0.38,138.72,138.72,0.0,0.0,3
20.89459500,20894595,0.0,-0.17,0.0,0.38,138.72,138.72,0.0,0.0,3
20.99461500,20994615,0.0,-0.17,0.0,0.38,138.71,138.71,0.0,0.0,3
21.09467100,21094671,0.0,-0.17,0.0,0.38,138.70000000000002,138.70000000000002,0.0,0.0,3
21.19452800,21194528,0.0,-0.16,0.0,0.38,138.69,138.69,0.0,0.0,3
21.29467700,21294677,0.0,-0.16,0.0,0.39,138.68,138.68,0.0,0.0,3
21.39510500,21395105,0.0,-0.15,0.0,0.39,138.67000000000002,138.67000000000002,0.0,0.0,3
21.49481400,21494814,0.0,-0.15,0.0,0.39,138.66,138.66,0.0,0.0,3
21.59452100,21594521,0.0,-0.15,0.0,0.39,138.65,138.65,0.0,0.0,3
21.69456600,21694566,0.0,-0.14,0.0,0.39,138.65,138.65,0.0,0.0,3
21.79457400,21794574,0.0,-0.14,0.0,0.39,138.65,138.65,0.0,0.0,3
21.89459100,21894591,0.0,-0.14,0.0,0.39,138.64000000000001,138.64000000000001,0.0,0.0,3
21.99471100,21994711,0.0,-0.13,0.0,0.39,138.63,138.63,0.0,0.0,3
22.09453800,22094538,0.0,-0.13,0.0,0.39,138.62,138.62,0.0,0.0,3
22.19441500,22194415,0.0,-0.12,0.0,0.39,138.63,138.63,0.0,0.0,3
22.29449000,22294490,0.0,-0.12,0.0,0.38,138.62,138.62,0.0,0.0,3
22.39453600,22394536,0.0,-0.11,0.0,0.38,138.6,138.6,0.0,0.01,3
22.49454000,22494540,0.0,-0.11,0.0,0.38,138.58,138.58,0.0,0.0,3
22.59454600,22594546,0.0,-0.11,0.0,0.38,138.56,138.56,0.0,0.0,3
22.69481200,22694812,0.0,-0.1,0.0,0.38,138.54,138.54,0.0,0.0,3
22.79481000,22794810,0.0,-0.1,0.0,0.38,138.51,138.51,0.0,0.0,3
22.89464400,22894644,0.0,-0.1,0.0,0.38,138.49,138.49,0.0,0.0,3
22.99451000,22994510,0.0,-0.1,0.0,0.39,138.48,138.48,0.0,0.0,3
23.09442500,23094425,0.0,-0.09,0.0,0.39,138.48,138.48,0.0,0.0,3
23.19443700,23194437,0.0,-0.09,0.0,0.39,138.48,138.48,0.0,0.0,3
23.29454300,23294543,0.0,-0.09,0.0,0.39,138.49,138.49,0.0,0.0,3
23.39479800,23394798,0.0,-0.09,0.0,0.39,138.5,138.5,0.0,0.0,3
23.49478800,23494788,0.0,-0.09,0.0,0.39,138.51,138.51,0.0,0.0,3
23.59457100,23594571,0.0,-0.09,0.0,0.39,138.52,138.52,0.0,0.0,3
23.69460900,23694609,0.0,-0.08,0.0,0.39,138.54,138.54,0.0,0.0,3
23.79464400,23794644,0.0,-0.08,0.0,0.39,138.54,138.54,0.0,0.01,3
23.89453700,23894537,0.0,-0.09,0.0,0.39,138.55,138.55,0.0,0.0,3
23.99466200,23994662,0.0,-0.08,0.0,0.39,138.57,138.57,0.0,0.0,3
24.09515000,24095150,0.0,-0.08,0.0,0.38,138.57,138.57,0.0,0.0,3
24.19483100,24194831,0.0,-0.08,0.0,0.38,138.58,138.58,0.0,0.0,3
24.29454400,24294544,0.0,-0.08,0.0,0.37,138.57,138.57,0.0,0.0,3
24.39459000,24394590,0.0,-0.08,0.0,0.37,138.56,138.56,0.0,0.0,3
24.49460500,24494605,0.0,-0.08,0.0,0.37,138.56,138.56,0.0,0.0,3
24.59460500,24594605,0.0,-0.07,0.0,0.37,138.55,138.55,0.0,0.0,3
24.69466500,24694665,0.0,-0.07,0.0,0.37,138.54,138.54,0.0,0.01,3
24.79482500,24794825,0.0,-0.07,0.0,0.36,138.53,138.53,0.0,0.0,3
24.89477300,24894773,0.0,-0.07,0.0,0.37,138.52,138.52,0.0,0.0,3
24.99445700,24994457,0.0,-0.07,0.0,0.37,138.51,138.51,0.0,0.0,3
25.09453600,25094536,0.0,-0.07,0.0,0.37,138.5,138.5,0.0,0.0,3
25.19452500,25194525,0.0,-0.07,0.0,0.37,138.49,138.49,0.0,0.0,3
25.29456600,25294566,0.0,-0.07,0.0,0.37,138.49,138.49,0.0,0.0,3
25.39460700,25394607,0.0,-0.07,0.0,0.37,138.49,138.49,0.0,0.0,3
25.49482600,25494826,0.0,-0.07,0.0,0.37,138.49,138.49,0.0,0.0,3
25.59486000,25594860,0.0,-0.06,0.0,0.37,138.5,138.5,0.0,0.0,3
25.69484400,25694844,0.0,-0.06,0.0,0.37,138.5,138.5,0.0,0.0,3
25.79477800,25794778,0.0,-0.06,0.0,0.37,138.5,138.5,0.0,0.0,3
25.89477300,25894773,0.0,-0.06,0.0,0.38,138.51,138.51,0.0,0.0,3
25.99480400,25994804,0.0,-0.06,0.0,0.38,138.51,138.51,0.0,0.0,3
26.09477400,26094774,0.0,-0.06,0.0,0.37,138.52,138.52,0.0,0.0,3
26.19486800,26194868,0.0,-0.05,0.0,0.38,138.52,138.52,0.0,0.0,3
26.29482100,26294821,0.0,-0.06,0.0,0.38,138.52,138.52,0.0,0.0,3
26.39502200,26395022,0.0,-0.05,0.0,0.38,138.52,138.52,0.0,0.0,3
26.49505200,26495052,0.0,-0.05,0.0,0.38,138.51,138.51,0.0,0.0,3
26.59477300,26594773,0.0,-0.05,0.0,0.38,138.5,138.5,0.0,0.0,3
26.69478300,26694783,0.0,-0.06,0.0,0.38,138.49,138.49,0.0,0.0,3
26.79476600,26794766,0.0,-0.06,0.0,0.38,138.48,138.48,0.0,0.0,3
26.89481700,26894817,0.0,-0.06,0.0,0.38,138.47,138.47,0.0,0.0,3
26.99477000,26994770,0.0,-0.05,0.0,0.38,138.46,138.46,0.0,0.0,3
27.09479300,27094793,0.0,-0.05,0.0,0.38,138.46,138.46,0.0,0.0,3
27.19481000,27194810,0.0,-0.05,0.0,0.38,138.47,138.47,0.0,0.01,3
27.29501600,27295016,0.0,-0.04,0.0,0.38,138.48,138.48,0.0,0.0,3
27.39506900,27395069,0.0,-0.04,0.0,0.38,138.5,138.5,0.0,0.01,3
27.49503500,27495035,0.0,-0.04,0.0,0.38,138.53,138.53,0.0,0.01,3
27.59467700,27594677,0.0,-0.04,0.0,0.38,138.55,138.55,0.0,0.01,3
27.69476100,27694761,0.0,-0.04,0.0,0.38,138.56,138.56,0.0,0.01,3
27.79480500,27794805,0.0,-0.04,0.0,0.37,138.56,138.56,0.0,0.0,3
27.89477500,27894775,0.0,-0.04,0.0,0.37,138.56,138.56,0.0,0.0,3
27.99480600,27994806,0.0,-0.04,0.0,0.37,138.56,138.56,0.0,0.0,3
28.09481300,28094813,0.0,-0.04,0.0,0.37,138.56,138.56,0.0,0.0,3
28.19482500,28194825,0.0,-0.04,0.0,0.37,138.56,138.56,0.0,0.0,3
28.29489900,28294899,0.0,-0.03,0.0,0.37,138.55,138.55,0.0,0.0,3
28.39486500,28394865,0.0,-0.03,0.0,0.36,138.54,138.54,0.0,0.0,3
28.49477200,28494772,0.0,-0.03,0.0,0.36,138.54,138.54,0.0,0.0,3
28.59505400,28595054,0.0,-0.03,0.0,0.37,138.53,138.53,0.0,0.0,3
28.69482500,28694825,0.0,-0.03,0.0,0.37,138.52,138.52,0.0,0.0,3
28.79476100,28794761,0.0,-0.03,0.0,0.36,138.51,138.51,0.0,0.0,3
28.89480000,28894800,0.0,-0.03,0.0,0.36,138.5,138.5,0.0,0.0,3
28.99481300,28994813,0.0,-0.03,0.0,0.36,138.5,138.5,0.0,0.0,3
29.09483500,29094835,0.0,-0.03,0.0,0.36,138.5,138.5,0.0,0.0,3
29.19485600,29194856,0.0,-0.03,0.0,0.36,138.5,138.5,0.0,0.0,3
29.29482100,29294821,0.0,-0.04,0.0,0.36,138.51,138.51,0.0,0.0,3
29.39478800,29394788,0.0,-0.04,0.0,0.37,138.51,138.51,0.0,0.0,3
29.49506800,29495068,0.0,-0.04,0.0,0.37,138.51,138.51,0.0,0.0,3
29.59480700,29594807,0.0,-0.04,0.0,0.36,138.5,138.5,0.0,0.0,3
29.69477400,29694774,0.0,-0.04,0.0,0.36,138.49,138.49,0.0,0.0,3
29.79480700,29794807,0.0,-0.04,0.0,0.36,138.48,138.48,0.0,0.0,3
29.89459300,29894593,0.0,-0.04,0.0,0.36,138.48,138.48,0.0,0.0,3
29.99460100,29994601,0.0,-0.03,0.0,0.36,138.47,138.47,0.0,0.0,3
30.09464600,30094646,0.0,-0.03,0.0,0.36,138.46,138.46,0.0,0.0,3
30.19449100,30194491,0.0,-0.03,0.0,0.36,138.45000000000002,138.45000000000002,0.0,0.0,3
30.29441700,30294417,0.0,-0.03,0.0,0.36,138.45000000000002,138.45000000000002,0.0,0.0,3
30.39456100,30394561,0.0,-0.03,0.0,0.36,138.45000000000002,138.45000000000002,0.0,0.0,3
30.49452200,30494522,0.0,-0.03,0.0,0.36,138.46,138.46,0.0,0.0,3
30.59454400,30594544,0.0,-0.03,0.0,0.37,138.45000000000002,138.45000000000002,0.0,0.0,3
30.69478500,30694785,0.0,-0.03,0.0,0.37,138.44,138.44,0.0,0.0,3
30.79480000,30794800,0.0,-0.03,0.0,0.37,138.44,138.44,0.0,0.0,3
30.89479100,30894791,0.0,-0.03,0.0,0.37,138.43,138.43,0.0,0.0,3
30.99483000,30994830,0.0,-0.03,0.0,0.37,138.42000000000002,138.42000000000002,0.0,0.0,3
31.09499400,31094994,0.0,-0.03,0.0,0.37,138.42000000000002,138.42000000000002,0.0,0.0,3
31.19467800,31194678,0.0,-0.03,0.0,0.37,138.41,138.41,0.0,0.0,3
31.29473900,31294739,0.0,-0.04,0.0,0.37,138.42000000000002,138.42000000000002,0.0,0.0,3
31.39482500,31394825,0.0,-0.03,0.0,0.37,138.42000000000002,138.42000000000002,0.0,0.0,3
31.49453700,31494537,0.0,-0.03,0.0,0.37,138.43,138.43,0.0,0.0,3
31.59455300,31594553,0.0,-0.03,0.0,0.38,138.43,138.43,0.0,0.0,3
31.69458600,31694586,0.0,-0.04,0.0,0.37,138.43,138.43,0.0,0.0,3
31.79459700,31794597,0.0,-0.03,0.0,0.38,138.43,138.43,0.0,0.0,3
31.89462700,31894627,0.0,-0.03,0.0,0.38,138.42000000000002,138.42000000000002,0.0,0.0,3
31.99448500,31994485,0.0,-0.03,0.0,0.38,138.41,138.41,0.0,0.0,3
32.09441900,32094419,0.0,-0.04,0.0,0.39,138.4,138.4,0.0,0.0,3
32.19473000,32194730,0.0,-0.03,0.0,0.39,138.39000000000001,138.39000000000001,0.0,0.0,3
32.29481200,32294812,0.0,-0.04,0.0,0.39,138.39000000000001,138.39000000000001,0.0,0.0,3
32.39471500,32394715,0.0,-0.04,0.0,0.39,138.38,138.38,0.0,0.0,3
32.49462300,32494623,0.0,-0.04,0.0,0.39,138.38,138.38,0.0,0.0,3
32.59458100,32594581,0.0,-0.03,0.0,0.38,138.38,138.38,0.0,0.0,3
32.69459100,32694591,0.0,-0.03,0.0,0.39,138.38,138.38,0.0,0.0,3
32.79461800,32794618,0.0,-0.03,0.0,0.39,138.38,138.38,0.0,0.0,3
32.89480900,32894809,0.0,-0.03,0.0,0.39,138.37,138.37,0.0,0.0,3
32.99439100,32994391,0.0,-0.03,0.0,0.39,138.37,138.37,0.0,0.0,3
33.09448600,33094486,0.0,-0.03,0.0,0.39,138.37,138.37,0.0,0.0,3
33.19454600,33194546,0.0,-0.03,0.0,0.39,138.36,138.36,0.0,0.0,3
33.29454700,33294547,0.0,-0.03,0.0,0.39,138.36,138.36,0.0,0.0,3
33.39458300,33394583,0.0,-0.03,0.0,0.39,138.35,138.35,0.0,0.0,3
33.49461000,33494610,0.0,-0.03,0.0,0.39,138.35,138.35,0.0,0.0,3
33.59480600,33594806,0.0,-0.04,0.0,0.39,138.34,138.34,0.0,0.0,3
33.69486500,33694865,0.0,-0.04,0.0,0.39,138.34,138.34,0.0,0.0,3
33.79481500,33794815,0.0,-0.04,0.0,0.39,138.33,138.33,0.0,0.0,3
33.89440300,33894403,0.0,-0.03,0.0,0.39,138.33,138.33,0.0,0.0,3
33.99441600,33994416,0.0,-0.03,0.0,0.39,138.33,138.33,0.0,0.0,3
34.09451700,34094517,0.0,-0.03,0.0,0.39,138.33,138.33,0.0,0.0,3
34.19452200,34194522,0.0,-0.03,0.0,0.39,138.32,138.32,0.0,0.0,3
34.29456000,34294560,0.0,-0.03,0.0,0.39,138.31,138.31,0.0,0.0,3
34.39461400,34394614,0.0,-0.03,0.0,0.39,138.31,138.31,0.0,0.0,3
34.49461100,34494611,0.0,-0.03,0.0,0.4,138.31,138.31,0.0,0.0,3
34.59486700,34594867,0.0,-0.03,0.0,0.4,138.32,138.32,0.0,0.0,3
34.69477200,34694772,0.0,-0.03,0.0,0.4,138.32,138.32,0.0,0.0,3
34.79439500,34794395,0.0,-0.03,0.0,0.4,138.32,138.32,0.0,0.0,3
34.89449900,34894499,0.0,-0.03,0.0,0.41000000000000003,138.31,138.31,0.0,0.0,3
34.99452600,34994526,0.0,-0.03,0.0,0.41000000000000003,138.31,138.31,0.0,0.0,3
35.09453700,35094537,0.0,-0.02,0.0,0.41000000000000003,138.31,138.31,0.0,0.0,3
35.19455400,35194554,0.0,-0.02,0.0,0.41000000000000003,138.31,138.31,0.0,0.0,3
35.29458700,35294587,0.0,-0.02,0.0,0.41000000000000003,138.31,138.31,0.0,0.0,3
35.39461300,35394613,0.0,-0.02,0.0,0.41000000000000003,138.32,138.32,0.0,0.0,3
35.49463500,35494635,0.0,-0.02,0.0,0.41000000000000003,138.32,138.32,0.0,0.0,3
35.59448700,35594487,0.0,-0.02,0.0,0.41000000000000003,138.33,138.33,0.0,0.0,3
35.69441000,35694410,0.0,-0.02,0.0,0.41000000000000003,138.33,138.33,0.0,0.0,3
35.79473900,35794739,0.0,-0.02,0.0,0.41000000000000003,138.34,138.34,0.0,0.0,3
35.89479800,35894798,0.0,-0.02,0.0,0.41000000000000003,138.35,138.35,0.0,0.0,3
35.99453200,35994532,0.0,-0.02,0.0,0.41000000000000003,138.36,138.36,0.0,0.0,3
36.09456800,36094568,0.0,-0.03,0.0,0.41000000000000003,138.36,138.36,0.0,0.0,3
36.19458700,36194587,0.0,-0.02,0.0,0.41000000000000003,138.37,138.37,0.0,0.0,3
36.29458900,36294589,0.0,-0.02,0.0,0.41000000000000003,138.37,138.37,0.0,0.01,3
36.39485100,36394851,0.0,-0.02,0.0,0.41000000000000003,138.37,138.37,0.0,0.01,3
36.49471300,36494713,0.0,-0.02,0.0,0.4,138.36,138.36,0.0,0.0,3
36.59464000,36594640,0.0,-0.02,0.0,0.4,138.36,138.36,0.0,0.0,3
36.69505800,36695058,0.0,-0.02,0.0,0.4,138.35,138.35,0.0,0.0,3
36.79483200,36794832,0.0,-0.02,0.0,0.4,138.33,138.33,0.0,0.0,3
36.89477300,36894773,0.0,-0.01,0.0,0.4,138.33,138.33,0.0,0.0,3
36.99479800,36994798,0.0,-0.01,0.0,0.39,138.32,138.32,0.0,0.0,3
37.09459700,37094597,0.0,-0.01,0.0,0.39,138.32,138.32,0.0,0.0,3
37.19460600,37194606,0.0,-0.01,0.0,0.39,138.32,138.32,0.0,0.0,3
37.29466000,37294660,0.0,-0.01,0.0,0.39,138.33,138.33,0.0,0.0,3
37.39451400,37394514,0.0,-0.01,0.0,0.39,138.32,138.32,0.0,0.0,3
37.49441900,37494419,0.0,-0.01,0.0,0.38,138.32,138.32,0.0,0.0,3
37.59474900,37594749,0.0,-0.01,0.0,0.38,138.31,138.31,0.0,0.0,3
37.69480600,37694806,0.0,-0.01,0.0,0.38,138.3,138.3,0.0,0.0,3
37.79452100,37794521,0.0,-0.01,0.0,0.38,138.29,138.29,0.0,0.0,3
37.89456200,37894562,0.0,-0.01,0.0,0.38,138.29,138.29,0.0,0.0,3
37.99457800,37994578,0.0,-0.01,0.0,0.38,138.28,138.28,0.0,0.0,3
38.09460100,38094601,0.0,-0.01,0.0,0.38,138.28,138.28,0.0,0.0,3
38.19476400,38194764,0.0,-0.01,0.0,0.38,138.27,138.27,0.0,0.0,3
38.29450500,38294505,0.0,-0.01,0.0,0.37,138.27,138.27,0.0,0.0,3
38.39443700,38394437,0.0,-0.01,0.0,0.37,138.27,138.27,0.0,0.0,3
38.49448000,38494480,0.0,-0.01,0.0,0.37,138.27,138.27,0.0,0.0,3
38.59451000,38594510,0.0,-0.01,0.0,0.36,138.26,138.26,0.0,0.0,3
38.69475800,38694758,0.0,-0.01,0.0,0.36,138.26,138.26,0.0,0.0,3
38.79491300,38794913,0.0,-0.01,0.0,0.36,138.25,138.25,0.0,0.0,3
38.89457900,38894579,0.0,0.0,0.0,0.36,138.24,138.24,0.0,0.01,3
38.99458400,38994584,0.0,-0.01,0.0,0.35000000000000003,138.23,138.23,0.0,0.0,3
39.09464500,39094645,0.0,-0.01,0.0,0.35000000000000003,138.22,138.22,0.0,0.0,3
39.19449500,39194495,0.0,-0.01,0.0,0.35000000000000003,138.21,138.21,0.0,0.0,3
39.29442900,39294429,0.0,-0.01,0.0,0.36,138.20000000000002,138.20000000000002,0.0,0.0,3
39.39450600,39394506,0.0,-0.01,0.0,0.35000000000000003,138.20000000000002,138.20000000000002,0.0,0.0,3
39.49453500,39494535,0.0,-0.01,0.0,0.36,138.20000000000002,138.20000000000002,0.0,0.0,3
39.59454700,39594547,0.0,-0.01,0.0,0.36,138.21,138.21,0.0,0.0,3
39.69457800,39694578,0.0,0.0,0.0,0.36,138.21,138.21,0.0,0.0,3
39.79459600,39794596,0.0,0.0,0.0,0.36,138.21,138.21,0.0,0.0,3
39.89484000,39894840,0.0,0.0,0.0,0.36,138.22,138.22,0.0,0.0,3
39.99462400,39994624,1.16,0.0,0.0,0.36,138.22,138.22,0.0,0.0,3
40.09451300,40094513,3.72,0.0,0.0,0.36,138.21,138.21,0.0,0.0,3
40.19441300,40194413,3.36,0.0,0.0,0.36,138.20000000000002,138.20000000000002,0.0,0.0,3
40.29447300,40294473,1.72,0.0,0.0,0.36,138.20000000000002,138.20000000000002,0.0,0.0,3
40.39456300,40394563,0.88,0.0,0.0,0.36,138.20000000000002,138.20000000000002,0.0,0.0,3
40.49453600,40494536,0.45,0.0,0.0,0.36,138.20000000000002,138.20000000000002,0.0,0.0,3
40.59478600,40594786,0.22,0.0,0.0,0.36,138.20000000000002,138.20000000000002,0.0,0.0,3
40.69481700,40694817,0.11,0.01,0.0,0.36,138.20000000000002,138.20000000000002,0.0,0.0,3
40.79482100,40794821,0.05,0.01,0.0,0.36,138.20000000000002,138.20000000000002,0.0,0.0,3
40.89487300,40894873,0.03,0.01,0.0,0.36,138.20000000000002,138.20000000000002,0.0,0.0,3
40.99481300,40994813,0.01,0.01,0.0,0.35000000000000003,138.19,138.19,0.0,0.0,3
41.09468700,41094687,0.0,0.02,0.0,0.35000000000000003,138.19,138.19,0.0,0.0,3
41.19474200,41194742,0.0,0.02,0.0,0.35000000000000003,138.18,138.18,0.0,0.0,3
41.29481200,41294812,0.0,0.02,0.0,0.35000000000000003,138.18,138.18,0.0,0.0,3
41.39477200,41394772,0.0,0.02,0.0,0.35000000000000003,138.18,138.18,0.0,0.0,3
41.49478800,41494788,0.0,0.02,0.0,0.35000000000000003,138.18,138.18,0.0,0.0,3
41.59481100,41594811,0.0,0.02,0.0,0.35000000000000003,138.17000000000002,138.17000000000002,0.0,0.01,3
41.69500000,41695000,0.0,0.02,0.0,0.35000000000000003,138.17000000000002,138.17000000000002,0.0,0.01,3
41.79503800,41795038,0.0,0.02,0.0,0.35000000000000003,138.17000000000002,138.17000000000002,0.0,0.01,3
41.89500800,41895008,0.0,0.02,0.0,0.35000000000000003,138.17000000000002,138.17000000000002,0.0,0.01,3
41.99467300,41994673,0.0,0.02,0.0,0.35000000000000003,138.17000000000002,138.17000000000002,0.0,0.01,3
42.09475500,42094755,0.0,0.02,0.0,0.35000000000000003,138.17000000000002,138.17000000000002,0.0,0.01,3
42.19479300,42194793,0.0,0.02,0.0,0.35000000000000003,138.18,138.18,0.0,0.0,3
42.29477100,42294771,0.0,0.02,0.0,0.35000000000000003,138.18,138.18,0.0,0.01,3
42.39481300,42394813,0.0,0.02,0.0,0.35000000000000003,138.19,138.19,0.0,0.01,3
42.49481700,42494817,0.0,0.02,0.0,0.35000000000000003,138.19,138.19,0.0,0.01,3
42.59483300,42594833,0.0,0.02,0.0,0.35000000000000003,138.18,138.18,0.0,0.0,3
42.69486800,42694868,0.0,0.02,0.0,0.35000000000000003,138.18,138.18,0.0,0.0,3
42.79500900,42795009,0.0,0.02,0.0,0.35000000000000003,138.18,138.18,0.0,0.0,3
42.89440100,42894401,0.0,0.02,0.0,0.35000000000000003,138.17000000000002,138.17000000000002,0.0,0.0,3
42.99455200,42994552,0.0,0.03,0.0,0.36,138.17000000000002,138.17000000000002,0.0,0.0,3
43.09454100,43094541,0.0,0.03,0.0,0.36,138.17000000000002,138.17000000000002,0.0,0.0,3
43.19452200,43194522,0.0,0.03,0.0,0.35000000000000003,138.16,138.16,0.0,0.0,3
43.29456700,43294567,0.0,0.03,0.0,0.36,138.16,138.16,0.0,0.0,3
43.39460100,43394601,0.0,0.03,0.0,0.36,138.16,138.16,0.0,0.0,3
43.49481500,43494815,0.0,0.03,0.0,0.36,138.16,138.16,0.0,0.0,3
43.59484700,43594847,0.0,0.03,0.0,0.35000000000000003,138.16,138.16,0.0,0.0,3
43.69481400,43694814,0.0,0.03,0.0,0.35000000000000003,138.15,138.15,0.0,0.0,3
43.79440200,43794402,0.0,0.02,0.0,0.35000000000000003,138.15,138.15,0.0,0.0,3
43.89446200,43894462,0.0,0.02,0.0,0.35000000000000003,138.15,138.15,0.0,0.0,3
43.99451900,43994519,0.0,0.02,0.0,0.36,138.14000000000001,138.14000000000001,0.0,0.0,3
44.09455200,44094552,0.0,0.02,0.0,0.36,138.14000000000001,138.14000000000001,0.0,0.0,3
44.19455100,44194551,0.0,0.02,0.0,0.36,138.14000000000001,138.14000000000001,0.0,0.0,3
44.29459100,44294591,0.0,0.03,0.0,0.36,138.14000000000001,138.14000000000001,0.0,0.0,3
44.39483800,44394838,0.0,0.03,0.0,0.36,138.14000000000001,138.14000000000001,0.0,0.0,3
44.49463000,44494630,0.0,0.03,0.0,0.36,138.13,138.13,0.0,0.0,3
44.59448900,44594489,0.0,0.02,0.0,0.36,138.12,138.12,0.0,0.0,3
44.69441400,44694414,0.0,0.02,0.0,0.36,138.12,138.12,0.0,0.0,3
44.79448300,44794483,0.0,0.02,0.0,0.37,138.11,138.11,0.0,0.0,3
44.89453700,44894537,0.0,0.03,0.0,0.36,138.11,138.11,0.0,0.0,3
44.99453500,44994535,0.0,0.03,0.0,0.36,138.1,138.1,0.0,0.0,3
45.09462900,45094629,0.0,0.03,0.0,0.36,138.09,138.09,0.0,0.0,3
45.19457900,45194579,0.0,0.04,0.0,0.37,138.09,138.09,0.0,0.0,3
45.29483300,45294833,0.0,0.04,0.0,0.36,138.08,138.08,0.0,0.0,3
45.39466300,45394663,0.0,0.04,0.0,0.36,138.08,138.08,0.0,0.0,3
45.49474700,45494747,0.0,0.04,0.0,0.36,138.07,138.07,0.0,0.01,3
45.59464000,45594640,0.0,0.04,0.0,0.36,138.06,138.06,0.0,0.0,3
45.69469900,45694699,0.0,0.04,0.0,0.36,138.05,138.05,0.0,0.0,3
45.79478900,45794789,0.0,0.04,0.0,0.36,138.05,138.05,0.0,0.01,3
45.89496400,45894964,0.0,0.04,0.0,0.37,138.04,138.04,0.0,0.01,3
45.99477800,45994778,0.0,0.04,0.0,0.37,138.04,138.04,0.0,0.0,3
46.09481300,46094813,0.0,0.05,0.0,0.37,138.03,138.03,0.0,0.0,3
46.19479500,46194795,0.0,0.04,0.0,0.37,138.03,138.03,0.0,0.0,3
46.29479600,46294796,0.0,0.04,0.0,0.37,138.02,138.02,0.0,0.0,3
46.39452500,46394525,0.0,0.04,0.0,0.37,138.02,138.02,0.0,0.0,3
46.49442000,46494420,0.0,0.03,0.0,0.37,138.02,138.02,0.0,0.0,3
46.59442900,46594429,0.0,0.03,0.0,0.37,138.01,138.01,0.0,0.01,3
46.69454600,46694546,0.0,0.03,0.0,0.36,138.01,138.01,0.0,0.0,3
46.79453000,46794530,0.0,0.03,0.0,0.36,138.01,138.01,0.0,0.0,3
46.89455700,46894557,0.0,0.03,0.0,0.36,138.02,138.02,0.0,0.0,3
46.99456800,46994568,0.0,0.03,0.0,0.36,138.01,138.01,0.0,0.0,3
47.09459900,47094599,0.0,0.03,0.0,0.36,138.02,138.02,0.0,0.0,3
47.19465300,47194653,0.0,0.03,0.0,0.36,138.01,138.01,0.0,0.0,3
47.29482900,47294829,0.0,0.03,0.0,0.36,138.01,138.01,0.0,0.0,3
47.39443800,47394438,0.0,0.03,0.0,0.36,138.01,138.01,0.0,0.0,3
47.49442600,47494426,0.0,0.03,0.0,0.36,138.01,138.01,0.0,0.0,3
47.59453400,47594534,0.0,0.03,0.0,0.35000000000000003,138.0,138.0,0.0,0.0,3
47.69453800,47694538,0.0,0.03,0.0,0.35000000000000003,138.0,138.0,0.0,0.0,3
47.79455600,47794556,0.0,0.03,0.0,0.35000000000000003,137.99,137.99,0.0,0.0,3
47.89458700,47894587,0.0,0.03,0.0,0.35000000000000003,137.99,137.99,0.0,0.0,3
47.99459500,47994595,0.0,0.04,0.0,0.34,137.98,137.98,0.0,0.0,3
48.09466500,48094665,0.0,0.04,0.0,0.34,137.99,137.99,0.0,0.0,3
48.19483700,48194837,0.0,0.04,0.0,0.34,137.99,137.99,0.0,0.0,3
48.29470400,48294704,0.0,0.03,0.0,0.34,137.99,137.99,0.0,0.0,3
48.39477900,48394779,0.0,0.03,0.0,0.34,137.98,137.98,0.0,0.0,3
48.49483600,48494836,0.0,0.03,0.0,0.33,137.98,137.98,0.0,0.0,3
48.59475900,48594759,0.0,0.03,0.0,0.33,137.98,137.98,0.0,0.0,3
48.69479600,48694796,0.0,0.03,0.0,0.33,137.98,137.98,0.0,0.0,3
48.79481000,48794810,0.0,0.03,0.0,0.33,137.98,137.98,0.0,0.0,3
48.89481800,48894818,0.0,0.03,0.0,0.32,137.98,137.98,0.0,0.0,3
48.99485600,48994856,0.0,0.03,0.0,0.32,137.97,137.97,0.0,0.0,3
49.09502000,49095020,0.0,0.03,0.0,0.33,137.97,137.97,0.0,0.0,3
49.19468100,49194681,0.0,0.03,0.0,0.33,137.97,137.97,0.0,0.0,3
49.29480900,49294809,0.0,0.03,0.0,0.33,137.97,137.97,0.0,0.0,3
49.39483200,49394832,0.0,0.03,0.0,0.32,137.96,137.96,0.0,0.01,3
49.49453800,49494538,0.0,0.04,0.0,0.32,137.95000000000002,137.95000000000002,0.0,0.01,3
49.59455800,49594558,0.0,0.04,0.0,0.32,137.95000000000002,137.95000000000002,0.0,0.01,3
49.69458300,49694583,0.0,0.04,0.0,0.32,137.94,137.94,0.0,0.01,3
49.79458000,49794580,0.0,0.04,0.0,0.32,137.93,137.93,0.0,0.01,3
49.89463100,49894631,0.0,0.04,0.0,0.32,137.92000000000002,137.92000000000002,0.0,0.01,3
49.99450200,49994502,0.0,0.04,0.0,0.32,137.91,137.91,0.0,0.01,3
50.09442500,50094425,0.0,0.04,0.0,0.32,137.9,137.9,0.0,0.01,3
50.19473800,50194738,0.0,0.04,0.0,0.31,137.9,137.9,0.0,0.01,3
50.29483300,50294833,0.0,0.04,0.0,0.31,137.89000000000001,137.89000000000001,0.0,0.01,3
50.39456600,50394566,0.0,0.04,0.0,0.31,137.89000000000001,137.89000000000001,0.0,0.01,3
50.49458100,50494581,0.0,0.03,0.0,0.31,137.88,137.88,0.0,0.01,3
50.59458500,50594585,0.0,0.03,0.0,0.31,137.87,137.87,0.0,0.01,3
50.69462200,50694622,0.0,0.03,0.0,0.31,137.86,137.86,0.0,0.01,3
50.79464600,50794646,0.0,0.02,0.0,0.31,137.85,137.85,0.0,0.01,3
50.89482300,50894823,0.0,0.02,0.0,0.31,137.84,137.84,0.0,0.01,3
50.99478300,50994783,0.0,0.02,0.0,0.3,137.84,137.84,0.0,0.01,3
51.09475800,51094758,0.0,0.02,0.0,0.31,137.83,137.83,0.0,0.01,3
51.19478900,51194789,0.0,0.02,0.0,0.31,137.83,137.83,0.0,0.01,3
51.29453500,51294535,0.0,0.02,0.0,0.31,137.82,137.82,0.0,0.01,3
51.39465200,51394652,0.0,0.02,0.0,0.31,137.81,137.81,0.0,0.01,3
51.49459600,51494596,0.0,0.01,0.0,0.3,137.81,137.81,0.0,0.0,3
51.59458700,51594587,0.0,0.01,0.0,0.3,137.8,137.8,0.0,0.0,3
51.69462700,51694627,0.0,0.01,0.0,0.29,137.79,137.79,0.0,0.0,3
51.79449700,51794497,0.0,0.01,0.0,0.3,137.79,137.79,0.0,0.0,3
51.89441000,51894410,0.0,0.0,0.0,0.29,137.79,137.79,0.0,0.0,3
51.99443800,51994438,0.0,0.01,0.0,0.29,137.79,137.79,0.0,0.0,3
52.09455500,52094555,0.0,0.01,0.0,0.29,137.79,137.79,0.0,0.0,3
52.19474700,52194747,0.0,0.01,0.0,0.29,137.79,137.79,0.0,0.0,3
52.29491800,52294918,0.0,0.0,0.0,0.29,137.79,137.79,0.0,0.0,3
52.39460000,52394600,0.0,0.01,0.0,0.29,137.79,137.79,0.0,0.0,3
52.49458900,52494589,0.0,0.0,0.0,0.28,137.79,137.79,0.0,0.0,3
52.59462000,52594620,0.0,0.0,0.0,0.29,137.79,137.79,0.0,0.0,3
52.69450000,52694500,0.0,0.0,0.0,0.28,137.79,137.79,0.0,0.0,3
52.79465400,52794654,0.0,0.0,0.0,0.28,137.79,137.79,0.0,0.0,3
52.89472700,52894727,0.0,0.0,0.0,0.29,137.79,137.79,0.0,0.0,3
52.99479200,52994792,0.0,0.0,0.0,0.29,137.79,137.79,0.0,0.0,3
53.09505000,53095050,0.0,0.0,0.0,0.29,137.79,137.79,0.0,0.0,3
53.19456800,53194568,0.0,0.0,0.0,0.29,137.79,137.79,0.0,0.0,3
53.29460100,53294601,0.0,0.0,0.0,0.29,137.79,137.79,0.0,0.0,3
53.39462800,53394628,0.0,0.0,0.0,0.29,137.79,137.79,0.0,0.0,3
53.49466800,53494668,0.0,0.0,0.0,0.29,137.78,137.78,0.0,0.0,3
53.59450500,53594505,0.0,0.0,0.0,0.29,137.78,137.78,0.0,0.0,3
53.69442300,53694423,0.0,0.0,0.0,0.29,137.78,137.78,0.0,0.0,3
53.79450700,53794507,0.0,-0.01,0.0,0.29,137.78,137.78,0.0,0.0,3
53.89453300,53894533,0.0,-0.01,0.0,0.29,137.78,137.78,0.0,0.0,3
53.99475100,53994751,0.0,-0.01,0.0,0.29,137.79,137.79,0.0,0.0,3
54.09480000,54094800,0.0,-0.01,0.0,0.29,137.8,137.8,0.0,0.0,3
54.19477100,54194771,0.0,0.0,0.0,0.29,137.8,137.8,0.0,0.0,3
54.29481100,54294811,0.0,0.0,0.0,0.29,137.8,137.8,0.0,0.0,3
54.39466700,54394667,0.0,-0.01,0.0,0.3,137.8,137.8,0.0,0.0,3
54.49450500,54494505,0.0,0.0,0.0,0.3,137.8,137.8,0.0,0.0,3
54.59441000,54594410,0.0,0.0,0.0,0.29,137.81,137.81,0.0,0.0,3
54.69449900,54694499,0.0,0.0,0.0,0.29,137.8,137.8,0.0,0.0,3
54.79450800,54794508,0.0,0.0,0.0,0.29,137.8,137.8,0.0,0.0,3
54.89452900,54894529,0.0,0.0,0.0,0.29,137.8,137.8,0.0,0.0,3
54.99454900,54994549,0.0,0.0,0.0,0.29,137.79,137.79,0.0,0.0,3
55.09459700,55094597,0.0,0.0,0.0,0.3,137.78,137.78,0.0,0.0,3
55.19480400,55194804,0.0,0.0,0.0,0.29,137.78,137.78,0.0,0.0,3
55.29464700,55294647,0.0,0.0,0.0,0.29,137.78,137.78,0.0,0.0,3
55.39451900,55394519,0.0,0.0,0.0,0.29,137.77,137.77,0.0,0.0,3
55.49440200,55494402,0.0,0.0,0.0,0.3,137.77,137.77,0.0,0.0,3
55.59448100,55594481,0.0,0.0,0.0,0.29,137.77,137.77,0.0,0.0,3
55.69456500,55694565,0.0,0.0,0.0,0.3,137.77,137.77,0.0,0.0,3
55.79454200,55794542,0.0,0.0,0.0,0.3,137.77,137.77,0.0,0.0,3
55.89456700,55894567,0.0,-0.01,0.0,0.29,137.78,137.78,0.0,0.0,3
55.99482300,55994823,0.0,-0.01,0.0,0.3,137.79,137.79,0.0,0.0,3
56.09483400,56094834,0.0,-0.01,0.0,0.3,137.79,137.79,0.0,0.0,3
56.19462200,56194622,0.0,-0.01,0.0,0.3,137.8,137.8,0.0,0.0,3
56.29475700,56294757,0.0,-0.01,0.0,0.3,137.8,137.8,0.0,0.0,3
56.39500600,56395006,0.0,-0.01,0.0,0.3,137.8,137.8,0.0,0.0,3
56.49499000,56494990,0.0,-0.01,0.0,0.3,137.8,137.8,0.0,0.0,3
56.59479400,56594794,0.0,-0.01,0.0,0.3,137.8,137.8,0.0,0.0,3
56.69475900,56694759,0.0,-0.01,0.0,0.3,137.8,137.8,0.0,0.0,3
56.79477100,56794771,0.0,-0.01,0.0,0.3,137.8,137.8,0.0,0.0,3
56.89480500,56894805,0.0,-0.01,0.0,0.3,137.8,137.8,0.0,0.0,3
56.99479900,56994799,0.0,-0.01,0.0,0.3,137.8,137.8,0.0,0.0,3
57.09486900,57094869,0.0,-0.02,0.0,0.3,137.8,137.8,0.0,0.0,3
57.19499300,57194993,0.0,-0.01,0.0,0.31,137.8,137.8,0.0,0.0,3
57.29443500,57294435,0.0,-0.01,0.0,0.31,137.8,137.8,0.0,0.0,3
57.39450200,57394502,0.0,-0.01,0.0,0.32,137.8,137.8,0.0,0.0,3
57.49452400,57494524,0.0,-0.01,0.0,0.32,137.81,137.81,0.0,0.0,3
57.59454400,57594544,0.0,-0.02,0.0,0.32,137.82,137.82,0.0,0.0,3
57.69462500,57694625,0.0,-0.02,0.0,0.32,137.82,137.82,0.0,0.0,3
57.79457500,57794575,0.0,-0.02,0.0,0.33,137.82,137.82,0.0,0.0,3
57.89458900,57894589,0.0,-0.02,0.0,0.33,137.82,137.82,0.0,0.0,3
57.99462400,57994624,0.0,-0.02,0.0,0.33,137.83,137.83,0.0,0.0,3
58.09485500,58094855,0.0,-0.02,0.0,0.33,137.83,137.83,0.0,0.0,3
58.19440400,58194404,0.0,-0.02,0.0,0.33,137.83,137.83,0.0,0.0,3
58.29449300,58294493,0.0,-0.02,0.0,0.34,137.83,137.83,0.0,0.0,3
58.39456100,58394561,0.0,-0.02,0.0,0.34,137.83,137.83,0.0,0.0,3
58.49454300,58494543,0.0,-0.03,0.0,0.33,137.83,137.83,0.0,0.0,3
58.59455700,58594557,0.0,-0.03,0.0,0.33,137.82,137.82,0.0,0.0,3
58.69459000,58694590,0.0,-0.02,0.0,0.33,137.82,137.82,0.0,0.0,3
58.79459200,58794592,0.0,-0.02,0.0,0.33,137.82,137.82,0.0,0.0,3
58.89463500,58894635,0.0,-0.02,0.0,0.33,137.82,137.82,0.0,0.0,3
58.99481200,58994812,0.0,-0.02,0.0,0.33,137.82,137.82,0.0,0.0,3
59.09477600,59094776,0.0,-0.03,0.0,0.33,137.81,137.81,0.0,0.0,3
59.19474100,59194741,0.0,-0.03,0.0,0.34,137.81,137.81,0.0,0.0,3
59.29481700,59294817,0.0,-0.03,0.0,0.34,137.81,137.81,0.0,0.0,3
59.39456400,59394564,0.0,-0.03,0.0,0.34,137.81,137.81,0.0,0.0,3
59.49454900,59494549,0.0,-0.03,0.0,0.34,137.8,137.8,0.0,0.0,3
59.59457100,59594571,0.0,-0.03,0.0,0.34,137.8,137.8,0.0,0.0,3
59.69459000,59694590,0.0,-0.03,0.0,0.34,137.81,137.81,0.0,0.0,3
59.79464800,59794648,0.0,-0.03,0.0,0.34,137.81,137.81,0.0,0.01,3
59.89482800,59894828,0.0,-0.03,0.0,0.34,137.8,137.8,0.0,0.01,3
59.99467600,59994676,0.0,-0.03,0.0,0.34,137.8,137.8,0.0,0.01,3
60.09447800,60094478,0.0,-0.03,0.0,0.35000000000000003,137.8,137.8,0.0,0.01,3
60.19452000,60194520,0.0,-0.03,0.0,0.35000000000000003,137.79,137.79,0.0,0.0,3
60.29455100,60294551,0.0,-0.03,0.0,0.35000000000000003,137.78,137.78,0.0,0.0,3
60.39458200,60394582,0.0,-0.03,0.0,0.35000000000000003,137.77,137.77,0.0,0.01,3
60.49458600,60494586,0.0,-0.03,0.0,0.35000000000000003,137.77,137.77,0.0,0.01,3
60.59460300,60594603,0.0,-0.03,0.0,0.34,137.76,137.76,0.0,0.0,3
60.69484500,60694845,0.0,-0.03,0.0,0.34,137.76,137.76,0.0,0.0,3
60.79475700,60794757,0.0,-0.03,0.0,0.34,137.76,137.76,0.0,0.0,3
60.89465600,60894656,0.0,-0.03,0.0,0.34,137.76,137.76,0.0,0.0,3
60.99497100,60994971,0.0,-0.03,0.0,0.34,137.76,137.76,0.0,0.0,3
61.09481000,61094810,0.0,-0.03,0.0,0.35000000000000003,137.75,137.75,0.0,0.0,3
61.19451100,61194511,0.0,-0.03,0.0,0.35000000000000003,137.75,137.75,0.0,0.0,3
61.29456100,61294561,0.0,-0.03,0.0,0.35000000000000003,137.75,137.75,0.0,0.0,3
61.39460200,61394602,0.0,-0.03,0.0,0.35000000000000003,137.75,137.75,0.0,0.0,3
61.49460000,61494600,0.0,-0.03,0.0,0.34,137.75,137.75,0.0,0.0,3
61.59463100,61594631,0.0,-0.03,0.0,0.34,137.75,137.75,0.0,0.0,3
61.69451300,61694513,0.0,-0.03,0.0,0.34,137.76,137.76,0.0,0.0,3
61.79471000,61794710,0.0,-0.03,0.0,0.34,137.76,137.76,0.0,0.0,3
61.89490100,61894901,0.0,-0.03,0.0,0.34,137.76,137.76,0.0,0.0,3
61.99478700,61994787,0.0,-0.03,0.0,0.35000000000000003,137.76,137.76,0.0,0.0,3
62.09453200,62094532,0.0,-0.03,0.0,0.35000000000000003,137.76,137.76,0.0,0.0,3
62.19455400,62194554,0.0,-0.03,0.0,0.35000000000000003,137.75,137.75,0.0,0.0,3
62.29458800,62294588,0.0,-0.03,0.0,0.34,137.75,137.75,0.0,0.0,3
62.39461200,62394612,0.0,-0.03,0.0,0.34,137.74,137.74,0.0,0.0,3
62.49464200,62494642,0.0,-0.03,0.0,0.34,137.75,137.75,0.0,0.0,3
62.59449700,62594497,0.0,-0.03,0.0,0.34,137.75,137.75,0.0,0.0,3
62.69445200,62694452,0.0,-0.03,0.0,0.33,137.75,137.75,0.0,0.0,3
62.79443400,62794434,0.0,-0.03,0.0,0.33,137.75,137.75,0.0,0.0,3
62.89452900,62894529,0.0,-0.03,0.0,0.33,137.75,137.75,0.0,0.0,3
62.99474800,62994748,0.0,-0.03,0.0,0.32,137.75,137.75,0.0,0.0,3
63.09479800,63094798,0.0,-0.03,0.0,0.33,137.75,137.75,0.0,0.0,3
63.19456400,63194564,0.0,-0.03,0.0,0.32,137.75,137.75,0.0,0.0,3
63.29460300,63294603,0.0,-0.03,0.0,0.32,137.75,137.75,0.0,0.0,3
63.39466800,63394668,0.0,-0.03,0.0,0.31,137.74,137.74,0.0,0.01,3
63.49450800,63494508,0.0,-0.03,0.0,0.31,137.74,137.74,0.0,0.0,3
63.59442300,63594423,0.0,-0.03,0.0,0.31,137.73,137.73,0.0,0.0,3
63.69444000,63694440,0.0,-0.03,0.0,0.31,137.73,137.73,0.0,0.0,3
63.79450900,63794509,0.0,-0.03,0.0,0.31,137.73,137.73,0.0,0.0,3
63.89476100,63894761,0.0,-0.03,0.0,0.31,137.73,137.73,0.0,0.0,3
63.99460400,63994604,0.0,-0.03,0.0,0.31,137.73,137.73,0.0,0.0,3
64.09459500,64094595,0.0,-0.03,0.0,0.31,137.72,137.72,0.0,0.0,3
64.19459300,64194593,0.0,-0.03,0.0,0.31,137.72,137.72,0.0,0.0,3
64.29465400,64294654,0.0,-0.04,0.0,0.31,137.72,137.72,0.0,0.0,3
64.39452100,64394521,0.0,-0.03,0.0,0.31,137.72,137.72,0.0,0.0,3
64.49440500,64494405,0.0,-0.03,0.0,0.31,137.72,137.72,0.0,0.0,3
64.59449500,64594495,0.0,-0.03,0.0,0.31,137.72,137.72,0.0,0.0,3
64.69480600,64694806,0.0,-0.03,0.0,0.31,137.72,137.72,0.0,0.0,3
64.79497100,64794971,0.0,-0.03,0.0,0.31,137.72,137.72,0.0,0.0,3
64.89495500,64894955,0.0,-0.03,0.0,0.31,137.72,137.72,0.0,0.0,3
64.99495700,64994957,0.0,-0.03,0.0,0.3,137.72,137.72,0.0,0.0,3
65.09497200,65094972,0.0,-0.03,0.0,0.3,137.72,137.72,0.0,0.0,3
65.19501800,65195018,0.0,-0.03,0.0,0.3,137.72,137.72,0.0,0.01,3
65.29499400,65294994,0.0,-0.03,0.0,0.3,137.72,137.72,0.0,0.01,3
65.39499500,65394995,0.0,-0.03,0.0,0.3,137.72,137.72,0.0,0.0,3
65.49508700,65495087,0.0,-0.03,0.0,0.3,137.72,137.72,0.0,0.0,3
65.59478900,65594789,0.0,-0.03,0.0,0.3,137.73,137.73,0.0,0.0,3
65.69453200,65694532,0.0,-0.02,0.0,0.3,137.73,137.73,0.0,0.0,3
65.79455700,65794557,0.0,-0.02,0.0,0.31,137.73,137.73,0.0,0.0,3
65.89458500,65894585,0.0,-0.02,0.0,0.31,137.73,137.73,0.0,0.0,3
65.99457900,65994579,0.0,-0.02,0.0,0.31,137.73,137.73,0.0,0.0,3
66.09464900,66094649,0.0,-0.02,0.0,0.31,137.73,137.73,0.0,0.0,3
66.19450100,66194501,0.0,-0.02,0.0,0.31,137.73,137.73,0.0,0.0,3
66.29441900,66294419,0.0,-0.02,0.0,0.31,137.73,137.73,0.0,0.0,3
66.39476900,66394769,0.0,-0.02,0.0,0.31,137.73,137.73,0.0,0.0,3
66.49454300,66494543,0.0,-0.02,0.0,0.31,137.73,137.73,0.0,0.0,3
66.59451900,66594519,0.0,-0.02,0.0,0.32,137.73,137.73,0.0,0.0,3
66.69455600,66694556,0.0,-0.03,0.0,0.31,137.73,137.73,0.0,0.0,3
66.79458300,66794583,0.0,-0.03,0.0,0.32,137.74,137.74,0.0,0.0,3
66.89461400,66894614,0.0,-0.03,0.0,0.31,137.74,137.74,0.0,0.0,3
66.99462300,66994623,0.0,-0.03,0.0,0.32,137.74,137.74,0.0,0.0,3
67.09450900,67094509,0.0,-0.03,0.0,0.32,137.74,137.74,0.0,0.0,3
67.19442800,67194428,0.0,-0.03,0.0,0.32,137.74,137.74,0.0,0.0,3
67.29478800,67294788,0.0,-0.03,0.0,0.32,137.74,137.74,0.0,0.0,3
67.39456400,67394564,0.0,-0.03,0.0,0.32,137.74,137.74,0.0,0.0,3
67.49453800,67494538,0.0,-0.03,0.0,0.32,137.74,137.74,0.0,0.0,3
67.59455700,67594557,0.0,-0.03,0.0,0.32,137.74,137.74,0.0,0.0,3
67.69457600,67694576,0.0,-0.03,0.0,0.32,137.74,137.74,0.0,0.0,3
67.79459400,67794594,0.0,-0.03,0.0,0.32,137.74,137.74,0.0,0.0,3
67.89482700,67894827,0.0,-0.03,0.0,0.31,137.74,137.74,0.0,0.0,3
67.99473700,67994737,0.0,-0.03,0.0,0.31,137.74,137.74,0.0,0.0,3
68.09468300,68094683,0.0,-0.03,0.0,0.31,137.74,137.74,0.0,0.0,3
68.19506600,68195066,0.0,-0.03,0.0,0.31,137.75,137.75,0.0,0.0,3
68.29480100,68294801,0.0,-0.03,0.0,0.31,137.75,137.75,0.0,0.0,3
68.39476900,68394769,0.0,-0.03,0.0,0.31,137.75,137.75,0.0,0.0,3
68.49478000,68494780,0.0,-0.02,0.0,0.32,137.75,137.75,0.0,0.0,3
68.59457300,68594573,0.0,-0.02,0.0,0.32,137.75,137.75,0.0,0.0,3
68.69458500,68694585,0.0,-0.02,0.0,0.32,137.75,137.75,0.0,0.0,3
68.79463200,68794632,0.0,-0.02,0.0,0.32,137.75,137.75,0.0,0.0,3
68.89451200,68894512,0.0,-0.03,0.0,0.33,137.75,137.75,0.0,0.0,3
68.99440500,68994405,0.0,-0.02,0.0,0.32,137.74,137.74,0.0,0.0,3
69.09442700,69094427,0.0,-0.02,0.0,0.32,137.75,137.75,0.0,0.0,3
69.19451100,69194511,0.0,-0.02,0.0,0.32,137.75,137.75,0.0,0.0,3
69.29476000,69294760,0.0,-0.02,0.0,0.33,137.75,137.75,0.0,0.0,3
69.39480400,69394804,0.0,-0.02,0.0,0.32,137.75,137.75,0.0,0.0,3
69.49461000,69494610,0.0,-0.02,0.0,0.32,137.75,137.75,0.0,0.0,3
69.59459700,69594597,0.0,-0.02,0.0,0.32,137.75,137.75,0.0,0.0,3
69.69463300,69694633,0.0,-0.02,0.0,0.33,137.75,137.75,0.0,0.0,3
69.79450100,69794501,0.0,-0.02,0.0,0.32,137.75,137.75,0.0,0.0,3
69.89441500,69894415,0.0,-0.02,0.0,0.32,137.74,137.74,0.0,0.0,3
69.99442800,69994428,0.0,-0.02,0.0,0.32,137.74,137.74,0.0,0.0,3
70.09456300,70094563,0.0,-0.02,0.0,0.32,137.73,137.73,0.0,0.0,3
70.19474300,70194743,0.0,-0.02,0.0,0.32,137.73,137.73,0.0,0.0,3
70.29491200,70294912,0.0,-0.02,0.0,0.32,137.73,137.73,0.0,0.0,3
70.39461300,70394613,0.0,-0.02,0.0,0.32,137.73,137.73,0.0,0.0,3
70.49458300,70494583,0.0,-0.02,0.0,0.32,137.73,137.73,0.0,0.0,3
70.59463100,70594631,0.0,-0.02,0.0,0.32,137.73,137.73,0.0,0.0,3
70.69451900,70694519,0.0,-0.02,0.0,0.32,137.73,137.73,0.0,0.0,3
70.79442400,70794424,0.0,-0.02,0.0,0.32,137.73,137.73,0.0,0.0,3
70.89445800,70894458,0.0,-0.02,0.0,0.32,137.73,137.73,0.0,0.0,3
70.99451200,70994512,0.0,-0.02,0.0,0.32,137.74,137.74,0.0,0.0,3
71.09452700,71094527,0.0,-0.02,0.0,0.32,137.74,137.74,0.0,0.0,3
71.19454200,71194542,0.0,-0.02,0.0,0.31,137.73,137.73,0.0,0.0,3
71.29459000,71294590,0.0,-0.02,0.0,0.32,137.74,137.74,0.0,0.0,3
71.39483700,71394837,0.0,-0.02,0.0,0.31,137.73,137.73,0.0,0.0,3
71.49470500,71494705,0.0,-0.02,0.0,0.31,137.73,137.73,0.0,0.0,3
71.59451900,71594519,0.0,-0.02,0.0,0.31,137.73,137.73,0.0,0.0,3
71.69442100,71694421,0.0,-0.02,0.0,0.3,137.73,137.73,0.0,0.0,3
71.79442500,71794425,0.0,-0.02,0.0,0.31,137.73,137.73,0.0,0.0,3
71.89453400,71894534,0.0,-0.02,0.0,0.3,137.73,137.73,0.0,0.0,3
71.99452300,71994523,0.0,-0.01,0.0,0.3,137.72,137.72,0.0,0.0,3
72.09480200,72094802,0.0,-0.02,0.0,0.3,137.72,137.72,0.0,0.0,3
72.19480700,72194807,0.0,-0.02,0.0,0.3,137.72,137.72,0.0,0.0,3
72.29483400,72294834,0.0,-0.02,0.0,0.3,137.72,137.72,0.0,0.0,3
72.39496700,72394967,0.0,-0.02,0.0,0.3,137.71,137.71,0.0,0.0,3
72.49482800,72494828,0.0,-0.02,0.0,0.3,137.71,137.71,0.0,0.0,3
72.59468900,72594689,0.0,-0.02,0.0,0.31,137.71,137.71,0.0,0.0,3
72.69475500,72694755,0.0,-0.02,0.0,0.3,137.70000000000002,137.70000000000002,0.0,0.0,3
72.79471700,72794717,0.0,-0.02,0.0,0.3,137.70000000000002,137.70000000000002,0.0,0.0,3
72.89475200,72894752,0.0,-0.02,0.0,0.3,137.70000000000002,137.70000000000002,0.0,0.0,3
72.99477700,72994777,0.0,-0.02,0.0,0.29,137.70000000000002,137.70000000000002,0.0,0.0,3
73.09481500,73094815,0.0,-0.02,0.0,0.29,137.70000000000002,137.70000000000002,0.0,0.0,3
73.19498100,73194981,0.0,-0.02,0.0,0.29,137.69,137.69,0.0,0.0,3
73.29507800,73295078,0.0,-0.02,0.0,0.3,137.69,137.69,0.0,0.0,3
73.39504100,73395041,0.0,-0.02,0.0,0.3,137.69,137.69,0.0,0.0,3
73.49472800,73494728,0.0,-0.02,0.0,0.29,137.69,137.69,0.0,0.0,3
73.59474600,73594746,0.0,-0.02,0.0,0.3,137.69,137.69,0.0,0.0,3
73.69482100,73694821,0.0,-0.02,0.0,0.3,137.69,137.69,0.0,0.0,3
73.79475700,73794757,0.0,-0.01,0.0,0.3,137.69,137.69,0.0,0.0,3
73.89479300,73894793,0.0,-0.02,0.0,0.3,137.69,137.69,0.0,0.0,3
73.99481400,73994814,0.0,-0.02,0.0,0.31,137.69,137.69,0.0,0.0,3
74.09502300,74095023,0.0,-0.02,0.0,0.3,137.68,137.68,0.0,0.0,3
74.19504900,74195049,0.0,-0.02,0.0,0.3,137.68,137.68,0.0,0.0,3
74.29505100,74295051,0.0,-0.02,0.0,0.3,137.68,137.68,0.0,0.0,3
74.39480800,74394808,0.0,-0.03,0.0,0.3,137.68,137.68,0.0,0.0,3
74.49480200,74494802,0.0,-0.03,0.0,0.3,137.68,137.68,0.0,0.0,3
74.59479800,74594798,0.0,-0.03,0.0,0.3,137.68,137.68,0.0,0.0,3
74.69474600,74694746,0.0,-0.03,0.0,0.31,137.68,137.68,0.0,0.0,3
74.79478500,74794785,0.0,-0.03,0.0,0.31,137.68,137.68,0.0,0.0,3
74.89480600,74894806,0.0,-0.04,0.0,0.31,137.68,137.68,0.0,0.0,3
74.99482100,74994821,0.0,-0.03,0.0,0.31,137.68,137.68,0.0,0.0,3
75.09489000,75094890,0.0,-0.04,0.0,0.31,137.68,137.68,0.0,0.0,3
75.19501600,75195016,0.0,-0.04,0.0,0.3,137.69,137.69,0.0,0.0,3
75.29441300,75294413,0.0,-0.04,0.0,0.31,137.68,137.68,0.0,0.0,3
75.39451000,75394510,0.0,-0.04,0.0,0.31,137.68,137.68,0.0,0.0,3
75.49452600,75494526,0.0,-0.04,0.0,0.31,137.69,137.69,0.0,0.0,3
75.59451700,75594517,0.0,-0.04,0.0,0.31,137.69,137.69,0.0,0.0,3
75.69455300,75694553,0.0,-0.04,0.0,0.32,137.69,137.69,0.0,0.01,3
75.79458200,75794582,0.0,-0.04,0.0,0.32,137.70000000000002,137.70000000000002,0.0,0.01,3
75.89482100,75894821,0.0,-0.04,0.0,0.32,137.70000000000002,137.70000000000002,0.0,0.0,3
75.99487100,75994871,0.0,-0.05,0.0,0.32,137.71,137.71,0.0,0.0,3
76.09484600,76094846,0.0,-0.05,0.0,0.32,137.71,137.71,0.0,0.0,3
76.19445300,76194453,0.0,-0.05,0.0,0.32,137.71,137.71,0.0,0.0,3
76.29450500,76294505,0.0,-0.05,0.0,0.32,137.72,137.72,0.0,0.0,3
76.39455900,76394559,0.0,-0.05,0.0,0.32,137.72,137.72,0.0,0.0,3
76.49455100,76494551,0.0,-0.05,0.0,0.32,137.72,137.72,0.0,0.0,3
76.59461000,76594610,0.0,-0.05,0.0,0.32,137.72,137.72,0.0,0.0,3
76.69459500,76694595,0.0,-0.05,0.0,0.32,137.72,137.72,0.0,0.0,3
76.79467700,76794677,0.0,-0.05,0.0,0.32,137.71,137.71,0.0,0.0,3
76.89467000,76894670,0.0,-0.05,0.0,0.32,137.71,137.71,0.0,0.0,3
76.99450100,76994501,0.0,-0.05,0.0,0.32,137.71,137.71,0.0,0.0,3
77.09442500,77094425,0.0,-0.05,0.0,0.32,137.71,137.71,0.0,0.0,3
77.19475000,77194750,0.0,-0.05,0.0,0.32,137.71,137.71,0.0,0.0,3
77.29479700,77294797,0.0,-0.05,0.0,0.32,137.72,137.72,0.0,0.0,3
77.39454200,77394542,0.0,-0.04,0.0,0.33,137.72,137.72,0.0,0.0,3
77.49455500,77494555,0.0,-0.05,0.0,0.33,137.72,137.72,0.0,0.0,3
77.59458500,77594585,0.0,-0.05,0.0,0.33,137.72,137.72,0.0,0.0,3
77.69460700,77694607,0.0,-0.05,0.0,0.33,137.72,137.72,0.0,0.0,3
77.79468200,77794682,0.0,-0.05,0.0,0.33,137.72,137.72,0.0,0.0,3
77.89450800,77894508,0.0,-0.05,0.0,0.33,137.72,137.72,0.0,0.0,3
77.99440800,77994408,0.0,-0.05,0.0,0.34,137.72,137.72,0.0,0.0,3
78.09476000,78094760,0.0,-0.05,0.0,0.34,137.72,137.72,0.0,0.0,3
78.19453300,78194533,0.0,-0.05,0.0,0.34,137.72,137.72,0.0,0.0,3
78.29454300,78294543,0.0,-0.06,0.0,0.34,137.73,137.73,0.0,0.0,3
78.39458600,78394586,0.0,-0.06,0.0,0.34,137.73,137.73,0.0,0.0,3
78.49461400,78494614,0.0,-0.06,0.0,0.35000000000000003,137.73,137.73,0.0,0.0,3
78.59460200,78594602,0.0,-0.06,0.0,0.35000000000000003,137.73,137.73,0.0,0.0,3
78.69471200,78694712,0.0,-0.06,0.0,0.35000000000000003,137.73,137.73,0.0,0.0,3
78.79450400,78794504,0.0,-0.06,0.0,0.35000000000000003,137.72,137.72,0.0,0.0,3
78.89442100,78894421,0.0,-0.06,0.0,0.34,137.73,137.73,0.0,0.0,3
78.99474000,78994740,0.0,-0.05,0.0,0.34,137.73,137.73,0.0,0.0,3
79.09479200,79094792,0.0,-0.05,0.0,0.34,137.72,137.72,0.0,0.0,3
79.19474900,79194749,0.0,-0.05,0.0,0.35000000000000003,137.73,137.73,0.0,0.01,3
79.29477900,79294779,0.0,-0.05,0.0,0.35000000000000003,137.72,137.72,0.0,0.0,3
79.39460200,79394602,0.0,-0.05,0.0,0.35000000000000003,137.73,137.73,0.0,0.0,3
79.49480700,79494807,0.0,-0.06,0.0,0.35000000000000003,137.72,137.72,0.0,0.0,3
79.59483800,79594838,0.0,-0.06,0.0,0.35000000000000003,137.73,137.73,0.0,0.0,3
79.69474200,79694742,0.0,-0.06,0.0,0.35000000000000003,137.73,137.73,0.0,0.0,3
79.79465600,79794656,0.0,-0.06,0.0,0.35000000000000003,137.73,137.73,0.0,0.0,3
79.89499300,79894993,0.0,-0.06,0.0,0.35000000000000003,137.73,137.73,0.0,0.0,3
79.99479800,79994798,0.0,-0.07,0.0,0.35000000000000003,137.74,137.74,0.0,0.0,3
80.09478100,80094781,0.0,-0.06,0.0,0.35000000000000003,137.74,137.74,0.0,0.0,3
80.19478300,80194783,0.0,-0.07,0.0,0.36,137.74,137.74,0.0,0.0,3
80.29459900,80294599,0.0,-0.06,0.0,0.36,137.74,137.74,0.0,0.0,3
80.39462900,80394629,0.0,-0.07,0.0,0.36,137.74,137.74,0.0,0.0,3
80.49466400,80494664,0.0,-0.07,0.0,0.36,137.74,137.74,0.0,0.0,3
80.59450800,80594508,0.0,-0.08,0.0,0.36,137.74,137.74,0.0,0.0,3
80.69443000,80694430,0.0,-0.08,0.0,0.36,137.74,137.74,0.0,0.0,3
80.79449000,80794490,0.0,-0.08,0.0,0.36,137.75,137.75,0.0,0.0,3
80.89451200,80894512,0.0,-0.08,0.0,0.37,137.74,137.74,0.0,0.0,3
80.99474900,80994749,0.0,-0.08,0.0,0.37,137.74,137.74,0.0,0.0,3
81.09479100,81094791,0.0,-0.08,0.0,0.37,137.74,137.74,0.0,0.0,3
81.19459700,81194597,0.0,-0.08,0.0,0.37,137.73,137.73,0.0,0.0,3
81.29461500,81294615,0.0,-0.08,0.0,0.37,137.73,137.73,0.0,0.0,3
81.39465600,81394656,0.0,-0.08,0.0,0.38,137.74,137.74,0.0,0.0,3
81.49451000,81494510,0.0,-0.08,0.0,0.38,137.74,137.74,0.0,0.0,3
81.59441700,81594417,0.0,-0.08,0.0,0.37,137.74,137.74,0.0,0.0,3
81.69448600,81694486,0.0,-0.08,0.0,0.38,137.74,137.74,0.0,0.0,3
81.79453600,81794536,0.0,-0.08,0.0,0.38,137.75,137.75,0.0,0.0,3
81.89475200,81894752,0.0,-0.08,0.0,0.38,137.76,137.76,0.0,0.0,3
81.99478600,81994786,0.0,-0.08,0.0,0.38,137.76,137.76,0.0,0.0,3
82.09460100,82094601,0.0,-0.08,0.0,0.38,137.77,137.77,0.0,0.0,3
82.19458300,82194583,0.0,-0.08,0.0,0.39,137.77,137.77,0.0,0.0,3
82.29464700,82294647,0.0,-0.09,0.0,0.38,137.77,137.77,0.0,0.0,3
82.39452000,82394520,0.0,-0.09,0.0,0.39,137.77,137.77,0.0,0.0,3
82.49443900,82494439,0.0,-0.09,0.0,0.39,137.77,137.77,0.0,0.0,3
82.59445600,82594456,0.0,-0.1,0.0,0.39,137.77,137.77,0.0,0.0,3
82.69456400,82694564,0.0,-0.1,0.0,0.39,137.76,137.76,0.0,0.0,3
82.79475600,82794756,0.0,-0.1,0.0,0.39,137.76,137.76,0.0,0.0,3
82.89491500,82894915,0.0,-0.1,0.0,0.39,137.76,137.76,0.0,0.0,3
82.99458400,82994584,0.0,-0.1,0.0,0.39,137.76,137.76,0.0,0.0,3
83.09461800,83094618,0.0,-0.1,0.0,0.39,137.76,137.76,0.0,0.0,3
83.19461700,83194617,0.0,-0.1,0.0,0.39,137.76,137.76,0.0,0.0,3
83.29451400,83294514,0.0,-0.11,0.0,0.39,137.76,137.76,0.0,0.0,3
83.39443600,83394436,0.0,-0.11,0.0,0.39,137.76,137.76,0.0,0.0,3
83.49446800,83494468,0.0,-0.11,0.0,0.39,137.76,137.76,0.0,0.0,3
83.59450400,83594504,0.0,-0.11,0.0,0.4,137.75,137.75,0.0,0.0,3
83.69454100,83694541,0.0,-0.11,0.0,0.4,137.75,137.75,0.0,0.0,3
83.79455700,83794557,0.0,-0.11,0.0,0.4,137.75,137.75,0.0,0.0,3
83.89458300,83894583,0.0,-0.11,0.0,0.4,137.75,137.75,0.0,0.0,3
83.99458600,83994586,0.0,-0.11,0.0,0.39,137.75,137.75,0.0,0.0,3
84.09487400,84094874,0.0,-0.11,0.0,0.4,137.75,137.75,0.0,0.0,3
84.19477100,84194771,0.0,-0.1,0.0,0.4,137.75,137.75,0.0,0.0,3
84.29469700,84294697,0.0,-0.1,0.0,0.4,137.75,137.75,0.0,0.0,3
84.39476100,84394761,0.0,-0.11,0.0,0.4,137.75,137.75,0.0,0.01,3
84.49485600,84494856,0.0,-0.1,0.0,0.4,137.75,137.75,0.0,0.0,3
84.59477600,84594776,0.0,-0.1,0.0,0.4,137.75,137.75,0.0,0.01,3
84.69479700,84694797,0.0,-0.1,0.0,0.4,137.74,137.74,0.0,0.0,3
84.79482700,84794827,0.0,-0.1,0.0,0.41000000000000003,137.74,137.74,0.0,0.0,3
84.89482600,84894826,0.0,-0.1,0.0,0.4,137.73,137.73,0.0,0.0,3
84.99506700,84995067,0.0,-0.1,0.0,0.4,137.73,137.73,0.0,0.0,3
85.09500600,85095006,0.0,-0.1,0.0,0.4,137.73,137.73,0.0,0.0,3
85.19495200,85194952,0.0,-0.09,0.0,0.41000000000000003,137.73,137.73,0.0,0.0,3
85.29474200,85294742,0.0,-0.1,0.0,0.41000000000000003,137.74,137.74,0.0,0.0,3
85.39484400,85394844,0.0,-0.09,0.0,0.41000000000000003,137.74,137.74,0.0,0.0,3
85.49477100,85494771,0.0,-0.09,0.0,0.41000000000000003,137.74,137.74,0.0,0.0,3
85.59479300,85594793,0.0,-0.09,0.0,0.41000000000000003,137.74,137.74,0.0,0.0,3
85.69480400,85694804,0.0,-0.08,0.0,0.41000000000000003,137.75,137.75,0.0,0.0,3
85.79499400,85794994,0.0,-0.08,0.0,0.41000000000000003,137.75,137.75,0.0,0.0,3
85.89503900,85895039,0.0,-0.08,0.0,0.41000000000000003,137.75,137.75,0.0,0.0,3
85.99499600,85994996,0.0,-0.08,0.0,0.41000000000000003,137.75,137.75,0.0,0.0,3
86.09470100,86094701,0.0,-0.08,0.0,0.41000000000000003,137.75,137.75,0.0,0.0,3
86.19475400,86194754,0.0,-0.08,0.0,0.41000000000000003,137.75,137.75,0.0,0.0,3
86.29482100,86294821,0.0,-0.07,0.0,0.41000000000000003,137.75,137.75,0.0,0.0,3
86.39478200,86394782,0.0,-0.07,0.0,0.41000000000000003,137.75,137.75,0.0,0.01,3
86.49479800,86494798,0.0,-0.07,0.0,0.41000000000000003,137.75,137.75,0.0,0.0,3
86.59480900,86594809,0.0,-0.07,0.0,0.4,137.74,137.74,0.0,0.0,3
86.69499000,86694990,0.0,-0.07,0.0,0.4,137.74,137.74,0.0,0.0,3
86.79504800,86795048,0.0,-0.07,0.0,0.41000000000000003,137.74,137.74,0.0,0.0,3
86.89484500,86894845,0.0,-0.07,0.0,0.41000000000000003,137.74,137.74,0.0,0.0,3
86.99471700,86994717,0.0,-0.07,0.0,0.41000000000000003,137.75,137.75,0.0,0.0,3
87.09494400,87094944,0.0,-0.07,0.0,0.4,137.74,137.74,0.0,0.0,3
87.19480600,87194806,0.0,-0.07,0.0,0.4,137.75,137.75,0.0,0.0,3
87.29476900,87294769,0.0,-0.07,0.0,0.4,137.75,137.75,0.0,0.0,3
87.39480400,87394804,0.0,-0.07,0.0,0.4,137.75,137.75,0.0,0.0,3
87.49480700,87494807,0.0,-0.06,0.0,0.4,137.75,137.75,0.0,0.0,3
87.59482100,87594821,0.0,-0.06,0.0,0.4,137.75,137.75,0.0,0.0,3
87.69503100,87695031,0.0,-0.06,0.0,0.4,137.75,137.75,0.0,0.01,3
87.79497000,87794970,0.0,-0.06,0.0,0.4,137.76,137.76,0.0,0.0,3
87.89499600,87894996,0.0,-0.06,0.0,0.4,137.76,137.76,0.0,0.0,3
87.99498700,87994987,0.0,-0.06,0.0,0.4,137.75,137.75,0.0,0.0,3
88.09485900,88094859,0.0,-0.07,0.0,0.4,137.76,137.76,0.0,0.0,3
88.19504000,88195040,0.0,-0.06,0.0,0.4,137.76,137.76,0.0,0.0,3
88.29511000,88295110,0.0,-0.06,0.0,0.4,137.76,137.76,0.0,0.0,3
88.39482300,88394823,0.0,-0.06,0.0,0.4,137.75,137.75,0.0,0.0,3
88.49481900,88494819,0.0,-0.06,0.0,0.41000000000000003,137.75,137.75,0.0,0.0,3
88.59486700,88594867,0.0,-0.05,0.0,0.41000000000000003,137.75,137.75,0.0,0.0,3
88.69484700,88694847,0.0,-0.06,0.0,0.4,137.75,137.75,0.0,0.0,3
88.79470500,88794705,0.0,-0.05,0.0,0.41000000000000003,137.75,137.75,0.0,0.0,3
88.89476000,88894760,0.0,-0.05,0.0,0.41000000000000003,137.75,137.75,0.0,0.0,3
88.99480800,88994808,0.0,-0.06,0.0,0.41000000000000003,137.75,137.75,0.0,0.0,3
89.09511700,89095117,0.0,-0.05,0.0,0.41000000000000003,137.75,137.75,0.0,0.0,3
89.19490900,89194909,0.0,-0.05,0.0,0.41000000000000003,137.75,137.75,0.0,0.0,3
89.29480700,89294807,0.0,-0.05,0.0,0.4,137.75,137.75,0.0,0.0,3
89.39483500,89394835,0.0,-0.05,0.0,0.4,137.76,137.76,0.0,0.0,3
89.49464400,89494644,0.0,-0.05,0.0,0.4,137.76,137.76,0.0,0.0,3
89.59450200,89594502,0.0,-0.04,0.0,0.4,137.76,137.76,0.0,0.01,3
89.69444700,89694447,0.0,-0.04,0.0,0.4,137.75,137.75,0.0,0.0,3
89.79443900,89794439,0.0,-0.04,0.0,0.39,137.75,137.75,0.0,0.0,3
89.89451700,89894517,0.0,-0.04,0.0,0.39,137.75,137.75,0.0,0.0,3
89.99452400,89994524,0.0,-0.04,0.0,0.39,137.76,137.76,0.0,0.0,3
90.09456000,90094560,0.0,-0.04,0.0,0.39,137.76,137.76,0.0,0.0,3
90.19457200,90194572,0.0,-0.04,0.0,0.39,137.76,137.76,0.0,0.0,3
90.29482000,90294820,0.0,-0.04,0.0,0.39,137.76,137.76,0.0,0.0,3
90.39466800,90394668,0.0,-0.04,0.0,0.4,137.76,137.76,0.0,0.0,3
90.49450500,90494505,0.0,-0.04,0.0,0.4,137.76,137.76,0.0,0.0,3
90.59442800,90594428,0.0,-0.04,0.0,0.39,137.76,137.76,0.0,0.0,3
90.69449000,90694490,0.0,-0.04,0.0,0.4,137.77,137.77,0.0,0.0,3
90.79454400,90794544,0.0,-0.04,0.0,0.4,137.77,137.77,0.0,0.0,3
90.89454600,90894546,0.0,-0.04,0.0,0.4,137.77,137.77,0.0,0.0,3
90.99454800,90994548,0.0,-0.04,0.0,0.4,137.76,137.76,0.0,0.0,3
91.09483400,91094834,0.0,-0.04,0.0,0.39,137.76,137.76,0.0,0.01,3
91.19482200,91194822,0.0,-0.04,0.0,0.39,137.76,137.76,0.0,0.0,3
91.29466600,91294666,0.0,-0.04,0.0,0.39,137.76,137.76,0.0,0.0,3
91.39452100,91394521,0.0,-0.05,0.0,0.39,137.76,137.76,0.0,0.0,3
91.49466500,91494665,0.0,-0.04,0.0,0.39,137.75,137.75,0.0,0.0,3
91.59471500,91594715,0.0,-0.05,0.0,0.39,137.75,137.75,0.0,0.01,3
91.69470100,91694701,0.0,-0.05,0.0,0.4,137.75,137.75,0.0,0.01,3
91.79472400,91794724,0.0,-0.05,0.0,0.4,137.74,137.74,0.0,0.01,3
91.89475000,91894750,0.0,-0.04,0.0,0.39,137.74,137.74,0.0,0.0,3
91.99495600,91994956,0.0,-0.05,0.0,0.39,137.74,137.74,0.0,0.0,3
92.09481900,92094819,0.0,-0.05,0.0,0.39,137.74,137.74,0.0,0.0,3
92.19463000,92194630,0.0,-0.05,0.0,0.39,137.74,137.74,0.0,0.01,3
92.29450700,92294507,0.0,-0.05,0.0,0.38,137.74,137.74,0.0,0.0,3
92.39443300,92394433,0.0,-0.05,0.0,0.39,137.74,137.74,0.0,0.0,3
92.49448800,92494488,0.0,-0.05,0.0,0.39,137.74,137.74,0.0,0.0,3
92.59454300,92594543,0.0,-0.06,0.0,0.39,137.74,137.74,0.0,0.0,3
92.69454800,92694548,0.0,-0.06,0.0,0.39,137.74,137.74,0.0,0.0,3
92.79456400,92794564,0.0,-0.06,0.0,0.38,137.74,137.74,0.0,0.0,3
92.89459200,92894592,0.0,-0.06,0.0,0.38,137.74,137.74,0.0,0.0,3
92.99458800,92994588,0.0,-0.06,0.0,0.38,137.74,137.74,0.0,0.0,3
93.09466300,93094663,0.0,-0.06,0.0,0.38,137.74,137.74,0.0,0.0,3
93.19482300,93194823,0.0,-0.06,0.0,0.38,137.74,137.74,0.0,0.0,3
93.29442300,93294423,0.0,-0.06,0.0,0.38,137.75,137.75,0.0,0.0,3
93.39455100,93394551,0.0,-0.05,0.0,0.38,137.75,137.75,0.0,0.0,3
93.49452100,93494521,0.0,-0.05,0.0,0.39,137.76,137.76,0.0,0.0,3
93.59452800,93594528,0.0,-0.05,0.0,0.39,137.76,137.76,0.0,0.01,3
93.69455300,93694553,0.0,-0.05,0.0,0.39,137.76,137.76,0.0,0.01,3
93.79459100,93794591,0.0,-0.05,0.0,0.39,137.77,137.77,0.0,0.0,3
93.89460800,93894608,0.0,-0.05,0.0,0.39,137.77,137.77,0.0,0.0,3
93.99461800,93994618,0.0,-0.05,0.0,0.39,137.77,137.77,0.0,0.0,3
94.09486100,94094861,0.0,-0.05,0.0,0.39,137.78,137.78,0.0,0.0,3
94.19467900,94194679,0.0,-0.04,0.0,0.39,137.78,137.78,0.0,0.0,3
94.29477400,94294774,0.0,-0.04,0.0,0.39,137.78,137.78,0.0,0.0,3
94.39484900,94394849,0.0,-0.04,0.0,0.39,137.79,137.79,0.0,0.0,3
94.49476500,94494765,0.0,-0.04,0.0,0.4,137.79,137.79,0.0,0.0,3
94.59478900,94594789,0.0,-0.04,0.0,0.39,137.79,137.79,0.0,0.0,3
94.69481200,94694812,0.0,-0.04,0.0,0.4,137.79,137.79,0.0,0.0,3
94.79500800,94795008,0.0,-0.04,0.0,0.39,137.8,137.8,0.0,0.0,3
94.89487800,94894878,0.0,-0.04,0.0,0.4,137.79,137.79,0.0,0.0,3
94.99478500,94994785,0.0,-0.04,0.0,0.4,137.79,137.79,0.0,0.0,3
95.09479500,95094795,0.0,-0.04,0.0,0.4,137.79,137.79,0.0,0.0,3
95.19474900,95194749,0.0,-0.03,0.0,0.4,137.79,137.79,0.0,0.0,3
95.29481100,95294811,0.0,-0.03,0.0,0.41000000000000003,137.79,137.79,0.0,0.0,3
95.39477700,95394777,0.0,-0.04,0.0,0.41000000000000003,137.79,137.79,0.0,0.0,3
95.49490700,95494907,0.0,-0.03,0.0,0.4,137.79,137.79,0.0,0.0,3
95.59480100,95594801,0.0,-0.03,0.0,0.41000000000000003,137.79,137.79,0.0,0.0,3
95.69499600,95694996,0.0,-0.04,0.0,0.41000000000000003,137.79,137.79,0.0,0.0,3
95.79488000,95794880,0.0,-0.04,0.0,0.41000000000000003,137.79,137.79,0.0,0.0,3
95.89477200,95894772,0.0,-0.04,0.0,0.41000000000000003,137.79,137.79,0.0,0.0,3
95.99469800,95994698,0.0,-0.04,0.0,0.41000000000000003,137.79,137.79,0.0,0.0,3
96.09476300,96094763,0.0,-0.04,0.0,0.41000000000000003,137.79,137.79,0.0,0.0,3
96.19481600,96194816,0.0,-0.04,0.0,0.41000000000000003,137.79,137.79,0.0,0.0,3
96.29476200,96294762,0.0,-0.04,0.0,0.41000000000000003,137.79,137.79,0.0,0.0,3
96.39485300,96394853,0.0,-0.04,0.0,0.41000000000000003,137.79,137.79,0.0,0.0,3
96.49481300,96494813,0.0,-0.04,0.0,0.41000000000000003,137.79,137.79,0.0,0.0,3
96.59501200,96595012,0.0,-0.04,0.0,0.41000000000000003,137.79,137.79,0.0,0.0,3
96.69489700,96694897,0.0,-0.05,0.0,0.4,137.78,137.78,0.0,0.0,3
96.79483300,96794833,0.0,-0.04,0.0,0.4,137.79,137.79,0.0,0.0,3
96.89469800,96894698,0.0,-0.04,0.0,0.4,137.78,137.78,0.0,0.0,3
96.99475700,96994757,0.0,-0.04,0.0,0.4,137.78,137.78,0.0,0.0,3
97.09481200,97094812,0.0,-0.05,0.0,0.4,137.78,137.78,0.0,0.0,3
97.19474600,97194746,0.0,-0.04,0.0,0.4,137.78,137.78,0.0,0.0,3
97.29478800,97294788,0.0,-0.04,0.0,0.39,137.78,137.78,0.0,0.0,3
97.39483300,97394833,0.0,-0.04,0.0,0.39,137.79,137.79,0.0,0.0,3
97.49483500,97494835,0.0,-0.05,0.0,0.39,137.79,137.79,0.0,0.0,3
97.59508600,97595086,0.0,-0.05,0.0,0.39,137.79,137.79,0.0,0.0,3
97.69499700,97694997,0.0,-0.05,0.0,0.39,137.79,137.79,0.0,0.0,3
97.79492500,97794925,0.0,-0.05,0.0,0.39,137.79,137.79,0.0,0.0,3
97.89474700,97894747,0.0,-0.05,0.0,0.39,137.78,137.78,0.0,0.0,3
97.99479800,97994798,0.0,-0.05,0.0,0.39,137.78,137.78,0.0,0.0,3
98.09476400,98094764,0.0,-0.05,0.0,0.39,137.78,137.78,0.0,0.0,3
98.19476000,98194760,0.0,-0.05,0.0,0.39,137.78,137.78,0.0,0.0,3
98.29481400,98294814,0.0,-0.05,0.0,0.39,137.78,137.78,0.0,0.0,3
98.39500800,98395008,0.0,-0.05,0.0,0.39,137.78,137.78,0.0,0.0,3
98.49504700,98495047,0.0,-0.05,0.0,0.39,137.78,137.78,0.0,0.0,3
98.59501900,98595019,0.0,-0.05,0.0,0.39,137.78,137.78,0.0,0.0,3
98.69470800,98694708,0.0,-0.05,0.0,0.39,137.78,137.78,0.0,0.0,3
98.79475000,98794750,0.0,-0.05,0.0,0.39,137.78,137.78,0.0,0.0,3
98.89481800,98894818,0.0,-0.05,0.0,0.39,137.78,137.78,0.0,0.0,3
98.99473700,98994737,0.0,-0.05,0.0,0.39,137.78,137.78,0.0,0.0,3
99.09479700,99094797,0.0,-0.05,0.0,0.39,137.78,137.78,0.0,0.0,3
99.19480600,99194806,0.0,-0.05,0.0,0.39,137.77,137.77,0.0,0.0,3
99.29502500,99295025,0.0,-0.05,0.0,0.39,137.77,137.77,0.0,0.0,3
99.39505300,99395053,0.0,-0.05,0.0,0.4,137.77,137.77,0.0,0.0,3
99.49479000,99494790,0.0,-0.05,0.0,0.4,137.77,137.77,0.0,0.0,3
99.59477700,99594777,0.0,-0.05,0.0,0.4,137.77,137.77,0.0,0.0,3
