timestamp,TimeUS,C,Roll,Pitch,Yaw,VN,VE,VD,dPD,PN,PE,PD,GX,GY,GZ,OH
11.49405200,11494052,2,0.0,0.0,0.0,0.0,0.0,0.0,0.0,0.0,0.0,0.0,0.0,0.0,0.0,0.0
11.59403400,11594034,2,0.0,0.0,0.0,0.0,0.0,0.0,0.0,0.0,0.0,0.0,0.0,0.0,0.0,0.0
11.69407300,11694073,2,0.0,0.0,0.0,0.0,0.0,0.0,0.0,0.0,0.0,0.0,0.0,0.0,0.0,0.0
11.79406800,11794068,2,0.0,0.0,0.0,0.0,0.0,0.0,0.0,0.0,0.0,0.0,0.0,0.0,0.0,0.0
11.89401000,11894010,2,0.0,0.0,0.0,0.0,0.0,0.0,0.0,0.0,0.0,0.0,0.0,0.0,0.0,0.0
11.99401800,11994018,2,0.0,0.0,0.0,0.0,0.0,0.0,0.0,0.0,0.0,0.0,0.0,0.0,0.0,0.0
12.09399400,12093994,2,0.0,0.0,0.0,0.0,0.0,0.0,0.0,0.0,0.0,0.0,0.0,0.0,0.0,0.0
12.19398400,12193984,2,0.0,0.0,0.0,0.0,0.0,0.0,0.0,0.0,0.0,0.0,0.0,0.0,0.0,0.0
12.29398700,12293987,2,0.0,0.0,0.0,0.0,0.0,0.0,0.0,0.0,0.0,0.0,0.0,0.0,0.0,0.0
12.39404800,12394048,2,0.0,0.0,0.0,0.0,0.0,0.0,0.0,0.0,0.0,0.0,0.0,0.0,0.0,0.0
12.49401500,12494015,2,0.05,0.5,359.99,0.00017714887508191168,0.0006530940299853683,0.012005124241113663,0.0009347086306661367,0.0,0.0,0.00044056063052266836,0.0,0.0,0.0,0.0
12.59406500,12594065,2,0.06,0.49,359.98,0.0006165155791677535,0.0022329604253172874,0.050572145730257034,0.026232413947582245,0.0,0.0,0.003871432738378644,0.0,0.0,0.0,0.0
12.69407100,12694071,2,0.05,0.49,359.98,0.001465206383727491,0.0032456768676638603,0.09704408049583435,2.6243839263916016,0.0,0.0,0.32111769914627075,0.0,0.0,0.0,0.0
12.79398600,12793986,2,0.05,0.49,359.98,0.0013581328094005585,0.004492197185754776,0.1305740475654602,4.068322658538818,0.0,0.0,0.6486506462097168,0.0,0.0,0.0,0.0
12.89400300,12894003,2,0.05,0.49,359.98,0.002166145481169224,0.005714405328035355,0.1540708988904953,3.466397523880005,0.0,0.0,0.9159513711929321,0.0,0.0,0.0,0.0
12.99398000,12993980,2,0.04,0.49,359.98,0.002586610848084092,0.006149506662040949,0.17117704451084137,2.477348566055298,0.0,0.0,1.1323246955871582,0.0,0.0,0.0,0.0
13.09398500,13093985,2,0.04,0.49,359.97,0.0030555117409676313,0.006772811058908701,0.18341165781021118,1.77122163772583,0.0,0.0,1.3102352619171143,0.0,0.0,0.0,0.0
13.19397400,13193974,2,0.03,0.5,359.97,0.004079059697687626,0.006590215023607016,0.19355393946170807,1.30656898021698,0.0,0.0,1.4553511142730713,0.0,0.0,0.0,0.0
13.29404400,13294044,2,0.03,0.5,359.97,0.0051994286477565765,0.006265719886869192,0.20077987015247345,0.9741579294204712,0.0,0.0,1.5707732439041138,0.0,0.0,0.0,0.0
13.39409100,13394091,2,0.03,0.49,359.97,0.004586315248161554,0.0054764291271567345,0.20478709042072296,0.6919664740562439,0.0,0.0,1.657413125038147,0.0,0.0,0.0,0.0
13.49406600,13494066,2,0.02,0.49,359.97,0.005783536471426487,0.004427809733897448,0.20793065428733826,0.49321338534355164,0.0,0.0,1.7253038883209229,0.0,0.0,0.0,0.0
13.59405100,13594051,2,0.02,0.49,359.97,0.006047276314347982,0.0033244111109524965,0.20964772999286652,0.40231016278266907,0.0,0.0,1.7829240560531616,0.0,0.0,0.0,0.0
13.69398800,13693988,2,0.01,0.5,359.96,0.006142407190054655,0.0022602106910198927,0.21412570774555206,0.4385926425457001,0.0,0.0,1.8408138751983643,0.0,0.0,0.0,0.0
13.79400500,13794005,2,0.0,0.5,359.95,0.006137276068329811,0.0005072422209195793,0.22070911526679993,0.5125948190689087,0.0,0.0,1.8990216255187988,0.0,0.0,0.0,0.0
13.89397300,13893973,2,0.0,0.51,359.95,0.005709412042051554,-0.0005241153412498534,0.22656334936618805,0.5072920918464661,0.0,0.0,1.9515494108200073,0.0,0.0,0.0,0.0
13.99397600,13993976,2,0.0,0.51,138.48,0.004072725307196379,-0.0016546675469726324,0.23009097576141357,0.4354533553123474,0.0,0.0,1.9965012073516846,0.0,0.0,0.0,0.0
14.09398100,14093981,2,0.01,0.51,138.5,0.0034474169369786978,-0.0014612459344789386,0.2307676374912262,0.33993130922317505,0.0,0.0,2.0326569080352783,0.0,0.0,0.0,0.0
14.19404200,14194042,2,0.0,0.51,138.51,0.002366667380556464,-0.0005981396534480155,0.22949644923210144,0.2516866624355316,0.0,0.0,2.0615859031677246,0.0,0.0,0.0,0.0
14.29400500,14294005,2,0.0,0.51,138.48,0.002617110498249531,0.0003362961288075894,0.22833473980426788,0.21959370374679565,0.0,0.0,2.088780403137207,0.0,0.0,0.0,0.0
14.39407000,14394070,2,-0.01,0.51,138.44,0.0013860088074579835,0.0019835475832223892,0.22970913350582123,0.24718213081359863,0.0,0.0,2.117490530014038,0.0,0.0,0.0,0.0
14.49405000,14494050,2,-0.01,0.51,138.41,0.0011566274333745241,0.0027246836107224226,0.23146486282348633,0.29781612753868103,0.0,0.0,2.149744749069214,0.0,0.0,0.0,0.0
14.59404800,14594048,2,-0.02,0.51,138.42000000000002,0.0012353839119896293,0.003432051045820117,0.2334289699792862,0.33258527517318726,0.0,0.0,2.182718515396118,0.0,0.0,0.0,0.0
14.69401100,14694011,2,-0.02,0.51,138.46,0.0017580408602952957,0.004024876281619072,0.2338588684797287,0.3054955303668976,0.0,0.0,2.2119081020355225,0.0,0.0,0.0,0.0
14.79397700,14793977,2,-0.01,0.51,138.51,0.0016473610885441303,0.005744649097323418,0.23519091308116913,0.28166982531547546,0.0,0.0,2.2406795024871826,0.0,0.0,0.0,0.0
14.89397400,14893974,2,-0.02,0.51,138.55,0.0013341907178983092,0.006219523958861828,0.23530995845794678,0.25213563442230225,0.0,0.0,2.265775680541992,0.0,0.0,0.0,0.0
14.99400600,14994006,2,-0.02,0.51,138.58,0.0015409588813781738,0.006871188059449196,0.23168589174747467,0.1842639148235321,0.0,0.0,2.2843780517578125,0.0,0.0,0.0,0.0
15.09404700,15094047,2,-0.02,0.51,138.6,0.0013093719026073813,0.007671065628528595,0.22744673490524292,0.14315514266490936,0.0,0.0,2.3014001846313477,0.0,0.0,0.0,0.0
15.19400900,15194009,2,-0.02,0.51,138.63,0.0020982876885682344,0.00819163303822279,0.22111859917640686,0.11267172545194626,0.0,0.0,2.3143646717071533,0.0,0.0,0.0,0.0
15.29405800,15294058,2,-0.02,0.51,138.64000000000001,0.002393762581050396,0.008543115109205246,0.21673767268657684,0.10857592523097992,0.0,0.0,2.3279123306274414,0.0,0.0,0.0,0.0
15.39406400,15394064,2,-0.02,0.51,138.65,0.001994105288758874,0.008613986894488335,0.21065489947795868,0.09161564707756042,0.0,0.0,2.337484121322632,0.0,0.0,0.0,0.0
15.49398600,15493986,2,-0.02,0.51,138.65,0.0029894502367824316,0.008484456688165665,0.20374177396297455,0.0646955743432045,0.0,0.0,2.3455846309661865,0.0,0.0,0.0,0.0
15.59400700,15594007,2,-0.02,0.51,138.64000000000001,0.0033024977892637253,0.007519913371652365,0.2004980742931366,0.11147192120552063,0.0,0.0,2.3598172664642334,0.0,0.0,0.0,0.0
15.69397500,15693975,2,-0.01,0.51,138.63,0.0032969783060252666,0.006846992764621973,0.19604527950286865,0.13284935057163239,0.0,0.0,2.3719027042388916,0.0,0.0,0.0,0.0
15.79397300,15793973,2,-0.01,0.51,138.6,0.003571802517399192,0.006474005524069071,0.1856081485748291,0.04198708012700081,0.0,0.0,2.373945474624634,0.0,0.0,0.0,0.0
15.89397300,15893973,2,-0.01,0.51,138.56,0.004099125973880291,0.006178480572998524,0.17237542569637299,-0.06534455716609955,0.0,0.0,2.3688905239105225,0.0,0.0,0.0,0.0
15.99404200,15994042,2,0.0,0.51,138.53,0.003652408951893449,0.006240000948309898,0.1611471176147461,-0.07583107054233551,0.0,0.0,2.3663289546966553,-0.01,0.0,0.0,0.0
16.09403100,16094031,2,0.0,0.51,138.52,0.003282301127910614,0.005094547756016254,0.15134631097316742,-0.04254155606031418,0.0,0.0,2.3642733097076416,-0.01,0.0,0.0,0.0
16.19405500,16194055,2,0.0,0.51,138.5,0.002576342085376382,0.0035857423208653927,0.14335590600967407,-0.024739418178796768,0.0,0.0,2.362534999847412,-0.01,0.0,0.01,0.0
16.29404300,16294043,2,0.0,0.52,138.49,0.002121381228789687,0.00289284810423851,0.13535146415233612,0.001678316737525165,0.0,0.0,2.363551616668701,-0.01,0.0,0.01,0.0
16.39401300,16394013,2,0.0,0.52,138.47,0.0012420904822647572,0.0019220992689952254,0.13040143251419067,0.047937873750925064,0.0,0.0,2.3685972690582275,-0.01,0.0,0.01,0.0
16.49400100,16494001,2,0.01,0.52,138.47,0.0005354468594305217,0.0012398113030940294,0.1295074075460434,0.12262988835573196,0.0,0.0,2.380847454071045,-0.01,0.0,0.0,0.0
16.59397800,16593978,2,0.01,0.53,138.47,9.541378676658496e-05,-0.0004897383623756468,0.1301475167274475,0.1803693175315857,0.0,0.0,2.3963305950164795,-0.01,0.0,0.0,0.0
16.69398000,16693980,2,0.01,0.53,138.48,0.0003654944011941552,-0.0014774304581806064,0.1302066296339035,0.18513914942741394,0.0,0.0,2.4118101596832275,-0.01,0.0,0.0,0.0
16.79397400,16793974,2,0.01,0.53,138.49,-0.00015201480709947646,-0.001980131957679987,0.12357905507087708,0.09144065529108047,0.0,0.0,2.416205406188965,-0.01,0.0,0.0,0.0
16.89401400,16894014,2,0.01,0.53,138.49,-0.0005933719221502542,-0.0029647706542164087,0.11406918615102768,-0.015796571969985962,0.0,0.0,2.415848970413208,-0.01,0.0,0.0,0.0
16.99402400,16994024,2,0.02,0.52,138.51,-0.0011945225996896625,-0.003559849690645933,0.10712097585201263,-0.01983104832470417,0.0,0.0,2.417870044708252,-0.01,0.0,0.0,0.0
17.09406400,17094064,2,0.02,0.52,138.51,-0.001199264544993639,-0.004205411300063133,0.09987019747495651,0.0011277090525254607,0.0,0.0,2.4194512367248535,-0.01,0.0,0.0,0.0
17.19405200,17194052,2,0.02,0.52,138.51,-0.0005738522741012275,-0.004745246842503548,0.09119925647974014,-0.023489437997341156,0.0,0.0,2.416887044906616,-0.01,0.0,0.0,0.0
17.29405600,17294056,2,0.02,0.52,138.52,-0.0009014019160531461,-0.004246024880558252,0.08358290046453476,-0.02228936366736889,0.0,0.0,2.4170823097229004,-0.01,0.0,0.0,0.0
17.39401100,17394011,2,0.02,0.53,138.52,-0.000597295060288161,-0.003938090056180954,0.0793093740940094,0.032785698771476746,0.0,0.0,2.421884775161743,-0.01,0.0,-0.01,0.0
17.49398400,17493984,2,0.01,0.53,138.54,-0.0011373328743502498,-0.0032728950027376413,0.07696555554866791,0.080203115940094,0.0,0.0,2.429232358932495,-0.01,0.0,0.0,0.0
17.59398500,17593985,2,0.01,0.53,138.55,-0.0008895702776499093,-0.0028469220269471407,0.07040701806545258,0.05172859877347946,0.0,0.0,2.4311938285827637,-0.01,0.0,-0.01,0.0
17.69397600,17693976,2,0.0,0.53,138.57,-0.0003270570596214384,-0.0026124443393200636,0.06566281616687775,0.033384256064891815,0.0,0.0,2.4356894493103027,-0.01,0.0,-0.01,0.0
17.79403400,17794034,2,0.01,0.53,138.57,-0.0005170109798200428,-0.0029530010651797056,0.0636824369430542,0.06260424107313156,0.0,0.0,2.4421801567077637,-0.01,0.0,-0.01,0.0
17.89401500,17894015,2,0.0,0.53,138.58,-0.0005473888013511896,-0.0010157000506296754,0.06047896295785904,0.07293332368135452,0.0,0.0,2.4488418102264404,-0.01,0.0,0.0,0.0
17.99405800,17994058,2,0.0,0.52,138.57,-0.0003912901447620243,0.0006344467401504517,0.05690052732825279,0.0744742676615715,0.0,0.0,2.4558355808258057,-0.01,0.0,-0.01,0.0
18.09407100,18094071,2,0.0,0.52,138.57,0.00044453825103119016,0.0016890140250325203,0.05045125633478165,0.03525124490261078,0.0,0.0,2.4575486183166504,-0.01,0.0,-0.01,0.0
18.19398500,18193985,2,0.0,0.52,138.58,0.001007766812108457,0.003164277644827962,0.042797356843948364,-0.023715469986200333,0.0,0.0,2.4555671215057373,-0.01,0.0,-0.02,0.0
18.29400600,18294006,2,0.0,0.52,138.58,0.0015674937749281526,0.004132815171033144,0.03259722515940666,-0.07637924700975418,0.0,0.0,2.448748826980591,-0.01,0.0,-0.02,0.0
18.39398300,18393983,2,0.0,0.52,138.6,0.001912443432956934,0.0057513536885380745,0.022230280563235283,-0.10198558121919632,0.0,0.0,2.441256284713745,-0.01,0.0,-0.02,0.0
18.49397500,18493975,2,0.0,0.52,138.6,0.0016737037803977728,0.0072511485777795315,0.01568124257028103,-0.0691409781575203,0.0,0.0,2.4372482299804688,-0.01,0.0,-0.02,0.0
18.59397600,18593976,2,0.0,0.52,138.61,0.001466201152652502,0.008628154173493385,0.011695451103150845,-0.018454985693097115,0.0,0.0,2.43636417388916,-0.01,0.0,-0.02,0.0
18.69403800,18694038,2,0.0,0.51,138.61,0.0018269324209541082,0.009110095910727978,0.008313004858791828,0.019714752212166786,0.0,0.0,2.437652826309204,-0.01,0.0,-0.02,0.0
18.79405300,18794053,2,0.0,0.52,138.61,0.0020296312868595123,0.009355800226330757,0.00776696065440774,0.05946707725524902,0.0,0.0,2.442519187927246,-0.01,0.0,-0.01,0.0
18.89405500,18894055,2,0.0,0.52,138.6,0.002038532169535756,0.009303402155637741,0.0036487348843365908,0.017097974196076393,0.0,0.0,2.4409637451171875,-0.01,0.0,-0.01,0.0
18.99405300,18994053,2,0.0,0.53,138.58,0.0016446610679849982,0.009768345393240452,-0.0035420567728579044,-0.059400204569101334,0.0,0.0,2.435349941253662,-0.01,0.0,-0.01,0.0
19.09401300,19094013,2,0.01,0.53,138.56,0.0008353253360837698,0.010354802012443542,-0.010273062624037266,-0.07519807666540146,0.0,0.0,2.4296298027038574,-0.01,0.0,-0.01,0.0
19.19400300,19194003,2,0.01,0.53,138.55,0.001085818512365222,0.009645006619393826,-0.013985265046358109,-0.03392286226153374,0.0,0.0,2.4283130168914795,-0.01,0.0,0.0,0.0
19.29397500,19293975,2,0.01,0.53,138.53,0.0002929566544480622,0.00919331330806017,-0.01518949680030346,0.03245092183351517,0.0,0.0,2.431485652923584,-0.02,0.0,0.0,0.0
19.39397900,19393979,2,0.02,0.54,138.53,-1.736068952595815e-05,0.008661957457661629,-0.017023341730237007,0.038928788155317307,0.0,0.0,2.433115243911743,-0.02,0.0,-0.01,0.0
19.49397400,19493974,2,0.03,0.54,138.54,-0.00037663840339519083,0.007681121584028006,-0.017507387325167656,0.05147675797343254,0.0,0.0,2.438243865966797,-0.02,0.0,-0.01,0.0
19.59404300,19594043,2,0.03,0.54,138.54,-0.000679558259434998,0.007109360303729773,-0.014016009867191315,0.11522942781448364,0.0,0.0,2.4490792751312256,-0.02,0.0,-0.01,0.0
19.69402500,19694025,2,0.03,0.54,138.55,-0.0008119167760014534,0.005502116400748491,-0.012377884238958359,0.1203688234090805,0.0,0.0,2.4579381942749023,-0.02,0.0,-0.01,0.0
19.79406200,19794062,2,0.04,0.54,138.54,-0.0010749753564596176,0.004509002901613712,-0.013761445879936218,0.06790881603956223,0.0,0.0,2.4629857540130615,-0.02,0.0,-0.01,0.0
19.89405000,19894050,2,0.04,0.55,138.54,-0.0008069147006608546,0.004232995677739382,-0.01592561975121498,0.016138682141900063,0.0,0.0,2.464456081390381,-0.02,0.0,-0.01,0.0
19.99404800,19994048,2,0.04,0.55,138.53,-0.000573324563447386,0.003661129856482148,-0.01817297749221325,-0.016791218891739845,0.0,0.0,2.464038610458374,-0.02,0.0,0.0,0.0
20.09400800,20094008,2,0.04,0.55,138.52,-0.0008893859339877963,0.003151059616357088,-0.02152351848781109,-0.032537829130887985,0.0,0.0,2.4621124267578125,-0.02,0.0,-0.01,0.0
20.19397300,20193973,2,0.05,0.55,138.51,-0.000327101704897359,0.0017210134537890553,-0.022307049483060837,0.002176316687837243,0.0,0.0,2.4648728370666504,-0.02,0.0,0.0,0.0
20.29397600,20293976,2,0.05,0.55,138.5,-0.0009009033674374223,-5.985792085994035e-05,-0.02377500757575035,0.034268129616975784,0.0,0.0,2.4672558307647705,-0.02,0.0,0.0,0.0
20.39398000,20393980,2,0.05,0.56,138.49,-0.0016959658823907375,-0.00192656135186553,-0.026410946622490883,-0.004117567092180252,0.0,0.0,2.4655864238739014,-0.02,0.0,0.0,0.0
20.49404000,20494040,2,0.06,0.56,138.49,-0.0013382851611822844,-0.003827107371762395,-0.029004661366343498,-0.024254484102129936,0.0,0.0,2.464114189147949,-0.02,0.0,-0.01,0.0
20.59403400,20594034,2,0.06,0.56,138.49,-0.0009560558246448636,-0.00527923135086894,-0.03023739904165268,-0.004076010547578335,0.0,0.0,2.4647510051727295,-0.02,0.0,0.0,0.0
20.69406500,20694065,2,0.06,0.56,138.49,-0.00022264191647991538,-0.006882828194648027,-0.03101917915046215,0.02005418762564659,0.0,0.0,2.466789722442627,-0.02,0.0,-0.01,0.0
20.79405000,20794050,2,0.06,0.56,138.49,-0.0008041047258302569,-0.007961634546518326,-0.03235675022006035,0.02370476722717285,0.0,0.0,2.4682977199554443,-0.02,0.0,0.0,0.0
20.89405100,20894051,2,0.05,0.56,138.49,-0.0009253900498151779,-0.009265733882784843,-0.03286731243133545,0.004997492767870426,0.0,0.0,2.4679059982299805,-0.02,0.0,0.0,0.0
20.99400900,20994009,2,0.05,0.56,138.49,-0.0011696331202983856,-0.010637206956744194,-0.03477320447564125,-0.01737765036523342,0.0,0.0,2.4662387371063232,-0.02,0.0,0.0,0.0
21.09397400,21093974,2,0.05,0.56,138.49,-0.0008977362886071205,-0.01115201972424984,-0.03672078624367714,-0.02007967047393322,0.0,0.0,2.465216875076294,-0.02,0.0,0.0,0.0
21.19397300,21193973,2,0.04,0.56,138.48,-0.0009795214282348752,-0.010811453685164452,-0.035859715193510056,0.025505198165774345,0.0,0.0,2.469414472579956,-0.02,0.0,0.0,0.0
21.29397700,21293977,2,0.05,0.5700000000000001,138.47,-0.0016844415804371238,-0.01153029128909111,-0.03396445885300636,0.0875185877084732,0.0,0.0,2.477771282196045,-0.02,0.0,0.0,0.0
21.39405300,21394053,2,0.04,0.5700000000000001,138.46,-0.0005464848945848644,-0.012092243880033493,-0.03155208006501198,0.09792176634073257,0.0,0.0,2.484978199005127,-0.02,0.0,0.0,0.0
21.49401100,21494011,2,0.04,0.58,138.45000000000002,-0.0005542756407521665,-0.011718139052391052,-0.029306598007678986,0.10890430212020874,0.0,0.0,2.4940414428710938,-0.02,0.0,0.0,0.0
21.59405900,21594059,2,0.03,0.58,138.44,-0.0003466556954663247,-0.011552447453141212,-0.02709512785077095,0.10959194600582123,0.0,0.0,2.5031161308288574,-0.02,0.0,0.0,0.0
21.69404800,21694048,2,0.04,0.58,138.43,-0.00013257084356155246,-0.011541781947016716,-0.024605300277471542,0.1019524410367012,0.0,0.0,2.5128610134124756,-0.02,0.0,0.0,0.0
21.79398700,21793987,2,0.03,0.58,138.43,0.0012495913542807102,-0.011207926087081432,-0.02197900228202343,0.11510194092988968,0.0,0.0,2.5238895416259766,-0.02,0.0,0.0,0.0
21.89400300,21894003,2,0.03,0.58,138.43,0.0018490494694560766,-0.011582200415432453,-0.019595544785261154,0.10608790814876556,0.0,0.0,2.5335276126861572,-0.02,0.0,0.0,0.0
21.99398300,21993983,2,0.03,0.58,138.41,0.0028969785198569298,-0.011108758859336376,-0.018369168043136597,0.06640541553497314,0.0,0.0,2.539644479751587,-0.02,0.0,0.0,0.0
22.09397700,22093977,2,0.03,0.58,138.41,0.0038594244979321957,-0.011539564467966557,-0.01884819008409977,0.01599188707768917,0.0,0.0,2.5416109561920166,-0.02,0.0,0.0,0.0
22.19397300,22193973,2,0.03,0.58,138.41,0.004494961816817522,-0.010526415891945362,-0.01987265981733799,0.00019129738211631775,0.0,0.0,2.543745756149292,-0.02,0.0,0.0,0.0
22.29403400,22294034,2,0.02,0.58,138.4,0.0051639145240187645,-0.009380429051816463,-0.019456062465906143,0.03375938534736633,0.0,0.0,2.548783540725708,-0.02,0.0,0.0,0.0
22.39405600,22394056,2,0.02,0.58,138.39000000000001,0.005417437758296728,-0.008080757223069668,-0.018910331651568413,0.03964739665389061,0.0,0.0,2.5519907474517822,-0.02,0.0,0.0,0.0
22.49405700,22494057,2,0.02,0.58,138.37,0.006529037840664387,-0.00670397374778986,-0.019754385575652122,0.005067937076091766,0.0,0.0,2.552206516265869,-0.02,0.0,0.01,0.0
22.59405100,22594051,2,0.02,0.58,138.35,0.007192846387624741,-0.006630126852542162,-0.022104905918240547,-0.02929496578872204,0.0,0.0,2.5497560501098633,-0.02,0.0,0.0,0.0
22.69406100,22694061,2,0.02,0.5700000000000001,138.33,0.007730808109045029,-0.006120684556663036,-0.02431260235607624,-0.04374304413795471,0.0,0.0,2.546922445297241,-0.02,0.0,0.01,0.0
22.79400300,22794003,2,0.01,0.56,138.31,0.009139877744019032,-0.0057471441105008125,-0.0249611996114254,-0.0020025642588734627,0.0,0.0,2.5489180088043213,-0.02,0.0,0.01,0.0
22.89397300,22893973,2,0.01,0.56,138.29,0.009603278711438179,-0.006551475264132023,-0.0252947099506855,0.028323551639914513,0.0,0.0,2.5504822731018066,-0.02,0.0,0.01,0.0
22.99398400,22993984,2,0.01,0.56,138.28,0.01007646881043911,-0.006653324235230684,-0.026508592069149017,0.004409168381243944,0.0,0.0,2.5499300956726074,-0.02,0.0,0.01,0.0
23.09397300,23093973,2,0.01,0.56,138.28,0.009981607086956501,-0.006425988860428333,-0.02665388025343418,0.00989953987300396,0.0,0.0,2.5515635013580322,-0.02,0.0,0.0,0.0
23.19403700,23194037,2,0.01,0.56,138.29,0.010263463482260704,-0.00763908913359046,-0.02569996751844883,0.025052228942513466,0.0,0.0,2.5534393787384033,-0.02,0.0,0.0,0.0
23.29400700,23294007,2,0.01,0.56,138.3,0.010085199028253555,-0.007897179573774338,-0.025855766609311104,0.036714669317007065,0.0,0.0,2.5572855472564697,-0.02,0.0,0.0,0.0
23.39405900,23394059,2,0.01,0.56,138.32,0.010629663243889809,-0.007167581934481859,-0.025039587169885635,0.04914620518684387,0.0,0.0,2.5611770153045654,-0.02,0.0,0.0,0.0
23.49404300,23494043,2,0.01,0.56,138.34,0.00947899091988802,-0.006764997728168964,-0.024335412308573723,0.0423322431743145,0.0,0.0,2.564781427383423,-0.02,0.0,0.0,0.0
23.59404800,23594048,2,0.01,0.56,138.36,0.009603812359273434,-0.007396350614726543,-0.025336844846606255,0.00840167235583067,0.0,0.0,2.564307451248169,-0.02,0.0,0.0,0.0
23.69400500,23694005,2,0.01,0.56,138.37,0.01006871834397316,-0.00799184013158083,-0.027112208306789398,-0.0348651148378849,0.0,0.0,2.561659812927246,-0.02,0.0,0.0,0.0
23.79398400,23793984,2,0.01,0.56,138.38,0.010648349300026894,-0.008238185197114944,-0.02626112662255764,-0.011360942386090755,0.0,0.0,2.5629565715789795,-0.02,0.0,0.0,0.0
23.89397300,23893973,2,0.01,0.5700000000000001,138.38,0.011518580839037895,-0.008389245718717575,-0.02484132908284664,0.03832278400659561,0.0,0.0,2.566836357116699,-0.02,0.0,0.0,0.0
23.99398000,23993980,2,0.01,0.5700000000000001,138.4,0.010488860309123993,-0.008251759223639965,-0.02528221532702446,0.03425696864724159,0.0,0.0,2.5689430236816406,-0.02,0.0,-0.01,0.0
24.09403800,24094038,2,0.02,0.56,138.41,0.010006191208958626,-0.008659680373966694,-0.024426370859146118,0.02557310275733471,0.0,0.0,2.5712809562683105,-0.02,0.0,-0.01,0.0
24.19403100,24194031,2,0.02,0.5700000000000001,138.42000000000002,0.010273981839418411,-0.008549731224775314,-0.02388601563870907,0.03788624703884125,0.0,0.0,2.5747528076171875,-0.02,0.0,0.0,0.0
24.29406200,24294062,2,0.03,0.56,138.41,0.009833208285272121,-0.009016751311719418,-0.02290474623441696,0.04546399042010307,0.0,0.0,2.5786032676696777,-0.02,0.0,0.0,0.0
24.39405400,24394054,2,0.03,0.56,138.42000000000002,0.009274108335375786,-0.008931462652981281,-0.022386012598872185,0.039308059960603714,0.0,0.0,2.5820930004119873,-0.02,0.0,-0.01,0.0
24.49405300,24494053,2,0.03,0.56,138.41,0.008218272589147091,-0.010584655217826366,-0.02104189246892929,0.05910196900367737,0.0,0.0,2.5882925987243652,-0.02,0.0,0.0,0.0
24.59400400,24594004,2,0.03,0.56,138.4,0.007880746386945248,-0.010893939062952995,-0.019785113632678986,0.07621513307094574,0.0,0.0,2.595015525817871,-0.02,0.0,0.0,0.0
24.69398000,24693980,2,0.02,0.56,138.4,0.007787302602082491,-0.010972023010253906,-0.018511898815631866,0.0607559010386467,0.0,0.0,2.600184679031372,-0.02,0.0,0.0,0.0
24.79397300,24793973,2,0.02,0.56,138.39000000000001,0.007559671998023987,-0.01137855276465416,-0.01753963716328144,0.04521740972995758,0.0,0.0,2.6045708656311035,-0.02,0.0,0.0,0.0
24.89397400,24893974,2,0.02,0.55,138.38,0.007022889796644449,-0.01140464749187231,-0.017752744257450104,0.032526418566703796,0.0,0.0,2.607898473739624,-0.02,0.0,0.0,0.0
24.99404300,24994043,2,0.02,0.56,138.38,0.006412890739738941,-0.010340476408600807,-0.017888618633151054,0.030204230919480324,0.0,0.0,2.6115217208862305,-0.02,0.0,0.0,0.0
25.09400500,25094005,2,0.02,0.55,138.38,0.005415905732661486,-0.009572092443704605,-0.018287010490894318,0.030993496999144554,0.0,0.0,2.614711284637451,-0.02,0.0,0.0,0.0
25.19406100,25194061,2,0.02,0.55,138.39000000000001,0.006157098338007927,-0.009260508231818676,-0.01870845817029476,0.014414257369935513,0.0,0.0,2.6159794330596924,-0.02,0.0,0.0,0.0
25.29405100,25294051,2,0.02,0.54,138.39000000000001,0.006186952814459801,-0.008319956250488758,-0.018934834748506546,0.021472658962011337,0.0,0.0,2.6195247173309326,-0.02,0.0,0.0,0.0
25.39405400,25394054,2,0.01,0.54,138.39000000000001,0.005812395364046097,-0.007777784951031208,-0.01862952671945095,0.048747263848781586,0.0,0.0,2.624279022216797,-0.02,0.0,0.0,0.0
25.49400600,25494006,2,0.01,0.54,138.39000000000001,0.005725319962948561,-0.0065957969054579735,-0.018017234280705452,0.050355855375528336,0.0,0.0,2.62853741645813,-0.02,0.0,0.0,0.0
25.59397600,25593976,2,0.02,0.52,138.4,0.004592399578541517,-0.004668861627578735,-0.017164723947644234,0.04009275138378143,0.0,0.0,2.6319050788879395,-0.02,0.0,0.0,0.0
25.69397900,25693979,2,0.02,0.52,138.4,0.0037825016770511866,-0.0037247026339173317,-0.017597148194909096,0.02666652202606201,0.0,0.0,2.634472131729126,-0.02,0.0,0.0,0.0
25.79399800,25793998,2,0.02,0.52,138.42000000000002,0.004032605793327093,-0.0029605545569211245,-0.017146442085504532,0.018681110814213753,0.0,0.0,2.6364898681640625,-0.02,0.0,-0.01,0.0
25.89405000,25894050,2,0.01,0.53,138.43,0.003580473829060793,-0.0023985360749065876,-0.015274790115654469,0.032746002078056335,0.0,0.0,2.6404943466186523,-0.02,0.0,-0.01,0.0
25.99401700,25994017,2,0.01,0.53,138.43,0.003098542569205165,-0.000871312222443521,-0.015326774679124355,0.0363018698990345,0.0,0.0,2.6433863639831543,-0.02,0.0,-0.01,0.0
26.09406500,26094065,2,0.0,0.53,138.44,0.002564764581620693,0.00022910608095116913,-0.015966666862368584,0.0016712419455870986,0.0,0.0,2.6429073810577393,-0.02,0.0,0.0,0.0
26.19404100,26194041,2,0.0,0.53,138.43,0.0024254254531115294,0.00019570659787859768,-0.01641467958688736,-0.01545063778758049,0.0,0.0,2.642500638961792,-0.02,0.0,-0.01,0.0
26.29405200,26294052,2,0.0,0.53,138.43,0.0018339540110900998,0.001284350990317762,-0.01685599982738495,-0.006237582769244909,0.0,0.0,2.642639636993408,-0.02,0.0,-0.01,0.0
26.39400800,26394008,2,0.0,0.52,138.43,0.002145622158423066,0.001328983693383634,-0.018115578219294548,0.007327832747250795,0.0,0.0,2.6439952850341797,-0.02,0.0,0.0,0.0
26.49398400,26493984,2,-0.01,0.53,138.42000000000002,0.002890906995162368,0.002154849236831069,-0.01708715409040451,0.02956840582191944,0.0,0.0,2.6467549800872803,-0.02,0.0,0.0,0.0
26.59397600,26593976,2,0.0,0.54,138.41,0.002657586243003607,0.003180127125233412,-0.015071759931743145,0.06495708972215652,0.0,0.0,2.653205633163452,-0.02,0.0,0.0,0.0
26.69398800,26693988,2,0.0,0.54,138.4,0.002704487880691886,0.0034093190915882587,-0.01371059287339449,0.08871051669120789,0.0,0.0,2.6604604721069336,-0.02,0.0,0.0,0.0
26.79405000,26794050,2,0.0,0.54,138.39000000000001,0.003238797653466463,0.003969758749008179,-0.012743238359689713,0.06769628077745438,0.0,0.0,2.6654276847839355,-0.02,0.0,0.0,0.0
26.89402500,26894025,2,0.0,0.54,138.38,0.003907262813299894,0.004164988175034523,-0.012383388355374336,0.03178037330508232,0.0,0.0,2.667968273162842,-0.02,0.0,0.0,0.0
26.99407200,26994072,2,0.0,0.54,138.39000000000001,0.0037001592572778463,0.003789058420807123,-0.012556658126413822,-0.011392186395823956,0.0,0.0,2.6666409969329834,-0.02,0.0,-0.01,0.0
27.09406000,27094060,2,0.0,0.54,138.39000000000001,0.0034097207244485617,0.00300899101421237,-0.013856838457286358,-0.05940535292029381,0.0,0.0,2.6615474224090576,-0.02,0.0,0.0,0.0
27.19398700,27193987,2,0.0,0.54,138.39000000000001,0.004088276531547308,0.002356934128329158,-0.014878375455737114,-0.06294991821050644,0.0,0.0,2.6582086086273193,-0.02,0.0,-0.01,0.0
27.29401000,27294010,2,0.0,0.55,138.41,0.0038990771863609552,0.0023890305310487747,-0.016077551990747452,-0.02755158580839634,0.0,0.0,2.6567792892456055,-0.02,0.0,-0.01,0.0
27.39397600,27393976,2,-0.01,0.55,138.43,0.004191286396235228,0.0027983253821730614,-0.015485121868550777,9.534385753795505e-05,0.0,0.0,2.6569910049438477,-0.02,0.0,-0.01,0.0
27.49397300,27493973,2,-0.01,0.56,138.45000000000002,0.00400372501462698,0.0033836369402706623,-0.015251317992806435,0.024190882220864296,0.0,0.0,2.6590311527252197,-0.02,0.0,-0.02,0.0
27.59397500,27593975,2,-0.01,0.56,138.48,0.00441320613026619,0.003595873713493347,-0.015013559721410275,0.018498778343200684,0.0,0.0,2.6593499183654785,-0.02,0.0,-0.02,0.0
27.69404700,27694047,2,-0.01,0.56,138.49,0.004863552283495665,0.0038723296020179987,-0.015141723677515984,0.0018613551510497928,0.0,0.0,2.6592161655426025,-0.02,0.0,-0.01,0.0
27.79402200,27794022,2,-0.02,0.5700000000000001,138.49,0.0052786036394536495,0.003482147352769971,-0.014887387864291668,0.007873873226344585,0.0,0.0,2.66042160987854,-0.02,0.0,-0.01,0.0
27.89405500,27894055,2,-0.02,0.58,138.5,0.006138322409242392,0.003569090971723199,-0.015255342237651348,0.004121755715459585,0.0,0.0,2.660261869430542,-0.02,0.0,-0.01,0.0
27.99405800,27994058,2,-0.03,0.58,138.5,0.006706110201776028,0.0039281947538256645,-0.015956835821270943,-0.0006131884874776006,0.0,0.0,2.6605279445648193,-0.02,0.0,-0.01,0.0
28.09401600,28094016,2,-0.02,0.5700000000000001,138.49,0.008197340182960033,0.003299827454611659,-0.015859654173254967,0.006636833772063255,0.0,0.0,2.6613473892211914,-0.02,0.0,-0.01,0.0
28.19400300,28194003,2,-0.02,0.5700000000000001,138.5,0.009903715923428535,0.0026463577523827553,-0.01548103429377079,0.0028584282845258713,0.0,0.0,2.6611979007720947,-0.02,0.0,-0.01,0.0
28.29398100,28293981,2,-0.03,0.5700000000000001,138.5,0.011289815418422222,0.0024887321051210165,-0.01377028226852417,0.02618924342095852,0.0,0.0,2.6647632122039795,-0.02,0.0,-0.01,0.0
28.39398100,28393981,2,-0.03,0.58,138.5,0.012290538288652897,0.0026989609468728304,-0.012123536318540573,0.05320239067077637,0.0,0.0,2.669297218322754,-0.02,0.0,-0.01,0.0
28.49397400,28493974,2,-0.03,0.5700000000000001,138.49,0.013055217452347279,0.0022107791155576706,-0.010521952994167805,0.05767025426030159,0.0,0.0,2.674002170562744,-0.02,0.0,-0.01,0.0
28.59403200,28594032,2,-0.04,0.58,138.49,0.014107553288340569,0.0022831857204437256,-0.008409319445490837,0.04898278787732124,0.0,0.0,2.6778714656829834,-0.02,0.0,-0.01,0.0
28.69403200,28694032,2,-0.04,0.58,138.48,0.014386096969246864,0.0017088688910007477,-0.008169892244040966,0.01961759477853775,0.0,0.0,2.6790554523468018,-0.02,0.0,-0.01,0.0
28.79405700,28794057,2,-0.03,0.58,138.47,0.01641295664012432,0.0023700075689703226,-0.007133928593248129,0.015519526787102222,0.0,0.0,2.6817338466644287,-0.02,0.0,-0.01,0.0
28.89404100,28894041,2,-0.04,0.58,138.47,0.017635120078921318,0.0018308265134692192,-0.006122095510363579,0.03250013664364815,0.0,0.0,2.6853551864624023,-0.02,0.0,-0.01,0.0
28.99401200,28994012,2,-0.04,0.59,138.47,0.018040312454104424,0.001431137789040804,-0.004765473771840334,0.05731595307588577,0.0,0.0,2.6913936138153076,-0.02,0.0,-0.01,0.0
29.09400400,29094004,2,-0.04,0.6,138.48,0.01903088018298149,0.0013256411766633391,-0.003416379215195775,0.07647527009248734,0.0,0.0,2.69824481010437,-0.02,0.0,-0.01,0.0
29.19397900,29193979,2,-0.04,0.6,138.48,0.01994783617556095,0.0003078430599998683,-0.0021084260661154985,0.07402543723583221,0.0,0.0,2.70459246635437,-0.02,0.0,-0.01,0.0
29.29398600,29293986,2,-0.04,0.6,138.48,0.021704556420445442,-0.00033179932506754994,-4.143571641179733e-05,0.08644145727157593,0.0,0.0,2.7132577896118164,-0.02,0.0,-0.01,0.0
29.39397900,29393979,2,-0.05,0.6,138.48,0.023107079789042473,-0.0006793958600610495,0.0009348539751954377,0.07300156354904175,0.0,0.0,2.7188985347747803,-0.02,0.0,-0.01,0.0
29.49403500,29494035,2,-0.04,0.6,138.47,0.02392706088721752,-0.0008098527905531228,0.0018357880180701613,0.03197766840457916,0.0,0.0,2.7216598987579346,-0.02,0.0,-0.01,0.0
29.59402600,29594026,2,-0.04,0.61,138.46,0.025365278124809265,-0.0015566111542284489,0.002026885747909546,0.00450889440253377,0.0,0.0,2.722834348678589,-0.02,0.0,-0.01,0.0
29.69405700,29694057,2,-0.04,0.61,138.45000000000002,0.02690690942108631,-0.0022943445947021246,0.001974270213395357,0.009155736304819584,0.0,0.0,2.7253856658935547,-0.02,0.0,-0.01,0.0
29.79406800,29794068,2,-0.05,0.61,138.44,0.027411455288529396,-0.0026724275667220354,0.003237680532038212,0.033032119274139404,0.0,0.0,2.729396104812622,-0.02,0.0,-0.01,0.0
29.89398500,29893985,2,-0.05,0.61,138.44,0.028669029474258423,-0.002853867830708623,0.004774491302669048,0.04679780453443527,0.0,0.0,2.733795642852783,-0.02,0.0,-0.01,0.0
29.99401200,29994012,2,-0.05,0.61,138.43,0.029598411172628403,-0.0028281284030526876,0.00499344989657402,0.036804407835006714,0.0,0.0,2.7367045879364014,-0.02,0.0,-0.01,0.0
30.09396500,30093965,2,-0.05,0.61,138.42000000000002,0.02976815216243267,-0.003783884458243847,0.00538178626447916,0.015445797704160213,0.0,0.0,2.7380270957946777,-0.02,0.0,-0.01,0.0
30.19396200,30193962,2,-0.05,0.62,138.41,0.030365677550435066,-0.00458385469391942,0.006048570387065411,0.0030679439660161734,0.0,0.0,2.738781213760376,-0.02,0.0,-0.01,0.0
30.29397300,30293973,2,-0.05,0.62,138.4,0.031365446746349335,-0.005980250425636768,0.008575565181672573,0.020525788888335228,0.0,0.0,2.7418415546417236,-0.02,0.0,-0.01,0.0
30.39403900,30394039,2,-0.05,0.62,138.4,0.03316563367843628,-0.007061664946377277,0.009538361802697182,0.03896176442503929,0.0,0.0,2.745600461959839,-0.02,0.0,-0.01,0.0
30.49398900,30493989,2,-0.05,0.62,138.39000000000001,0.03444734960794449,-0.0069160074926912785,0.008844932541251183,0.03953705355525017,0.0,0.0,2.7490811347961426,-0.02,0.0,0.0,0.0
30.59405900,30594059,2,-0.05,0.62,138.39000000000001,0.035580772906541824,-0.007290580775588751,0.00935911200940609,0.036083903163671494,0.0,0.0,2.752371072769165,-0.02,0.0,0.0,0.0
30.69404200,30694042,2,-0.05,0.62,138.39000000000001,0.03658390790224075,-0.00814544502645731,0.009828239679336548,0.029763882979750633,0.0,0.0,2.755168914794922,-0.02,0.0,-0.01,0.0
30.79397200,30793972,2,-0.05,0.62,138.38,0.03648240864276886,-0.00805676355957985,0.00894877128303051,0.012213523499667645,0.0,0.0,2.756042718887329,-0.02,0.0,0.0,0.0
30.89399500,30893995,2,-0.05,0.61,138.38,0.037138160318136215,-0.007654544897377491,0.007865794003009796,-0.009854597970843315,0.0,0.0,2.755328893661499,-0.02,0.0,0.0,0.0
30.99397200,30993972,2,-0.05,0.62,138.37,0.03786713629961014,-0.007903298363089561,0.007492685690522194,-0.021712858229875565,0.0,0.0,2.753859758377075,-0.02,0.0,0.0,0.0
31.09397100,31093971,2,-0.05,0.61,138.36,0.03798440471291542,-0.00753231393173337,0.007167866453528404,-0.025355089455842972,0.0,0.0,2.7520270347595215,-0.02,0.0,0.0,0.0
31.19396800,31193968,2,-0.05,0.62,138.36,0.03808489814400673,-0.00791211985051632,0.006783324759453535,-0.029153048992156982,0.0,0.0,2.7497596740722656,-0.02,0.0,-0.01,0.0
31.29403700,31294037,2,-0.04,0.61,138.37,0.038320716470479965,-0.007626601029187441,0.006705275271087885,-0.024307826533913612,0.0,0.0,2.748070478439331,-0.02,0.0,-0.01,0.0
31.39401900,31394019,2,-0.04,0.62,138.38,0.038583025336265564,-0.007785696070641279,0.007839377038180828,0.008752916939556599,0.0,0.0,2.7496092319488525,-0.02,0.0,-0.01,0.0
31.49405700,31494057,2,-0.04,0.62,138.38,0.0380035899579525,-0.008604606613516808,0.006816399283707142,0.031316038221120834,0.0,0.0,2.7519001960754395,-0.02,0.0,-0.01,0.0
31.59403700,31594037,2,-0.04,0.62,138.38,0.037897199392318726,-0.009355849586427212,0.008385062217712402,0.04324161633849144,0.0,0.0,2.755563735961914,-0.02,0.0,-0.01,0.0
31.69396500,31693965,2,-0.04,0.62,138.38,0.038345903158187866,-0.009899212047457695,0.010303336195647717,0.061625201255083084,0.0,0.0,2.7608985900878906,-0.02,0.0,-0.01,0.0
31.79400000,31794000,2,-0.04,0.61,138.37,0.038880154490470886,-0.01035909354686737,0.011533361859619617,0.06053478270769119,0.0,0.0,2.7656853199005127,-0.02,0.0,0.0,0.0
31.89396400,31893964,2,-0.04,0.61,138.37,0.03777192160487175,-0.010988608933985233,0.01256913598626852,0.04352385550737381,0.0,0.0,2.7693963050842285,-0.02,0.0,0.0,0.0
31.99397600,31993976,2,-0.04,0.6,138.35,0.03773451969027519,-0.010857615619897842,0.01398063637316227,0.05509888380765915,0.0,0.0,2.7755513191223145,-0.02,0.0,0.0,0.0
32.09397500,32093975,2,-0.04,0.61,138.34,0.03764399513602257,-0.010903974063694477,0.0154550326988101,0.07753093540668488,0.0,0.0,2.7827491760253906,-0.02,0.0,0.0,0.0
32.19403000,32194030,2,-0.03,0.6,138.33,0.03741835057735443,-0.011425712145864964,0.015529586002230644,0.06403440982103348,0.0,0.0,2.7879867553710938,-0.02,0.0,0.0,0.0
32.29401800,32294018,2,-0.03,0.6,138.32,0.036565061658620834,-0.011166502721607685,0.016049835830926895,0.03281136974692345,0.0,0.0,2.790775775909424,-0.02,0.0,0.0,0.0
32.39406000,32394060,2,-0.03,0.6,138.32,0.035837091505527496,-0.011883961968123913,0.01633090153336525,0.015466623939573765,0.0,0.0,2.7931137084960938,-0.02,0.0,0.0,0.0
32.49403600,32494036,2,-0.03,0.6,138.32,0.03512023389339447,-0.013027776032686234,0.01717756688594818,0.037053532898426056,0.0,0.0,2.7982208728790283,-0.02,0.0,0.0,0.0
32.59396900,32593969,2,-0.04,0.6,138.32,0.034698694944381714,-0.013785925693809986,0.018296172842383385,0.06245385482907295,0.0,0.0,2.8042612075805664,-0.02,0.0,0.0,0.0
32.69399800,32693998,2,-0.04,0.6,138.32,0.0339508019387722,-0.013844740577042103,0.020130092278122902,0.06853955239057541,0.0,0.0,2.810526132583618,-0.02,0.0,0.0,0.0
32.79396300,32793963,2,-0.04,0.59,138.32,0.03364123776555061,-0.01469811238348484,0.021405277773737907,0.06609213352203369,0.0,0.0,2.8164165019989014,-0.02,0.0,0.0,0.0
32.89396100,32893961,2,-0.04,0.58,138.32,0.03380851447582245,-0.01490798033773899,0.022173548117280006,0.0409020259976387,0.0,0.0,2.819699287414551,-0.02,0.0,0.0,0.0
32.99396500,32993965,2,-0.05,0.58,138.31,0.03384336829185486,-0.014183790422976017,0.02313704416155815,0.023851314559578896,0.0,0.0,2.822678327560425,-0.02,0.0,0.0,0.0
33.09403600,33094036,2,-0.05,0.58,138.31,0.03346775472164154,-0.014192728325724602,0.02470978908240795,0.04184016212821007,0.0,0.0,2.8279643058776855,-0.02,0.0,0.0,0.0
33.19402900,33194029,2,-0.05,0.58,138.3,0.032492104917764664,-0.014053707011044025,0.025358911603689194,0.053308356553316116,0.0,0.0,2.832899332046509,-0.02,0.0,0.0,0.0
33.29405100,33294051,2,-0.05,0.5700000000000001,138.3,0.03182683140039444,-0.013619817793369293,0.025472871959209442,0.04899013414978981,0.0,0.0,2.837542772293091,-0.02,0.0,0.0,0.0
33.39404700,33394047,2,-0.05,0.5700000000000001,138.29,0.0312957726418972,-0.012099475599825382,0.026572957634925842,0.05652087554335594,0.0,0.0,2.8434391021728516,-0.02,0.0,0.0,0.0
33.49398200,33493982,2,-0.06,0.5700000000000001,138.29,0.031182778999209404,-0.011134293861687183,0.028913095593452454,0.06665381789207458,0.0,0.0,2.8497302532196045,-0.02,0.0,0.0,0.0
33.59399400,33593994,2,-0.06,0.58,138.28,0.031554289162158966,-0.010635584592819214,0.029996357858181,0.06256891041994095,0.0,0.0,2.8554415702819824,-0.02,0.0,0.0,0.0
33.69396500,33693965,2,-0.06,0.5700000000000001,138.29,0.03084435500204563,-0.01034620776772499,0.031035680323839188,0.05669638514518738,0.0,0.0,2.860997438430786,-0.02,0.0,0.0,0.0
33.79396500,33793965,2,-0.07,0.5700000000000001,138.28,0.031364381313323975,-0.009883069433271885,0.03172388672828674,0.05203001946210861,0.0,0.0,2.866154432296753,-0.02,0.0,0.0,0.0
33.89396200,33893962,2,-0.07,0.58,138.28,0.031234093010425568,-0.008333924226462841,0.033409226685762405,0.0661553367972374,0.0,0.0,2.873338222503662,-0.02,0.0,0.0,0.0
33.99400600,33994006,2,-0.06,0.5700000000000001,138.28,0.03156803920865059,-0.0072804102674126625,0.03463985398411751,0.06261380761861801,0.0,0.0,2.878610134124756,-0.02,0.0,0.0,0.0
34.09401200,34094012,2,-0.06,0.56,138.27,0.031802717596292496,-0.0064178709872066975,0.03503628075122833,0.04593765735626221,0.0,0.0,2.883244514465332,-0.02,0.0,0.0,0.0
34.19404300,34194043,2,-0.06,0.56,138.27,0.031530220061540604,-0.0050459615886211395,0.03463190421462059,0.026293525472283363,0.0,0.0,2.8857665061950684,-0.02,0.01,0.0,0.0
34.29404700,34294047,2,-0.06,0.56,138.27,0.03145298361778259,-0.0035659000277519226,0.0350741483271122,0.019080165773630142,0.0,0.0,2.8886592388153076,-0.02,0.01,0.0,0.0
34.39398600,34393986,2,-0.06,0.56,138.27,0.031119879335165024,-0.0022879752796143293,0.03452865779399872,0.020873643457889557,0.0,0.0,2.8911960124969482,-0.02,0.01,0.0,0.0
34.49399900,34493999,2,-0.06,0.56,138.26,0.030838146805763245,-0.0022756231483072042,0.035850197076797485,0.02659468911588192,0.0,0.0,2.894261360168457,-0.02,0.01,0.0,0.0
34.59396500,34593965,2,-0.06,0.5700000000000001,138.27,0.030247576534748077,-0.002269895514473319,0.036338113248348236,0.030584042891860008,0.0,0.0,2.8972935676574707,-0.02,0.01,0.0,0.0
34.69396800,34693968,2,-0.06,0.5700000000000001,138.27,0.030186476185917854,-0.0015758582158014178,0.03614848107099533,0.013479289598762989,0.0,0.0,2.8981692790985107,-0.02,0.01,0.0,0.0
34.79396200,34793962,2,-0.06,0.56,138.27,0.030488507822155952,4.614405406755395e-05,0.036552708595991135,0.009432757273316383,0.0,0.0,2.899995803833008,-0.02,0.01,0.0,0.0
34.89400600,34894006,2,-0.06,0.56,138.27,0.03062434121966362,0.0004840772016905248,0.036687400192022324,0.01849927194416523,0.0,0.0,2.902134656906128,-0.02,0.01,0.0,0.0
34.99401100,34994011,2,-0.06,0.55,138.26,0.03029344603419304,0.0017435664776712656,0.036817871034145355,0.02675197273492813,0.0,0.0,2.9049713611602783,-0.02,0.01,0.0,0.0
35.09405200,35094052,2,-0.06,0.56,138.26,0.030959339812397957,0.002919038524851203,0.036952074617147446,0.012388285249471664,0.0,0.0,2.905365467071533,-0.02,0.01,0.0,0.0
35.19404800,35194048,2,-0.06,0.56,138.27,0.030792564153671265,0.003216476645320654,0.03789303079247475,0.02131514437496662,0.0,0.0,2.908719301223755,-0.02,0.01,0.0,0.0
35.29396600,35293966,2,-0.05,0.56,138.26,0.02969990484416485,0.0037526353262364864,0.03842172026634216,0.03269017115235329,0.0,0.0,2.911351203918457,-0.02,0.01,0.0,0.0
35.39399600,35393996,2,-0.06,0.55,138.26,0.02868250198662281,0.0037278549280017614,0.03952852636575699,0.04194172844290733,0.0,0.0,2.91579008102417,-0.02,0.01,0.0,0.0
35.49396100,35493961,2,-0.06,0.55,138.27,0.02876587025821209,0.004160467069596052,0.04079465568065643,0.03244178742170334,0.0,0.0,2.917809009552002,-0.02,0.01,0.0,0.0
35.59396100,35593961,2,-0.06,0.54,138.28,0.028450408950448036,0.004911559633910656,0.04126746207475662,0.018042268231511116,0.0,0.0,2.9199671745300293,-0.02,0.01,-0.01,0.0
35.69396400,35693964,2,-0.06,0.55,138.29,0.027596913278102875,0.004968681372702122,0.040893230587244034,0.011520632542669773,0.0,0.0,2.921219825744629,-0.02,0.01,-0.01,0.0
35.79401200,35794012,2,-0.06,0.55,138.29,0.02779492549598217,0.004669344052672386,0.04084278270602226,-1.4773721886740532e-05,0.0,0.0,2.9215047359466553,-0.02,0.01,-0.01,0.0
35.89399500,35893995,2,-0.06,0.54,138.3,0.028595641255378723,0.005300257820636034,0.04090571403503418,0.005217742640525103,0.0,0.0,2.922868013381958,-0.02,0.01,-0.01,0.0
35.99404700,35994047,2,-0.06,0.54,138.31,0.027947310358285904,0.005277111195027828,0.042408209294080734,0.03347988426685333,0.0,0.0,2.926801919937134,-0.02,0.01,-0.01,0.0
36.09403500,36094035,2,-0.07,0.54,138.32,0.02724536694586277,0.005666304379701614,0.04230698198080063,0.05140090361237526,0.0,0.0,2.931349754333496,-0.02,0.01,-0.01,0.0
36.19398200,36193982,2,-0.06,0.54,138.32,0.026112403720617294,0.005630091764032841,0.043310172855854034,0.05011502653360367,0.0,0.0,2.9355154037475586,-0.02,0.01,-0.01,0.0
36.29399500,36293995,2,-0.06,0.54,138.33,0.02567954920232296,0.005845372565090656,0.04437030479311943,0.055216461420059204,0.0,0.0,2.940967321395874,-0.02,0.01,-0.01,0.0
36.39396800,36393968,2,-0.06,0.54,138.34,0.026326950639486313,0.005315389484167099,0.045115262269973755,0.05132271349430084,0.0,0.0,2.9452877044677734,-0.02,0.01,-0.01,0.0
36.49396100,36493961,2,-0.06,0.54,138.34,0.025950336828827858,0.005518052261322737,0.04483100399374962,0.04304353892803192,0.0,0.0,2.9497017860412598,-0.02,0.01,-0.01,0.0
36.59396100,36593961,2,-0.06,0.54,138.33,0.025097107514739037,0.006605078000575304,0.045815326273441315,0.05371364578604698,0.0,0.0,2.95548152923584,-0.02,0.01,-0.01,0.0
36.69402600,36694026,2,-0.06,0.54,138.32,0.0246700681746006,0.007713026832789183,0.046298347413539886,0.05403155833482742,0.0,0.0,2.9602603912353516,-0.02,0.01,-0.01,0.0
36.79401300,36794013,2,-0.07,0.54,138.31,0.02417071722447872,0.008278041146695614,0.046623241156339645,0.04677526280283928,0.0,0.0,2.964798927307129,-0.02,0.01,-0.01,0.0
36.89404200,36894042,2,-0.06,0.53,138.3,0.02362804487347603,0.008226857520639896,0.04783147946000099,0.048822980374097824,0.0,0.0,2.9697983264923096,-0.02,0.01,-0.01,0.0
36.99403100,36994031,2,-0.06,0.53,138.3,0.023173054680228233,0.00814997311681509,0.049265433102846146,0.0476827435195446,0.0,0.0,2.974414587020874,-0.02,0.01,-0.01,0.0
37.09396800,37093968,2,-0.07,0.53,138.3,0.02167464978992939,0.00811377540230751,0.05016307905316353,0.04407292231917381,0.0,0.0,2.978898286819458,-0.02,0.01,-0.01,0.0
37.19399400,37193994,2,-0.07,0.53,138.31,0.021831396967172623,0.008396710269153118,0.050327979028224945,0.03153754025697708,0.0,0.0,2.9819066524505615,-0.02,0.01,-0.01,0.0
37.29397300,37293973,2,-0.07,0.53,138.31,0.021467184647917747,0.008534085005521774,0.050428543239831924,0.02767028473317623,0.0,0.0,2.9853625297546387,-0.02,0.01,-0.01,0.0
37.39396400,37393964,2,-0.07,0.53,138.31,0.021879984065890312,0.008984660729765892,0.050023943185806274,0.03844465687870979,0.0,0.0,2.989561080932617,-0.02,0.01,-0.01,0.0
37.49396500,37493965,2,-0.07,0.52,138.31,0.021401207894086838,0.009561173617839813,0.05086483433842659,0.04060216248035431,0.0,0.0,2.993384838104248,-0.02,0.01,-0.01,0.0
37.59403200,37594032,2,-0.07,0.52,138.3,0.021193886175751686,0.009738059714436531,0.05161059647798538,0.036985330283641815,0.0,0.0,2.9970388412475586,-0.02,0.01,0.0,0.0
37.69401200,37694012,2,-0.07,0.52,138.3,0.020358093082904816,0.009987563826143742,0.05218656361103058,0.0363401435315609,0.0,0.0,3.000701665878296,-0.02,0.01,0.0,0.0
37.79406300,37794063,2,-0.07,0.52,138.3,0.020644454285502434,0.00984957255423069,0.05196844041347504,0.03138481825590134,0.0,0.0,3.0038065910339355,-0.02,0.01,0.0,0.0
37.89402800,37894028,2,-0.07,0.53,138.29,0.020547205582261086,0.010777839459478855,0.051710210740566254,0.002592687727883458,0.0,0.0,3.003680467605591,-0.02,0.01,0.0,0.0
37.99396500,37993965,2,-0.07,0.53,138.29,0.020614590495824814,0.011020765639841557,0.051378410309553146,-0.01310330256819725,0.0,0.0,3.003710985183716,-0.02,0.01,0.0,0.0
38.09399700,38093997,2,-0.07,0.54,138.29,0.02088231034576893,0.010465775616466999,0.051694273948669434,0.0026772883720695972,0.0,0.0,3.0048553943634033,-0.02,0.01,0.0,0.0
38.19396200,38193962,2,-0.07,0.53,138.29,0.020536625757813454,0.009335596114397049,0.051487721502780914,0.017541131004691124,0.0,0.0,3.0069336891174316,-0.02,0.01,0.0,0.0
38.29397100,38293971,2,-0.07,0.53,138.28,0.020523322746157646,0.009014950133860111,0.05261817201972008,0.02079664170742035,0.0,0.0,3.0084357261657715,-0.02,0.01,0.0,0.0
38.39396700,38393967,2,-0.08,0.53,138.29,0.01957947574555874,0.009464811533689499,0.05250488966703415,0.018195301294326782,0.0,0.0,3.0104081630706787,-0.02,0.01,0.0,0.0
38.49402400,38494024,2,-0.09,0.54,138.29,0.020662542432546616,0.009535796009004116,0.053402792662382126,0.020434753969311714,0.0,0.0,3.0122244358062744,-0.02,0.01,0.0,0.0
38.59400100,38594001,2,-0.09,0.54,138.28,0.021539008244872093,0.009719371795654297,0.05506591871380806,0.019424548372626305,0.0,0.0,3.0141727924346924,-0.02,0.01,0.0,0.0
38.69404700,38694047,2,-0.09,0.55,138.28,0.022861087694764137,0.00944775715470314,0.056235771626234055,0.03142533451318741,0.0,0.0,3.0175886154174805,-0.02,0.01,0.0,0.0
38.79403700,38794037,2,-0.09,0.55,138.27,0.022598085924983025,0.009703009389340878,0.05596478655934334,0.042336877435445786,0.0,0.0,3.0215816497802734,-0.02,0.01,0.0,0.0
38.89396400,38893964,2,-0.1,0.55,138.26,0.02307865209877491,0.010055444203317165,0.05656413361430168,0.043965764343738556,0.0,0.0,3.025597095489502,-0.02,0.01,0.0,0.0
38.99399400,38993994,2,-0.1,0.55,138.25,0.02366405352950096,0.009724230505526066,0.05827246606349945,0.05261789634823799,0.0,0.0,3.030813217163086,-0.02,0.01,0.0,0.0
39.09396300,39093963,2,-0.11,0.55,138.24,0.02454913593828678,0.009989330545067787,0.0590343251824379,0.058034271001815796,0.0,0.0,3.0360989570617676,-0.03,0.01,0.0,0.0
39.19396200,39193962,2,-0.11,0.55,138.24,0.025608934462070465,0.010759360156953335,0.05939224734902382,0.03209469094872475,0.0,0.0,3.0383427143096924,-0.03,0.01,0.0,0.0
39.29396700,39293967,2,-0.11,0.55,138.24,0.026221947744488716,0.011407362297177315,0.05869239941239357,-0.014389370568096638,0.0,0.0,3.0370352268218994,-0.03,0.01,0.0,0.0
39.39403700,39394037,2,-0.11,0.56,138.24,0.026976285502314568,0.011369614861905575,0.05893848463892937,-0.02227596938610077,0.0,0.0,3.03678822517395,-0.03,0.01,0.0,0.0
39.49399200,39493992,2,-0.11,0.56,138.26,0.027027573436498642,0.013528385199606419,0.05787670984864235,0.0057024722918868065,0.0,0.0,3.0386619567871094,-0.03,0.01,0.0,0.0
39.59404500,39594045,2,-0.12,0.5700000000000001,138.25,0.028460826724767685,0.01393819972872734,0.056706707924604416,0.013011225499212742,0.0,0.0,3.039571523666382,-0.03,0.01,0.0,0.0
39.69404000,39694040,2,-0.12,0.5700000000000001,138.26,0.02916249819099903,0.015109279192984104,0.05652360990643501,0.013100999407470226,0.0,0.0,3.0411479473114014,-0.03,0.01,0.0,0.0
39.79405100,39794051,2,-0.12,0.5700000000000001,138.26,0.0313635878264904,0.015087485313415527,0.05606570094823837,0.011772239580750465,0.0,0.0,3.041844606399536,-0.03,0.01,0.0,0.0
39.89399200,39893992,2,-0.12,0.5700000000000001,138.26,0.03091866336762905,0.016163013875484467,0.05494247004389763,-0.004586666356772184,0.0,0.0,3.041435718536377,-0.03,0.01,0.0,0.0
39.99396500,39993965,2,-0.13,0.5700000000000001,138.26,0.032175369560718536,0.017021970823407173,0.05377478897571564,-0.030667150393128395,0.0,0.0,3.038254737854004,-0.03,0.01,0.0,0.0
40.09397000,40093970,2,-0.13,0.58,138.26,0.03343022242188454,0.01777176558971405,0.05255188047885895,-0.05803341791033745,0.0,0.0,3.0334362983703613,-0.03,0.01,0.0,0.0
40.19396100,40193961,2,-0.13,0.58,138.27,0.03443916141986847,0.018019836395978928,0.05081437900662422,-0.07275610417127609,0.0,0.0,3.027221918106079,-0.03,0.01,0.0,0.0
40.29400800,40294008,2,-0.14,0.58,138.26,0.03551306575536728,0.017892073839902878,0.049031369388103485,-0.07216459512710571,0.0,0.0,3.0215725898742676,-0.03,0.01,0.0,0.0
40.39402900,40394029,2,-0.14,0.59,138.27,0.036411989480257034,0.019158558920025826,0.045792970806360245,-0.06388524919748306,0.0,0.0,3.015815258026123,-0.03,0.01,0.0,0.0
40.49405500,40494055,2,-0.14,0.59,138.27,0.037301212549209595,0.020119497552514076,0.0432988703250885,-0.05625806003808975,0.0,0.0,3.0108392238616943,-0.03,0.01,0.0,0.0
40.59403700,40594037,2,-0.14,0.59,138.27,0.03833731636404991,0.020850034430623055,0.041334547102451324,-0.055305711925029755,0.0,0.0,3.0049779415130615,-0.03,0.01,0.0,0.0
40.69398200,40693982,2,-0.14,0.6,138.27,0.040000881999731064,0.020847488194704056,0.03934115916490555,-0.07921503484249115,0.0,0.0,2.9968082904815674,-0.03,0.01,0.0,0.0
40.79399400,40793994,2,-0.14,0.6,138.27,0.04099765047430992,0.020106295123696327,0.03891488164663315,-0.06340576708316803,0.0,0.0,2.992302179336548,-0.03,0.01,0.0,0.0
40.89396200,40893962,2,-0.15,0.61,138.27,0.04189141467213631,0.019990716129541397,0.037181511521339417,-0.055821701884269714,0.0,0.0,2.985520362854004,-0.03,0.01,0.0,0.0
40.99397100,40993971,2,-0.14,0.6,138.27,0.04349206015467644,0.020050251856446266,0.03580212593078613,-0.07369701564311981,0.0,0.0,2.9788808822631836,-0.03,0.01,0.0,0.0
41.09396400,41093964,2,-0.14,0.6,138.26,0.045040231198072433,0.01998904161155224,0.035319533199071884,-0.05677381530404091,0.0,0.0,2.973606824874878,-0.03,0.01,0.0,0.0
41.19404300,41194043,2,-0.15,0.61,138.26,0.04620986059308052,0.019808338955044746,0.03403221443295479,-0.07017260789871216,0.0,0.0,2.965871572494507,-0.03,0.01,0.0,0.0
41.29401400,41294014,2,-0.15,0.6,138.26,0.0477575846016407,0.018607517704367638,0.03191332146525383,-0.10322381556034088,0.0,0.0,2.955202579498291,-0.03,0.01,0.0,0.0
41.39405700,41394057,2,-0.16,0.61,138.25,0.04954225942492485,0.018098745495080948,0.029134174808859825,-0.12252984195947647,0.0,0.0,2.9442880153656006,-0.03,0.01,0.0,0.0
41.49405800,41494058,2,-0.17,0.61,138.25,0.0503021776676178,0.017823228612542152,0.027500556781888008,-0.11421170830726624,0.0,0.0,2.9341013431549072,-0.03,0.01,0.0,0.0
41.59396800,41593968,2,-0.17,0.61,138.25,0.05139617994427681,0.016959406435489655,0.025988822802901268,-0.08770434558391571,0.0,0.0,2.926529884338379,-0.03,0.01,0.0,0.0
41.69399500,41693995,2,-0.17,0.61,138.25,0.05328022316098213,0.01667354814708233,0.022928539663553238,-0.08536458760499954,0.0,0.0,2.917093276977539,-0.03,0.01,0.0,0.0
41.79397600,41793976,2,-0.17,0.61,138.25,0.05479560047388077,0.016175687313079834,0.02100689895451069,-0.10022235661745071,0.0,0.0,2.907107353210449,-0.03,0.01,0.0,0.0
41.89396100,41893961,2,-0.17,0.61,138.25,0.056216463446617126,0.01603284850716591,0.020148657262325287,-0.09101449698209763,0.0,0.0,2.8986570835113525,-0.03,0.01,0.0,0.0
41.99396500,41993965,2,-0.17,0.61,138.25,0.05671941116452217,0.0159288477152586,0.01867668330669403,-0.0867493599653244,0.0,0.0,2.8898165225982666,-0.03,0.01,0.0,0.0
42.09402800,42094028,2,-0.17,0.61,138.25,0.05758007615804672,0.01570759154856205,0.017302274703979492,-0.09492924064397812,0.0,0.0,2.880246162414551,-0.03,0.01,0.0,0.0
42.19401000,42194010,2,-0.16,0.61,138.26,0.05831683427095413,0.01567085087299347,0.015604323707520962,-0.11324822157621384,0.0,0.0,2.8687586784362793,-0.03,0.01,0.0,0.0
42.29405300,42294053,2,-0.16,0.61,138.27,0.058881279081106186,0.015169724822044373,0.013402263633906841,-0.10928932577371597,0.0,0.0,2.8591060638427734,-0.03,0.01,0.0,0.0
42.39403600,42394036,2,-0.16,0.61,138.27,0.060363590717315674,0.013701533898711205,0.012937823310494423,-0.09061558544635773,0.0,0.0,2.850200891494751,-0.03,0.01,0.0,0.0
42.49396300,42493963,2,-0.16,0.62,138.27,0.06173635646700859,0.013665757142007351,0.011498754844069481,-0.08602514117956161,0.0,0.0,2.84135365486145,-0.03,0.01,0.0,0.0
42.59399300,42593993,2,-0.16,0.61,138.27,0.06239889934659004,0.014097223058342934,0.009884202852845192,-0.08725357055664062,0.0,0.0,2.8324177265167236,-0.03,0.01,0.0,0.0
42.69396800,42693968,2,-0.16,0.62,138.26,0.0636109709739685,0.013284632936120033,0.007216086145490408,-0.08840089291334152,0.0,0.0,2.823716402053833,-0.03,0.01,0.0,0.0
42.79396300,42793963,2,-0.16,0.62,138.26,0.0646156594157219,0.013506073504686356,0.005580502562224865,-0.0851333886384964,0.0,0.0,2.8152878284454346,-0.03,0.01,0.0,0.0
42.89396300,42893963,2,-0.16,0.62,138.26,0.0653734877705574,0.013015731237828732,0.0035443007946014404,-0.08587847650051117,0.0,0.0,2.806678056716919,-0.03,0.01,0.0,0.0
42.99405000,42994050,2,-0.16,0.62,138.26,0.06601721793413162,0.012050897814333439,0.0011645405320450664,-0.10830662399530411,0.0,0.0,2.7953989505767822,-0.03,0.01,0.0,0.0
43.09402000,43094020,2,-0.16,0.62,138.25,0.06606052815914154,0.011508088558912277,-0.0011772068683058023,-0.1317802518606186,0.0,0.0,2.7828738689422607,-0.03,0.01,0.0,0.0
43.19404500,43194045,2,-0.16,0.63,138.25,0.06657640635967255,0.010095016099512577,-0.003614744869992137,-0.1469409316778183,0.0,0.0,2.7689409255981445,-0.03,0.01,0.0,0.0
43.29403300,43294033,2,-0.16,0.64,138.25,0.06775516271591187,0.008827883750200272,-0.007338872645050287,-0.17182159423828125,0.0,0.0,2.7524001598358154,-0.03,0.01,0.0,0.0
43.39396600,43393966,2,-0.16,0.64,138.25,0.06800486892461777,0.008459950797259808,-0.010621946305036545,-0.1846516877412796,0.0,0.0,2.735426664352417,-0.03,0.01,0.0,0.0
43.49399500,43493995,2,-0.16,0.64,138.25,0.06837921589612961,0.008314619772136211,-0.0127252247184515,-0.15244603157043457,0.0,0.0,2.7222037315368652,-0.03,0.01,0.0,0.0
43.59396200,43593962,2,-0.16,0.63,138.25,0.06917530298233032,0.00851536076515913,-0.015105749480426311,-0.0903269574046135,0.0,0.0,2.7140159606933594,-0.03,0.01,0.0,0.0
43.69396500,43693965,2,-0.16,0.63,138.25,0.068821020424366,0.00849579181522131,-0.01595769263803959,-0.0584133118391037,0.0,0.0,2.7063868045806885,-0.03,0.01,0.0,0.0
43.79396700,43793967,2,-0.17,0.63,138.25,0.06898313015699387,0.007827985100448132,-0.016963036730885506,-0.06439854949712753,0.0,0.0,2.6983633041381836,-0.03,0.01,0.0,0.0
43.89403300,43894033,2,-0.17,0.62,138.24,0.06937070190906525,0.006576373241841793,-0.01777888648211956,-0.07967206090688705,0.0,0.0,2.6894726753234863,-0.03,0.01,0.0,0.0
43.99405900,43994059,2,-0.16,0.62,138.24,0.06890708208084106,0.00712128309533,-0.019800014793872833,-0.10190466791391373,0.0,0.0,2.6789259910583496,-0.03,0.01,0.0,0.0
44.09405400,44094054,2,-0.16,0.62,138.24,0.06892915815114975,0.007972408086061478,-0.021884219720959663,-0.12041167914867401,0.0,0.0,2.6672964096069336,-0.03,0.01,0.0,0.0
44.19402900,44194029,2,-0.16,0.62,138.24,0.06893235445022583,0.007852739654481411,-0.024073049426078796,-0.13273285329341888,0.0,0.0,2.654613494873047,-0.03,0.01,0.0,0.0
44.29396500,44293965,2,-0.16,0.62,138.24,0.06832311302423477,0.008443807251751423,-0.025705548003315926,-0.12045584619045258,0.0,0.0,2.643909215927124,-0.03,0.01,0.0,0.0
44.39399700,44393997,2,-0.17,0.62,138.25,0.06750074774026871,0.009594633243978024,-0.026044949889183044,-0.0764264166355133,0.0,0.0,2.6370956897735596,-0.03,0.01,0.0,0.0
44.49396400,44493964,2,-0.17,0.62,138.23,0.06819647550582886,0.009931433014571667,-0.027354422956705093,-0.03227228298783302,0.0,0.0,2.633406639099121,-0.03,0.01,0.0,0.0
44.59396100,44593961,2,-0.17,0.62,138.23,0.0684288740158081,0.010716686956584454,-0.027935057878494263,-0.0384843535721302,0.0,0.0,2.627134084701538,-0.03,0.01,0.0,0.0
44.69397200,44693972,2,-0.16,0.62,138.22,0.06857027858495712,0.010663153603672981,-0.027892861515283585,-0.059679679572582245,0.0,0.0,2.620584011077881,-0.03,0.01,0.0,0.0
44.79401200,44794012,2,-0.17,0.62,138.22,0.06903555989265442,0.010824974626302719,-0.029145408421754837,-0.08100816607475281,0.0,0.0,2.612086534500122,-0.03,0.01,0.0,0.0
44.89400700,44894007,2,-0.17,0.61,138.21,0.06827745586633682,0.010072587057948112,-0.031146477907896042,-0.09778204560279846,0.0,0.0,2.602971315383911,-0.03,0.01,0.0,0.0
44.99404600,44994046,2,-0.16,0.61,138.21,0.06779126077890396,0.01000985223799944,-0.030974525958299637,-0.06530515849590302,0.0,0.0,2.5982511043548584,-0.03,0.02,0.0,0.0
45.09404800,45094048,2,-0.17,0.61,138.20000000000002,0.06753525137901306,0.01026600506156683,-0.03158184513449669,-0.05040876567363739,0.0,0.0,2.5920138359069824,-0.03,0.02,0.0,0.0
45.19396100,45193961,2,-0.16,0.61,138.20000000000002,0.06737282872200012,0.01081954874098301,-0.03222939372062683,-0.054385196417570114,0.0,0.0,2.5865204334259033,-0.03,0.02,0.0,0.0
45.29399500,45293995,2,-0.16,0.6,138.20000000000002,0.06791297346353531,0.011064540594816208,-0.03315697982907295,-0.07897111028432846,0.0,0.0,2.5773704051971436,-0.03,0.02,0.0,0.0
45.39396400,45393964,2,-0.16,0.59,138.19,0.06709388643503189,0.011206351220607758,-0.03471315652132034,-0.10782135277986526,0.0,0.0,2.567312717437744,-0.03,0.02,0.0,0.0
45.49397200,45493972,2,-0.16,0.59,138.18,0.06666216254234314,0.01147400587797165,-0.0355970561504364,-0.09076971560716629,0.0,0.0,2.559741497039795,-0.03,0.02,0.0,0.0
45.59396700,45593967,2,-0.15,0.59,138.18,0.06557128578424454,0.012680756859481335,-0.03566155955195427,-0.06819391250610352,0.0,0.0,2.5529892444610596,-0.03,0.02,0.0,0.0
45.69403500,45694035,2,-0.15,0.58,138.17000000000002,0.0645764097571373,0.012632792815566063,-0.03660009428858757,-0.054471418261528015,0.0,0.0,2.5474905967712402,-0.04,0.02,0.0,0.0
45.79402900,45794029,2,-0.15,0.58,138.16,0.06409986317157745,0.012452629394829273,-0.036834027618169785,-0.040914058685302734,0.0,0.0,2.54304575920105,-0.04,0.02,0.0,0.0
45.89404100,45894041,2,-0.15,0.58,138.16,0.06322106719017029,0.012760195881128311,-0.03726883977651596,-0.03607573360204697,0.0,0.0,2.5387613773345947,-0.04,0.02,0.0,0.0
45.99405800,45994058,2,-0.14,0.58,138.15,0.06298220157623291,0.014515041373670101,-0.03813127428293228,-0.039728499948978424,0.0,0.0,2.5343151092529297,-0.04,0.02,0.0,0.0
46.09398800,46093988,2,-0.14,0.58,138.14000000000001,0.062126051634550095,0.014487636275589466,-0.038286346942186356,-0.034589994698762894,0.0,0.0,2.530776262283325,-0.04,0.02,0.0,0.0
46.19399300,46193993,2,-0.13,0.58,138.14000000000001,0.06130360811948776,0.014383340254426003,-0.038756582885980606,-0.038543134927749634,0.0,0.0,2.5263454914093018,-0.04,0.02,0.0,0.0
46.29396500,46293965,2,-0.13,0.58,138.14000000000001,0.060337990522384644,0.014723274856805801,-0.03898358345031738,-0.04929769039154053,0.0,0.0,2.52144193649292,-0.04,0.02,0.0,0.0
46.39396900,46393969,2,-0.13,0.58,138.13,0.059894170612096786,0.015484009869396687,-0.0395367369055748,-0.03161461651325226,0.0,0.0,2.5188815593719482,-0.04,0.02,0.0,0.0
46.49396300,46493963,2,-0.13,0.58,138.13,0.058651577681303024,0.016358358785510063,-0.03976282849907875,-0.03186206519603729,0.0,0.0,2.5147995948791504,-0.04,0.02,0.0,0.0
46.59402300,46594023,2,-0.13,0.58,138.14000000000001,0.05765662342309952,0.015575854107737541,-0.04026033729314804,-0.06725422292947769,0.0,0.0,2.5076963901519775,-0.04,0.02,0.0,0.0
46.69401800,46694018,2,-0.12,0.58,138.14000000000001,0.05644293501973152,0.01492280513048172,-0.041354332119226456,-0.10093186795711517,0.0,0.0,2.4982547760009766,-0.04,0.02,0.0,0.0
46.79404800,46794048,2,-0.12,0.59,138.14000000000001,0.054950397461652756,0.015272119082510471,-0.0414673276245594,-0.11279239505529404,0.0,0.0,2.488370418548584,-0.04,0.02,0.0,0.0
