timestamp,TimeUS,C,Q1,Q2,Q3,Q4
11.49405200,11494052,2,1.0,0.0,0.0,0.0
11.59403400,11594034,2,1.0,0.0,0.0,0.0
11.69407300,11694073,2,1.0,0.0,0.0,0.0
11.79406800,11794068,2,1.0,0.0,0.0,0.0
11.89401000,11894010,2,1.0,0.0,0.0,0.0
11.99401800,11994018,2,1.0,0.0,0.0,0.0
12.09399400,12093994,2,1.0,0.0,0.0,0.0
12.19398400,12193984,2,1.0,0.0,0.0,0.0
12.29398700,12293987,2,1.0,0.0,0.0,0.0
12.39404800,12394048,2,1.0,0.0,0.0,0.0
12.49401500,12494015,2,0.9999901652336121,0.0005136917461641133,0.004401277285069227,-6.0082926211180165e-05
12.59406500,12594065,2,0.9999904632568359,0.0005280627519823611,0.004335008095949888,-9.266090637538582e-05
12.69407100,12694071,2,0.9999904632568359,0.0005106672761030495,0.004333203658461571,-0.0001236412354046479
12.79398600,12793986,2,0.999990701675415,0.0004924251697957516,0.004281030967831612,-0.00010892882710322738
12.89400300,12894003,2,0.9999906420707703,0.0004484795208554715,0.0042956313118338585,-0.0001721672888379544
12.99398000,12993980,2,0.9999905824661255,0.0004112215247005224,0.004312677308917046,-0.00017507706070318818
13.09398500,13093985,2,0.9999904632568359,0.00038068616413511336,0.004347868729382753,-0.0001983931433642283
13.19397400,13193974,2,0.9999903440475464,0.0003315455687697977,0.004382999148219824,-0.00019084439554717392
13.29404400,13294044,2,0.9999904036521912,0.00032286610803566873,0.00436665304005146,-0.00017652047972660512
13.39409100,13394091,2,0.9999905824661255,0.00026561543927527964,0.004332163371145725,-0.0002244261559098959
13.49406600,13494066,2,0.9999906420707703,0.00023845999385230243,0.004312191624194384,-0.00022759112471248955
13.59405100,13594051,2,0.9999904632568359,0.0001973151374841109,0.004358856938779354,-0.0002498893009033054
13.69398800,13693988,2,0.9999902248382568,0.0001367527584079653,0.004412154201418161,-0.00028941003256477416
13.79400500,13794005,2,0.9999902844429016,6.371592462528497e-05,0.004390483256429434,-0.0003511881805025041
13.89397300,13893973,2,0.999989926815033,-4.990984234609641e-05,0.004465978126972914,-0.0003812089853454381
13.99397600,13993976,2,0.35443952679634094,-0.00421545747667551,0.0016622606199234724,0.9350679516792297
14.09398100,14093981,2,0.35423919558525085,-0.004210602026432753,0.0016919911140576005,0.9351438283920288
14.19404200,14194042,2,0.35414186120033264,-0.004195478744804859,0.0015814610524103045,0.9351809620857239
14.29400500,14294005,2,0.3543700575828552,-0.004239097703248262,0.001526499167084694,0.93509441614151
14.39407000,14394070,2,0.35476747155189514,-0.004262216854840517,0.0015026350738480687,0.9349436163902283
14.49405000,14494050,2,0.3549486994743347,-0.004226421471685171,0.0014710964169353247,0.9348750710487366
14.59404800,14594048,2,0.3548758327960968,-0.0042577278800308704,0.0014073712518438697,0.9349026679992676
14.69401100,14694011,2,0.35457026958465576,-0.004250793717801571,0.001417249091900885,0.9350186586380005
14.79397700,14793977,2,0.3541737198829651,-0.004251005128026009,0.00143328751437366,0.9351688623428345
14.89397400,14893974,2,0.3538514971733093,-0.004238095134496689,0.0014057820662856102,0.9352909922599792
14.99400600,14994006,2,0.3535918891429901,-0.004270039498806,0.0013820684980601072,0.9353890419006348
15.09404700,15094047,2,0.35339945554733276,-0.004281300585716963,0.0013404093915596604,0.9354617595672607
15.19400900,15194009,2,0.3532073199748993,-0.0042699044570326805,0.0013716982211917639,0.9355342984199524
15.29405800,15294058,2,0.3530704081058502,-0.004264524672180414,0.0013932434376329184,0.9355859756469727
15.39406400,15394064,2,0.35306042432785034,-0.004281956236809492,0.0013714845990762115,0.9355897307395935
15.49398600,15493986,2,0.353059321641922,-0.0042772297747433186,0.0013952245935797691,0.9355901479721069
15.59400700,15594007,2,0.3531280755996704,-0.004276089370250702,0.0013750074431300163,0.9355642199516296
15.69397500,15693975,2,0.3531980812549591,-0.004300988279283047,0.0014494725037366152,0.935537576675415
15.79397300,15793973,2,0.35346314311027527,-0.004253294784575701,0.001436356222257018,0.9354376792907715
15.89397300,15893973,2,0.35373687744140625,-0.004256784450262785,0.0014581737341359258,0.9353341460227966
15.99404200,15994042,2,0.3539828062057495,-0.004200134892016649,0.0015260070795193315,0.9352412223815918
16.09403100,16094031,2,0.3541017174720764,-0.0042310296557843685,0.0015978248557075858,0.9351959824562073
16.19405500,16194055,2,0.3542097508907318,-0.004230503458529711,0.0016124836402013898,0.9351550340652466
16.29404300,16294043,2,0.3543388545513153,-0.0042531974613666534,0.0016181709943339229,0.9351060390472412
16.39401300,16394013,2,0.3544785976409912,-0.00428034458309412,0.001640822272747755,0.9350528717041016
16.49400100,16494001,2,0.3544969856739044,-0.004256877116858959,0.0017262276960536838,0.9350458979606628
16.59397800,16593978,2,0.3544914424419403,-0.004312029108405113,0.001733596553094685,0.9350476861000061
16.69398000,16693980,2,0.35444891452789307,-0.004303661175072193,0.001736253034323454,0.9350638389587402
16.79397400,16793974,2,0.3543660342693329,-0.004296231549233198,0.001777799567207694,0.9350952506065369
16.89401400,16894014,2,0.3543147146701813,-0.00429445831105113,0.0018067413475364447,0.9351146221160889
16.99402400,16994024,2,0.35416895151138306,-0.004215992987155914,0.0018398893298581243,0.9351701736450195
17.09406400,17094064,2,0.3541310429573059,-0.00421866262331605,0.0018521181773394346,0.9351844787597656
17.19405200,17194052,2,0.354140043258667,-0.004204753786325455,0.001840624026954174,0.9351811408996582
17.29405600,17294056,2,0.35412463545799255,-0.004231562372297049,0.0018231102731078863,0.9351868629455566
17.39401100,17394011,2,0.3540444076061249,-0.004291607532650232,0.0018432323122397065,0.9352169632911682
17.49398400,17493984,2,0.3539610207080841,-0.004333061631768942,0.001824056264013052,0.9352483749389648
17.59398500,17593985,2,0.3538261950016022,-0.00434968201443553,0.0017732387641444802,0.9352993965148926
17.69397600,17693976,2,0.353710412979126,-0.004347836598753929,0.0017280889442190528,0.9353432655334473
17.79403400,17794034,2,0.35369014739990234,-0.00436818040907383,0.0017471672035753727,0.9353508353233337
17.89401500,17894015,2,0.35361379384994507,-0.004353811964392662,0.0016793652903288603,0.9353798627853394
17.99405800,17994058,2,0.3537105917930603,-0.004286915063858032,0.0016628539888188243,0.9353436231613159
18.09407100,18094071,2,0.3536982238292694,-0.004269725643098354,0.0016209810273721814,0.9353484511375427
18.19398500,18193985,2,0.3536224067211151,-0.004332521930336952,0.001598105882294476,0.9353768825531006
18.29400600,18294006,2,0.3535562753677368,-0.00427589938044548,0.0016021975316107273,0.9354020953178406
18.39398300,18393983,2,0.3534645438194275,-0.004281918052583933,0.0016153004253283143,0.9354367256164551
18.49397500,18493975,2,0.3534310460090637,-0.0042844898998737335,0.0016489444533362985,0.9354493021965027
18.59397600,18593976,2,0.35336416959762573,-0.004232908599078655,0.0016521047800779343,0.9354748129844666
18.69403800,18694038,2,0.353344589471817,-0.004198890179395676,0.0016385113121941686,0.935482382774353
18.79405300,18794053,2,0.35337886214256287,-0.004300347995012999,0.0016749787610024214,0.9354689121246338
18.89405500,18894055,2,0.3534325361251831,-0.004294578451663256,0.0016878183232620358,0.9354486465454102
18.99405300,18994053,2,0.3536204993724823,-0.004306372720748186,0.0017087761079892516,0.9353774785995483
19.09401300,19094013,2,0.3537185490131378,-0.004316695034503937,0.001761116785928607,0.9353402853012085
19.19400300,19194003,2,0.3538605272769928,-0.004320800304412842,0.0018047111807391047,0.9352864623069763
19.29397500,19293975,2,0.3539746403694153,-0.004319310188293457,0.0018164200009778142,0.9352433085441589
19.39397900,19393979,2,0.35401102900505066,-0.004358251113444567,0.001898190239444375,0.9352291822433472
19.49397400,19493974,2,0.35395142436027527,-0.004388625733554363,0.0019471644191071391,0.9352514743804932
19.59404300,19594043,2,0.3539202809333801,-0.004346825648099184,0.0019331227522343397,0.9352635145187378
19.69402500,19694025,2,0.35386502742767334,-0.004366711713373661,0.0019753375090658665,0.9352841973304749
19.79406200,19794062,2,0.35388389229774475,-0.004359873943030834,0.0020346594974398613,0.935276985168457
19.89405000,19894050,2,0.3539532423019409,-0.004361503291875124,0.002070957561954856,0.9352506399154663
19.99404800,19994048,2,0.35401663184165955,-0.004413675982505083,0.002073884941637516,0.9352264404296875
20.09400800,20094008,2,0.3540804982185364,-0.004396427888423204,0.0021059797145426273,0.9352022409439087
20.19397300,20193973,2,0.35416412353515625,-0.004377259407192469,0.002158751944079995,0.9351705312728882
20.29397600,20293976,2,0.35426226258277893,-0.004343939479440451,0.0021854115184396505,0.9351334571838379
20.39398000,20393980,2,0.35434213280677795,-0.0044184192083776,0.0021995780989527702,0.9351028203964233
20.49404000,20494040,2,0.35436683893203735,-0.004455777816474438,0.002261899644508958,0.9350931644439697
20.59403400,20594034,2,0.3543514907360077,-0.004446055740118027,0.0023022235836833715,0.9350988864898682
20.69406500,20694065,2,0.3543202877044678,-0.0044182981364429,0.0022735109087079763,0.9351109266281128
20.79405000,20794050,2,0.3543340265750885,-0.004411410074681044,0.0022676181979477406,0.9351057410240173
20.89405100,20894051,2,0.35432347655296326,-0.00442521832883358,0.0022306896280497313,0.9351097941398621
20.99400900,20994009,2,0.35430026054382324,-0.004449523985385895,0.0022370980586856604,0.9351184368133545
21.09397400,21093974,2,0.3543495237827301,-0.004461310803890228,0.0022033099085092545,0.9350997805595398
21.19397300,21193973,2,0.3544304370880127,-0.004486946389079094,0.002161982236430049,0.9350691437721252
21.29397700,21293977,2,0.35449180006980896,-0.004531058017164469,0.0021856334060430527,0.935045599937439
21.39405300,21394053,2,0.35456565022468567,-0.0045744385570287704,0.0021772095933556557,0.9350174069404602
21.49401100,21494011,2,0.35465577244758606,-0.004608155228197575,0.0021511062514036894,0.9349831342697144
21.59405900,21594059,2,0.3547452986240387,-0.004645174369215965,0.0020942685659974813,0.9349491000175476
21.69404800,21694048,2,0.3547898828983307,-0.004642042331397533,0.0021355971693992615,0.9349321126937866
21.79398700,21793987,2,0.3548363149166107,-0.004663465544581413,0.0021393527276813984,0.9349143505096436
21.89400300,21894003,2,0.35485395789146423,-0.0046541690826416016,0.0021173751447349787,0.9349077343940735
21.99398300,21993983,2,0.35494083166122437,-0.004657627549022436,0.0021086959168314934,0.9348747730255127
22.09397700,22093977,2,0.3550069332122803,-0.004681739024817944,0.0020605302415788174,0.9348496794700623
22.19397300,22193973,2,0.3549923598766327,-0.0046818857081234455,0.0020620636641979218,0.9348552227020264
22.29403400,22294034,2,0.355047345161438,-0.004673127084970474,0.0020243499893695116,0.9348344802856445
22.39405600,22394056,2,0.35514214634895325,-0.004702394362539053,0.0020325789228081703,0.9347983002662659
22.49405700,22494057,2,0.35527318716049194,-0.00469693960621953,0.001980188302695751,0.934748649597168
22.59405100,22594051,2,0.3554360270500183,-0.004671701695770025,0.0019993912428617477,0.9346867799758911
22.69406100,22694061,2,0.35561782121658325,-0.004611571319401264,0.0019506566459313035,0.9346180558204651
22.79400300,22794003,2,0.35580915212631226,-0.004569275304675102,0.0019198365043848753,0.9345455169677734
22.89397300,22893973,2,0.35596418380737305,-0.004542528185993433,0.0018902127631008625,0.9344866275787354
22.99398400,22993984,2,0.3560054898262024,-0.004568739328533411,0.001894376939162612,0.9344707727432251
23.09397300,23093973,2,0.3560020327568054,-0.004557297099381685,0.001906070625409484,0.9344721436500549
23.19403700,23194037,2,0.3559821546077728,-0.004554687533527613,0.001874174689874053,0.9344797730445862
23.29400700,23294007,2,0.3558887541294098,-0.004557185806334019,0.0018591245170682669,0.9345153570175171
23.39405900,23394059,2,0.3557058870792389,-0.004533971659839153,0.001879862742498517,0.9345850348472595
23.49404300,23494043,2,0.3555903136730194,-0.0045194304548203945,0.001866968465037644,0.9346291422843933
23.59404800,23594048,2,0.35542893409729004,-0.004576437175273895,0.0018735049525275826,0.9346902370452881
23.69400500,23694005,2,0.35529616475105286,-0.004566382151097059,0.0018945808988064528,0.9347407221794128
23.79398400,23793984,2,0.3552139699459076,-0.004594871774315834,0.0018812502967193723,0.9347718358039856
23.89397300,23893973,2,0.35519346594810486,-0.004595854785293341,0.0019139605574309826,0.9347795844078064
23.99398000,23993980,2,0.35508662462234497,-0.004601459018886089,0.0019006083020940423,0.9348201155662537
24.09403800,24094038,2,0.3549707531929016,-0.004576142877340317,0.0019604444969445467,0.9348641633987427
24.19403100,24194031,2,0.3549392819404602,-0.004592671059072018,0.001980524742975831,0.9348759651184082
24.29406200,24294062,2,0.35494667291641235,-0.004535716958343983,0.0020171108189970255,0.9348734021186829
24.39405400,24394054,2,0.354937344789505,-0.004526831675320864,0.0020241846796125174,0.9348769187927246
24.49405300,24494053,2,0.3549549877643585,-0.004521060269325972,0.002008347772061825,0.9348703026771545
24.59400400,24594004,2,0.3550386428833008,-0.0045283786021173,0.0020068443845957518,0.9348385334014893
24.69398000,24693980,2,0.35508957505226135,-0.004491888917982578,0.0019761351868510246,0.9348194003105164
24.79397300,24793973,2,0.3551236391067505,-0.004487301222980022,0.001977144042029977,0.9348064661026001
24.89397400,24893974,2,0.35519906878471375,-0.004479892551898956,0.0019311757059767842,0.9347779750823975
24.99404300,24994043,2,0.35523298382759094,-0.004519336391240358,0.0019736378453671932,0.9347648024559021
25.09400500,25094005,2,0.35520127415657043,-0.004481595940887928,0.0019614214543253183,0.934777021408081
25.19406100,25194061,2,0.3551766872406006,-0.004458889830857515,0.0018994860583916306,0.9347866177558899
25.29405100,25294051,2,0.35516682267189026,-0.004402447491884232,0.0018902154406532645,0.9347906708717346
25.39405400,25394054,2,0.3551342487335205,-0.004359399899840355,0.0018325364217162132,0.9348033666610718
25.49400600,25494006,2,0.3551112711429596,-0.004359460901468992,0.0017974763177335262,0.9348121285438538
25.59397600,25593976,2,0.3550378680229187,-0.004243005998432636,0.0018210378475487232,0.9348405003547668
25.69397900,25693979,2,0.35503003001213074,-0.004257125314325094,0.00180483004078269,0.9348434805870056
25.79399800,25793998,2,0.35493725538253784,-0.004242435563355684,0.0018079503206536174,0.9348787665367126
25.89405000,25894050,2,0.35483303666114807,-0.004281171597540379,0.0017676115967333317,0.934918224811554
25.99401700,25994017,2,0.35478171706199646,-0.004292319994419813,0.0017294142162427306,0.9349377155303955
26.09406500,26094065,2,0.35477522015571594,-0.0043534268625080585,0.001685632742010057,0.934939980506897
26.19404100,26194041,2,0.3548062741756439,-0.0043772803619503975,0.001706648850813508,0.9349280595779419
26.29405200,26294052,2,0.35480862855911255,-0.00436185160651803,0.0016110441647469997,0.9349274039268494
26.39400800,26394008,2,0.3548170030117035,-0.0043493593111634254,0.0015732618048787117,0.934924304485321
26.49398400,26493984,2,0.3548910319805145,-0.004407037049531937,0.0015567791415378451,0.9348959922790527
26.59397600,26593976,2,0.35500186681747437,-0.004458123352378607,0.0015997163718566298,0.9348536133766174
26.69398800,26693988,2,0.35508406162261963,-0.004489898681640625,0.0016230124747380614,0.9348222017288208
26.79405000,26794050,2,0.35513290762901306,-0.004488083999603987,0.0016164921689778566,0.9348036646842957
26.89402500,26894025,2,0.35519611835479736,-0.0044555822387337685,0.0016221804544329643,0.9347797632217407
26.99407200,26994072,2,0.3551759123802185,-0.004504958633333445,0.0016206159489229321,0.9347872138023376
27.09406000,27094060,2,0.3551737368106842,-0.004498480353504419,0.0016553367022424936,0.9347879886627197
27.19398700,27193987,2,0.35510310530662537,-0.004490886349231005,0.0016858389135450125,0.9348148107528687
27.29401000,27294010,2,0.35499101877212524,-0.00454709492623806,0.0016460749320685863,0.934857189655304
27.39397600,27393976,2,0.3548498749732971,-0.004580353852361441,0.0016367929056286812,0.9349106550216675
27.49397300,27493973,2,0.3546484410762787,-0.004635173361748457,0.0015919985016807914,0.9349868893623352
27.59397500,27593975,2,0.3544299900531769,-0.0046446556225419044,0.00157599663361907,0.9350696802139282
27.69404700,27694047,2,0.35432228446006775,-0.004704252351075411,0.001603331184014678,0.9351101517677307
27.79402200,27794022,2,0.35429370403289795,-0.004791751503944397,0.0015447455225512385,0.9351206421852112
27.89405500,27894055,2,0.3542787432670593,-0.00486239418387413,0.0015628093387931585,0.9351259469985962
27.99405800,27994058,2,0.35428106784820557,-0.004837797489017248,0.0015315067721530795,0.9351252317428589
28.09401600,28094016,2,0.3543148934841156,-0.004791621118783951,0.001535678282380104,0.9351126551628113
28.19400300,28194003,2,0.354231059551239,-0.004792605061084032,0.0015374256763607264,0.9351443648338318
28.29398100,28293981,2,0.35425445437431335,-0.004847517237067223,0.0014863540418446064,0.9351353049278259
28.39398100,28393981,2,0.35428470373153687,-0.004835001192986965,0.0015380114782601595,0.935123860836029
28.49397400,28493974,2,0.3543163239955902,-0.004832515958696604,0.0014798983465880156,0.935111939907074
28.59403200,28594032,2,0.35436439514160156,-0.004889916628599167,0.001474594115279615,0.9350934624671936
28.69403200,28694032,2,0.35441240668296814,-0.004883005283772945,0.0014613241655752063,0.9350753426551819
28.79405700,28794057,2,0.3544549345970154,-0.004898428916931152,0.0014967196621000767,0.9350590705871582
28.89404100,28894041,2,0.3544796109199524,-0.004923832602798939,0.0014576662797480822,0.9350496530532837
28.99401200,28994012,2,0.3544657528400421,-0.004991996102035046,0.0014974160585552454,0.9350544810295105
29.09400400,29094004,2,0.3544467091560364,-0.0050531853921711445,0.0014915881911292672,0.9350613951683044
29.19397900,29193979,2,0.35443827509880066,-0.005099178291857243,0.001501424703747034,0.9350643157958984
29.29398600,29293986,2,0.35444149374961853,-0.005100357346236706,0.0014674244448542595,0.9350631237030029
29.39397900,29393979,2,0.35443758964538574,-0.005105879157781601,0.0014544863952323794,0.9350646138191223
29.49403500,29494035,2,0.3544937074184418,-0.005085845943540335,0.0015067474450916052,0.9350433349609375
29.59402600,29594026,2,0.3545527756214142,-0.005147754680365324,0.001543127465993166,0.9350205659866333
29.69405700,29694057,2,0.3546534776687622,-0.005139888729900122,0.0015166082885116339,0.9349824786186218
29.79406800,29794068,2,0.35471540689468384,-0.005194829776883125,0.001491865492425859,0.9349586963653564
29.89398500,29893985,2,0.3547676205635071,-0.005170072428882122,0.0014485022984445095,0.9349390864372253
29.99401200,29994012,2,0.35482659935951233,-0.005175669211894274,0.0014468617737293243,0.9349166750907898
30.09396500,30093965,2,0.35490959882736206,-0.005186745896935463,0.0014360854402184486,0.9348851442337036
30.19396200,30193962,2,0.3549822270870209,-0.005240845959633589,0.0014402949018403888,0.9348572492599487
30.29397300,30293973,2,0.3550419509410858,-0.0052385227754712105,0.0014713655691593885,0.9348345398902893
30.39403900,30394039,2,0.3550565838813782,-0.00527923833578825,0.001447544083930552,0.9348287582397461
30.49398900,30493989,2,0.3550991415977478,-0.005292811430990696,0.0015077824937179685,0.9348124265670776
30.59405900,30594059,2,0.3551580309867859,-0.005258732009679079,0.00146862689871341,0.934790313243866
30.69404200,30694042,2,0.3551595211029053,-0.00526176393032074,0.0014630361692979932,0.934789776802063
30.79397200,30793972,2,0.3552476763725281,-0.005242675542831421,0.001492226030677557,0.934756338596344
30.89399500,30893995,2,0.35525965690612793,-0.005211720708757639,0.0015048247296363115,0.9347519278526306
30.99397200,30993972,2,0.3553268611431122,-0.00524165341630578,0.0014988332986831665,0.9347262382507324
31.09397100,31093971,2,0.3553738594055176,-0.005219681188464165,0.0014681079192087054,0.9347085356712341
31.19396800,31193968,2,0.3553715944290161,-0.005220803897827864,0.0014934740029275417,0.9347093105316162
31.29403700,31294037,2,0.3553147315979004,-0.005195121746510267,0.0015264906687662005,0.9347310662269592
31.39401900,31394019,2,0.35525795817375183,-0.005207426380366087,0.001532827503979206,0.9347525238990784
31.49405700,31494057,2,0.35525283217430115,-0.005211855284869671,0.0015374436043202877,0.934754490852356
31.59403700,31594037,2,0.3552260994911194,-0.005263075698167086,0.0015513477846980095,0.9347643256187439
31.69396500,31693965,2,0.35521647334098816,-0.005236753262579441,0.0015785286668688059,0.9347680807113647
31.79400000,31794000,2,0.3552747666835785,-0.005143515300005674,0.0015257950872182846,0.934746503829956
31.89396400,31893964,2,0.35534125566482544,-0.0051254164427518845,0.001554498914629221,0.9347212910652161
31.99397600,31993976,2,0.3554292917251587,-0.005107568576931953,0.0015421033604070544,0.9346879124641418
32.09397500,32093975,2,0.35553932189941406,-0.005105638410896063,0.0015582360792905092,0.9346460700035095
32.19403000,32194030,2,0.3556298017501831,-0.00505751883611083,0.0015546433860436082,0.9346119165420532
32.29401800,32294018,2,0.355694979429245,-0.005089467857033014,0.0015654407907277346,0.9345869421958923
32.39406000,32394060,2,0.35570475459098816,-0.005054660607129335,0.0015536039136350155,0.9345834255218506
32.49403600,32494036,2,0.35574623942375183,-0.005024993326514959,0.0015527793439105153,0.9345678091049194
32.59396900,32593969,2,0.35572895407676697,-0.005052178632467985,0.0015443660086020827,0.9345742464065552
32.69399800,32693998,2,0.3557188808917999,-0.005033517722040415,0.0015210808487609029,0.9345781803131104
32.79396300,32793963,2,0.35572487115859985,-0.004970132373273373,0.0014409652212634683,0.9345763921737671
32.89396100,32893961,2,0.35572654008865356,-0.0049507212825119495,0.0014559271512553096,0.9345758557319641
32.99396500,32993965,2,0.3557547628879547,-0.004955642390996218,0.0014157743426039815,0.9345651268959045
33.09403600,33094036,2,0.35579100251197815,-0.004970264621078968,0.0013568276772275567,0.9345513582229614
33.19402900,33194029,2,0.35583505034446716,-0.004908652510493994,0.0013325964100658894,0.9345349669456482
33.29405100,33294051,2,0.35586532950401306,-0.004892042372375727,0.0013136074412614107,0.9345235228538513
33.39404700,33394047,2,0.35591796040534973,-0.004871218930929899,0.00130702112801373,0.9345036149024963
33.49398200,33493982,2,0.35595765709877014,-0.00487096980214119,0.0012752751354128122,0.9344885349273682
33.59399400,33593994,2,0.355998694896698,-0.004951124545186758,0.0012489057844504714,0.9344725012779236
33.69396500,33693965,2,0.35598406195640564,-0.004906863905489445,0.0012179320910945535,0.9344783425331116
33.79396500,33793965,2,0.35602396726608276,-0.004921277519315481,0.0012053076643496752,0.9344630837440491
33.89396200,33893962,2,0.356035053730011,-0.004958390723913908,0.00121835817117244,0.9344586730003357
33.99400600,33994006,2,0.3560449481010437,-0.004914121702313423,0.0012219189666211605,0.9344550967216492
34.09401200,34094012,2,0.356087327003479,-0.00484886672347784,0.0012167355744168162,0.9344393014907837
34.19404300,34194043,2,0.3561292588710785,-0.004806902259588242,0.0012188113760203123,0.934423565864563
34.29404700,34294047,2,0.3561466336250305,-0.004815155174583197,0.0011977462563663721,0.9344168901443481
34.39398600,34393986,2,0.3561442196369171,-0.004832646809518337,0.0011953292414546013,0.934417724609375
34.49399900,34493999,2,0.3561812937259674,-0.0048537105321884155,0.0011978509137406945,0.9344034790992737
34.59396500,34593965,2,0.3561509847640991,-0.004883377812802792,0.0012453461531549692,0.9344148635864258
34.69396800,34693968,2,0.35613590478897095,-0.004894221667200327,0.0012512356042861938,0.9344205260276794
34.79396200,34793962,2,0.3561323583126068,-0.004834610037505627,0.0012409426271915436,0.9344221949577332
34.89400600,34894006,2,0.35614490509033203,-0.0047925859689712524,0.0012222268851473927,0.9344176650047302
34.99401100,34994011,2,0.35619494318962097,-0.004763829987496138,0.0012194864684715867,0.9343987107276917
35.09405200,35094052,2,0.3561818301677704,-0.004765941761434078,0.001222739345394075,0.9344037175178528
35.19404800,35194048,2,0.35615822672843933,-0.004795563407242298,0.0012579701142385602,0.9344124794006348
35.29396600,35293966,2,0.35616952180862427,-0.004750596359372139,0.001257878029718995,0.93440842628479
35.39399600,35393996,2,0.35616132616996765,-0.004735893104225397,0.0012277602218091488,0.9344116449356079
35.49396100,35493961,2,0.35611870884895325,-0.0046916441060602665,0.0011751963756978512,0.9344282150268555
35.59396100,35593961,2,0.3560452163219452,-0.004682858940213919,0.0011840045917779207,0.9344562292098999
35.69396400,35693964,2,0.35599493980407715,-0.004687694367021322,0.0011904382845386863,0.9344753623008728
35.79401200,35794012,2,0.3559724688529968,-0.0046933419071137905,0.0011687675723806024,0.9344839453697205
35.89399500,35893995,2,0.3558925688266754,-0.004658902063965797,0.0011212651152163744,0.934514582157135
35.99404700,35994047,2,0.3558083474636078,-0.004665334243327379,0.0011399788782000542,0.9345465898513794
36.09403500,36094035,2,0.3557416796684265,-0.004645456559956074,0.0011011556489393115,0.934572160243988
36.19398200,36193982,2,0.35570451617240906,-0.004638749174773693,0.0011452947510406375,0.9345862865447998
36.29399500,36293995,2,0.35560256242752075,-0.0046241083182394505,0.001194729469716549,0.9346250295639038
36.39396800,36393968,2,0.355540007352829,-0.00465617747977376,0.0012039339635521173,0.9346486926078796
36.49396100,36493961,2,0.35557064414024353,-0.00465537840500474,0.0011720856418833137,0.9346370697021484
36.59396100,36593961,2,0.35563692450523376,-0.004652181174606085,0.0011601399164646864,0.9346119165420532
36.69402600,36694026,2,0.35572677850723267,-0.004650197923183441,0.0011548985494300723,0.9345777034759521
36.79401300,36794013,2,0.3558080494403839,-0.0046562980860471725,0.001112822676077485,0.9345467686653137
36.89404200,36894042,2,0.3558579683303833,-0.004595015663653612,0.0011252672411501408,0.9345280528068542
36.99403100,36994031,2,0.355875700712204,-0.004590997938066721,0.001123148831538856,0.9345213174819946
37.09396800,37093968,2,0.35587459802627563,-0.0046194978058338165,0.0010967497946694493,0.9345216751098633
37.19399400,37193994,2,0.35581302642822266,-0.004620030522346497,0.0010572810424491763,0.9345451593399048
37.29397300,37293973,2,0.3557978570461273,-0.004641278646886349,0.001052519422955811,0.9345508217811584
37.39396400,37393964,2,0.35578885674476624,-0.004575370345264673,0.0010129320435225964,0.9345546364784241
37.49396500,37493965,2,0.3557939827442169,-0.004525082651525736,0.0010670891497284174,0.9345528483390808
37.59403200,37594032,2,0.3558416962623596,-0.004507642239332199,0.001034668879583478,0.9345347881317139
37.69401200,37694012,2,0.3559003472328186,-0.004514721687883139,0.0010386476060375571,0.9345124363899231
37.79406300,37794063,2,0.3559011220932007,-0.004547412041574717,0.0010354279074817896,0.9345119595527649
37.89402800,37894028,2,0.35593363642692566,-0.004594475030899048,0.0010439170291647315,0.9344993829727173
37.99396500,37993965,2,0.3559844493865967,-0.004595954902470112,0.0010342876194044948,0.9344800114631653
38.09399700,38093997,2,0.3559902310371399,-0.004647651221603155,0.0010516298934817314,0.9344775080680847
38.19396200,38193962,2,0.35599619150161743,-0.004626084119081497,0.0010332793463021517,0.9344753623008728
38.29397100,38293971,2,0.35602128505706787,-0.004620115738362074,0.001033875741995871,0.9344658851623535
38.39396700,38393967,2,0.35598549246788025,-0.004638904705643654,0.0009780930122360587,0.9344794750213623
38.49402400,38494024,2,0.35595765709877014,-0.00473251985386014,0.0009544797358103096,0.9344896078109741
38.59400100,38594001,2,0.3560030460357666,-0.004760355222970247,0.0009546504588797688,0.9344722032546997
38.69404700,38694047,2,0.35602501034736633,-0.004812730010598898,0.0009302856051363051,0.9344635605812073
38.79403700,38794037,2,0.35614392161369324,-0.004860344342887402,0.0009387807222083211,0.9344180226325989
38.89396400,38893964,2,0.35618627071380615,-0.004872301127761602,0.0009047636413015425,0.93440181016922
38.99399400,38993994,2,0.3562801480293274,-0.004873028956353664,0.0008701278129592538,0.9343660473823547
39.09396300,39093963,2,0.35634645819664,-0.004879471380263567,0.000829473021440208,0.93434077501297
39.19396200,39193962,2,0.35639339685440063,-0.004888923838734627,0.0008060967666096985,0.9343228340148926
39.29396700,39293967,2,0.35639119148254395,-0.004914813209325075,0.0007886236999183893,0.9343235492706299
39.39403700,39394037,2,0.35637369751930237,-0.0049386885948479176,0.0007957394700497389,0.9343301057815552
39.49399200,39493992,2,0.35623395442962646,-0.005006513092666864,0.00078864477109164,0.9343830347061157
39.59404500,39594045,2,0.35625162720680237,-0.005044615361839533,0.0007881478522904217,0.9343761205673218
39.69404000,39694040,2,0.35623225569725037,-0.0050690313801169395,0.0007679996779188514,0.9343833923339844
39.79405100,39794051,2,0.3561747968196869,-0.005117126740515232,0.0007455219747498631,0.9344050288200378
39.89399200,39893992,2,0.35620221495628357,-0.005081865005195141,0.0007280543213710189,0.9343947768211365
39.99396500,39993965,2,0.35617512464523315,-0.005116442684084177,0.0006986568914726377,0.9344049692153931
40.09397000,40093970,2,0.356159508228302,-0.0051672798581421375,0.0006911586970090866,0.9344106316566467
40.19396100,40193961,2,0.3561234474182129,-0.005210105795413256,0.000681843317579478,0.9344241619110107
40.29400800,40294008,2,0.35615676641464233,-0.005218507722020149,0.0006512744002975523,0.9344114065170288
40.39402900,40394029,2,0.35614797472953796,-0.005275526084005833,0.000632937066257,0.9344144463539124
40.49405500,40494055,2,0.3561084270477295,-0.005291265901178122,0.0006806110613979399,0.934429407119751
40.59403700,40594037,2,0.35615503787994385,-0.005331461783498526,0.0007013605791144073,0.9344114065170288
40.69398200,40693982,2,0.35613101720809937,-0.005358349997550249,0.0006935672136023641,0.9344204068183899
40.79399400,40793994,2,0.35613036155700684,-0.00539416866376996,0.0007096612243913114,0.9344204664230347
40.89396200,40893962,2,0.3561110198497772,-0.00544157437980175,0.0006728757871314883,0.9344275593757629
40.99397100,40993971,2,0.3561185896396637,-0.005406485870480537,0.0006750083994120359,0.934424877166748
41.09396400,41093964,2,0.35618895292282104,-0.005419014021754265,0.0006791990017518401,0.9343979954719543
41.19404300,41194043,2,0.3562137484550476,-0.005458934232592583,0.0006300173117779195,0.9343883395195007
41.29401400,41294014,2,0.3562317490577698,-0.0054563251323997974,0.0005891052423976362,0.9343815445899963
41.39405700,41394057,2,0.3562837541103363,-0.005537326913326979,0.0005456277285702527,0.9343612194061279
41.49405800,41494058,2,0.3562602996826172,-0.005575872957706451,0.0005371337756514549,0.9343699812889099
41.59396800,41593968,2,0.3562699556350708,-0.0055687990970909595,0.00048214851994998753,0.9343663454055786
41.69399500,41693995,2,0.35630908608436584,-0.005547076463699341,0.0004597773076966405,0.9343515634536743
41.79397600,41793976,2,0.35630759596824646,-0.005566790234297514,0.000493552244734019,0.9343519806861877
41.89396100,41893961,2,0.3562730848789215,-0.005556903313845396,0.00046274010674096644,0.9343652129173279
41.99396500,41993965,2,0.35627713799476624,-0.00553143210709095,0.000497969682328403,0.934363842010498
42.09402800,42094028,2,0.35624629259109497,-0.005523279309272766,0.0005090790218673646,0.9343756437301636
42.19401000,42194010,2,0.3562042713165283,-0.005557251162827015,0.0005584603059105575,0.934391438961029
42.29405300,42294053,2,0.35614609718322754,-0.005535432603210211,0.0005716553423553705,0.934413731098175
42.39403600,42394036,2,0.3561139702796936,-0.005542251281440258,0.0005514285294339061,0.934425950050354
42.49396300,42493963,2,0.3561234176158905,-0.0055891890078783035,0.0005585427861660719,0.9344220757484436
42.59399300,42593993,2,0.35614731907844543,-0.005555962212383747,0.0005421179812401533,0.9344131350517273
42.69396800,42693968,2,0.3561657965183258,-0.005574765149503946,0.0005802628584206104,0.9344059824943542
42.79396300,42793963,2,0.35616210103034973,-0.005609723273664713,0.000591148913372308,0.9344071745872498
42.89396300,42893963,2,0.35617536306381226,-0.005628174636512995,0.0005895416252315044,0.9344019889831543
42.99405000,42994050,2,0.3562244474887848,-0.005637568887323141,0.0006131824920885265,0.93438321352005
43.09402000,43094020,2,0.3562543988227844,-0.005624431651085615,0.0006184999947436154,0.9343718886375427
43.19404500,43194045,2,0.35628578066825867,-0.005695087369531393,0.0006367111345753074,0.9343594312667847
43.29403300,43294033,2,0.35624387860298157,-0.005724579561501741,0.0006760584656149149,0.9343752264976501
43.39396600,43393966,2,0.3562434911727905,-0.005766710266470909,0.0006327389273792505,0.9343751668930054
43.49399500,43493995,2,0.3562650978565216,-0.005734618753194809,0.0006655091419816017,0.9343670606613159
43.59396200,43593962,2,0.35625794529914856,-0.005666755605489016,0.0005984394229017198,0.9343702793121338
43.69396500,43693965,2,0.3562542796134949,-0.005653452593833208,0.000605074455961585,0.9343717694282532
43.79396700,43793967,2,0.35628849267959595,-0.005672486964613199,0.0005716621526516974,0.9343585968017578
43.89403300,43894033,2,0.3563677966594696,-0.005633491091430187,0.0005477849044837058,0.9343286156654358
43.99405900,43994059,2,0.3563424050807953,-0.005587439052760601,0.0005621236050501466,0.9343385696411133
44.09405400,44094054,2,0.35633355379104614,-0.005603702738881111,0.0005801329971291125,0.9343418478965759
44.19402900,44194029,2,0.3563278019428253,-0.005630088970065117,0.0005777829210273921,0.9343438744544983
44.29396500,44293965,2,0.3563215136528015,-0.005634561646729708,0.0005725802038796246,0.9343462586402893
44.39399700,44393997,2,0.35631483793258667,-0.005644641350954771,0.0005405020201578736,0.9343487620353699
44.49396400,44493964,2,0.35640713572502136,-0.005625369027256966,0.0005519798723980784,0.9343136548995972
44.59396100,44593961,2,0.35647308826446533,-0.005613132379949093,0.000532647012732923,0.9342885613441467
44.69397200,44693972,2,0.35650500655174255,-0.0056352438405156136,0.0005671330727636814,0.9342762231826782
44.79401200,44794012,2,0.35655689239501953,-0.005605894606560469,0.0005054486682638526,0.9342566728591919
44.89400700,44894007,2,0.3566257953643799,-0.005581011530011892,0.0005325842066667974,0.9342305064201355
44.99404600,44994046,2,0.35660314559936523,-0.005544607061892748,0.0005545517196878791,0.9342393279075623
45.09404800,45094048,2,0.35667288303375244,-0.0055612302385270596,0.0005231657414697111,0.9342126250267029
45.19396100,45193961,2,0.35670727491378784,-0.005560917314141989,0.0005861015524715185,0.9341994524002075
45.29399500,45293995,2,0.3567235767841339,-0.005445694085210562,0.0005125284078530967,0.9341939687728882
45.39396400,45393964,2,0.35677146911621094,-0.005401263013482094,0.000523687747772783,0.9341759085655212
45.49397200,45493972,2,0.35685133934020996,-0.005409277509897947,0.0005102353170514107,0.9341453909873962
45.59396700,45593967,2,0.35687798261642456,-0.005336846690624952,0.0005526246968656778,0.9341356158256531
45.69403500,45694035,2,0.356925904750824,-0.00528536643832922,0.0005829565925523639,0.9341175556182861
45.79402900,45794029,2,0.35697880387306213,-0.005277370102703571,0.0005814998876303434,0.934097409248352
45.89404100,45894041,2,0.357037752866745,-0.005240077618509531,0.0005945251323282719,0.9340750575065613
45.99405800,45994058,2,0.35706827044487,-0.0052017103880643845,0.0006300678360275924,0.9340636134147644
46.09398800,46093988,2,0.3571566939353943,-0.005223806947469711,0.0006409142515622079,0.9340296387672424
46.19399300,46193993,2,0.3571769595146179,-0.005226240027695894,0.0006978628225624561,0.9340218305587769
46.29396500,46293965,2,0.3572062849998474,-0.005195838864892721,0.0007156557403504848,0.9340108036994934
46.39396900,46393969,2,0.35723191499710083,-0.005171697586774826,0.0007202023407444358,0.9340011477470398
46.49396300,46493963,2,0.3572171628475189,-0.005190562456846237,0.0007461392669938505,0.9340066313743591
46.59402300,46594023,2,0.35717397928237915,-0.005202651023864746,0.0007318780990317464,0.9340230822563171
46.69401800,46694018,2,0.35716375708580017,-0.005183288361877203,0.0007803516928106546,0.9340270757675171
46.79404800,46794048,2,0.3571373522281647,-0.005190739873796701,0.0008417250355705619,0.9340370893478394
46.89404900,46894049,2,0.35713818669319153,-0.005202237982302904,0.0008793070446699858,0.9340366721153259
46.99396500,46993965,2,0.3571416735649109,-0.005214295815676451,0.0009081612224690616,0.9340352416038513
47.09399800,47093998,2,0.3571415841579437,-0.005195473786443472,0.0008712271228432655,0.9340354204177856
47.19397000,47193970,2,0.3571491241455078,-0.005193884018808603,0.0008593057282269001,0.9340325593948364
47.29397600,47293976,2,0.35715022683143616,-0.005228713154792786,0.0008401506929658353,0.9340319633483887
47.39396600,47393966,2,0.3571249842643738,-0.005257138516753912,0.000847586547024548,0.934041440486908
47.49400800,47494008,2,0.3571719229221344,-0.0052030133083462715,0.0008654079283587635,0.9340237379074097
47.59401600,47594016,2,0.35718485713005066,-0.005182119086384773,0.0008769764681346714,0.9340189099311829
47.69405000,47694050,2,0.35716554522514343,-0.0051765237003564835,0.0009038280695676804,0.934026300907135
47.79405100,47794051,2,0.3571748733520508,-0.005184841342270374,0.0009304241975769401,0.9340226650238037
47.89396400,47893964,2,0.35720282793045044,-0.005132298916578293,0.0009038755088113248,0.9340122938156128
47.99400500,47994005,2,0.3572565019130707,-0.005131212063133717,0.000940142257604748,0.9339917302131653
48.09396900,48093969,2,0.3572874963283539,-0.005108206998556852,0.0009500615997239947,0.9339799880981445
48.19396200,48193962,2,0.35726985335350037,-0.0050880443304777145,0.0009641541400924325,0.9339868426322937
48.29396600,48293966,2,0.35728687047958374,-0.005044248886406422,0.0009566440130583942,0.9339805841445923
48.39402600,48394026,2,0.35728880763053894,-0.005031275562942028,0.000998936709947884,0.933979868888855
48.49402800,48494028,2,0.35727763175964355,-0.005032178480178118,0.0010243462165817618,0.933984100818634
48.59404400,48594044,2,0.3573276996612549,-0.005013412330299616,0.0010644799331203103,0.9339650273323059
48.69400800,48694008,2,0.3572978675365448,-0.004963966086506844,0.00107204494997859,0.9339766502380371
48.79396200,48793962,2,0.35730990767478943,-0.0048936158418655396,0.0010728903580456972,0.9339724183082581
48.89399300,48893993,2,0.3573092520236969,-0.00483768479898572,0.0010836381698027253,0.933972954750061
48.99399600,48993996,2,0.3573389947414398,-0.0048056975938379765,0.0010620447574183345,0.933961808681488
49.09397200,49093972,2,0.35740479826927185,-0.0047807334922254086,0.0010819268645718694,0.9339367151260376
49.19396800,49193968,2,0.35745078325271606,-0.004812403582036495,0.0011232862016186118,0.9339188933372498
49.29403300,49294033,2,0.3574654757976532,-0.004801560193300247,0.0011174512328580022,0.9339133501052856
49.39401400,49394014,2,0.357509970664978,-0.004806663375347853,0.0011134276865050197,0.9338963031768799
49.49405100,49494051,2,0.3575657308101654,-0.0047332220710814,0.0010982865933328867,0.933875322341919
49.59403100,49594031,2,0.35756614804267883,-0.004731072578579187,0.001066941418685019,0.9338752031326294
49.69396500,49693965,2,0.35761383175849915,-0.004727175924926996,0.0010843540076166391,0.9338569641113281
49.79399400,49793994,2,0.35768023133277893,-0.004699450917541981,0.0010392562253400683,0.9338317513465881
49.89396000,49893960,2,0.3577289581298828,-0.004757351707667112,0.0010404419153928757,0.9338127374649048
49.99397200,49993972,2,0.3578246533870697,-0.004758414812386036,0.0010607799049466848,0.9337760806083679
50.09396600,50093966,2,0.3578524887561798,-0.004685951396822929,0.0010112588061019778,0.9337658286094666
50.19402700,50194027,2,0.3579308092594147,-0.004715379793196917,0.0010038964683189988,0.9337356686592102
50.29399300,50293993,2,0.3579587936401367,-0.004712854512035847,0.0010097756749019027,0.9337249398231506
50.39405600,50394056,2,0.35804247856140137,-0.004748472943902016,0.0009864835301414132,0.9336926937103271
50.49403100,50494031,2,0.3581204414367676,-0.004754621535539627,0.0010369551600888371,0.9336627125740051
50.59396700,50593967,2,0.3581777513027191,-0.004731462802737951,0.0010003745555877686,0.9336408972740173
50.69400100,50694001,2,0.3582550883293152,-0.004734106361865997,0.0009995128493756056,0.9336112141609192
50.79396200,50793962,2,0.35832586884498596,-0.0047132461331784725,0.00100339122582227,0.9335841536521912
50.89396100,50893961,2,0.35841280221939087,-0.004737964831292629,0.0009442425798624754,0.9335507154464722
50.99399500,50993995,2,0.35843363404273987,-0.0047731222584843636,0.0009084962075576186,0.9335425496101379
51.09402500,51094025,2,0.35846400260925293,-0.004783876705914736,0.0009254219476133585,0.9335308074951172
51.19400000,51194000,2,0.35850921273231506,-0.0047803702764213085,0.0009241633815690875,0.9335134625434875
51.29405700,51294057,2,0.3585878312587738,-0.004762448836117983,0.0008979914127849042,0.9334834218025208
51.39403900,51394039,2,0.3586755394935608,-0.004710462410002947,0.0008855511550791562,0.9334499835968018
51.49396400,51493964,2,0.35873517394065857,-0.004741346463561058,0.0008890362223610282,0.9334269165992737
51.59399400,51593994,2,0.35873913764953613,-0.004750105086714029,0.000894523283932358,0.9334253668785095
51.69396900,51693969,2,0.35880613327026367,-0.004770638421177864,0.0008531639468856156,0.933399498462677
51.79396800,51793968,2,0.3588709533214569,-0.004760372918099165,0.0009126061922870576,0.9333745837211609
51.89396300,51893963,2,0.3588547706604004,-0.004804119002074003,0.0009009394561871886,0.9333806037902832
51.99403600,51994036,2,0.3588699698448181,-0.0048328121192753315,0.0008281450136564672,0.9333747029304504
52.09401700,52094017,2,0.35887548327445984,-0.004825614392757416,0.0008103336440399289,0.9333726167678833
52.19404300,52194043,2,0.358900785446167,-0.004803551826626062,0.0008287528762593865,0.9333629608154297
52.29403300,52294033,2,0.3589164912700653,-0.004797081463038921,0.0008346985559910536,0.9333570003509521
52.39396800,52393968,2,0.35893943905830383,-0.004776702728122473,0.0008764908998273313,0.9333482384681702
52.49399000,52493990,2,0.3589686155319214,-0.004810307174921036,0.0008764470694586635,0.9333367943763733
52.59396400,52593964,2,0.35898280143737793,-0.0048218341544270515,0.0008427312131971121,0.9333313703536987
52.69397200,52693972,2,0.35896387696266174,-0.0048451898619532585,0.0008785771206021309,0.933338463306427
52.79396400,52793964,2,0.3589487373828888,-0.004750720225274563,0.0008899781387299299,0.9333447813987732
52.89404400,52894044,2,0.35892218351364136,-0.004750424530357122,0.0009375363006256521,0.933354914188385
52.99401800,52994018,2,0.35897397994995117,-0.00472733611240983,0.0009631671709939837,0.9333351254463196
53.09404600,53094046,2,0.35898855328559875,-0.004753158427774906,0.0009222462540492415,0.9333294034004211
53.19403200,53194032,2,0.35900425910949707,-0.004772203043103218,0.0009060610318556428,0.9333232641220093
53.29396600,53293966,2,0.35902315378189087,-0.00477490434423089,0.0009275074698962271,0.9333159923553467
53.39399500,53393995,2,0.35904818773269653,-0.004763890523463488,0.000928037625271827,0.9333063960075378
53.49396100,53493961,2,0.35907217860221863,-0.004768392536789179,0.0008769201231189072,0.9332972168922424
53.59396400,53593964,2,0.35908249020576477,-0.004821559879928827,0.0008946455200202763,0.9332929253578186
53.69396400,53693964,2,0.35903844237327576,-0.004821234382688999,0.0009041022858582437,0.9333098530769348
53.79400900,53794009,2,0.35898125171661377,-0.004888944327831268,0.0009002595325000584,0.9333315491676331
53.89400900,53894009,2,0.35897114872932434,-0.004886155482381582,0.0008682726765982807,0.9333354830741882
53.99404900,53994049,2,0.3589106500148773,-0.004857239779084921,0.0008998361299745739,0.9333588480949402
54.09405800,54094058,2,0.3588865101337433,-0.0048510110937058926,0.0008722122292965651,0.9333682060241699
54.19396200,54193962,2,0.3588581681251526,-0.0048207975924015045,0.0008661087485961616,0.9333792328834534
54.29399600,54293996,2,0.35881850123405457,-0.004880611784756184,0.0008846931159496307,0.933394193649292
54.39396900,54393969,2,0.3587750494480133,-0.00489595765247941,0.0008705602958798409,0.9334108233451843
54.49396300,54493963,2,0.358766108751297,-0.0049094585701823235,0.0008999212295748293,0.9334141612052917
54.59396400,54593964,2,0.358760803937912,-0.004916150588542223,0.0009012552327476442,0.9334161281585693
54.69403700,54694037,2,0.35874876379966736,-0.004968191962689161,0.0008953738724812865,0.9334204792976379
54.79400200,54794002,2,0.3587776720523834,-0.004923381842672825,0.000873731158208102,0.9334096312522888
54.89404800,54894048,2,0.35885924100875854,-0.004934405442327261,0.000885282875970006,0.9333782196044922
54.99404000,54994040,2,0.3588951528072357,-0.004915401805192232,0.0008755190065130591,0.9333645105361938
55.09396500,55093965,2,0.3589654862880707,-0.0049050236120820045,0.000902863685041666,0.9333375096321106
55.19399000,55193990,2,0.3589208722114563,-0.004878160543739796,0.0008636623388156295,0.9333548545837402
55.29397000,55293970,2,0.3589562177658081,-0.004892311524599791,0.000867984548676759,0.9333411455154419
55.39396400,55393964,2,0.35894811153411865,-0.004876148421317339,0.0008288648095913231,0.9333444237709045
55.49396200,55493962,2,0.35890838503837585,-0.004894196055829525,0.0008486856822855771,0.9333595633506775
55.59402200,55594022,2,0.3588898777961731,-0.00488303741440177,0.0009052666719071567,0.9333667159080505
55.69403100,55694031,2,0.35888418555259705,-0.00491638807579875,0.0009115139255300164,0.9333686828613281
55.79405800,55794058,2,0.3588921129703522,-0.004905233159661293,0.0009220077772624791,0.9333657026290894
55.89405100,55894051,2,0.35885223746299744,-0.004854877013713121,0.0009120472241193056,0.9333813190460205
55.99396500,55993965,2,0.35884982347488403,-0.004823206923902035,0.0009242966189049184,0.9333823919296265
56.09399800,56093998,2,0.35880962014198303,-0.0048669734969735146,0.0009100199094973505,0.933397650718689
56.19396100,56193961,2,0.35879912972450256,-0.004886642098426819,0.0008738210308365524,0.9334015846252441
56.29396600,56293966,2,0.35882309079170227,-0.004877164028584957,0.0008767356048338115,0.9333924055099487
56.39397500,56393975,2,0.35880711674690247,-0.00487121008336544,0.0008521422278136015,0.9333986043930054
56.49402200,56494022,2,0.35884830355644226,-0.004856439307332039,0.0008241903851740062,0.9333828687667847
56.59399800,56593998,2,0.3588854968547821,-0.004872303456068039,0.0008202413446269929,0.9333685040473938
56.69405300,56694053,2,0.3589074909687042,-0.004833838902413845,0.0008218104485422373,0.9333602786064148
56.79403700,56794037,2,0.358896404504776,-0.004810556769371033,0.0008234443375840783,0.9333646297454834
56.89398800,56893988,2,0.3589044213294983,-0.004812545608729124,0.0008320895722135901,0.9333615303039551
56.99399800,56993998,2,0.35892120003700256,-0.004799577407538891,0.0008004914852790534,0.9333552122116089
57.09397400,57093974,2,0.3589641749858856,-0.0047814445570111275,0.0008148837951011956,0.9333387613296509
57.19397100,57193971,2,0.3589763641357422,-0.004795352462679148,0.000821255671326071,0.9333339929580688
57.29397800,57293978,2,0.35898563265800476,-0.004779714625328779,0.0007931226282380521,0.9333304762840271
57.39403900,57394039,2,0.35896310210227966,-0.004754920024424791,0.000770117505453527,0.9333392977714539
57.49399300,57493993,2,0.3589307367801666,-0.004741733893752098,0.000782666786108166,0.9333518147468567
57.59404600,57594046,2,0.3588992655277252,-0.004662694409489632,0.0007226854795590043,0.9333643913269043
57.69403200,57694032,2,0.3589078485965729,-0.004645927343517542,0.0006987620145082474,0.9333611726760864
57.79396500,57793965,2,0.35895177721977234,-0.004651438444852829,0.0006971239345148206,0.9333442449569702
57.89399700,57893997,2,0.35891956090927124,-0.004627685062587261,0.0006953401025384665,0.933356761932373
57.99396800,57993968,2,0.35894232988357544,-0.004647464957088232,0.0006542830960825086,0.9333479404449463
58.09397800,58093978,2,0.3588815927505493,-0.004687496926635504,0.0006491540698334575,0.9333710670471191
58.19396300,58193963,2,0.3589091897010803,-0.004667126573622227,0.0006291399477049708,0.9333605766296387
58.29403500,58294035,2,0.3588934540748596,-0.004669356159865856,0.0006304009584710002,0.9333666563034058
58.39401800,58394018,2,0.3589021861553192,-0.004668432753533125,0.0006215589819476008,0.9333633184432983
58.49405700,58494057,2,0.3589901328086853,-0.0046722558327019215,0.000649824389256537,0.9333294630050659
58.59403500,58594035,2,0.3590054214000702,-0.00467982841655612,0.00061412324430421,0.9333235621452332
58.69398200,58693982,2,0.35899749398231506,-0.0046523986384272575,0.0005925431032665074,0.9333267211914062
58.79399200,58793992,2,0.35898256301879883,-0.004677040036767721,0.0006097907316870987,0.9333323240280151
58.89396200,58893962,2,0.35901281237602234,-0.00469219358637929,0.0006067059584893286,0.9333206415176392
58.99396600,58993966,2,0.35906854271888733,-0.004676545970141888,0.0006095435819588602,0.9332993030548096
59.09398400,59093984,2,0.3590647876262665,-0.004671589005738497,0.0006465544574894011,0.9333007335662842
59.19402300,59194023,2,0.3590926229953766,-0.00460292911157012,0.0006750828470103443,0.9332903027534485
59.29401100,59294011,2,0.359075129032135,-0.0045993747189641,0.0006259013898670673,0.9332970976829529
59.39404800,59394048,2,0.35908883810043335,-0.0046365708112716675,0.0006231001461856067,0.9332916736602783
59.49404400,59494044,2,0.3590885102748871,-0.004589135758578777,0.0005628778017126024,0.9332920908927917
59.59396800,59593968,2,0.3590984344482422,-0.004574489779770374,0.0005312413559295237,0.9332883358001709
59.69399400,59693994,2,0.35911867022514343,-0.004505005665123463,0.0005409151199273765,0.933280885219574
59.79397100,59793971,2,0.3591063618659973,-0.004440003074705601,0.0005205952329561114,0.9332859516143799
59.89396300,59893963,2,0.35911422967910767,-0.004375837743282318,0.000559863809030503,0.9332832098007202
59.99397000,59993970,2,0.3591557443141937,-0.0043362341821193695,0.0005747830145992339,0.9332674145698547
60.09402700,60094027,2,0.35919520258903503,-0.004317971877753735,0.0005618332652375102,0.9332522749900818
60.19399000,60193990,2,0.35925376415252686,-0.00433144997805357,0.0005640399758704007,0.9332296848297119
60.29404700,60294047,2,0.3592861592769623,-0.004276643041521311,0.0005251591792330146,0.933217465877533
60.39404400,60394044,2,0.35932788252830505,-0.004322061315178871,0.0004869230615440756,0.933201253414154
60.49396700,60493967,2,0.3594127595424652,-0.004314209334552288,0.0005347960977815092,0.9331685304641724
60.59399800,60593998,2,0.35948553681373596,-0.004287726245820522,0.0005030374741181731,0.9331406950950623
60.69396500,60693965,2,0.3595728278160095,-0.0042307255789637566,0.0004479414492379874,0.933107316493988
60.79397400,60793974,2,0.35958603024482727,-0.00420401431620121,0.00044628948671743274,0.9331023693084717
60.89396500,60893965,2,0.3596351742744446,-0.004136139526963234,0.0004844323848374188,0.933083713054657
60.99402200,60994022,2,0.3596702814102173,-0.004092130810022354,0.00044731408706866205,0.9330703616142273
61.09399600,61093996,2,0.3596944212913513,-0.004050808027386665,0.00046856788685545325,0.9330612421035767
61.19405900,61194059,2,0.35965919494628906,-0.004025513771921396,0.00045936807873658836,0.933074951171875
61.29404900,61294049,2,0.35962143540382385,-0.0039907181635499,0.0004388696397654712,0.9330896735191345
61.39396600,61393966,2,0.3596291244029999,-0.003954276908189058,0.00048292349674738944,0.9330868124961853
61.49399700,61493997,2,0.35956326127052307,-0.0038850917480885983,0.000481639988720417,0.9331125020980835
61.59396300,61593963,2,0.35954558849334717,-0.00393135379999876,0.0005073976353742182,0.9331191182136536
61.69396500,61693965,2,0.35956093668937683,-0.003887436119839549,0.0005389559082686901,0.9331133365631104
61.79397300,61793973,2,0.35954758524894714,-0.0038436492905020714,0.0005525595624931157,0.9331187009811401
61.89400500,61894005,2,0.35955414175987244,-0.003790720598772168,0.0005236228462308645,0.9331163763999939
61.99400200,61994002,2,0.3596130311489105,-0.003774715820327401,0.0005073319189250469,0.933093786239624
62.09405700,62094057,2,0.3596004545688629,-0.0037152969744056463,0.00046236682101152837,0.9330988526344299
62.19404800,62194048,2,0.35962462425231934,-0.0036746219266206026,0.0004511418519541621,0.9330897331237793
62.29396400,62293964,2,0.35966333746910095,-0.0036809793673455715,0.0004436844028532505,0.9330747723579407
62.39399800,62393998,2,0.3597182631492615,-0.0036703674122691154,0.00044862236245535314,0.9330536127090454
62.49396000,62493960,2,0.35972896218299866,-0.0036454424262046814,0.00048348194104619324,0.9330496191978455
62.59396300,62593963,2,0.35974088311195374,-0.003676967229694128,0.0004891229327768087,0.9330448508262634
62.69399300,62693993,2,0.3597431480884552,-0.0037272560875862837,0.0005001985700801015,0.9330437779426575
62.79402300,62794023,2,0.3597126007080078,-0.0036637221928685904,0.00045274492003954947,0.9330558776855469
62.89400700,62894007,2,0.35969677567481995,-0.0036741362418979406,0.0004467909748200327,0.9330618977546692
62.99404700,62994047,2,0.35969647765159607,-0.003710681339725852,0.000503196963109076,0.9330618381500244
63.09403400,63094034,2,0.3597191274166107,-0.0037032216787338257,0.0004517218330875039,0.933053195476532
63.19396200,63193962,2,0.35971730947494507,-0.0036552997771650553,0.0003969448443967849,0.9330540895462036
63.29399900,63293999,2,0.3597368896007538,-0.0036534268874675035,0.0003740296233445406,0.9330465793609619
63.39396500,63393965,2,0.35979026556015015,-0.0036509635392576456,0.0003784905420616269,0.9330260157585144
63.49396900,63493969,2,0.35982245206832886,-0.0036124105099588633,0.0003579436452127993,0.9330137372016907
63.59396300,63593963,2,0.3599158525466919,-0.0036099504213780165,0.00030603783670812845,0.9329777359962463
63.69402900,63694029,2,0.35993748903274536,-0.003672299673780799,0.0003594037552829832,0.9329691529273987
63.79405600,63794056,2,0.35994672775268555,-0.003681436413899064,0.00035661133006215096,0.9329655170440674
63.89405200,63894052,2,0.3599528670310974,-0.0036387895233929157,0.00036398929660208523,0.9329633116722107
63.99403500,63994035,2,0.359982430934906,-0.003655826672911644,0.00030796710052527487,0.9329518675804138
64.09401000,64094010,2,0.36003369092941284,-0.0036758144851773977,0.0003341459378134459,0.9329320192337036
64.19399500,64193995,2,0.36002781987190247,-0.003696145722642541,0.00031467736698687077,0.9329342246055603
64.29396200,64293962,2,0.35999923944473267,-0.0037127207033336163,0.0003526734944898635,0.9329451322555542
64.39396800,64393968,2,0.3600517809391022,-0.0037029501982033253,0.0003783837892115116,0.9329248666763306
64.49396600,64493966,2,0.36004164814949036,-0.0037321848794817924,0.0003722543769981712,0.9329286813735962
64.59400200,64594002,2,0.36006635427474976,-0.003716143546625972,0.00040595143218524754,0.9329192042350769
64.69401600,64694016,2,0.36009231209754944,-0.003725303104147315,0.0004336730926297605,0.9329091310501099
64.79405300,64794053,2,0.3601342439651489,-0.0037398349959403276,0.0004621939151547849,0.9328928589820862
64.89403900,64894039,2,0.3601515293121338,-0.003757729195058346,0.0004638059763237834,0.9328861236572266
64.99398400,64993984,2,0.3601854741573334,-0.0036994023248553276,0.0005200051236897707,0.9328732490539551
65.09400300,65094003,2,0.3602190315723419,-0.003746011992916465,0.0005057140369899571,0.9328600764274597
65.19397000,65193970,2,0.36026912927627563,-0.0037511251866817474,0.0005270894034765661,0.9328407049179077
65.29397200,65293972,2,0.3602617383003235,-0.0037543238140642643,0.0005522308056242764,0.9328435659408569
65.39396400,65393964,2,0.36019936203956604,-0.0037838835269212723,0.0005975667736493051,0.9328674674034119
65.49405300,65494053,2,0.36015525460243225,-0.0037955476436764,0.0006135047879070044,0.9328844547271729
65.59400300,65594003,2,0.3601398169994354,-0.003821348072960973,0.0005640999879688025,0.9328903555870056
65.69404600,65694046,2,0.3601006865501404,-0.003840184537693858,0.0006173346191644669,0.9329053163528442
65.79403700,65794037,2,0.36012184619903564,-0.003918501082807779,0.0005857374635525048,0.9328968524932861
65.89396600,65893966,2,0.3601239323616028,-0.003941489849239588,0.0005457857623696327,0.9328959584236145
65.99399400,65993994,2,0.3601192235946655,-0.003958841785788536,0.0005632382817566395,0.9328977465629578
66.09397600,66093976,2,0.36012229323387146,-0.003979986533522606,0.0005837875651195645,0.9328964352607727
66.19397100,66193971,2,0.3601856231689453,-0.004014965612441301,0.0005509786424227059,0.9328718185424805
66.29397300,66293973,2,0.3601967394351959,-0.0040300399996340275,0.0005448938463814557,0.9328675270080566
66.39403500,66394035,2,0.3601909875869751,-0.004033135250210762,0.000530509976670146,0.9328697323799133
66.49401200,66494012,2,0.3601452112197876,-0.004036225378513336,0.0004815112624783069,0.9328873753547668
66.59405500,66594055,2,0.3601318597793579,-0.004057795275002718,0.000449307553935796,0.9328925013542175
66.69403500,66694035,2,0.3601018488407135,-0.004019992426037788,0.0004410750698298216,0.9329042434692383
66.79396900,66793969,2,0.3600389063358307,-0.004038606770336628,0.00042488359031267464,0.9329284429550171
66.89399300,66893993,2,0.3600090444087982,-0.00407241377979517,0.00043883087346330285,0.9329398274421692
66.99396300,66993963,2,0.3600064218044281,-0.004108074586838484,0.0004007868701592088,0.9329407215118408
67.09396900,67093969,2,0.3599768579006195,-0.004136796575039625,0.0003987062955275178,0.9329519867897034
67.19399100,67193991,2,0.359935998916626,-0.004083764739334583,0.0003526287619024515,0.932968020439148
67.29404500,67294045,2,0.35993435978889465,-0.00411849794909358,0.00032966842991299927,0.9329684972763062
67.39404700,67394047,2,0.3599148392677307,-0.0040982915088534355,0.00026573153445497155,0.9329761266708374
67.49405000,67494050,2,0.359891414642334,-0.004108647350221872,0.00028696615481749177,0.9329851269721985
67.59403100,67594031,2,0.35997188091278076,-0.004160190466791391,0.00026329830870963633,0.9329538345336914
67.69396600,67693966,2,0.3599919080734253,-0.004144747741520405,0.0003171965654473752,0.9329461455345154
67.79399800,67793998,2,0.36000341176986694,-0.004163013771176338,0.00028322578873485327,0.9329416751861572
67.89396800,67893968,2,0.3599843382835388,-0.004188775084912777,0.0002940756967291236,0.932948887348175
67.99396300,67993963,2,0.359971821308136,-0.004211820662021637,0.0003228803398087621,0.9329535961151123
68.09396700,68093967,2,0.35996121168136597,-0.004244258627295494,0.00028843077598139644,0.9329575896263123
68.19402400,68194024,2,0.3599267601966858,-0.004291287623345852,0.0003357564564794302,0.9329706430435181
68.29400400,68294004,2,0.3598904013633728,-0.004255757667124271,0.00029839100898243487,0.9329848289489746
68.39405000,68394050,2,0.3598382771015167,-0.004233070183545351,0.000330023787682876,0.9330050349235535
68.49403800,68494038,2,0.35985785722732544,-0.004244727082550526,0.000332716474076733,0.9329974055290222
68.59396600,68593966,2,0.3598352074623108,-0.004250084049999714,0.0003953817067667842,0.9330061078071594
68.69399500,68693995,2,0.3598335385322571,-0.004254150204360485,0.000400946126319468,0.9330067038536072
68.79397100,68793971,2,0.35985827445983887,-0.004265516996383667,0.0004549052973743528,0.9329971075057983
68.89396200,68893962,2,0.3598730266094208,-0.004276760853827,0.0004166235157754272,0.9329913854598999
