timestamp,TimeUS,I,Status,GMS,GWk,NSats,HDop,Lat,Lng,Alt,Spd,GCrs,VZ,Yaw,U
1666742445.19899988,864683327,0,3,259263199,2233,11,0.87,42.7308641,-84.4905735,256.68,0.09264988452196121,13.736268997192383,0.0950000062584877,0.0,1
1666742445.39895797,864883285,0,3,259263399,2233,11,0.85,42.7308634,-84.4905737,256.5,0.08011242747306824,204.32559204101562,0.14600001275539398,0.0,1
1666742445.59900188,865083329,0,3,259263599,2233,12,0.85,42.7308625,-84.4905739,256.25,0.09314505010843277,165.06857299804688,0.07500000298023224,0.0,1
1666742445.79900384,865283331,0,3,259263799,2233,12,0.85,42.730861499999996,-84.490574,256.05,0.1283160150051117,184.02200317382812,0.012000000104308128,0.0,1
1666742445.99893785,865483265,0,3,259263999,2233,12,0.85,42.7308605,-84.49057409999999,255.87,0.10270345956087112,173.2901611328125,0.06800000369548798,0.0,1
1666742446.21901989,865703347,0,3,259264199,2233,12,0.85,42.730859699999996,-84.49057429999999,255.76000000000002,0.09211406111717224,339.00714111328125,0.07700000703334808,0.0,1
1666742446.39893889,865883266,0,3,259264399,2233,12,0.8300000000000001,42.730858999999995,-84.4905745,255.61,0.10530432313680649,18.262887954711914,0.11000000685453415,0.0,1
1666742446.59903693,866083364,0,3,259264599,2233,12,0.8300000000000001,42.7308583,-84.4905746,255.51000000000002,0.06708204001188278,79.69514465332031,-0.05100000277161598,0.0,1
1666742446.79901004,866283337,0,3,259264799,2233,12,0.8300000000000001,42.7308574,-84.49057479999999,255.34,0.12020815163850784,225.0,0.055000003427267075,0.0,1
1666742446.99901986,866483347,0,3,259264999,2233,12,0.8300000000000001,42.7308567,-84.4905751,255.05,0.1673140823841095,112.1193618774414,-0.07400000095367432,0.0,1
1666742447.19899988,866683327,0,3,259265199,2233,12,0.8300000000000001,42.7308563,-84.4905754,254.92000000000002,0.1268739551305771,339.7082214355469,0.09100000560283661,0.0,1
1666742447.39891481,866883242,0,3,259265399,2233,11,0.85,42.7308564,-84.49057619999999,254.83,0.1131591871380806,303.83050537109375,0.08500000089406967,0.0,1
1666742447.61895990,867103287,0,3,259265599,2233,11,0.85,42.7308562,-84.4905769,254.75,0.05197114869952202,239.9816436767578,0.0,0.0,1
1666742447.81902790,867303355,0,3,259265799,2233,10,0.85,42.7308557,-84.4905776,254.55,0.07161005586385727,215.90972900390625,-0.020000001415610313,0.0,1
1666742448.01899290,867503320,0,3,259265999,2233,10,0.85,42.730855,-84.4905782,254.36,0.18298907577991486,174.04014587402344,-0.03700000047683716,0.0,1
1666742448.19903183,867683359,0,3,259266199,2233,10,0.85,42.7308544,-84.4905788,254.20000000000002,0.12184006720781326,20.666120529174805,-0.01900000125169754,0.0,1
1666742448.39901900,867883346,0,3,259266399,2233,9,0.85,42.7308546,-84.4905797,254.13,0.4171726405620575,347.9627990722656,0.14600001275539398,0.0,1
1666742448.59903097,868083358,0,3,259266599,2233,10,0.85,42.7308546,-84.49058079999999,254.07,0.23667700588703156,329.5344543457031,-0.03500000014901161,0.0,1
1666742448.79901195,868283339,0,3,259266799,2233,10,0.85,42.7308546,-84.49058169999999,253.91,0.38785824179649353,353.0398864746094,-0.03500000014901161,0.0,1
1666742448.99903083,868483358,0,3,259266999,2233,10,0.85,42.730854799999996,-84.4905824,253.79,0.33112236857414246,1.5575073957443237,-0.02500000037252903,0.0,1
1666742449.19899082,868683318,0,3,259267199,2233,10,0.85,42.7308545,-84.4905832,253.64000000000001,0.08462860435247421,305.3802795410156,-0.012000000104308128,0.0,1
1666742449.39900899,868883336,0,3,259267399,2233,10,1.12,42.7308539,-84.49058389999999,253.46,0.0894986093044281,50.440330505371094,-0.20000000298023224,0.0,1
1666742449.59900498,869083332,0,3,259267599,2233,10,1.12,42.7308532,-84.4905845,253.28,0.10160709172487259,190.2039794921875,-0.04100000113248825,0.0,1
1666742449.79901004,869283337,0,3,259267799,2233,10,1.12,42.730852299999995,-84.4905848,253.06,0.15016324818134308,92.67185974121094,-0.09100000560283661,0.0,1
1666742449.99901295,869483340,0,3,259267999,2233,10,1.12,42.7308521,-84.4905856,252.97,0.2300543636083603,354.512451171875,0.0690000057220459,0.0,1
1666742450.21909189,869703419,0,3,259268199,2233,10,1.12,42.730851699999995,-84.4905867,252.85,0.13559499382972717,255.04136657714844,0.0020000000949949026,0.0,1
1666742450.39903593,869883363,0,3,259268399,2233,10,1.12,42.7308508,-84.49058769999999,252.72,0.07206247746944427,177.61404418945312,-0.055000003427267075,0.0,1
1666742450.59895992,870083287,0,3,259268599,2233,10,1.12,42.7308498,-84.4905884,252.53,0.09581754356622696,18.245851516723633,-0.04700000211596489,0.0,1
1666742450.79909086,870283418,0,3,259268799,2233,10,1.12,42.7308491,-84.4905893,252.43,0.07147027552127838,162.0720672607422,-0.049000002443790436,0.0,1
1666742450.99906182,870483389,0,3,259268999,2233,10,1.12,42.7308483,-84.4905902,252.29,0.1366235762834549,351.1581726074219,-0.027000000700354576,0.0,1
1666742451.19898582,870683313,0,3,259269199,2233,10,1.12,42.7308477,-84.4905909,252.14000000000001,0.19353553652763367,18.060470581054688,-0.07600000500679016,0.0,1
1666742451.39899588,870883323,0,3,259269399,2233,8,1.37,42.730846899999996,-84.4905914,251.98000000000002,0.13661625981330872,107.90443420410156,-0.1860000044107437,0.0,1
1666742451.59903502,871083362,0,3,259269599,2233,9,1.37,42.7308454,-84.49059179999999,251.72,0.35805168747901917,167.08932495117188,-0.1380000114440918,0.0,1
1666742451.81904697,871303374,0,3,259269799,2233,9,1.37,42.7308442,-84.49059249999999,251.56,0.08840814232826233,142.3523712158203,-0.003000000026077032,0.0,1
1666742452.01904893,871503376,0,3,259269999,2233,9,1.37,42.7308436,-84.49059319999999,251.39000000000001,0.07684400677680969,18.19916343688965,0.06700000166893005,0.0,1
1666742452.19906282,871683390,0,3,259270199,2233,9,1.37,42.7308429,-84.4905939,251.20000000000002,0.07700000703334808,180.0,-0.01900000125169754,0.0,1
1666742452.41901088,871903338,0,3,259270399,2233,9,1.19,42.7308423,-84.49059439999999,251.0,0.08300602436065674,53.82037353515625,0.00800000037997961,0.0,1
1666742452.59898090,872083308,0,3,259270599,2233,9,1.19,42.7308415,-84.49059489999999,250.77,0.17174690961837769,162.72557067871094,0.00800000037997961,0.0,1
1666742452.79898381,872283311,0,3,259270799,2233,9,1.19,42.7308412,-84.4905958,250.66,0.24911242723464966,334.0521240234375,0.01900000125169754,0.0,1
1666742452.99897695,872483304,0,3,259270999,2233,9,1.19,42.7308406,-84.4905964,250.42000000000002,0.12854960560798645,129.6343536376953,-0.07100000232458115,0.0,1
1666742453.19900584,872683333,0,3,259271199,2233,10,1.19,42.730839499999995,-84.4905965,250.29,0.18489457666873932,23.931020736694336,-0.05300000309944153,0.0,1
1666742453.39902592,872883353,0,3,259271399,2233,10,1.09,42.7308386,-84.4905969,250.16,0.09786215424537659,21.583969116210938,0.029000001028180122,0.0,1
1666742453.59901786,873083345,0,3,259271599,2233,10,1.09,42.730837199999996,-84.49059729999999,249.91,0.16918925940990448,198.9704132080078,0.06599999964237213,0.0,1
1666742453.79908395,873283411,0,3,259271799,2233,10,1.09,42.7308361,-84.4905979,249.78,0.06835203617811203,290.5560607910156,0.04100000113248825,0.0,1
1666742453.99910092,873483428,0,3,259271999,2233,10,1.09,42.730835,-84.4905982,249.57,0.06453681737184525,49.39870071411133,0.07500000298023224,0.0,1
1666742454.21895003,873703277,0,3,259272199,2233,10,1.09,42.7308337,-84.49059849999999,249.41,0.3227955996990204,173.9538116455078,-0.030000001192092896,0.0,1
1666742454.39901781,873883345,0,3,259272399,2233,9,1.21,42.730832199999995,-84.4905988,249.18,0.10711676627397537,177.32456970214844,-0.007000000216066837,0.0,1
1666742454.59900784,874083335,0,3,259272599,2233,10,1.21,42.7308313,-84.4905994,249.05,0.11535163968801498,4.4748969078063965,0.07900000363588333,0.0,1
1666742454.79900384,874283331,0,3,259272799,2233,10,1.21,42.730830499999996,-84.4905998,248.88,0.027658633887767792,192.52880859375,-0.029000001028180122,0.0,1
1666742454.99900699,874483334,0,3,259272999,2233,10,1.21,42.7308297,-84.49060039999999,248.75,0.1122720018029213,197.62802124023438,0.11000000685453415,0.0,1
1666742455.19903898,874683366,0,3,259273199,2233,10,1.21,42.730829,-84.4906007,248.56,0.08507055789232254,107.79598236083984,-0.01600000075995922,0.0,1
1666742455.39907789,874883405,0,3,259273399,2233,10,1.09,42.7308281,-84.490601,248.44,0.18232114613056183,189.15234375,0.04500000178813934,0.0,1
1666742455.59905791,875083385,0,3,259273599,2233,10,1.09,42.730827399999995,-84.4906013,248.27,0.1125388815999031,22.463211059570312,0.04200000315904617,0.0,1
1666742455.79905891,875283386,0,3,259273799,2233,10,1.09,42.730826799999996,-84.4906018,248.11,0.11067972332239151,161.56504821777344,0.012000000104308128,0.0,1
1666742455.99900484,875483332,0,3,259273999,2233,10,1.09,42.7308258,-84.49060229999999,248.0,0.08900000154972076,180.0,0.06200000271201134,0.0,1
1666742456.21891785,875703245,0,3,259274199,2233,10,1.09,42.7308251,-84.49060279999999,247.9,0.01603122055530548,93.57632446289062,0.03100000135600567,0.0,1
1666742456.39898992,875883317,0,3,259274399,2233,10,1.09,42.730824399999996,-84.49060329999999,247.75,0.056586217135190964,316.4320983886719,0.13900001347064972,0.0,1
1666742456.59896588,876083293,0,3,259274599,2233,10,1.09,42.730823799999996,-84.4906037,247.62,0.0728628858923912,136.6683349609375,0.07700000703334808,0.0,1
1666742456.79891300,876283240,0,3,259274799,2233,10,1.09,42.7308234,-84.49060419999999,247.51000000000002,0.07025667279958725,355.1009216308594,0.10600000619888306,0.0,1
1666742456.99898791,876483315,0,3,259274999,2233,10,1.09,42.730823199999996,-84.49060469999999,247.35,0.10201960802078247,358.876708984375,0.06100000441074371,0.0,1
1666742457.19903493,876683362,0,3,259275199,2233,10,1.09,42.730823,-84.4906053,247.24,0.1250319927930832,210.25643920898438,0.03500000014901161,0.0,1
1666742457.41898990,876903317,0,3,259275399,2233,10,1.09,42.730822599999996,-84.4906058,247.11,0.0598163865506649,141.78897094726562,-0.00800000037997961,0.0,1
1666742457.59901285,877083340,0,3,259275599,2233,10,1.09,42.7308224,-84.4906061,246.95000000000002,0.021023796871304512,334.6538391113281,0.052000001072883606,0.0,1
1666742457.79896998,877283297,0,3,259275799,2233,10,1.09,42.730822499999995,-84.49060639999999,246.8,0.14312583208084106,357.5973815917969,0.1340000033378601,0.0,1
1666742457.99898386,877483311,0,3,259275999,2233,10,1.09,42.7308224,-84.4906069,246.68,0.11896218359470367,196.60699462890625,0.004000000189989805,0.0,1
1666742458.19889784,877683225,0,3,259276199,2233,10,1.09,42.7308222,-84.4906073,246.52,0.04700000211596489,180.0,0.006000000052154064,0.0,1
1666742458.39891887,877883246,0,3,259276399,2233,10,1.09,42.730821999999996,-84.49060759999999,246.38,0.11920151859521866,37.15829849243164,-0.06100000441074371,0.0,1
1666742458.59901786,878083345,0,3,259276599,2233,10,1.09,42.7308215,-84.49060779999999,246.28,0.05408327281475067,123.6900634765625,-0.05300000309944153,0.0,1
1666742458.79902482,878283352,0,3,259276799,2233,10,1.09,42.7308209,-84.490608,246.17000000000002,0.06140033155679703,6.546290397644043,0.007000000216066837,0.0,1
1666742458.99899983,878483327,0,3,259276999,2233,10,1.09,42.7308204,-84.4906081,246.02,0.14567086100578308,44.443748474121094,0.06100000441074371,0.0,1
1666742459.19899583,878683323,0,3,259277199,2233,10,1.09,42.730819499999996,-84.4906081,245.89000000000001,0.05048762261867523,172.03038024902344,-0.11300000548362732,0.0,1
1666742459.39901280,878883340,0,3,259277399,2233,10,1.09,42.7308184,-84.49060829999999,245.77,0.11910499632358551,344.91363525390625,0.04800000041723251,0.0,1
1666742459.59898496,879083312,0,3,259277599,2233,10,1.09,42.730817099999996,-84.4906084,245.65,0.046529561281204224,241.78265380859375,0.046000003814697266,0.0,1
1666742459.81892800,879303255,0,3,259277799,2233,10,1.09,42.7308154,-84.4906085,245.59,0.07576938718557358,202.5035400390625,0.05100000277161598,0.0,1
1666742460.01896286,879503290,0,3,259277999,2233,10,1.09,42.7308136,-84.4906084,245.5,0.06811755150556564,86.63353729248047,0.003000000026077032,0.0,1
1666742460.21895885,879703286,0,3,259278199,2233,10,1.09,42.7308119,-84.4906082,245.38,0.06806614249944687,169.84573364257812,0.08000000566244125,0.0,1
1666742460.41899586,879903323,0,3,259278399,2233,11,1.09,42.7308099,-84.49060829999999,245.36,0.0596657358109951,166.42955017089844,0.0860000029206276,0.0,1
1666742460.59901786,880083345,0,3,259278599,2233,11,1.09,42.7308081,-84.49060829999999,245.25,0.0374833308160305,189.21102905273438,0.0650000050663948,0.0,1
1666742460.79899693,880283324,0,3,259278799,2233,11,1.09,42.7308063,-84.49060829999999,245.14000000000001,0.10159233212471008,290.75408935546875,0.09000000357627869,0.0,1
1666742460.99901581,880483343,0,3,259278999,2233,11,1.09,42.7308047,-84.4906084,245.03,0.06447480618953705,336.21795654296875,0.19500000774860382,0.0,1
1666742461.21894383,880703271,0,3,259279199,2233,11,1.09,42.730803099999996,-84.4906081,244.95000000000002,0.06462971866130829,98.00472259521484,0.12600000202655792,0.0,1
1666742461.39890385,880883231,0,3,259279399,2233,11,1.09,42.730801,-84.49060779999999,244.85,0.048020828515291214,121.37300109863281,0.12400000542402267,0.0,1
1666742461.59894681,881083274,0,3,259279599,2233,11,1.09,42.7307991,-84.4906075,244.79,0.061131011694669724,344.82708740234375,0.1860000044107437,0.0,1
1666742461.79899001,881283317,0,3,259279799,2233,11,1.09,42.730796999999995,-84.4906075,244.74,0.05246904119849205,187.66680908203125,0.22700001299381256,0.0,1
1666742461.99891496,881483242,0,3,259279999,2233,11,1.09,42.730795,-84.4906074,244.67000000000002,0.05977458134293556,197.52557373046875,0.14400000870227814,0.0,1
1666742462.19895792,881683285,0,3,259280199,2233,11,1.09,42.730793,-84.4906074,244.59,0.049244292080402374,330.8323974609375,0.21000000834465027,0.0,1
1666742462.41898298,881903310,0,3,259280399,2233,11,1.01,42.730790999999996,-84.4906075,244.5,0.09304837882518768,178.15237426757812,0.09100000560283661,0.0,1
1666742462.59898782,882083315,0,3,259280599,2233,11,1.01,42.7307888,-84.4906075,244.52,0.20202228426933289,179.1491241455078,0.09700000286102295,0.0,1
1666742462.81895494,882303282,0,3,259280799,2233,11,1.01,42.7307868,-84.4906075,244.49,0.04883646219968796,10.61965560913086,0.16200000047683716,0.0,1
1666742462.99900699,882483334,0,3,259280999,2233,11,1.01,42.730785,-84.4906074,244.45000000000002,0.032572995871305466,342.1213073730469,0.1600000113248825,0.0,1
1666742463.19892001,882683247,0,3,259281199,2233,12,1.01,42.7307832,-84.4906072,244.34,0.11681181937456131,201.07273864746094,0.07100000232458115,0.0,1
1666742463.39898086,882883308,0,3,259281399,2233,12,0.99,42.7307814,-84.4906069,244.25,0.08036168664693832,163.36904907226562,0.125,0.0,1
1666742463.59892893,883083256,0,3,259281599,2233,12,0.99,42.7307797,-84.49060659999999,244.20000000000002,0.0971853956580162,183.53956604003906,0.1340000033378601,0.0,1
1666742463.79895782,883283285,0,3,259281799,2233,12,0.99,42.730778,-84.49060639999999,244.14000000000001,0.02147091180086136,242.241455078125,0.1340000033378601,0.0,1
1666742464.01892900,883503256,0,3,259281999,2233,12,0.99,42.7307762,-84.4906063,244.05,0.14159803092479706,190.9925079345703,0.11400000751018524,0.0,1
1666742464.19899082,883683318,0,3,259282199,2233,12,0.99,42.7307744,-84.490606,243.96,0.19100001454353333,180.0,0.1340000033378601,0.0,1
1666742464.39901495,883883342,0,3,259282399,2233,12,0.99,42.7307723,-84.4906055,243.88,0.017492856830358505,120.96375274658203,0.046000003814697266,0.0,1
1666742464.59898996,884083317,0,3,259282599,2233,12,0.99,42.730771,-84.4906053,243.83,0.16686822474002838,354.1527404785156,0.2150000035762787,0.0,1
1666742464.79895687,884283284,0,3,259282799,2233,12,0.99,42.730768999999995,-84.4906051,243.74,0.11597413569688797,224.30130004882812,0.18400001525878906,0.0,1
1666742465.01893187,884503259,0,3,259282999,2233,12,0.99,42.7307671,-84.49060519999999,243.75,0.2382960468530655,200.64048767089844,0.1380000114440918,0.0,1
1666742465.21898603,884703313,0,3,259283199,2233,12,0.99,42.7307667,-84.4906056,243.76,0.3138439357280731,355.7973327636719,0.2930000126361847,0.0,1
1666742465.41889095,884903218,0,3,259283399,2233,12,0.99,42.7307665,-84.49060589999999,243.74,0.07596051692962646,20.820892333984375,0.09800000488758087,0.0,1
1666742465.59901500,885083342,0,3,259283599,2233,12,0.99,42.7307663,-84.4906061,243.8,0.056586217135190964,316.4320983886719,0.203000009059906,0.0,1
1666742465.81890392,885303231,0,3,259283799,2233,12,0.99,42.730765999999996,-84.4906062,243.88,0.014212671667337418,129.28941345214844,0.14300000667572021,0.0,1
1666742466.01896596,885503293,0,3,259283999,2233,12,0.99,42.7307655,-84.4906062,243.94,0.08411896973848343,161.99581909179688,0.06800000369548798,0.0,1
1666742466.19894791,885683275,0,3,259284199,2233,12,0.99,42.7307649,-84.4906061,244.01,0.13556548953056335,155.13629150390625,-0.01100000087171793,0.0,1
1666742466.39898992,885883317,0,3,259284399,2233,12,0.99,42.7307644,-84.49060589999999,244.17000000000002,0.15747064352035522,157.99588012695312,0.039000000804662704,0.0,1
1666742466.59903193,886083359,0,3,259284599,2233,12,0.99,42.7307637,-84.4906058,244.24,0.3520909249782562,178.6980438232422,-0.01100000087171793,0.0,1
1666742466.79896593,886283293,0,3,259284799,2233,12,0.99,42.7307634,-84.4906057,244.33,0.07621680200099945,38.07278060913086,0.13199999928474426,0.0,1
1666742466.99897599,886483303,0,3,259284999,2233,12,0.99,42.730763499999995,-84.4906057,244.4,0.17585507035255432,321.6963806152344,0.2200000137090683,0.0,1
1666742467.19897795,886683305,0,3,259285199,2233,12,0.99,42.7307632,-84.4906057,244.45000000000002,0.04052159935235977,105.75116729736328,0.18900001049041748,0.0,1
1666742467.39900804,886883335,0,3,259285399,2233,11,1.01,42.730762299999995,-84.49060589999999,244.61,0.23248441517353058,176.30067443847656,-0.0820000022649765,0.0,1
1666742467.59895301,887083280,0,3,259285599,2233,11,1.01,42.7307616,-84.4906061,244.84,0.13678085803985596,138.8534698486328,0.09600000083446503,0.0,1
1666742467.79894590,887283273,0,3,259285799,2233,11,1.01,42.730761099999995,-84.4906062,245.05,0.0511077344417572,30.5792236328125,0.09000000357627869,0.0,1
1666742468.01897001,887503297,0,3,259285999,2233,11,1.01,42.7307609,-84.4906065,245.28,0.15230561792850494,318.4601745605469,0.11700000613927841,0.0,1
1666742468.19896197,887683289,0,3,259286199,2233,10,1.01,42.7307603,-84.4906068,245.52,0.1919088512659073,171.912109375,-0.04700000211596489,0.0,1
1666742468.41899300,887903320,0,3,259286399,2233,10,1.01,42.7307595,-84.490607,245.66,0.41741231083869934,170.76332092285156,-0.09700000286102295,0.0,1
1666742468.61889291,888103220,0,3,259286599,2233,10,1.01,42.7307594,-84.49060759999999,245.73000000000002,0.15005332231521606,291.09234619140625,0.14300000667572021,0.0,1
1666742468.79893589,888283263,0,3,259286799,2233,10,1.01,42.7307595,-84.4906082,245.75,0.039812058210372925,101.5921630859375,-0.018000001087784767,0.0,1
1666742468.99900293,888483330,0,3,259286999,2233,11,1.01,42.7307607,-84.49060899999999,245.8,0.1663881093263626,345.3791198730469,0.10000000149011612,0.0,1
1666742469.19891500,888683242,0,3,259287199,2233,11,1.01,42.730761699999995,-84.4906097,245.88,0.051088158041238785,40.23635482788086,0.014000000432133675,0.0,1
1666742469.39890885,888883236,0,3,259287399,2233,11,1.01,42.7307625,-84.4906103,245.96,0.08628441393375397,4.653351306915283,-0.07700000703334808,0.0,1
1666742469.59901094,889083338,0,3,259287599,2233,11,1.01,42.730762999999996,-84.4906108,246.04,0.07106335461139679,39.289405822753906,-0.036000002175569534,0.0,1
1666742469.79897785,889283305,0,3,259287799,2233,11,1.01,42.7307637,-84.4906113,246.12,0.11085576564073563,13.033354759216309,-0.0560000017285347,0.0,1
1666742469.99902201,889483349,0,3,259287999,2233,11,1.01,42.7307637,-84.4906118,245.92000000000002,0.1838613748550415,309.9252624511719,0.1720000058412552,0.0,1
1666742470.21892881,889703256,0,3,259288199,2233,11,1.01,42.7307646,-84.49061239999999,245.94,0.10301942378282547,1.1123995780944824,0.1730000078678131,0.0,1
1666742470.39896083,889883288,0,3,259288399,2233,11,1.01,42.7307653,-84.4906127,245.89000000000001,0.0706116184592247,192.26478576660156,0.055000003427267075,0.0,1
1666742470.59898782,890083315,0,3,259288599,2233,11,1.01,42.7307656,-84.490613,245.97,0.04767599329352379,170.34010314941406,0.14600001275539398,0.0,1
1666742470.79890680,890283234,0,3,259288799,2233,11,1.01,42.7307659,-84.49061329999999,245.98000000000002,0.1628895401954651,5.990594863891602,0.19600000977516174,0.0,1
1666742470.99896502,890483292,0,3,259288999,2233,11,1.01,42.7307658,-84.4906134,245.95000000000002,0.04472136124968529,100.30484008789062,0.07600000500679016,0.0,1
1666742471.19894290,890683270,0,3,259289199,2233,11,1.01,42.7307659,-84.4906137,246.0,0.07596052438020706,196.04901123046875,0.17000000178813934,0.0,1
1666742471.39897704,890883304,0,3,259289399,2233,11,1.01,42.7307658,-84.490614,246.04,0.10965856909751892,192.6421661376953,0.08100000023841858,0.0,1
1666742502.59909892,922083426,0,3,259320599,2233,9,1.0,42.7308972,-84.49059779999999,233.13,0.12439052015542984,245.28921508789062,0.04800000041723251,0.0,1
1666742502.81889987,922303227,0,3,259320799,2233,9,1.0,42.7308981,-84.49059779999999,233.20000000000002,0.13600000739097595,151.927490234375,-0.05000000074505806,0.0,1
1666742502.99900293,922483330,0,3,259320999,2233,10,1.0,42.730899,-84.4905969,233.62,0.07559100538492203,242.41796875,0.007000000216066837,0.0,1
1666742503.19900203,922683329,0,3,259321199,2233,10,1.0,42.7309001,-84.490596,234.1,0.0430116280913353,1.3322198390960693,-0.052000001072883606,0.0,1
1666742503.39889097,922883218,0,3,259321399,2233,10,0.93,42.7309013,-84.490595,234.58,0.08876936882734299,194.34934997558594,-0.1340000033378601,0.0,1
1666742503.59901690,923083344,0,3,259321599,2233,10,0.93,42.7309023,-84.490594,235.07,0.05818935111165047,160.94227600097656,-0.18900001049041748,0.0,1
1666742503.79894400,923283271,0,3,259321799,2233,10,0.93,42.7309033,-84.49059299999999,235.48000000000002,0.18110771477222443,186.34019470214844,-0.1300000101327896,0.0,1
1666742504.01903987,923503367,0,3,259321999,2233,10,0.93,42.7309042,-84.4905923,235.89000000000001,0.1207393929362297,230.376708984375,-0.17100000381469727,0.0,1
1666742504.19901800,923683345,0,3,259322199,2233,10,0.93,42.730905199999995,-84.4905914,236.31,0.07942921668291092,349.1144714355469,-0.10700000822544098,0.0,1
1666742504.39901686,923883344,0,3,259322399,2233,10,0.93,42.7309063,-84.49059059999999,236.71,0.03780211880803108,322.5238037109375,-0.11300000548362732,0.0,1
1666742504.61889887,924103226,0,3,259322599,2233,10,0.93,42.730906999999995,-84.4905898,237.01,0.13912944495677948,177.5283203125,-0.20200000703334808,0.0,1
1666742504.79894686,924283274,0,3,259322799,2233,10,0.93,42.730908,-84.490589,237.36,0.14832733571529388,340.7099609375,-0.07800000160932541,0.0,1
1666742504.99898386,924483311,0,3,259322999,2233,10,0.93,42.7309092,-84.49058819999999,237.71,0.22617913782596588,2.280485153198242,-0.16300000250339508,0.0,1
1666742505.19900584,924683333,0,3,259323199,2233,10,0.93,42.7309106,-84.4905873,238.08,0.28834009170532227,357.21697998046875,-0.14300000667572021,0.0,1
1666742505.39898086,924883308,0,3,259323399,2233,10,0.93,42.730912,-84.4905864,238.43,0.2968922257423401,14.831966400146484,-0.0560000017285347,0.0,1
1666742505.59904194,925083369,0,3,259323599,2233,10,0.93,42.7309134,-84.4905852,238.82,0.266608327627182,356.1287536621094,-0.1720000058412552,0.0,1
1666742505.79908299,925283410,0,3,259323799,2233,10,0.93,42.730914299999995,-84.4905842,239.21,0.10381714999675751,159.1209716796875,-0.2540000081062317,0.0,1
1666742505.99904490,925483372,0,3,259323999,2233,10,0.93,42.7309152,-84.490583,239.61,0.21883328258991241,30.78414535522461,-0.17500001192092896,0.0,1
1666742506.21894097,925703268,0,3,259324199,2233,10,0.93,42.7309164,-84.4905816,240.01,0.20886598527431488,42.08916091918945,-0.18200001120567322,0.0,1
1666742506.39903593,925883363,0,3,259324399,2233,10,0.93,42.7309173,-84.4905802,240.38,0.13803261518478394,42.35744857788086,-0.1990000158548355,0.0,1
1666742506.59902096,926083348,0,3,259324599,2233,10,0.93,42.730917999999996,-84.4905788,240.8,0.2621316611766815,115.294189453125,-0.281000018119812,0.0,1
1666742506.79901195,926283339,0,3,259324799,2233,9,0.93,42.7309187,-84.4905773,241.21,0.19483327865600586,58.43102264404297,-0.19600000977516174,0.0,1
1666742506.99902701,926483354,0,3,259324999,2233,9,0.93,42.7309197,-84.4905759,241.62,0.27769410610198975,17.390947341918945,-0.04800000041723251,0.0,1
1666742507.19897294,926683300,0,3,259325199,2233,9,0.93,42.7309209,-84.4905744,242.07,0.20240801572799683,53.63963317871094,-0.14300000667572021,0.0,1
1666742507.39903092,926883358,0,3,259325399,2233,9,0.93,42.7309221,-84.49057309999999,242.52,0.2755666971206665,343.340576171875,0.004000000189989805,0.0,1
1666742507.59904981,927083377,0,3,259325599,2233,9,0.93,42.730922899999996,-84.49057189999999,242.92000000000002,0.05001000314950943,168.46536254882812,-0.1290000081062317,0.0,1
1666742507.81897402,927303301,0,3,259325799,2233,9,0.93,42.730923499999996,-84.4905706,243.31,0.12544719874858856,351.28857421875,-0.01100000087171793,0.0,1
1666742508.01911187,927503439,0,3,259325999,2233,9,0.93,42.730924099999996,-84.4905692,243.76,0.06378871202468872,189.0193328857422,-0.14900000393390656,0.0,1
1666742508.19893599,927683263,0,3,259326199,2233,9,0.93,42.7309243,-84.4905678,244.17000000000002,0.12348279356956482,155.09523010253906,-0.1730000078678131,0.0,1
1666742508.39893889,927883266,0,3,259326399,2233,9,0.91,42.7309246,-84.4905663,244.57,0.12369317561388016,157.1663360595703,-0.28600001335144043,0.0,1
1666742508.59897184,928083299,0,3,259326599,2233,9,0.91,42.7309249,-84.4905648,245.01,0.06356099992990494,192.724365234375,-0.29500001668930054,0.0,1
1666742508.79897785,928283305,0,3,259326799,2233,10,0.91,42.7309256,-84.4905636,245.63,0.2576606273651123,303.443359375,-0.37300002574920654,0.0,1
1666742508.99902081,928483348,0,3,259326999,2233,10,0.91,42.7309254,-84.490562,246.33,0.421019047498703,0.5443615317344666,-0.5879999995231628,0.0,1
1666742509.19901490,928683342,0,3,259327199,2233,10,0.91,42.730927,-84.4905593,247.5,0.4144032299518585,330.03216552734375,-0.45900002121925354,0.0,1
1666742509.39904499,928883372,0,3,259327399,2233,10,0.87,42.7309281,-84.4905576,248.17000000000002,0.2786270081996918,332.8831787109375,-0.4790000319480896,0.0,1
1666742509.59902191,929083349,0,3,259327599,2233,11,0.87,42.730927699999995,-84.49055829999999,248.22,0.2551960349082947,267.7542724609375,-0.2639999985694885,0.0,1
1666742509.79902291,929283350,0,3,259327799,2233,9,0.87,42.7309273,-84.49055969999999,248.0,0.4822115898132324,339.61083984375,-0.007000000216066837,0.0,1
1666742509.99902892,929483356,0,3,259327999,2233,9,0.87,42.730927099999995,-84.4905589,248.64000000000001,0.5025892853736877,29.82971954345703,-0.04100000113248825,0.0,1
1666742510.21901393,929703341,0,3,259328199,2233,10,0.87,42.7309243,-84.49055249999999,250.76000000000002,0.15905031561851501,11.239283561706543,-0.17900000512599945,0.0,1
1666742510.39897299,929883300,0,3,259328399,2233,9,0.93,42.7309215,-84.49054749999999,252.6,0.1556534767150879,332.44720458984375,-0.3440000116825104,0.0,1
1666742510.59900689,930083334,0,3,259328599,2233,10,0.93,42.730920399999995,-84.4905465,252.74,0.06092618778347969,203.1986083984375,-0.6800000071525574,0.0,1
1666742510.79902601,930283353,0,3,259328799,2233,9,0.93,42.7309201,-84.4905465,252.62,0.17000000178813934,331.9275207519531,-0.7990000247955322,0.0,1
1666742510.99905801,930483385,0,3,259328999,2233,9,0.93,42.7309195,-84.4905469,252.8,0.19109423458576202,245.58087158203125,-0.9310000538825989,0.0,1
1666742511.21905804,930703385,0,3,259329199,2233,10,0.93,42.730919,-84.4905462,253.32,0.057584721595048904,159.67684936523438,-0.7700000405311584,0.0,1
1666742511.41907597,930903403,0,3,259329399,2233,12,0.8300000000000001,42.7309178,-84.4905462,253.42000000000002,0.4970010221004486,0.11528310179710388,-0.5760000348091125,0.0,1
1666742511.59898591,931083313,0,3,259329599,2233,10,0.8300000000000001,42.7309166,-84.4905459,253.34,0.20468758046627045,253.24713134765625,-0.5820000171661377,0.0,1
1666742511.79891682,931283244,0,3,259329799,2233,12,0.8300000000000001,42.7309151,-84.4905478,253.58,0.25660282373428345,343.47186279296875,-0.49900001287460327,0.0,1
1666742511.99905896,931483386,0,3,259329999,2233,12,0.8300000000000001,42.7309133,-84.4905498,253.24,0.04716990888118744,57.99461364746094,-0.46800002455711365,0.0,1
1666742512.21900892,931703336,0,3,259330199,2233,12,0.8300000000000001,42.7309112,-84.49054939999999,253.15,0.0917060598731041,18.434947967529297,-0.36500000953674316,0.0,1
1666742512.39900899,931883336,0,3,259330399,2233,12,0.8300000000000001,42.7309096,-84.4905491,253.01000000000002,0.1240362897515297,299.4584045410156,-0.40700000524520874,0.0,1
1666742512.61909485,932103422,0,3,259330599,2233,12,0.8300000000000001,42.7309078,-84.49054869999999,252.98000000000002,0.20732825994491577,349.7198791503906,-0.11000000685453415,0.0,1
1666742512.81905293,932303380,0,3,259330799,2233,12,0.8300000000000001,42.7309066,-84.49054799999999,252.96,0.32393208146095276,24.824554443359375,-0.1510000079870224,0.0,1
1666742513.01902699,932503354,0,3,259330999,2233,12,0.8300000000000001,42.730906399999995,-84.4905476,253.03,0.13113734126091003,319.01959228515625,-0.0690000057220459,0.0,1
1666742513.21900702,932703334,0,3,259331199,2233,12,0.8300000000000001,42.730906499999996,-84.49054749999999,253.23000000000002,0.1290348768234253,35.53767776489258,-0.020000001415610313,0.0,1
1666742513.41901398,932903341,0,3,259331399,2233,12,0.8300000000000001,42.7309066,-84.49054749999999,253.37,0.037947334349155426,18.434947967529297,0.020000001415610313,0.0,1
1666742513.61902595,933103353,0,3,259331599,2233,11,0.8300000000000001,42.7309055,-84.4905476,253.61,0.03962322697043419,259.8244934082031,0.026000000536441803,0.0,1
1666742513.79898190,933283309,0,3,259331799,2233,11,0.8300000000000001,42.7309039,-84.4905483,253.74,0.1124499961733818,99.21102142333984,0.015000000596046448,0.0,1
1666742513.99899983,933483327,0,3,259331999,2233,10,0.8300000000000001,42.7309014,-84.4905509,253.57,0.05664803832769394,290.6744384765625,-0.023000001907348633,0.0,1
1666742514.19900489,933683332,0,3,259332199,2233,10,0.8300000000000001,42.7308996,-84.49055369999999,253.32,0.06312685459852219,40.502845764160156,0.09800000488758087,0.0,1
1666742514.41904187,933903369,0,3,259332399,2233,10,0.87,42.7308988,-84.4905558,253.32,0.08570297807455063,70.93080139160156,0.032999999821186066,0.0,1
1666742514.61900592,934103333,0,3,259332599,2233,10,0.87,42.7309001,-84.4905577,253.64000000000001,0.02640075795352459,245.37643432617188,0.015000000596046448,0.0,1
1666742514.81900382,934303331,0,3,259332799,2233,10,0.87,42.7309012,-84.4905598,254.01000000000002,0.16200309991836548,217.22357177734375,0.0430000014603138,0.0,1
1666742515.01903796,934503365,0,3,259332999,2233,11,0.87,42.7309014,-84.4905607,254.37,0.15922625362873077,222.7093963623047,-0.03500000014901161,0.0,1
1666742515.19901395,934683341,0,3,259333199,2233,11,0.87,42.730899699999995,-84.4905613,254.55,0.23358510434627533,210.62722778320312,-0.07700000703334808,0.0,1
1666742515.41892290,934903250,0,3,259333399,2233,11,0.85,42.730898499999995,-84.4905623,254.62,0.040792159736156464,191.3099365234375,-0.07600000500679016,0.0,1
1666742515.59903002,935083357,0,3,259333599,2233,11,0.85,42.730897399999996,-84.4905631,254.63,0.3550605773925781,214.67474365234375,-0.03200000151991844,0.0,1
1666742515.79898691,935283314,0,3,259333799,2233,11,0.85,42.730896,-84.49056379999999,254.59,0.15920114517211914,177.11961364746094,-0.055000003427267075,0.0,1
1666742515.99892902,935483256,0,3,259333999,2233,11,0.85,42.7308953,-84.4905646,254.54,0.20397303998470306,198.8791046142578,-0.03800000250339508,0.0,1
1666742516.21899891,935703326,0,3,259334199,2233,11,0.85,42.730895,-84.4905654,254.39000000000001,0.07454528659582138,353.0656433105469,0.09100000560283661,0.0,1
1666742516.39903784,935883365,0,3,259334399,2233,10,0.89,42.7308945,-84.4905658,254.20000000000002,0.015524175018072128,14.931417465209961,0.04800000041723251,0.0,1
1666742516.59904099,936083368,0,3,259334599,2233,10,0.89,42.7308939,-84.49056619999999,254.02,0.16702695190906525,181.02915954589844,0.01100000087171793,0.0,1
1666742516.81902790,936303355,0,3,259334799,2233,10,0.89,42.730893699999996,-84.4905668,253.85,0.034669872373342514,56.76828384399414,-0.125,0.0,1
1666742517.01893687,936503264,0,3,259334999,2233,10,0.89,42.730893699999996,-84.4905675,253.62,0.12491998076438904,342.290283203125,-0.13500000536441803,0.0,1
1666742517.19903898,936683366,0,3,259335199,2233,10,0.89,42.7308938,-84.490568,253.63,0.0779871866106987,40.840354919433594,-0.23600001633167267,0.0,1
1666742517.39898491,936883312,0,3,259335399,2233,10,0.89,42.7308934,-84.49056829999999,253.72,0.015000000596046448,233.13009643554688,-0.26900002360343933,0.0,1
1666742517.59900188,937083329,0,3,259335599,2233,10,0.89,42.7308939,-84.4905687,253.78,0.2312941998243332,218.50506591796875,-0.13700000941753387,0.0,1
1666742517.79893303,937283260,0,3,259335799,2233,10,0.89,42.7308945,-84.4905687,253.99,0.11543396860361099,265.0302734375,-0.08100000023841858,0.0,1
1666742517.99901891,937483346,0,3,259335999,2233,10,0.89,42.730895499999995,-84.49056809999999,254.23000000000002,0.25516271591186523,56.18537521362305,-0.20900000631809235,0.0,1
1666742518.19909382,937683421,0,3,259336199,2233,11,0.89,42.7308965,-84.4905679,254.64000000000001,0.2968922555446625,318.68701171875,0.09800000488758087,0.0,1
1666742518.41902995,937903357,0,3,259336399,2233,11,0.85,42.7308969,-84.49056809999999,255.05,0.1253993660211563,166.628662109375,-0.04100000113248825,0.0,1
1666742518.61902499,938103352,0,3,259336599,2233,11,0.85,42.7308971,-84.4905679,255.41,0.009219544939696789,139.39869689941406,0.03500000014901161,0.0,1
1666742518.81898189,938303309,0,3,259336799,2233,11,0.85,42.730897899999995,-84.49056709999999,256.13,0.35516899824142456,25.338502883911133,-0.046000003814697266,0.0,1
1666742519.01903892,938503366,0,3,259336999,2233,11,0.85,42.730898499999995,-84.49056739999999,256.08,0.06888396292924881,242.31893920898438,0.35500001907348633,0.0,1
1666742519.19896603,938683293,0,3,259337199,2233,11,0.85,42.7308982,-84.4905684,256.04,0.3186926543712616,213.09170532226562,0.5250000357627869,0.0,1
1666742519.41896391,938903291,0,3,259337399,2233,10,0.89,42.7308988,-84.4905682,256.12,0.5545602440834045,29.84739875793457,0.1990000158548355,0.0,1
1666742519.59904003,939083367,0,3,259337599,2233,10,0.89,42.7308995,-84.49056689999999,256.4,0.33414968848228455,88.28506469726562,0.24300001561641693,0.0,1
1666742519.79907703,939283404,0,3,259337799,2233,10,0.89,42.7309001,-84.49056689999999,256.28000000000003,0.21337760984897614,121.97691345214844,0.5010000467300415,0.0,1
1666742519.99904394,939483371,0,3,259337999,2233,10,0.89,42.7309006,-84.4905663,256.15,0.527888298034668,80.73395538330078,0.2720000147819519,0.0,1
1666742520.21903181,939703359,0,3,259338199,2233,10,0.89,42.730901499999995,-84.4905658,256.12,0.4091576933860779,22.867616653442383,0.38600000739097595,0.0,1
1666742520.39901280,939883340,0,3,259338399,2233,10,0.89,42.7309025,-84.49056569999999,256.02,0.4605703055858612,15.877041816711426,0.26900002360343933,0.0,1
1666742520.59903502,940083362,0,3,259338599,2233,9,0.89,42.730903999999995,-84.4905663,256.14,0.22720035910606384,286.361083984375,0.20900000631809235,0.0,1
1666742520.79897594,940283303,0,3,259338799,2233,9,0.89,42.7309045,-84.4905666,256.56,0.613153338432312,224.0088348388672,-0.02200000174343586,0.0,1
1666742521.01899195,940503319,0,3,259338999,2233,9,0.89,42.7309069,-84.4905689,256.64,0.3084752857685089,319.3382568359375,0.28600001335144043,0.0,1
1666742521.19903803,940683365,0,3,259339199,2233,10,0.89,42.7309078,-84.4905697,256.45,0.4969557523727417,309.0379333496094,0.23900000751018524,0.0,1
1666742521.41901588,940903343,0,3,259339399,2233,10,0.89,42.7309086,-84.4905709,256.46,0.3771604597568512,358.3287048339844,0.13300000131130219,0.0,1
1666742521.61901593,941103343,0,3,259339599,2233,10,0.89,42.7309085,-84.4905722,256.58,0.19014206528663635,310.30712890625,0.14500001072883606,0.0,1
1666742521.79904890,941283376,0,3,259339799,2233,10,0.89,42.7309087,-84.4905727,256.49,0.12850292026996613,240.6422576904297,0.1120000034570694,0.0,1
1666742521.99902987,941483357,0,3,259339999,2233,10,0.89,42.7309081,-84.49057359999999,256.52,0.07513321936130524,170.0361785888672,0.2410000115633011,0.0,1
1666742522.19900703,941683334,0,3,259340199,2233,9,0.89,42.730908,-84.4905732,256.77,0.2412985861301422,30.923030853271484,0.17800000309944153,0.0,1
1666742522.41904688,941903374,0,3,259340399,2233,11,0.85,42.7309078,-84.49057359999999,256.87,0.1996922791004181,33.7696418762207,0.06200000271201134,0.0,1
1666742522.61895585,942103283,0,3,259340599,2233,10,0.85,42.7309075,-84.4905746,256.78000000000003,0.10309704393148422,188.3658905029297,0.039000000804662704,0.0,1
1666742522.79897094,942283298,0,3,259340799,2233,10,0.85,42.730907099999996,-84.4905754,256.68,0.2540019750595093,160.20960998535156,0.13600000739097595,0.0,1
1666742523.01898384,942503311,0,3,259340999,2233,10,0.85,42.7309068,-84.4905758,256.49,0.1707659214735031,75.06857299804688,0.23900000751018524,0.0,1
1666742523.21892381,942703251,0,3,259341199,2233,10,0.85,42.730906999999995,-84.49057599999999,256.34000000000003,0.21993863582611084,156.6987762451172,0.06800000369548798,0.0,1
1666742523.39900184,942883329,0,3,259341399,2233,11,0.87,42.7309072,-84.4905758,255.91,0.06264184415340424,196.69924926757812,0.22500000894069672,0.0,1
1666742523.61910892,943103436,0,3,259341599,2233,11,0.87,42.7309075,-84.49057549999999,255.5,0.02500000223517418,233.13009643554688,0.29200002551078796,0.0,1
1666742523.81901503,943303342,0,3,259341799,2233,11,0.87,42.730907699999996,-84.4905749,255.23000000000002,0.08481156080961227,142.18426513671875,0.19300000369548798,0.0,1
1666742524.01905489,943503382,0,3,259341999,2233,11,0.87,42.7309074,-84.4905751,255.18,0.2883921265602112,202.20724487304688,0.25600001215934753,0.0,1
1666742524.21904087,943703368,0,3,259342199,2233,9,0.87,42.7309069,-84.4905752,255.14000000000001,0.13446561992168427,128.65980529785156,0.23500001430511475,0.0,1
1666742524.39902902,943883356,0,3,259342399,2233,9,0.87,42.730906999999995,-84.4905746,255.38,0.40543559193611145,199.14999389648438,0.05000000074505806,0.0,1
1666742524.59902883,944083356,0,3,259342599,2233,10,0.97,42.7309056,-84.49057549999999,255.19,0.7688289880752563,207.3316192626953,0.24500000476837158,0.0,1
1666742524.81899500,944303322,0,3,259342799,2233,10,0.97,42.7309024,-84.4905775,254.70000000000002,0.4518849849700928,204.86370849609375,0.01600000075995922,0.0,1
1666742525.01907992,944503407,0,3,259342999,2233,8,0.97,42.7309021,-84.4905769,254.77,0.2234032303094864,127.17765045166016,0.16600000858306885,0.0,1
1666742525.19902086,944683348,0,3,259343199,2233,10,0.97,42.730901499999995,-84.490577,255.07,0.5521775484085083,215.4170684814453,0.3270000219345093,0.0,1
1666742525.39901996,944883347,0,3,259343399,2233,10,0.89,42.730899799999996,-84.49057739999999,254.92000000000002,0.6678391098976135,167.89923095703125,0.4050000309944153,0.0,1
1666742525.59896588,945083293,0,3,259343599,2233,9,0.89,42.7308993,-84.49057599999999,255.6,0.40001124143600464,90.42970275878906,-0.13500000536441803,0.0,1
1666742525.81902981,945303357,0,3,259343799,2233,9,0.89,42.730899199999996,-84.4905752,255.99,0.15861904621124268,185.06361389160156,0.562000036239624,0.0,1
1666742525.99910402,945483431,0,3,259343999,2233,9,0.89,42.730898499999995,-84.4905756,256.08,0.4040309488773346,180.70907592773438,0.29100000858306885,0.0,1
1666742526.21900296,945703330,0,3,259344199,2233,10,0.89,42.7308962,-84.49057839999999,255.8,0.13160927593708038,29.096887588500977,0.18300001323223114,0.0,1
1666742526.39899683,945883324,0,3,259344399,2233,10,0.89,42.7308964,-84.4905792,255.96,0.21815592050552368,211.5042724609375,0.18400001525878906,0.0,1
1666742526.61894202,946103269,0,3,259344599,2233,11,0.89,42.7308972,-84.4905793,256.03000000000003,0.7026023268699646,69.24351501464844,-0.2710000276565552,0.0,1
1666742526.81897497,946303302,0,3,259344799,2233,11,0.89,42.730897999999996,-84.4905792,255.93,0.20831948518753052,98.5579605102539,0.018000001087784767,0.0,1
1666742527.01899600,946503323,0,3,259344999,2233,10,0.89,42.7308989,-84.49057979999999,255.64000000000001,0.022671569138765335,311.4236755371094,0.14000000059604645,0.0,1
1666742527.21904683,946703374,0,3,259345199,2233,11,0.89,42.730900299999995,-84.49058099999999,255.42000000000002,0.2142941951751709,241.88034057617188,0.10600000619888306,0.0,1
1666742527.39901400,946883341,0,3,259345399,2233,11,0.85,42.7309008,-84.4905831,255.33,0.18984204530715942,253.47421264648438,0.027000000700354576,0.0,1
1666742527.61900187,947103329,0,3,259345599,2233,11,0.85,42.7309006,-84.49058579999999,255.1,0.05900000408291817,0.0,0.2200000137090683,0.0,1
1666742527.81902289,947303350,0,3,259345799,2233,10,0.85,42.730900899999995,-84.4905872,254.94,0.1176137775182724,232.25320434570312,0.12700000405311584,0.0,1
1666742528.01899981,947503327,0,3,259345999,2233,9,0.85,42.7309021,-84.4905879,255.06,0.03130495175719261,333.4349365234375,-0.07400000095367432,0.0,1
1666742528.21903491,947703362,0,3,259346199,2233,10,0.85,42.7309035,-84.4905892,255.35,0.11189281195402145,298.85565185546875,0.03700000047683716,0.0,1
1666742528.41897082,947903298,0,3,259346399,2233,9,0.91,42.7309042,-84.4905891,256.14,0.1310267150402069,211.26373291015625,0.03100000135600567,0.0,1
1666742528.59893394,948083261,0,3,259346599,2233,9,0.91,42.730904599999995,-84.4905885,256.98,0.18257054686546326,222.7803497314453,-0.021000001579523087,0.0,1
1666742528.79897499,948283302,0,3,259346799,2233,10,0.91,42.7309081,-84.49058769999999,257.87,0.05923681706190109,248.1986083984375,0.023000001907348633,0.0,1
1666742529.01906180,948503389,0,3,259346999,2233,10,0.91,42.730913099999995,-84.49058749999999,258.62,0.07025667279958725,184.89910888671875,-0.11900000274181366,0.0,1
1666742529.21903896,948703366,0,3,259347199,2233,11,0.91,42.730917,-84.49058749999999,259.25,0.03471311181783676,348.3663635253906,-0.020000001415610313,0.0,1
1666742529.41901898,948903346,0,3,259347399,2233,11,0.87,42.7309193,-84.4905878,259.36,0.0598163865506649,218.21102905273438,-0.12300000339746475,0.0,1
1666742529.61892486,949103252,0,3,259347599,2233,12,0.87,42.730921599999995,-84.4905891,259.33,0.07121797651052475,308.1572265625,-0.013000000268220901,0.0,1
1666742529.81896687,949303294,0,3,259347799,2233,12,0.87,42.7309213,-84.4905904,259.34000000000003,0.18417654931545258,192.22512817382812,-0.10500000417232513,0.0,1
1666742530.01897097,949503298,0,3,259347999,2233,11,0.87,42.7309206,-84.49059129999999,259.45,0.00824621133506298,75.96375274658203,-0.07100000232458115,0.0,1
1666742530.21900201,949703329,0,3,259348199,2233,10,0.87,42.7309203,-84.4905919,259.68,0.1348072737455368,52.535064697265625,0.08000000566244125,0.0,1
1666742530.41900396,949903331,0,3,259348399,2233,11,0.8300000000000001,42.730919799999995,-84.4905922,259.81,0.030413813889026642,27.407573699951172,0.0010000000474974513,0.0,1
1666742530.59895396,950083281,0,3,259348599,2233,11,0.8300000000000001,42.7309194,-84.4905922,259.97,0.08919642120599747,70.34617614746094,-0.0020000000949949026,0.0,1
1666742530.81902981,950303357,0,3,259348799,2233,11,0.8300000000000001,42.730919199999995,-84.49059179999999,260.18,0.10410091280937195,31.246929168701172,0.08000000566244125,0.0,1
1666742531.01903486,950503362,0,3,259348999,2233,11,0.8300000000000001,42.7309191,-84.4905914,260.36,0.03373425453901291,78.02386474609375,0.03700000047683716,0.0,1
1666742531.21897984,950703307,0,3,259349199,2233,11,0.8300000000000001,42.7309188,-84.49059079999999,260.56,0.08902247250080109,75.02711486816406,0.036000002175569534,0.0,1
1666742531.39903283,950883360,0,3,259349399,2233,11,0.8300000000000001,42.730918599999995,-84.49059009999999,260.62,0.15936437249183655,41.69325256347656,0.10200000554323196,0.0,1
1666742531.61905885,951103386,0,3,259349599,2233,11,0.8300000000000001,42.7309182,-84.4905893,260.62,0.1137409433722496,150.50503540039062,-0.05400000140070915,0.0,1
1666742531.81899691,951303324,0,3,259349799,2233,10,0.8300000000000001,42.7309181,-84.49058869999999,260.64,0.04866209998726845,99.46231842041016,-0.10000000149011612,0.0,1
1666742532.01900291,951503330,0,3,259349999,2233,11,0.8300000000000001,42.7309187,-84.4905884,260.52,0.07125306874513626,94.83041381835938,0.0430000014603138,0.0,1
1666742532.19899893,951683326,0,3,259350199,2233,11,0.8300000000000001,42.7309196,-84.49058769999999,260.51,0.1465776264667511,41.95815658569336,-0.11500000208616257,0.0,1
1666742532.41904688,951903374,0,3,259350399,2233,11,1.07,42.730920399999995,-84.4905873,260.46,0.11063454300165176,49.39870071411133,-0.013000000268220901,0.0,1
1666742532.59901690,952083344,0,3,259350599,2233,10,1.07,42.730920499999996,-84.49058769999999,260.41,0.06700746715068817,179.1448974609375,-0.013000000268220901,0.0,1
1666742532.79902387,952283351,0,3,259350799,2233,11,1.07,42.7309196,-84.4905888,260.42,0.1607513576745987,60.56458282470703,-0.02200000174343586,0.0,1
1666742533.01903796,952503365,0,3,259350999,2233,11,1.07,42.7309189,-84.4905895,260.33,0.3634074926376343,68.0229263305664,-0.03100000135600567,0.0,1
1666742533.21900702,952703334,0,3,259351199,2233,12,1.07,42.7309171,-84.4905919,259.86,0.05600893124938011,91.02302551269531,0.1080000028014183,0.0,1
1666742533.41902590,952903353,0,3,259351399,2233,12,1.07,42.7309154,-84.4905948,259.42,0.08309633284807205,92.75910186767578,0.11800000816583633,0.0,1
1666742533.61901903,953103346,0,3,259351599,2233,12,1.07,42.730915599999996,-84.4905948,259.48,0.323246031999588,29.261198043823242,0.27000001072883606,0.0,1
1666742533.81896400,953303291,0,3,259351799,2233,12,1.07,42.730916099999995,-84.4905947,259.47,0.3247460722923279,40.75438690185547,0.1340000033378601,0.0,1
1666742534.01900792,953503335,0,3,259351999,2233,11,1.07,42.730916699999995,-84.4905941,259.34000000000003,0.17685306072235107,69.82313537597656,0.16900001466274261,0.0,1
1666742534.19900894,953683336,0,3,259352199,2233,12,1.07,42.7309163,-84.4905945,259.21,0.2615358531475067,17.811439514160156,0.12200000882148743,0.0,1
1666742534.39903498,953883362,0,3,259352399,2233,11,0.89,42.7309163,-84.4905947,259.26,0.166433185338974,265.8653259277344,0.1120000034570694,0.0,1
1666742534.59903193,954083359,0,3,259352599,2233,11,0.89,42.730916199999996,-84.49059489999999,259.17,0.05557877570390701,98.27588653564453,-0.16900001466274261,0.0,1
1666742534.81904292,954303370,0,3,259352799,2233,11,0.89,42.7309166,-84.4905952,259.04,0.2795567810535431,17.91644859313965,-0.11000000685453415,0.0,1
1666742535.01901484,954503342,0,3,259352999,2233,11,0.89,42.7309159,-84.4905964,258.65,0.18435293436050415,259.0557861328125,0.009000000543892384,0.0,1
1666742535.21899390,954703321,0,3,259353199,2233,10,0.89,42.7309157,-84.4905969,258.25,0.05693856626749039,329.38140869140625,-0.01600000075995922,0.0,1
1666742535.41896796,954903295,0,3,259353399,2233,11,0.91,42.7309157,-84.49059729999999,257.96,0.15230561792850494,228.46018981933594,0.013000000268220901,0.0,1
1666742535.59900594,955083333,0,3,259353599,2233,12,0.91,42.730915499999995,-84.4905977,257.78000000000003,0.07201389223337173,295.49755859375,0.0010000000474974513,0.0,1
1666742535.79901600,955283343,0,3,259353799,2233,11,0.91,42.7309165,-84.4905974,257.86,0.2412509173154831,2.6133460998535156,-0.030000001192092896,0.0,1
1666742535.99896502,955483292,0,3,259353999,2233,11,0.91,42.7309169,-84.49059749999999,257.98,0.09080199152231216,36.491294860839844,0.01100000087171793,0.0,1
1666742536.21906090,955703388,0,3,259354199,2233,11,0.91,42.7309153,-84.4905986,257.72,0.3178049921989441,40.40574264526367,0.09600000083446503,0.0,1
1666742536.41900396,955903331,0,3,259354399,2233,11,0.87,42.7309112,-84.4906003,257.2,0.11104054003953934,38.418052673339844,0.11300000548362732,0.0,1
1666742536.61901093,956103338,0,3,259354599,2233,12,0.87,42.7309093,-84.4906025,256.91,0.0698140412569046,38.01893997192383,0.07700000703334808,0.0,1
1666742536.81894588,956303273,0,3,259354799,2233,12,0.87,42.730906399999995,-84.4906051,256.71,0.04346263036131859,203.02549743652344,0.28200000524520874,0.0,1
1666742536.99906802,956483395,0,3,259354999,2233,12,0.87,42.7309037,-84.49060639999999,256.72,0.09902020543813705,51.97276306152344,0.17400000989437103,0.0,1
1666742537.21901488,956703342,0,3,259355199,2233,12,0.87,42.730902799999996,-84.4906068,256.82,0.030016662552952766,88.0908432006836,0.18300001323223114,0.0,1
1666742537.39902782,956883355,0,3,259355399,2233,11,0.87,42.7309033,-84.49060709999999,256.75,0.14436760544776917,254.3271942138672,0.1210000067949295,0.0,1
1666742537.61907697,957103404,0,3,259355599,2233,11,0.87,42.7309036,-84.4906073,256.69,0.14436066150665283,137.2457275390625,-0.06599999964237213,0.0,1
1666742537.79901004,957283337,0,3,259355799,2233,12,0.87,42.7309038,-84.4906072,256.61,0.3272308111190796,120.4832992553711,-0.046000003814697266,0.0,1
1666742538.01902199,957503349,0,3,259355999,2233,12,0.87,42.7309042,-84.49060779999999,256.5,0.4230414032936096,226.72410583496094,0.0690000057220459,0.0,1
1666742538.21900296,957703330,0,3,259356199,2233,12,0.87,42.730906399999995,-84.4906097,256.4,0.4100792706012726,30.31678009033203,-0.40400001406669617,0.0,1
1666742538.41903281,957903360,0,3,259356399,2233,12,0.87,42.7309078,-84.49061119999999,256.17,0.8263201713562012,246.53738403320312,0.0990000069141388,0.0,1
1666742538.61902094,958103348,0,3,259356599,2233,12,0.87,42.7309078,-84.4906128,256.21,0.4139782786369324,200.79904174804688,-0.7620000243186951,0.0,1
1666742538.81891394,958303241,0,3,259356799,2233,12,0.87,42.7309078,-84.4906141,256.09000000000003,0.6710067391395569,270.25616455078125,-0.20500001311302185,0.0,1
1666742539.01897192,958503299,0,3,259356999,2233,12,0.87,42.730906999999995,-84.4906161,256.11,1.1729971170425415,209.6903533935547,-0.36000001430511475,0.0,1
1666742539.21898484,958703312,0,3,259357199,2233,12,0.87,42.730906499999996,-84.49061809999999,256.24,1.1966955661773682,285.7086486816406,0.20500001311302185,0.0,1
1666742539.39899898,958883326,0,3,259357399,2233,12,0.8300000000000001,42.7309074,-84.49061999999999,256.29,0.5902304649353027,342.8544616699219,-0.22800001502037048,0.0,1
1666742539.59894300,959083270,0,3,259357599,2233,12,0.8300000000000001,42.7309078,-84.4906216,256.49,0.5180367231369019,250.72561645507812,0.017000000923871994,0.0,1
1666742539.79899096,959283318,0,3,259357799,2233,11,0.8300000000000001,42.7309074,-84.4906239,256.4,0.4722711145877838,259.2611083984375,-0.09200000762939453,0.0,1
1666742540.01903081,959503358,0,3,259357999,2233,11,0.8300000000000001,42.7309075,-84.4906254,256.37,0.30401647090911865,259.5771484375,0.13199999928474426,0.0,1
1666742540.21902299,959703350,0,3,259358199,2233,12,0.8300000000000001,42.7309075,-84.49062649999999,256.34000000000003,0.40129417181015015,241.90231323242188,0.026000000536441803,0.0,1
1666742540.41901302,959903340,0,3,259358399,2233,11,0.89,42.7309075,-84.49062719999999,256.37,0.251047819852829,171.06295776367188,-0.14900000393390656,0.0,1
1666742540.61892200,960103249,0,3,259358599,2233,11,0.89,42.730906999999995,-84.4906274,256.57,0.6161055564880371,199.4348907470703,-0.039000000804662704,0.0,1
1666742540.81905198,960303379,0,3,259358799,2233,12,0.89,42.7309069,-84.4906274,256.99,0.055000003427267075,36.86989212036133,-0.02200000174343586,0.0,1
1666742540.99895382,960483281,0,3,259358999,2233,12,0.89,42.7309066,-84.4906283,257.19,0.12280066311359406,353.4537048339844,-0.03400000184774399,0.0,1
1666742541.21898198,960703309,0,3,259359199,2233,12,0.89,42.730906999999995,-84.4906287,257.41,0.356609046459198,10.17551040649414,0.029000001028180122,0.0,1
1666742541.41901398,960903341,0,3,259359399,2233,13,0.79,42.730907599999995,-84.4906281,257.62,0.1518552005290985,347.06195068359375,-0.030000001192092896,0.0,1
1666742541.61902499,961103352,0,3,259359599,2233,13,0.79,42.7309075,-84.49062769999999,257.85,0.0434165894985199,51.54629135131836,-0.15000000596046448,0.0,1
1666742541.81906891,961303396,0,3,259359799,2233,12,0.79,42.7309074,-84.4906271,257.99,0.047853946685791016,280.8403015136719,-0.12000000476837158,0.0,1
1666742542.01895404,961503281,0,3,259359999,2233,12,0.79,42.7309072,-84.4906264,258.14,0.04104875400662422,357.2073059082031,-0.07300000637769699,0.0,1
1666742542.21896601,961703293,0,3,259360199,2233,11,0.79,42.730906999999995,-84.4906261,258.24,0.26782459020614624,175.50283813476562,-0.04700000211596489,0.0,1
1666742542.39902997,961883357,0,3,259360399,2233,12,0.8300000000000001,42.730906999999995,-84.4906257,258.29,0.21213676035404205,135.3819580078125,-0.0650000050663948,0.0,1
1666742542.61900902,962103336,0,3,259360599,2233,12,0.8300000000000001,42.7309068,-84.49062579999999,258.22,0.196122407913208,168.23170471191406,0.04200000315904617,0.0,1
1666742542.81896901,962303296,0,3,259360799,2233,11,0.8300000000000001,42.7309069,-84.4906262,258.01,0.29843929409980774,114.76171875,0.367000013589859,0.0,1
1666742543.01904702,962503374,0,3,259360999,2233,11,0.8300000000000001,42.730907599999995,-84.4906259,257.75,0.3859456181526184,116.63143157958984,-0.0990000069141388,0.0,1
1666742543.21900702,962703334,0,3,259361199,2233,11,0.8300000000000001,42.730908299999996,-84.4906256,257.24,0.7742686867713928,13.138827323913574,0.7510000467300415,0.0,1
1666742543.41902900,962903356,0,3,259361399,2233,9,1.25,42.7309094,-84.4906255,256.87,0.4725600779056549,182.7897491455078,0.06599999964237213,0.0,1
1666742543.61903095,963103358,0,3,259361599,2233,11,1.25,42.730910099999996,-84.4906255,256.66,0.22936871647834778,86.75088500976562,0.2120000123977661,0.0,1
1666742543.79903388,963283361,0,3,259361799,2233,11,1.25,42.7309105,-84.4906252,256.59000000000003,0.35412147641181946,68.2887191772461,0.09600000083446503,0.0,1
1666742544.01904798,963503375,0,3,259361999,2233,11,1.25,42.730911,-84.4906252,256.6,0.11681181937456131,57.942623138427734,0.16100001335144043,0.0,1
1666742544.21898890,963703316,0,3,259362199,2233,12,1.25,42.7309109,-84.4906255,256.62,0.021587034687399864,283.39251708984375,0.0690000057220459,0.0,1
1666742544.41900086,963903328,0,3,259362399,2233,12,0.8300000000000001,42.730910099999996,-84.49062579999999,256.44,0.2305862158536911,240.65579223632812,0.22800001502037048,0.0,1
1666742544.61896491,964103292,0,3,259362599,2233,12,0.8300000000000001,42.7309099,-84.4906264,256.36,0.07026379555463791,294.37646484375,0.22100001573562622,0.0,1
1666742544.81900191,964303329,0,3,259362799,2233,13,0.8300000000000001,42.730911,-84.4906263,256.39,0.31704258918762207,219.1114044189453,0.27800002694129944,0.0,1
1666742545.01905990,964503387,0,3,259362999,2233,12,0.8300000000000001,42.7309127,-84.4906261,256.47,0.032572995871305466,72.12129974365234,0.22700001299381256,0.0,1
1666742545.21895003,964703277,0,3,259363199,2233,11,0.8300000000000001,42.730914,-84.49062599999999,256.62,0.09481034427881241,127.7159652709961,0.12700000405311584,0.0,1
1666742545.41900086,964903328,0,3,259363399,2233,12,0.8300000000000001,42.730914299999995,-84.4906256,256.53000000000003,0.265224426984787,127.6476058959961,0.07100000232458115,0.0,1
1666742545.61906099,965103388,0,3,259363599,2233,11,0.8300000000000001,42.7309139,-84.49062529999999,256.33,0.20711834728717804,181.9368133544922,0.20900000631809235,0.0,1
1666742545.81901789,965303345,0,3,259363799,2233,12,0.8300000000000001,42.7309135,-84.4906252,256.5,0.4369862973690033,209.32205200195312,0.27900001406669617,0.0,1
1666742546.01899791,965503325,0,3,259363999,2233,12,0.8300000000000001,42.730913099999995,-84.49062529999999,256.62,0.26863357424736023,129.25938415527344,0.08100000023841858,0.0,1
1666742546.21901488,965703342,0,3,259364199,2233,12,0.8300000000000001,42.7309127,-84.4906252,256.47,0.3770013451576233,127.02186584472656,-0.13900001347064972,0.0,1
1666742546.39899683,965883324,0,3,259364399,2233,12,0.8300000000000001,42.7309124,-84.49062529999999,256.5,0.585767924785614,171.952880859375,-0.22700001299381256,0.0,1
1666742546.61900592,966103333,0,3,259364599,2233,12,0.8300000000000001,42.730912,-84.4906259,256.45,0.12106197327375412,187.5946502685547,0.06000000238418579,0.0,1
1666742546.81902790,966303355,0,3,259364799,2233,13,0.8300000000000001,42.730912499999995,-84.4906262,256.38,0.19565531611442566,175.30931091308594,0.12200000882148743,0.0,1
1666742547.01906586,966503393,0,3,259364999,2233,13,0.8300000000000001,42.7309118,-84.4906266,255.96,0.07592760026454926,139.80795288085938,0.14400000870227814,0.0,1
1666742547.21899295,966703320,0,3,259365199,2233,13,0.8300000000000001,42.730911299999995,-84.4906266,255.82,0.1111125648021698,177.4208526611328,-0.014000000432133675,0.0,1
1666742547.41902900,966903356,0,3,259365399,2233,13,0.8300000000000001,42.730911,-84.4906266,255.73000000000002,0.027018513530492783,267.87890625,0.08900000154972076,0.0,1
1666742547.61903787,967103365,0,3,259365599,2233,12,0.8300000000000001,42.7309112,-84.4906257,255.93,0.15307515859603882,252.51202392578125,0.2110000103712082,0.0,1
1666742547.79909492,967283422,0,3,259365799,2233,11,0.8300000000000001,42.7309118,-84.49062699999999,255.83,0.34541571140289307,208.345703125,0.20000000298023224,0.0,1
1666742548.01898503,967503312,0,3,259365999,2233,10,0.8300000000000001,42.7309123,-84.4906286,255.74,0.18409781157970428,178.13230895996094,0.036000002175569534,0.0,1
1666742548.21891785,967703245,0,3,259366199,2233,10,0.8300000000000001,42.730912499999995,-84.49063029999999,255.49,0.010816654190421104,56.309932708740234,0.1730000078678131,0.0,1
1666742548.41894102,967903268,0,3,259366399,2233,11,1.2,42.7309116,-84.4906322,255.77,0.19400259852409363,190.09353637695312,0.0010000000474974513,0.0,1
1666742548.61901283,968103340,0,3,259366599,2233,11,1.2,42.7309105,-84.49063439999999,255.86,0.03544009104371071,196.38954162597656,0.09300000220537186,0.0,1
1666742548.81898785,968303315,0,3,259366799,2233,12,1.2,42.73091,-84.4906359,255.68,0.0752861276268959,106.99081420898438,0.3370000123977661,0.0,1
1666742549.01904798,968503375,0,3,259366999,2233,11,1.2,42.7309104,-84.4906362,255.51000000000002,0.19866806268692017,35.37004852294922,0.09400000423192978,0.0,1
1666742549.19900584,968683333,0,3,259367199,2233,11,1.2,42.7309111,-84.4906361,255.3,0.22005683183670044,91.30194854736328,0.23600001633167267,0.0,1
1666742549.39903402,968883361,0,3,259367399,2233,11,0.87,42.7309114,-84.4906357,255.12,0.1827840358018875,124.29864501953125,0.33000001311302185,0.0,1
1666742549.61900091,969103328,0,3,259367599,2233,12,0.87,42.7309117,-84.4906362,254.9,0.060745373368263245,110.224853515625,0.4390000104904175,0.0,1
1666742549.81893086,969303258,0,3,259367799,2233,11,0.87,42.7309117,-84.49063679999999,254.85,0.14091132581233978,55.40770721435547,0.531000018119812,0.0,1
1666742550.01892900,969503256,0,3,259367999,2233,11,0.87,42.7309118,-84.4906372,254.77,0.08105553686618805,321.0090026855469,0.625,0.0,1
1666742550.21904898,969703376,0,3,259368199,2233,12,0.87,42.730912499999995,-84.49063699999999,254.57,0.23541666567325592,86.59066009521484,0.42100003361701965,0.0,1
1666742550.39892697,969883254,0,3,259368399,2233,12,0.8300000000000001,42.7309134,-84.49063699999999,254.43,0.06477653980255127,171.11932373046875,0.25699999928474426,0.0,1
1666742550.59898496,970083312,0,3,259368599,2233,12,0.8300000000000001,42.7309152,-84.4906374,254.20000000000002,0.12578155100345612,96.39048767089844,0.1940000057220459,0.0,1
1666742550.79904985,970283377,0,3,259368799,2233,12,0.8300000000000001,42.7309169,-84.4906374,254.07,0.16254231333732605,55.52778244018555,0.29600000381469727,0.0,1
1666742551.01898789,970503315,0,3,259368999,2233,12,0.8300000000000001,42.7309185,-84.49063679999999,254.17000000000002,0.2524460256099701,45.48146438598633,0.07800000160932541,0.0,1
1666742551.21901584,970703343,0,3,259369199,2233,11,0.8300000000000001,42.730920399999995,-84.4906362,254.33,0.215946763753891,30.008153915405273,0.2590000033378601,0.0,1
