timestamp,TimeUS,Lat,Lng,Alt,RelHomeAlt,RelOriginAlt
1666742445.19960785,864683935,42.7308698,-84.4905682,249.4199981689453,0.0036400463432073593,-0.9463599324226379
1666742445.19981289,864684140,42.7308698,-84.4905682,249.4199981689453,0.0036400463432073593,-0.9463599324226379
1666742445.23953700,864723864,42.7308698,-84.4905682,249.4199981689453,0.005541076883673668,-0.9444589018821716
1666742445.27968097,864764008,42.7308697,-84.49056829999999,249.4199981689453,0.006684711202979088,-0.9433152675628662
1666742445.29951596,864783843,42.7308697,-84.49056829999999,249.4199981689453,0.007082274183630943,-0.9429177045822144
1666742445.31923795,864803565,42.7308696,-84.49056829999999,249.4199981689453,0.0076813604682683945,-0.9423186182975769
1666742445.35926986,864843597,42.7308696,-84.4905684,249.4199981689453,0.00855504535138607,-0.9414449334144592
1666742445.39958882,864883916,42.7308695,-84.4905684,249.4199981689453,0.009797384962439537,-0.9402025938034058
1666742445.39966083,864883988,42.7308695,-84.4905684,249.4199981689453,0.009797384962439537,-0.9402025938034058
1666742445.43981481,864924142,42.730869399999996,-84.4905685,249.4199981689453,0.009577026590704918,-0.9404229521751404
1666742445.47980595,864964133,42.730869399999996,-84.4905686,249.4199981689453,0.009572198614478111,-0.9404277801513672
1666742445.49948502,864983812,42.730869299999995,-84.4905686,249.4199981689453,0.009608497843146324,-0.940391480922699
1666742445.51935101,865003678,42.730869299999995,-84.4905686,249.4199981689453,0.009540131315588951,-0.9404598474502563
1666742445.55931401,865043641,42.7308692,-84.4905687,249.4199981689453,0.009606650099158287,-0.940393328666687
1666742445.59952092,865083848,42.7308692,-84.4905687,249.4199981689453,0.009696176275610924,-0.9403038024902344
1666742445.59962487,865083952,42.7308692,-84.4905687,249.4199981689453,0.009696176275610924,-0.9403038024902344
1666742445.63993502,865124262,42.730869,-84.49056879999999,249.4199981689453,0.008820882067084312,-0.941179096698761
1666742445.67969584,865164023,42.730869,-84.4905689,249.4199981689453,0.008404126390814781,-0.9415958523750305
1666742445.69943786,865183765,42.7308689,-84.4905689,249.4199981689453,0.008301189169287682,-0.9416987895965576
1666742445.71934795,865203675,42.7308689,-84.4905689,249.4199981689453,0.008000364527106285,-0.941999614238739
1666742445.75926089,865243588,42.730868799999996,-84.490569,249.4199981689453,0.007931699976325035,-0.9420682787895203
1666742445.79943800,865283765,42.730868699999995,-84.490569,249.4199981689453,0.00799124501645565,-0.9420087337493896
1666742445.79959893,865283926,42.730868699999995,-84.490569,249.4199981689453,0.00799124501645565,-0.9420087337493896
1666742445.83984494,865324172,42.7308686,-84.4905691,249.4199981689453,0.007822385057806969,-0.9421775937080383
1666742445.87964082,865363968,42.7308685,-84.4905691,249.4199981689453,0.007719924673438072,-0.9422800540924072
1666742445.89949799,865383825,42.7308684,-84.4905692,249.4199981689453,0.007707050070166588,-0.9422929286956787
1666742445.91944003,865403767,42.7308684,-84.4905692,249.4199981689453,0.007606735453009605,-0.9423932433128357
1666742445.95932794,865443655,42.7308683,-84.4905692,249.4199981689453,0.007761290296912193,-0.9422386884689331
1666742445.99951696,865483844,42.730868199999996,-84.49056929999999,249.4199981689453,0.008011331781744957,-0.9419886469841003
1666742445.99963188,865483959,42.730868199999996,-84.49056929999999,249.4199981689453,0.008011331781744957,-0.9419886469841003
1666742446.03985500,865524182,42.730868,-84.4905694,249.4199981689453,0.007588854059576988,-0.9424111247062683
1666742446.07968187,865564009,42.7308679,-84.4905694,249.4199981689453,0.007553925737738609,-0.9424460530281067
1666742446.09955382,865583881,42.7308679,-84.4905694,249.4199981689453,0.007556071504950523,-0.9424439072608948
1666742446.11931801,865603645,42.7308678,-84.49056949999999,249.4199981689453,0.007498612627387047,-0.9425013661384583
1666742446.15926003,865643587,42.7308677,-84.49056949999999,249.4199981689453,0.007528236135840416,-0.9424717426300049
1666742446.19949198,865683819,42.730867599999996,-84.49056949999999,249.4199981689453,0.007579496130347252,-0.942420482635498
1666742446.19966888,865683996,42.730867599999996,-84.49056949999999,249.4199981689453,0.007579496130347252,-0.942420482635498
1666742446.23979592,865724123,42.730867499999995,-84.4905696,249.4199981689453,0.007298937067389488,-0.9427010416984558
1666742446.27972198,865764049,42.7308674,-84.4905697,249.4199981689453,0.007117977365851402,-0.9428820013999939
1666742446.29946685,865783794,42.7308673,-84.4905697,249.4199981689453,0.007068445906043053,-0.9429315328598022
1666742446.31937504,865803702,42.7308673,-84.4905697,249.4199981689453,0.006933322176337242,-0.9430666565895081
1666742446.35930300,865843630,42.7308672,-84.4905698,249.4199981689453,0.007085850462317467,-0.9429141283035278
1666742446.39955401,865883881,42.7308671,-84.4905698,249.4199981689453,0.007354488596320152,-0.9426454901695251
1666742446.39974403,865884071,42.7308671,-84.4905698,249.4199981689453,0.007354488596320152,-0.9426454901695251
1666742446.43987489,865924202,42.730866999999996,-84.4905699,249.4199981689453,0.006515970453619957,-0.9434840083122253
1666742446.47973084,865964058,42.730866899999995,-84.49056999999999,249.4199981689453,0.006303539499640465,-0.9436964392662048
1666742446.49949884,865983826,42.730866899999995,-84.49056999999999,249.4199981689453,0.006232967600226402,-0.9437670111656189
1666742446.51924086,866003568,42.730866899999995,-84.49056999999999,249.4199981689453,0.006073227152228355,-0.9439267516136169
1666742446.55935287,866043680,42.7308668,-84.49056999999999,249.4199981689453,0.0061069633811712265,-0.9438930153846741
1666742446.59954596,866083873,42.7308667,-84.4905701,249.4199981689453,0.006235888227820396,-0.9437640905380249
1666742446.59964204,866083969,42.7308667,-84.4905701,249.4199981689453,0.006235888227820396,-0.9437640905380249
1666742446.63997102,866124298,42.7308666,-84.4905701,249.4199981689453,0.0070165302604436874,-0.9429834485054016
1666742446.67965102,866163978,42.7308665,-84.4905702,249.4199981689453,0.007537653669714928,-0.9424623250961304
1666742446.69949389,866183821,42.7308665,-84.4905702,249.4199981689453,0.007692446932196617,-0.9423075318336487
1666742446.71923900,866203566,42.7308665,-84.4905702,249.4199981689453,0.00797211192548275,-0.9420278668403625
1666742446.75931191,866243639,42.7308664,-84.4905702,249.4199981689453,0.008472254499793053,-0.9415277242660522
1666742446.79953694,866283864,42.730866299999995,-84.4905702,249.4199981689453,0.008963337168097496,-0.9410366415977478
1666742446.79964399,866283971,42.730866299999995,-84.4905702,249.4199981689453,0.008963337168097496,-0.9410366415977478
1666742446.83987093,866324198,42.7308662,-84.4905703,249.4199981689453,0.008876373991370201,-0.9411236047744751
1666742446.87968183,866364009,42.7308661,-84.4905704,249.4199981689453,0.009172966703772545,-0.9408270120620728
1666742446.89955592,866383883,42.730866,-84.4905704,249.4199981689453,0.009257307276129723,-0.9407426714897156
1666742446.91928697,866403614,42.730866,-84.4905704,249.4199981689453,0.009409120306372643,-0.9405908584594727
1666742446.95926285,866443590,42.7308659,-84.49057049999999,249.4199981689453,0.009925654157996178,-0.9400743246078491
1666742446.99957585,866483903,42.7308658,-84.49057049999999,249.42999267578125,0.010514726862311363,-0.9394852519035339
1666742446.99968386,866484011,42.7308658,-84.49057049999999,249.42999267578125,0.010514726862311363,-0.9394852519035339
1666742447.03989601,866524223,42.730865699999995,-84.4905706,249.42999267578125,0.01245199702680111,-0.9375479817390442
1666742447.07971001,866564037,42.7308656,-84.4905706,249.42999267578125,0.013960352167487144,-0.9360396265983582
1666742447.09949398,866583821,42.7308655,-84.4905706,249.42999267578125,0.014422347769141197,-0.9355776309967041
1666742447.11935496,866603682,42.7308655,-84.4905706,249.42999267578125,0.015282144770026207,-0.9347178339958191
1666742447.15932703,866643654,42.7308654,-84.4905706,249.42999267578125,0.016677429899573326,-0.933322548866272
1666742447.19952583,866683853,42.7308653,-84.4905706,249.42999267578125,0.018011203035712242,-0.9319887757301331
1666742447.19963098,866683958,42.7308653,-84.4905706,249.42999267578125,0.018011203035712242,-0.9319887757301331
1666742447.23984981,866724177,42.7308652,-84.4905706,249.42999267578125,0.018686523661017418,-0.9313134551048279
1666742447.27971983,866764047,42.730865099999995,-84.49057069999999,249.42999267578125,0.01938669942319393,-0.9306132793426514
1666742447.29952788,866783855,42.730865099999995,-84.49057069999999,249.42999267578125,0.01960485242307186,-0.9303951263427734
1666742447.31938696,866803714,42.730865,-84.49057069999999,249.4399871826172,0.019993474707007408,-0.9300065040588379
1666742447.35932589,866843653,42.7308649,-84.49057069999999,249.4399871826172,0.020617416128516197,-0.9293825626373291
1666742447.39946604,866883793,42.7308649,-84.4905708,249.4399871826172,0.021195044741034508,-0.9288049340248108
1666742447.39962602,866883953,42.7308649,-84.4905708,249.4399871826172,0.021195044741034508,-0.9288049340248108
1666742447.43980002,866924127,42.7308647,-84.4905709,249.4399871826172,0.02088778279721737,-0.9291121959686279
1666742447.47970796,866964035,42.7308647,-84.4905709,249.4399871826172,0.020782699808478355,-0.9292172789573669
1666742447.49944687,866983774,42.7308646,-84.4905709,249.4399871826172,0.020742228254675865,-0.9292577505111694
1666742447.51938796,867003715,42.7308646,-84.490571,249.4399871826172,0.02066110633313656,-0.9293388724327087
1666742447.55934191,867043669,42.730864499999996,-84.490571,249.4399871826172,0.020740380510687828,-0.9292595982551575
1666742447.59949183,867083819,42.730864499999996,-84.4905711,249.4399871826172,0.020878484472632408,-0.9291214942932129
1666742447.59964395,867083971,42.730864499999996,-84.4905711,249.4399871826172,0.020878484472632408,-0.9291214942932129
1666742447.63988900,867124216,42.7308644,-84.49057119999999,249.4399871826172,0.02109598182141781,-0.9289039969444275
1666742447.67962384,867163951,42.7308643,-84.49057119999999,249.4399871826172,0.02138238213956356,-0.9286175966262817
1666742447.69951892,867183846,42.7308643,-84.4905713,249.4399871826172,0.021456768736243248,-0.928543210029602
1666742447.71939898,867203726,42.7308642,-84.4905713,249.4399871826172,0.0216097142547369,-0.9283902645111084
1666742447.75931096,867243638,42.7308641,-84.4905714,249.4399871826172,0.02177922986447811,-0.9282207489013672
1666742447.79945087,867283778,42.7308641,-84.4905714,249.4399871826172,0.021891644224524498,-0.9281083345413208
1666742447.79958987,867283917,42.7308641,-84.4905714,249.4399871826172,0.021891644224524498,-0.9281083345413208
1666742447.83987498,867324202,42.730864,-84.4905715,249.4399871826172,0.02220611833035946,-0.9277938604354858
1666742447.87967086,867363998,42.730863899999996,-84.4905716,249.4399871826172,0.02265285514295101,-0.9273471236228943
1666742447.89952683,867383854,42.7308638,-84.49057169999999,249.4399871826172,0.022782376036047935,-0.9272176027297974
1666742447.91928101,867403608,42.7308638,-84.49057169999999,249.4399871826172,0.02303486131131649,-0.9269651174545288
1666742447.95931101,867443638,42.7308637,-84.4905718,249.4399871826172,0.023710301145911217,-0.9262896776199341
1666742447.99966502,867483992,42.7308636,-84.49057189999999,249.4399871826172,0.024461200460791588,-0.9255387783050537
1666742447.99979782,867484125,42.7308636,-84.49057189999999,249.4399871826172,0.024461200460791588,-0.9255387783050537
1666742448.03995204,867524279,42.7308635,-84.490572,249.4399871826172,0.025578072294592857,-0.9244219064712524
1666742448.07967901,867564006,42.730863299999996,-84.4905721,249.4399871826172,0.02667795680463314,-0.9233220219612122
1666742448.09949803,867583825,42.730863299999996,-84.4905721,249.4399871826172,0.02701454423367977,-0.9229854345321655
1666742448.11926293,867603590,42.730863199999995,-84.4905721,249.4399871826172,0.02764212153851986,-0.9223578572273254
1666742448.15935588,867643683,42.7308631,-84.4905722,249.4399871826172,0.02879958413541317,-0.9212003946304321
1666742448.19953299,867683860,42.730863,-84.4905723,249.4399871826172,0.02996157668530941,-0.9200384020805359
1666742448.19963884,867683966,42.730863,-84.4905723,249.4399871826172,0.02996157668530941,-0.9200384020805359
1666742448.23988485,867724212,42.7308628,-84.49057239999999,249.4499969482422,0.031418733298778534,-0.9185812473297119
1666742448.27971292,867764040,42.730862699999996,-84.4905725,249.4499969482422,0.03236221522092819,-0.9176377654075623
1666742448.29949284,867783820,42.730862699999996,-84.4905725,249.4499969482422,0.032648734748363495,-0.917351245880127
1666742448.31922698,867803554,42.730862599999995,-84.4905726,249.4499969482422,0.03317718952894211,-0.9168227910995483
1666742448.35934281,867843670,42.7308625,-84.4905726,249.4499969482422,0.03404533118009567,-0.9159546494483948
1666742448.39960098,867883928,42.7308624,-84.4905727,249.4499969482422,0.034878067672252655,-0.9151219129562378
1666742448.39971089,867884038,42.7308624,-84.4905727,249.4499969482422,0.034878067672252655,-0.9151219129562378
1666742448.43998981,867924317,42.7308623,-84.49057289999999,249.4499969482422,0.03508155792951584,-0.9149184226989746
1666742448.47973394,867964061,42.7308623,-84.490573,249.4499969482422,0.035743825137615204,-0.9142561554908752
1666742448.49946284,867983790,42.7308622,-84.490573,249.4499969482422,0.03594648092985153,-0.9140534996986389
1666742448.51924801,868003575,42.7308622,-84.49057309999999,249.4499969482422,0.036300115287303925,-0.9136998653411865
1666742448.55927491,868043602,42.7308622,-84.49057309999999,249.4499969482422,0.037189237773418427,-0.912810742855072
1666742448.59954786,868083875,42.730862099999996,-84.4905732,249.4499969482422,0.038201622664928436,-0.911798357963562
1666742448.59965682,868083984,42.730862099999996,-84.4905732,249.4499969482422,0.038201622664928436,-0.911798357963562
1666742448.63991499,868124242,42.730861999999995,-84.4905734,249.4499969482422,0.03969030827283859,-0.9103096723556519
1666742448.67966485,868163992,42.730861999999995,-84.4905735,249.45999145507812,0.04079204052686691,-0.9092079401016235
1666742448.69950700,868183834,42.730861999999995,-84.49057359999999,249.45999145507812,0.041120581328868866,-0.9088793992996216
1666742448.71935201,868203679,42.7308619,-84.4905737,249.45999145507812,0.04178070276975632,-0.9082192778587341
1666742448.75924587,868243573,42.7308619,-84.49057379999999,249.45999145507812,0.043359629809856415,-0.906640350818634
1666742448.79956985,868283897,42.7308618,-84.4905739,249.45999145507812,0.04510205239057541,-0.904897928237915
1666742448.79967499,868284002,42.7308618,-84.4905739,249.45999145507812,0.04510205239057541,-0.904897928237915
1666742448.83999085,868324318,42.7308618,-84.490574,249.45999145507812,0.0475570484995842,-0.9024429321289062
1666742448.87962389,868363951,42.7308618,-84.4905742,249.45999145507812,0.04926746338605881,-0.9007325172424316
1666742448.89944196,868383769,42.7308618,-84.4905742,249.45999145507812,0.04981540888547897,-0.9001845717430115
1666742448.91934681,868403674,42.7308618,-84.49057429999999,249.47000122070312,0.05077969282865524,-0.8992202877998352
1666742448.95934892,868443676,42.7308618,-84.4905744,249.47000122070312,0.05278860777616501,-0.8972113728523254
1666742448.99950194,868483829,42.7308618,-84.4905745,249.47000122070312,0.05483149737119675,-0.8951684832572937
1666742448.99965596,868483983,42.7308618,-84.4905745,249.47000122070312,0.05483149737119675,-0.8951684832572937
1666742449.03981280,868524140,42.7308618,-84.4905747,249.47000122070312,0.05770062655210495,-0.8922993540763855
1666742449.07964587,868563973,42.7308618,-84.49057479999999,249.47999572753906,0.06028430908918381,-0.8897156715393066
1666742449.09948802,868583815,42.7308618,-84.4905749,249.47999572753906,0.06111829727888107,-0.8888816833496094
1666742449.11934996,868603677,42.7308618,-84.49057499999999,249.47999572753906,0.06260132044553757,-0.8873986601829529
1666742449.15935898,868643686,42.7308618,-84.4905751,249.47999572753906,0.06517498940229416,-0.8848249912261963
1666742449.19953704,868683864,42.7308618,-84.4905752,249.47999572753906,0.06771665066480637,-0.8822833299636841
1666742449.19961286,868683940,42.7308618,-84.4905752,249.47999572753906,0.06771665066480637,-0.8822833299636841
1666742449.23983884,868724166,42.7308617,-84.4905754,249.489990234375,0.070968858897686,-0.8790311217308044
1666742449.27963781,868763965,42.7308617,-84.49057549999999,249.489990234375,0.073790542781353,-0.8762094378471375
1666742449.29948401,868783811,42.7308617,-84.4905756,249.489990234375,0.07469277828931808,-0.8753072023391724
1666742449.31933403,868803661,42.7308616,-84.4905756,249.489990234375,0.07628779858350754,-0.8737121820449829
1666742449.35933781,868843665,42.7308616,-84.4905758,249.489990234375,0.07900290936231613,-0.8709970712661743
1666742449.39957500,868883902,42.7308616,-84.4905759,249.5,0.08162783831357956,-0.8683721423149109
1666742449.39964700,868883974,42.7308616,-84.4905759,249.5,0.08162783831357956,-0.8683721423149109
1666742449.43988299,868924210,42.730861499999996,-84.49057599999999,249.5,0.08690332621335983,-0.8630966544151306
1666742449.47973394,868964061,42.730861499999996,-84.49057619999999,249.50999450683594,0.09136044234037399,-0.8586395382881165
1666742449.49951196,868983839,42.730861399999995,-84.49057619999999,249.50999450683594,0.09278612583875656,-0.8572138547897339
1666742449.51941490,869003742,42.730861399999995,-84.4905763,249.50999450683594,0.09530925005674362,-0.8546907305717468
1666742449.55932689,869043654,42.730861399999995,-84.4905764,249.50999450683594,0.09936600178480148,-0.850633978843689
1666742449.59949088,869083818,42.7308613,-84.4905765,249.51998901367188,0.1032668873667717,-0.8467330932617188
1666742449.59959483,869083922,42.7308613,-84.4905765,249.51998901367188,0.1032668873667717,-0.8467330932617188
1666742449.63988090,869124208,42.7308612,-84.4905766,249.51998901367188,0.10788094252347946,-0.842119038105011
1666742449.67975283,869164080,42.7308611,-84.4905768,249.52999877929688,0.11119901388883591,-0.8388009667396545
1666742449.69956994,869183897,42.7308611,-84.4905768,249.52999877929688,0.1123158261179924,-0.837684154510498
1666742449.71925092,869203578,42.730861,-84.4905769,249.52999877929688,0.11416833847761154,-0.8358316421508789
1666742449.75929189,869243619,42.730861,-84.490577,249.52999877929688,0.11732714623212814,-0.8326728343963623
1666742449.79953384,869283861,42.730860899999996,-84.4905771,249.5399932861328,0.12036322802305222,-0.8296367526054382
1666742449.79964304,869283970,42.730860899999996,-84.4905771,249.5399932861328,0.12036322802305222,-0.8296367526054382
1666742449.84002090,869324348,42.7308607,-84.49057719999999,249.5399932861328,0.12430482357740402,-0.8256951570510864
1666742449.87972403,869364051,42.7308606,-84.4905773,249.5399932861328,0.12702934443950653,-0.8229706287384033
1666742449.89948893,869383816,42.7308606,-84.49057739999999,249.5399932861328,0.12799261510372162,-0.8220073580741882
1666742449.91925883,869403586,42.7308605,-84.49057739999999,249.5399932861328,0.1295190304517746,-0.8204809427261353
1666742449.95926785,869443595,42.7308604,-84.4905775,249.54998779296875,0.131986603140831,-0.8180133700370789
1666742449.99955201,869483879,42.7308604,-84.4905776,249.54998779296875,0.13430307805538177,-0.8156968951225281
1666742449.99962902,869483956,42.7308604,-84.4905776,249.54998779296875,0.13430307805538177,-0.8156968951225281
1666742450.03999901,869524326,42.730860199999995,-84.4905778,249.54998779296875,0.13634996116161346,-0.8136500120162964
1666742450.07966995,869563997,42.730860199999995,-84.49057789999999,249.54998779296875,0.13805674016475677,-0.8119432330131531
1666742450.09957790,869583905,42.7308601,-84.49057789999999,249.54998779296875,0.1386936753988266,-0.8113062977790833
1666742450.11926484,869603592,42.7308601,-84.490578,249.54998779296875,0.1395980566740036,-0.8104019165039062
1666742450.15929389,869643621,42.73086,-84.4905781,249.55999755859375,0.14137659966945648,-0.8086233735084534
1666742450.19954991,869683877,42.73086,-84.4905782,249.55999755859375,0.1431463211774826,-0.8068536520004272
1666742450.19966793,869683995,42.73086,-84.4905782,249.55999755859375,0.1431463211774826,-0.8068536520004272
1666742450.24004984,869724377,42.7308598,-84.49057839999999,249.55999755859375,0.14511267840862274,-0.8048872947692871
1666742450.27960992,869763937,42.730859699999996,-84.49057859999999,249.55999755859375,0.14685361087322235,-0.8031463623046875
1666742450.29949689,869783824,42.730859699999996,-84.49057859999999,249.55999755859375,0.1475047916173935,-0.8024951815605164
1666742450.31933498,869803662,42.730859599999995,-84.4905787,249.55999755859375,0.1484440416097641,-0.8015559315681458
1666742450.35928082,869843608,42.730859599999995,-84.4905788,249.5699920654297,0.15024630725383759,-0.7997536659240723
1666742450.39959693,869883924,42.7308594,-84.490579,249.5699920654297,0.1520686000585556,-0.7979313731193542
1666742450.39969802,869884025,42.7308594,-84.490579,249.5699920654297,0.1520686000585556,-0.7979313731193542
1666742450.43985701,869924184,42.7308593,-84.4905792,249.5699920654297,0.15436355769634247,-0.7956364154815674
1666742450.47966003,869963987,42.7308592,-84.4905794,249.5699920654297,0.1562129706144333,-0.7937870025634766
1666742450.49943900,869983766,42.730859099999996,-84.4905794,249.5699920654297,0.15690694749355316,-0.7930930256843567
1666742450.51944399,870003771,42.730858999999995,-84.4905795,249.5699920654297,0.15787504613399506,-0.7921249270439148
1666742450.55940104,870043728,42.7308589,-84.49057959999999,249.5699920654297,0.1593369096517563,-0.7906630635261536
1666742450.59961891,870083946,42.7308588,-84.49057979999999,249.5800018310547,0.1606939285993576,-0.7893060445785522
1666742450.59971881,870084046,42.7308588,-84.49057979999999,249.5800018310547,0.1606939285993576,-0.7893060445785522
1666742450.63981390,870124141,42.7308587,-84.49058,249.5800018310547,0.16281037032604218,-0.7871896028518677
1666742450.67968583,870164013,42.7308586,-84.4905801,249.5800018310547,0.16507814824581146,-0.7849218249320984
1666742450.69939804,870183725,42.7308585,-84.4905802,249.5800018310547,0.16591815650463104,-0.7840818166732788
1666742450.71940684,870203734,42.7308585,-84.49058029999999,249.5800018310547,0.16714029014110565,-0.7828596830368042
1666742450.75937390,870243701,42.730858399999995,-84.4905804,249.5800018310547,0.16945819556713104,-0.7805417776107788
1666742450.79951787,870283845,42.7308583,-84.4905805,249.58999633789062,0.17184852063655853,-0.7781514525413513
1666742450.79966784,870283995,42.7308583,-84.4905805,249.58999633789062,0.17184852063655853,-0.7781514525413513
1666742450.83979797,870324125,42.7308581,-84.4905807,249.58999633789062,0.17507319152355194,-0.7749267816543579
1666742450.87968087,870364008,42.7308579,-84.4905809,249.58999633789062,0.17828308045864105,-0.7717168927192688
1666742450.89954090,870383868,42.7308579,-84.4905809,249.58999633789062,0.17941467463970184,-0.770585298538208
1666742450.91932297,870403650,42.730857799999995,-84.49058099999999,249.59999084472656,0.1811993569135666,-0.7688006162643433
1666742450.95937991,870443707,42.7308577,-84.4905811,249.59999084472656,0.18394015729427338,-0.7660598158836365
1666742450.99950194,870483829,42.7308576,-84.4905812,249.59999084472656,0.18641482293605804,-0.7635851502418518
1666742450.99964094,870483968,42.7308576,-84.4905812,249.59999084472656,0.18641482293605804,-0.7635851502418518
1666742451.03984499,870524172,42.7308574,-84.49058149999999,249.59999084472656,0.18936459720134735,-0.7606353759765625
1666742451.07969093,870564018,42.7308573,-84.4905816,249.61000061035156,0.19173239171504974,-0.7582675814628601
1666742451.09964800,870583975,42.7308573,-84.49058169999999,249.61000061035156,0.19260261952877045,-0.7573973536491394
1666742451.11935401,870603681,42.730857199999996,-84.4905818,249.61000061035156,0.19389359652996063,-0.7561063766479492
1666742451.15926886,870643596,42.7308571,-84.4905819,249.61000061035156,0.19657467305660248,-0.7534253001213074
1666742451.19952703,870683854,42.730857,-84.49058199999999,249.61000061035156,0.19934456050395966,-0.7506554126739502
1666742451.19966602,870683993,42.730857,-84.49058199999999,249.61000061035156,0.19934456050395966,-0.7506554126739502
1666742451.23992085,870724248,42.7308569,-84.49058219999999,249.6199951171875,0.2029293030500412,-0.7470706701278687
1666742451.27965283,870763980,42.7308568,-84.4905824,249.6199951171875,0.20590369403362274,-0.7440962791442871
1666742451.29951191,870783839,42.7308568,-84.4905824,249.6199951171875,0.206992968916893,-0.7430070042610168
1666742451.31931090,870803638,42.7308567,-84.4905825,249.6199951171875,0.20862309634685516,-0.7413768768310547
1666742451.35935402,870843681,42.730856599999996,-84.4905826,249.62998962402344,0.2110900729894638,-0.738909900188446
1666742451.39954782,870883875,42.730856599999996,-84.49058269999999,249.62998962402344,0.21333609521389008,-0.7366638779640198
1666742451.39965487,870883982,42.730856599999996,-84.49058269999999,249.62998962402344,0.21333609521389008,-0.7366638779640198
1666742451.43998289,870924310,42.7308564,-84.49058289999999,249.62998962402344,0.2176966518163681,-0.7323033213615417
1666742451.47973394,870964061,42.7308563,-84.490583,249.63999938964844,0.22107098996639252,-0.7289289832115173
1666742451.49956894,870983896,42.7308562,-84.490583,249.63999938964844,0.22231487929821014,-0.7276850938796997
1666742451.51928496,871003612,42.7308562,-84.4905831,249.63999938964844,0.22416357696056366,-0.7258363962173462
1666742451.55927491,871043602,42.7308561,-84.4905832,249.63999938964844,0.22732804715633392,-0.7226719260215759
1666742451.59957695,871083904,42.730855999999996,-84.4905833,249.64999389648438,0.23041193187236786,-0.719588041305542
1666742451.59966397,871083991,42.730855999999996,-84.4905833,249.64999389648438,0.23041193187236786,-0.719588041305542
1666742451.63991189,871124239,42.7308557,-84.49058339999999,249.64999389648438,0.2348552793264389,-0.715144693851471
1666742451.67978692,871164114,42.7308555,-84.4905835,249.64999389648438,0.23873375356197357,-0.7112662196159363
1666742451.69949389,871183821,42.7308555,-84.4905836,249.6599884033203,0.24014334380626678,-0.7098566293716431
1666742451.71931386,871203641,42.730855299999995,-84.4905836,249.6599884033203,0.24228863418102264,-0.7077113389968872
1666742451.75922489,871243552,42.7308552,-84.4905837,249.6599884033203,0.2455492466688156,-0.7044507265090942
1666742451.79951787,871283845,42.730855,-84.4905838,249.6599884033203,0.24857400357723236,-0.7014259696006775
1666742451.79963493,871283962,42.730855,-84.4905838,249.6599884033203,0.24857400357723236,-0.7014259696006775
1666742451.83996081,871324288,42.730854799999996,-84.490584,249.6699981689453,0.25182604789733887,-0.6981739401817322
1666742451.87963080,871363958,42.7308546,-84.49058409999999,249.6699981689453,0.2546001672744751,-0.695399820804596
1666742451.89952302,871383850,42.7308546,-84.4905842,249.6699981689453,0.2556953430175781,-0.6943046450614929
1666742451.91935992,871403687,42.7308545,-84.4905842,249.6699981689453,0.25718754529953003,-0.692812442779541
1666742451.95925498,871443582,42.7308543,-84.4905844,249.6699981689453,0.2597178816795349,-0.6902821063995361
1666742451.99956894,871483896,42.730854099999995,-84.4905845,249.67999267578125,0.26211732625961304,-0.687882661819458
1666742451.99967504,871484002,42.730854099999995,-84.4905845,249.67999267578125,0.26211732625961304,-0.687882661819458
1666742452.03991604,871524243,42.7308539,-84.49058459999999,249.67999267578125,0.2641792893409729,-0.6858206987380981
1666742452.07968688,871564014,42.7308538,-84.4905848,249.67999267578125,0.2656319737434387,-0.6843680143356323
1666742452.09942698,871583754,42.7308537,-84.4905848,249.67999267578125,0.26633065938949585,-0.6836693286895752
1666742452.11933994,871603667,42.730853599999996,-84.4905849,249.67999267578125,0.26699918508529663,-0.6830008029937744
1666742452.15935397,871643681,42.730853499999995,-84.490585,249.67999267578125,0.26801598072052,-0.681984007358551
1666742452.19964886,871683976,42.7308533,-84.49058509999999,249.67999267578125,0.26883554458618164,-0.6811644434928894
1666742452.19975281,871684080,42.7308533,-84.49058509999999,249.67999267578125,0.26883554458618164,-0.6811644434928894
1666742452.23982596,871724153,42.7308531,-84.49058529999999,249.67999267578125,0.2694735527038574,-0.6805264353752136
1666742452.27965188,871763979,42.730852899999995,-84.4905855,249.6899871826172,0.27046215534210205,-0.679537832736969
1666742452.29944396,871783771,42.7308528,-84.4905856,249.6899871826172,0.2709926962852478,-0.6790072917938232
1666742452.31936288,871803690,42.7308527,-84.4905856,249.6899871826172,0.27144914865493774,-0.6785508394241333
1666742452.35941291,871843740,42.7308526,-84.49058579999999,249.6899871826172,0.27244192361831665,-0.6775580644607544
1666742452.39967704,871884004,42.730852399999996,-84.4905859,249.6899871826172,0.2734929323196411,-0.6765070557594299
1666742452.39978099,871884108,42.730852399999996,-84.4905859,249.6899871826172,0.2734929323196411,-0.6765070557594299
1666742452.43980694,871924134,42.7308522,-84.4905861,249.6899871826172,0.2744883894920349,-0.6755115985870361
1666742452.47968102,871964008,42.7308521,-84.4905862,249.6899871826172,0.2759263515472412,-0.6740736365318298
1666742452.49951291,871983840,42.730852,-84.49058629999999,249.6899871826172,0.2765796184539795,-0.6734203696250916
1666742452.51939797,872003725,42.7308519,-84.4905864,249.6899871826172,0.27731114625930786,-0.6726888418197632
1666742452.55938601,872043713,42.730851799999996,-84.49058649999999,249.6899871826172,0.2789731025695801,-0.671026885509491
1666742452.59948802,872083815,42.7308516,-84.4905866,249.6999969482422,0.2806975245475769,-0.6693024635314941
1666742452.59964585,872083973,42.7308516,-84.4905866,249.6999969482422,0.2806975245475769,-0.6693024635314941
1666742452.63984585,872124173,42.7308514,-84.4905868,249.6999969482422,0.2824881076812744,-0.6675118803977966
1666742452.67964101,872163968,42.7308512,-84.4905869,249.6999969482422,0.284756064414978,-0.665243923664093
1666742452.69952703,872183854,42.730851099999995,-84.49058699999999,249.6999969482422,0.28566187620162964,-0.6643381118774414
1666742452.71930790,872203635,42.730851,-84.4905871,249.6999969482422,0.2868461608886719,-0.6631538271903992
1666742452.75935793,872243685,42.7308508,-84.4905872,249.6999969482422,0.2892864942550659,-0.6607134938240051
1666742452.79950285,872283830,42.7308507,-84.4905873,249.70999145507812,0.29181474447250366,-0.6581852436065674
1666742452.79960299,872283930,42.7308507,-84.4905873,249.70999145507812,0.29181474447250366,-0.6581852436065674
1666742452.83986592,872324193,42.730850499999995,-84.49058749999999,249.70999145507812,0.2939605712890625,-0.6560394167900085
1666742452.87970400,872364031,42.7308504,-84.49058769999999,249.70999145507812,0.29573553800582886,-0.6542644500732422
1666742452.89955592,872383883,42.7308503,-84.49058769999999,249.70999145507812,0.29650700092315674,-0.6534929871559143
1666742452.91931295,872403640,42.7308502,-84.4905878,249.70999145507812,0.2974134683609009,-0.6525865197181702
1666742452.95927882,872443606,42.7308501,-84.490588,249.70999145507812,0.2992094159126282,-0.6507905721664429
1666742452.99951100,872483838,42.73085,-84.4905881,249.72000122070312,0.30095142126083374,-0.6490485668182373
1666742452.99961686,872483944,42.73085,-84.4905881,249.72000122070312,0.30095142126083374,-0.6490485668182373
1666742453.04003382,872524361,42.7308498,-84.4905883,249.72000122070312,0.3030845522880554,-0.6469154357910156
1666742453.07976103,872564088,42.7308497,-84.4905884,249.72000122070312,0.30493587255477905,-0.645064115524292
1666742453.09957290,872583900,42.7308496,-84.4905885,249.72000122070312,0.3057619333267212,-0.6442380547523499
1666742453.11931801,872603645,42.7308495,-84.4905886,249.72000122070312,0.30672895908355713,-0.6432710289955139
1666742453.15926480,872643592,42.7308494,-84.49058869999999,249.72000122070312,0.30831581354141235,-0.6416841745376587
1666742453.19957590,872683903,42.7308492,-84.4905888,249.72000122070312,0.3097742795944214,-0.6402257084846497
1666742453.19964695,872683974,42.7308492,-84.4905888,249.72000122070312,0.3097742795944214,-0.6402257084846497
1666742453.23993087,872724258,42.7308491,-84.49058889999999,249.72999572753906,0.31149381399154663,-0.6385061740875244
1666742453.27975988,872764087,42.730849,-84.490589,249.72999572753906,0.3128727078437805,-0.6371272802352905
1666742453.29957581,872783903,42.7308489,-84.4905891,249.72999572753906,0.3135520815849304,-0.6364479064941406
1666742453.31924295,872803570,42.7308489,-84.4905892,249.72999572753906,0.3142409324645996,-0.6357590556144714
1666742453.35923481,872843562,42.730848699999996,-84.4905893,249.72999572753906,0.31502872705459595,-0.6349712610244751
1666742453.39957690,872883904,42.730848599999995,-84.49058939999999,249.72999572753906,0.3156936764717102,-0.6343063116073608
1666742453.39968991,872884017,42.730848599999995,-84.49058939999999,249.72999572753906,0.3156936764717102,-0.6343063116073608
1666742453.43987894,872924206,42.7308485,-84.4905895,249.72999572753906,0.31551581621170044,-0.6344841718673706
1666742453.47976685,872964094,42.7308483,-84.49058959999999,249.72999572753906,0.31594353914260864,-0.6340564489364624
1666742453.49951196,872983839,42.7308483,-84.4905897,249.72999572753906,0.3163260221481323,-0.6336739659309387
1666742453.51933885,873003666,42.7308482,-84.4905897,249.72999572753906,0.3163742423057556,-0.6336257457733154
1666742453.55926085,873043588,42.730848099999996,-84.4905898,249.72999572753906,0.3162655830383301,-0.633734405040741
1666742453.59958100,873083908,42.730847999999995,-84.49058989999999,249.72999572753906,0.3161023259162903,-0.6338976621627808
1666742453.59965682,873083984,42.730847999999995,-84.49058989999999,249.72999572753906,0.3161023259162903,-0.6338976621627808
1666742453.63989782,873124225,42.7308477,-84.49059009999999,249.72999572753906,0.31432902812957764,-0.6356709599494934
1666742453.67965484,873163982,42.7308476,-84.4905902,249.72999572753906,0.3132093548774719,-0.6367906332015991
1666742453.69938588,873183713,42.730847499999996,-84.4905902,249.72999572753906,0.3130894899368286,-0.6369104981422424
1666742453.71934295,873203670,42.730847499999996,-84.4905903,249.72999572753906,0.3123623728752136,-0.6376376152038574
1666742453.75933599,873243663,42.730847399999995,-84.4905904,249.72999572753906,0.31160855293273926,-0.6383914351463318
1666742453.79951787,873283845,42.7308473,-84.4905905,249.72999572753906,0.31082022190093994,-0.6391797661781311
1666742453.79966187,873283989,42.7308473,-84.4905905,249.72999572753906,0.31082022190093994,-0.6391797661781311
1666742453.83986783,873324195,42.7308471,-84.4905907,249.72000122070312,0.3089837431907654,-0.6410162448883057
1666742453.87967491,873364002,42.730847,-84.49059079999999,249.72000122070312,0.30781686305999756,-0.6421831250190735
1666742453.89939594,873383723,42.730846899999996,-84.4905909,249.72000122070312,0.3075566291809082,-0.6424433588981628
1666742453.91934395,873403671,42.730846899999996,-84.490591,249.72000122070312,0.3066641092300415,-0.6433358788490295
1666742453.95931482,873443642,42.7308467,-84.4905911,249.72000122070312,0.3054109215736389,-0.6445890665054321
1666742453.99958181,873483909,42.7308466,-84.4905912,249.72000122070312,0.30429500341415405,-0.645704984664917
1666742453.99969888,873484026,42.7308466,-84.4905912,249.72000122070312,0.30429500341415405,-0.645704984664917
1666742454.03991795,873524245,42.730846299999996,-84.49059129999999,249.72000122070312,0.30099964141845703,-0.649000346660614
1666742454.07968402,873564011,42.7308461,-84.4905914,249.70999145507812,0.2987797260284424,-0.6512202620506287
1666742454.09950900,873583836,42.7308461,-84.4905915,249.70999145507812,0.2982110381126404,-0.6517889499664307
1666742454.11935902,873603686,42.730846,-84.4905915,249.70999145507812,0.29684752225875854,-0.6531524658203125
1666742454.15940499,873643732,42.7308458,-84.4905916,249.70999145507812,0.2953689694404602,-0.6546310186386108
1666742454.19954681,873683874,42.730845699999996,-84.4905917,249.70999145507812,0.2941776514053345,-0.6558223366737366
1666742454.19968891,873684016,42.730845699999996,-84.4905917,249.70999145507812,0.2941776514053345,-0.6558223366737366
1666742454.23984790,873724175,42.7308455,-84.49059179999999,249.70999145507812,0.2922895550727844,-0.6577104330062866
1666742454.27964187,873763969,42.7308453,-84.4905919,249.70999145507812,0.29060816764831543,-0.6593918204307556
1666742454.29955983,873783887,42.7308453,-84.49059199999999,249.70999145507812,0.2902388572692871,-0.6597611308097839
1666742454.31932592,873803653,42.7308452,-84.49059199999999,249.6999969482422,0.28919023275375366,-0.6608097553253174
1666742454.35932994,873843657,42.730844999999995,-84.4905921,249.6999969482422,0.2882061004638672,-0.6617938876152039
1666742454.39956093,873883888,42.7308448,-84.4905922,249.6999969482422,0.28746461868286133,-0.6625353693962097
1666742454.39970088,873884028,42.7308448,-84.4905922,249.6999969482422,0.28746461868286133,-0.6625353693962097
1666742454.43992400,873924251,42.730844499999996,-84.4905923,249.6999969482422,0.28576791286468506,-0.664232075214386
1666742454.47972798,873964055,42.7308443,-84.4905924,249.6999969482422,0.2839158773422241,-0.6660841107368469
1666742454.49953103,873983858,42.7308442,-84.49059249999999,249.6999969482422,0.2835061550140381,-0.666493833065033
1666742454.51928282,874003610,42.7308441,-84.49059249999999,249.6999969482422,0.28243398666381836,-0.6675660014152527
1666742454.55932403,874043651,42.730843899999996,-84.4905926,249.6999969482422,0.28162235021591187,-0.6683776378631592
1666742454.59954786,874083875,42.7308437,-84.4905927,249.6999969482422,0.2811540961265564,-0.6688458919525146
1666742454.59965396,874083981,42.7308437,-84.4905927,249.6999969482422,0.2811540961265564,-0.6688458919525146
1666742454.63996100,874124288,42.7308435,-84.4905928,249.6899871826172,0.27942121028900146,-0.6705787777900696
1666742454.67974687,874164074,42.7308433,-84.4905929,249.6899871826172,0.2787937521934509,-0.6712062358856201
1666742454.69954181,874183869,42.730843199999995,-84.49059299999999,249.6899871826172,0.27875155210494995,-0.6712484359741211
1666742454.71938586,874203713,42.7308431,-84.49059299999999,249.6899871826172,0.2783350944519043,-0.6716648936271667
1666742454.75925303,874243580,42.730843,-84.4905931,249.6899871826172,0.2782359719276428,-0.6717640161514282
1666742454.79948187,874283809,42.7308429,-84.49059319999999,249.6899871826172,0.2782694697380066,-0.6717305183410645
1666742454.79959893,874283926,42.7308429,-84.49059319999999,249.6899871826172,0.2782694697380066,-0.6717305183410645
1666742454.83991003,874324237,42.730842599999995,-84.4905933,249.6899871826172,0.2785734534263611,-0.67142653465271
1666742454.87980103,874364128,42.7308424,-84.4905934,249.6899871826172,0.2790565490722656,-0.6709434390068054
1666742454.89950895,874383836,42.7308424,-84.4905935,249.6899871826172,0.27935296297073364,-0.6706470251083374
1666742454.91937184,874403699,42.7308423,-84.4905935,249.6899871826172,0.27963775396347046,-0.6703622341156006
1666742454.95922899,874443556,42.7308421,-84.4905936,249.6999969482422,0.2801048159599304,-0.6698951721191406
1666742454.99953103,874483858,42.7308419,-84.49059369999999,249.6999969482422,0.28063344955444336,-0.6693665385246277
1666742454.99963689,874483964,42.7308419,-84.49059369999999,249.6999969482422,0.28063344955444336,-0.6693665385246277
1666742455.03989482,874524222,42.7308417,-84.4905938,249.6899871826172,0.2791662812232971,-0.6708337068557739
1666742455.07980299,874564130,42.7308415,-84.4905939,249.6899871826172,0.27824723720550537,-0.6717527508735657
1666742455.09956884,874583896,42.730841399999996,-84.490594,249.6899871826172,0.2780648469924927,-0.6719351410865784
1666742455.11932397,874603651,42.7308413,-84.490594,249.6899871826172,0.2774907350540161,-0.6725092530250549
1666742455.15927291,874643600,42.7308412,-84.4905941,249.6899871826172,0.27635854482650757,-0.6736414432525635
1666742455.19947982,874683807,42.730841,-84.49059419999999,249.6899871826172,0.2751162648200989,-0.6748837232589722
1666742455.19963503,874683962,42.730841,-84.49059419999999,249.6899871826172,0.2751162648200989,-0.6748837232589722
1666742455.23989582,874724223,42.730840799999996,-84.4905943,249.6899871826172,0.2740716338157654,-0.6759283542633057
1666742455.27972198,874764049,42.7308406,-84.49059439999999,249.6899871826172,0.27439939975738525,-0.6756005883216858
1666742455.29947495,874783802,42.7308406,-84.49059439999999,249.6899871826172,0.2746472954750061,-0.6753526926040649
1666742455.31932998,874803657,42.7308405,-84.49059439999999,249.6899871826172,0.27482670545578003,-0.675173282623291
1666742455.35934496,874843672,42.7308403,-84.4905945,249.6899871826172,0.2750353217124939,-0.6749646663665771
1666742455.39961886,874883946,42.730840199999996,-84.4905946,249.6899871826172,0.27531981468200684,-0.6746801733970642
1666742455.39972091,874884048,42.730840199999996,-84.4905946,249.6899871826172,0.27531981468200684,-0.6746801733970642
1666742455.43984604,874924173,42.7308399,-84.4905947,249.6899871826172,0.274569571018219,-0.675430417060852
1666742455.47967100,874963998,42.7308397,-84.4905948,249.6899871826172,0.2742631435394287,-0.6757368445396423
1666742455.49952292,874983850,42.730839599999996,-84.4905948,249.6899871826172,0.2742210626602173,-0.6757789254188538
1666742455.51934600,875003673,42.730839499999995,-84.4905948,249.6899871826172,0.2739676833152771,-0.676032304763794
1666742455.55945492,875043782,42.7308393,-84.49059489999999,249.6899871826172,0.27347302436828613,-0.6765269637107849
1666742455.59950900,875083836,42.7308392,-84.490595,249.6899871826172,0.2728167176246643,-0.6771832704544067
1666742455.59964800,875083975,42.7308392,-84.490595,249.6899871826172,0.2728167176246643,-0.6771832704544067
1666742455.63993287,875124260,42.730838999999996,-84.4905951,249.6899871826172,0.2715393900871277,-0.6784605979919434
1666742455.67965603,875163983,42.7308388,-84.4905952,249.6899871826172,0.2708965539932251,-0.679103434085846
1666742455.69948792,875183815,42.7308387,-84.4905952,249.6899871826172,0.27082252502441406,-0.679177463054657
1666742455.71935391,875203681,42.7308387,-84.4905953,249.6899871826172,0.2704862952232361,-0.679513692855835
1666742455.75935483,875243682,42.7308385,-84.4905953,249.67999267578125,0.2698882818222046,-0.6801117062568665
1666742455.79965901,875283986,42.730838399999996,-84.49059539999999,249.67999267578125,0.2694653868675232,-0.6805346012115479
1666742455.79984403,875284171,42.730838399999996,-84.49059539999999,249.67999267578125,0.2694653868675232,-0.6805346012115479
1666742455.83987498,875324202,42.7308381,-84.4905955,249.67999267578125,0.2683814764022827,-0.6816185116767883
1666742455.87962604,875363953,42.7308379,-84.49059559999999,249.67999267578125,0.26783156394958496,-0.6821684241294861
1666742455.89948487,875383812,42.7308379,-84.49059559999999,249.67999267578125,0.2677047848701477,-0.6822952032089233
1666742455.91928601,875403613,42.730837799999996,-84.4905957,249.67999267578125,0.26731085777282715,-0.6826891303062439
1666742455.95931292,875443640,42.7308376,-84.4905958,249.67999267578125,0.2669719457626343,-0.6830280423164368
1666742455.99975085,875484078,42.7308375,-84.4905958,249.67999267578125,0.2666476368904114,-0.6833523511886597
1666742455.99988294,875484210,42.7308375,-84.4905958,249.67999267578125,0.2666476368904114,-0.6833523511886597
1666742456.03992200,875524249,42.730837199999996,-84.4905959,249.67999267578125,0.26550060510635376,-0.6844993829727173
1666742456.07971692,875564044,42.730837099999995,-84.490596,249.67999267578125,0.26517927646636963,-0.6848207116127014
1666742456.09952092,875583848,42.730837,-84.490596,249.67999267578125,0.26519811153411865,-0.6848018765449524
1666742456.11924887,875603576,42.7308369,-84.49059609999999,249.67999267578125,0.26506102085113525,-0.6849389672279358
1666742456.15934587,875643673,42.7308367,-84.4905962,249.67999267578125,0.2651435136795044,-0.6848564743995667
1666742456.19951701,875683844,42.730836599999996,-84.4905962,249.67999267578125,0.2655383348464966,-0.6844616532325745
1666742456.19963002,875683957,42.730836599999996,-84.4905962,249.67999267578125,0.2655383348464966,-0.6844616532325745
1666742456.23986888,875724196,42.7308364,-84.49059629999999,249.67999267578125,0.26540833711624146,-0.6845916509628296
1666742456.27968597,875764013,42.7308362,-84.4905964,249.67999267578125,0.2652038335800171,-0.684796154499054
1666742456.29953003,875783857,42.7308362,-84.4905965,249.67999267578125,0.26516056060791016,-0.6848394274711609
1666742456.31931281,875803640,42.7308361,-84.4905965,249.67999267578125,0.2649492025375366,-0.6850507855415344
1666742456.35941482,875843742,42.730835899999995,-84.49059659999999,249.67999267578125,0.26508188247680664,-0.6849181056022644
1666742456.39960003,875883927,42.7308358,-84.49059659999999,249.67999267578125,0.2652578353881836,-0.6847421526908875
1666742456.39967203,875883999,42.7308358,-84.49059659999999,249.67999267578125,0.2652578353881836,-0.6847421526908875
1666742456.43992090,875924248,42.7308356,-84.49059679999999,249.67999267578125,0.26340407133102417,-0.6865959167480469
1666742456.47982693,875964154,42.7308355,-84.49059679999999,249.67999267578125,0.2628466486930847,-0.6871533393859863
1666742456.49953103,875983858,42.7308354,-84.4905969,249.67999267578125,0.26273441314697266,-0.6872655749320984
1666742456.51937199,876003699,42.730835299999995,-84.4905969,249.67999267578125,0.2623952627182007,-0.6876047253608704
1666742456.55931401,876043641,42.7308352,-84.490597,249.67999267578125,0.2617443799972534,-0.6882556080818176
1666742456.59954190,876083869,42.7308351,-84.4905971,249.67999267578125,0.2610795497894287,-0.6889204382896423
1666742456.59966493,876083992,42.7308351,-84.4905971,249.67999267578125,0.2610795497894287,-0.6889204382896423
1666742456.63999295,876124320,42.7308349,-84.4905972,249.6699981689453,0.2587399482727051,-0.691260039806366
1666742456.67966986,876163997,42.7308348,-84.4905972,249.6699981689453,0.2568538188934326,-0.6931461691856384
1666742456.69956183,876183889,42.730834699999996,-84.49059729999999,249.6699981689453,0.2562762498855591,-0.693723738193512
1666742456.71934986,876203677,42.7308346,-84.49059729999999,249.6699981689453,0.25518637895584106,-0.69481360912323
1666742456.75932384,876243651,42.7308345,-84.4905974,249.6699981689453,0.2545127272605896,-0.6954872608184814
1666742456.79953790,876283865,42.7308344,-84.4905974,249.6699981689453,0.25423967838287354,-0.6957603096961975
1666742456.79971385,876284041,42.7308344,-84.4905974,249.6699981689453,0.25423967838287354,-0.6957603096961975
1666742456.83988786,876324215,42.7308342,-84.49059749999999,249.6699981689453,0.2511385679244995,-0.6988614201545715
1666742456.87970185,876364029,42.730834099999996,-84.4905976,249.6599884033203,0.24641053378582,-0.7035894393920898
1666742456.89960504,876383932,42.730834,-84.4905976,249.6599884033203,0.24496351182460785,-0.705036461353302
1666742456.91933703,876403664,42.730834,-84.4905977,249.6599884033203,0.24225477874279022,-0.7077451944351196
1666742456.95932698,876443654,42.7308339,-84.49059779999999,249.64999389648438,0.23882101476192474,-0.7111789584159851
1666742456.99960589,876483933,42.7308338,-84.49059779999999,249.64999389648438,0.2358982414007187,-0.7141017317771912
1666742456.99975300,876484080,42.7308338,-84.49059779999999,249.64999389648438,0.2358982414007187,-0.7141017317771912
1666742457.03987503,876524202,42.7308336,-84.4905979,249.64999389648438,0.23245511949062347,-0.7175448536872864
1666742457.07973385,876564061,42.730833499999996,-84.49059799999999,249.64999389648438,0.23131226003170013,-0.7186877131462097
1666742457.09947991,876583807,42.730833499999996,-84.49059799999999,249.64999389648438,0.23092781007289886,-0.719072163105011
1666742457.11930394,876603631,42.730833399999995,-84.4905981,249.64999389648438,0.23026494681835175,-0.7197350263595581
1666742457.15934491,876643672,42.7308333,-84.4905982,249.64999389648438,0.23023037612438202,-0.7197695970535278
1666742457.19953990,876683867,42.7308332,-84.4905982,249.64999389648438,0.23057667911052704,-0.7194232940673828
1666742457.19975591,876684083,42.7308332,-84.4905982,249.64999389648438,0.23057667911052704,-0.7194232940673828
1666742457.23998690,876724314,42.730833,-84.4905984,249.64999389648438,0.23044799268245697,-0.7195519804954529
1666742457.27962589,876763953,42.730832899999996,-84.49059849999999,249.63999938964844,0.22979728877544403,-0.7202026844024658
1666742457.29949403,876783821,42.730832799999995,-84.49059849999999,249.63999938964844,0.2295660823583603,-0.7204338908195496
1666742457.31929398,876803621,42.7308327,-84.4905986,249.63999938964844,0.22919557988643646,-0.7208043932914734
1666742457.35941982,876843747,42.7308326,-84.49059869999999,249.63999938964844,0.2269570678472519,-0.723042905330658
1666742457.40004897,876884376,42.7308325,-84.4905988,249.63999938964844,0.2241675704717636,-0.7258324027061462
1666742457.40023994,876884567,42.7308325,-84.4905988,249.63999938964844,0.2241675704717636,-0.7258324027061462
1666742457.43996191,876924289,42.730832299999996,-84.4905989,249.63999938964844,0.22091500461101532,-0.7290849685668945
1666742457.47965097,876963978,42.730832199999995,-84.490599,249.62998962402344,0.21844767034053802,-0.7315523028373718
1666742457.49951696,876983844,42.7308321,-84.490599,249.62998962402344,0.21762441098690033,-0.7323755621910095
1666742457.51928592,877003613,42.7308321,-84.4905991,249.62998962402344,0.21622096002101898,-0.7337790131568909
1666742457.55937386,877043701,42.7308319,-84.4905991,249.62998962402344,0.212824746966362,-0.7371752262115479
1666742457.59957981,877083907,42.7308318,-84.49059919999999,249.6199951171875,0.20910631120204926,-0.7408936619758606
1666742457.59974980,877084077,42.7308318,-84.49059919999999,249.6199951171875,0.20910631120204926,-0.7408936619758606
1666742457.63994789,877124275,42.730831699999996,-84.4905993,249.6199951171875,0.20452599227428436,-0.7454739809036255
1666742457.67972183,877164049,42.7308315,-84.4905994,249.6199951171875,0.2015240639448166,-0.7484759092330933
1666742457.69951200,877183839,42.7308315,-84.4905995,249.6199951171875,0.20050828158855438,-0.7494916915893555
1666742457.71928692,877203614,42.7308314,-84.4905995,249.61000061035156,0.1988133043050766,-0.7511866688728333
1666742457.75928998,877243617,42.7308313,-84.4905996,249.61000061035156,0.19638220965862274,-0.7536177635192871
1666742457.79957485,877283902,42.7308312,-84.49059969999999,249.61000061035156,0.1941794604063034,-0.7558205127716064
1666742457.79969096,877284018,42.7308312,-84.49059969999999,249.61000061035156,0.1941794604063034,-0.7558205127716064
1666742457.83994985,877324277,42.730831099999996,-84.4905998,249.61000061035156,0.19098107516765594,-0.7590188980102539
1666742457.87976599,877364093,42.730830999999995,-84.49059989999999,249.59999084472656,0.18925093114376068,-0.7607490420341492
1666742457.89956403,877383891,42.730830999999995,-84.49059989999999,249.59999084472656,0.18860386312007904,-0.7613961100578308
1666742457.91933799,877403665,42.7308309,-84.4906,249.59999084472656,0.18765030801296234,-0.7623496651649475
1666742457.95928693,877443614,42.7308308,-84.4906,249.59999084472656,0.18522761762142181,-0.764772355556488
1666742457.99954486,877483872,42.7308307,-84.4906001,249.59999084472656,0.18256978690624237,-0.7674301862716675
1666742457.99963999,877483967,42.7308307,-84.4906001,249.59999084472656,0.18256978690624237,-0.7674301862716675
1666742458.03995991,877524287,42.7308306,-84.4906002,249.58999633789062,0.17968742549419403,-0.7703125476837158
1666742458.07984900,877564176,42.730830499999996,-84.4906003,249.58999633789062,0.17766104638576508,-0.7723389267921448
1666742458.09956789,877583895,42.730830399999995,-84.49060039999999,249.58999633789062,0.17690686881542206,-0.7730931043624878
1666742458.11935401,877603681,42.730830399999995,-84.49060039999999,249.58999633789062,0.17579947412014008,-0.7742004990577698
1666742458.15932202,877643649,42.7308303,-84.4906005,249.58999633789062,0.17352508008480072,-0.7764748930931091
1666742458.19955301,877683880,42.7308302,-84.4906006,249.58999633789062,0.17119495570659637,-0.7788050174713135
1666742458.19967794,877684005,42.7308302,-84.4906006,249.58999633789062,0.17119495570659637,-0.7788050174713135
1666742458.23989582,877724223,42.73083,-84.4906007,249.5800018310547,0.1680377572774887,-0.7819622159004211
1666742458.27966785,877763995,42.730829899999996,-84.4906008,249.5800018310547,0.16436563432216644,-0.7856343388557434
1666742458.29946089,877783788,42.730829899999996,-84.4906008,249.5800018310547,0.16309170424938202,-0.7869082689285278
1666742458.31938386,877803711,42.730829799999995,-84.49060089999999,249.5800018310547,0.16104821860790253,-0.7889517545700073
1666742458.35932994,877843657,42.7308297,-84.490601,249.5699920654297,0.15810970962047577,-0.7918902635574341
1666742458.39989185,877884219,42.7308296,-84.490601,249.5699920654297,0.15546070039272308,-0.7945392727851868
1666742458.40012789,877884455,42.7308296,-84.490601,249.5699920654297,0.15546070039272308,-0.7945392727851868
1666742458.43991804,877924245,42.7308295,-84.49060109999999,249.5699920654297,0.15277902781963348,-0.7972209453582764
1666742458.47975087,877964078,42.7308294,-84.4906012,249.5699920654297,0.15006910264492035,-0.7999308705329895
1666742458.49963284,877983960,42.7308294,-84.4906012,249.55999755859375,0.14907877147197723,-0.8009212017059326
1666742458.51947403,878003801,42.7308294,-84.4906013,249.55999755859375,0.14759646356105804,-0.8024035096168518
1666742458.55935788,878043685,42.730829299999996,-84.4906013,249.55999755859375,0.144950732588768,-0.8050492405891418
1666742458.59953880,878083866,42.730829199999995,-84.4906014,249.55999755859375,0.14234493672847748,-0.8076550364494324
1666742458.59970593,878084033,42.730829199999995,-84.4906014,249.55999755859375,0.14234493672847748,-0.8076550364494324
1666742458.63988495,878124212,42.7308291,-84.4906015,249.55999755859375,0.14004503190517426,-0.8099549412727356
1666742458.67969203,878164019,42.730829,-84.4906015,249.54998779296875,0.13817618787288666,-0.8118237853050232
1666742458.69967794,878184005,42.730829,-84.49060159999999,249.54998779296875,0.13745032250881195,-0.8125496506690979
1666742458.71933293,878203660,42.7308289,-84.49060159999999,249.54998779296875,0.13645653426647186,-0.813543438911438
1666742458.75933003,878243657,42.7308289,-84.49060159999999,249.54998779296875,0.1345006674528122,-0.8154993057250977
1666742458.79949784,878283825,42.7308288,-84.4906017,249.54998779296875,0.13253550231456757,-0.8174644708633423
1666742458.79969788,878284025,42.7308288,-84.4906017,249.54998779296875,0.13253550231456757,-0.8174644708633423
1666742458.83992481,878324252,42.730828699999996,-84.4906018,249.54998779296875,0.13048295676708221,-0.8195170164108276
1666742458.87973189,878364059,42.730828599999995,-84.4906018,249.5399932861328,0.12881521880626678,-0.8211847543716431
1666742458.89954686,878383874,42.730828599999995,-84.4906019,249.5399932861328,0.12814490497112274,-0.8218550682067871
1666742458.91934085,878403668,42.7308285,-84.4906019,249.5399932861328,0.12727175652980804,-0.8227282166481018
1666742458.95934796,878443675,42.7308285,-84.490602,249.5399932861328,0.1263515204191208,-0.8236484527587891
1666742458.99956298,878483890,42.7308284,-84.490602,249.5399932861328,0.12572120130062103,-0.8242787718772888
1666742458.99973297,878484060,42.7308284,-84.490602,249.5399932861328,0.12572120130062103,-0.8242787718772888
1666742459.03990197,878524229,42.7308283,-84.49060209999999,249.5399932861328,0.12482254952192307,-0.8251774311065674
1666742459.07974195,878564069,42.7308282,-84.49060209999999,249.5399932861328,0.12389033287763596,-0.8261096477508545
1666742459.09951591,878583843,42.7308282,-84.49060209999999,249.5399932861328,0.12342148274183273,-0.8265784978866577
1666742459.11942601,878603753,42.7308282,-84.4906022,249.5399932861328,0.12297337502241135,-0.8270266056060791
1666742459.15933895,878643666,42.7308281,-84.4906022,249.5399932861328,0.12235628813505173,-0.8276436924934387
1666742459.19958901,878683916,42.7308281,-84.4906022,249.5399932861328,0.12185090035200119,-0.8281490802764893
1666742459.19975090,878684078,42.7308281,-84.4906022,249.5399932861328,0.12185090035200119,-0.8281490802764893
1666742459.24002194,878724349,42.730827999999995,-84.49060229999999,249.5399932861328,0.1225166842341423,-0.8274832963943481
1666742459.27971983,878764047,42.7308279,-84.4906024,249.5399932861328,0.12283157557249069,-0.8271684050559998
1666742459.29954791,878783875,42.7308278,-84.4906024,249.5399932861328,0.1227412149310112,-0.8272587656974792
1666742459.31926489,878803592,42.7308278,-84.4906024,249.5399932861328,0.1230090782046318,-0.8269909024238586
1666742459.35936189,878843689,42.7308277,-84.4906025,249.5399932861328,0.12360375374555588,-0.8263962268829346
1666742459.39995193,878884279,42.7308277,-84.4906025,249.5399932861328,0.1242663785815239,-0.8257336020469666
1666742459.40010095,878884428,42.7308277,-84.4906025,249.5399932861328,0.1242663785815239,-0.8257336020469666
1666742459.43994904,878924276,42.7308276,-84.4906026,249.5399932861328,0.12509594857692719,-0.8249040246009827
1666742459.47976494,878964092,42.7308275,-84.4906026,249.5399932861328,0.1255912035703659,-0.824408769607544
1666742459.49959803,878983925,42.7308275,-84.4906027,249.5399932861328,0.12556950747966766,-0.8244304656982422
1666742459.51935887,879003686,42.730827399999995,-84.4906027,249.5399932861328,0.12594322860240936,-0.8240567445755005
1666742459.55928087,879043608,42.730827399999995,-84.49060279999999,249.5399932861328,0.12631021440029144,-0.8236897587776184
1666742459.59962201,879083949,42.7308273,-84.49060279999999,249.5399932861328,0.12663321197032928,-0.8233667612075806
1666742459.59975100,879084078,42.7308273,-84.49060279999999,249.5399932861328,0.12663321197032928,-0.8233667612075806
1666742459.63991690,879124244,42.7308272,-84.4906029,249.5399932861328,0.12707822024822235,-0.8229217529296875
1666742459.67971587,879164043,42.7308271,-84.490603,249.5399932861328,0.1273445338010788,-0.822655439376831
1666742459.69956899,879183896,42.7308271,-84.490603,249.5399932861328,0.127253457903862,-0.8227465152740479
1666742459.71935296,879203680,42.730827,-84.490603,249.5399932861328,0.12748710811138153,-0.8225128650665283
1666742459.75931883,879243646,42.730827,-84.4906031,249.5399932861328,0.12702696025371552,-0.8229730129241943
1666742459.79943585,879283763,42.7308269,-84.4906031,249.5399932861328,0.1263270229101181,-0.8236729502677917
1666742459.79961085,879283938,42.7308269,-84.4906031,249.5399932861328,0.1263270229101181,-0.8236729502677917
1666742459.83984494,879324172,42.730826799999996,-84.4906032,249.5399932861328,0.12560956180095673,-0.8243904113769531
1666742459.87968493,879364012,42.7308266,-84.49060329999999,249.5399932861328,0.12490832060575485,-0.8250916600227356
1666742459.89948988,879383817,42.7308266,-84.49060329999999,249.5399932861328,0.12451343983411789,-0.8254865407943726
1666742459.91944695,879403774,42.7308265,-84.4906034,249.5399932861328,0.12418418377637863,-0.8258157968521118
1666742459.95937181,879443699,42.7308264,-84.4906034,249.5399932861328,0.12335919588804245,-0.826640784740448
1666742459.99945092,879483778,42.7308264,-84.49060349999999,249.5399932861328,0.12246453016996384,-0.8275354504585266
1666742459.99963999,879483967,42.7308264,-84.49060349999999,249.5399932861328,0.12246453016996384,-0.8275354504585266
1666742460.03982401,879524151,42.730826199999996,-84.49060349999999,249.5399932861328,0.12153475731611252,-0.8284652233123779
