timestamp,TimeUS,C,Q1,Q2,Q3,Q4
1666742445.19859099,864682918,1,0.9994701743125916,0.005714545026421547,0.004057995043694973,0.03178374096751213
1666742445.23860097,864722928,1,0.9994716048240662,0.005738134030252695,0.004049374256283045,0.031735680997371674
1666742445.27863193,864762959,1,0.9994729161262512,0.005753925070166588,0.004026962909847498,0.0316939577460289
1666742445.29860497,864782932,1,0.9994733333587646,0.005760865285992622,0.004016032908111811,0.0316816084086895
1666742445.31857681,864802904,1,0.9994745254516602,0.005753091536462307,0.0040163458324968815,0.03164604678750038
1666742445.35859704,864842924,1,0.9994753003120422,0.005767728667706251,0.004024149384349585,0.031618207693099976
1666742445.39859986,864882927,1,0.9994761943817139,0.0057642194442451,0.004015134181827307,0.03159154951572418
1666742445.43862796,864922955,1,0.9994775652885437,0.005753679666668177,0.004022786393761635,0.03154931962490082
1666742445.47862387,864962951,1,0.9994783401489258,0.0057637919671833515,0.004025480709969997,0.031521085649728775
1666742445.49859691,864982924,1,0.9994791150093079,0.005775444209575653,0.004040657542645931,0.031492263078689575
1666742445.51864290,865002970,1,0.9994796514511108,0.0057978383265435696,0.004024298395961523,0.0314733125269413
1666742445.55859184,865042919,1,0.9994810819625854,0.005823221523314714,0.004016967490315437,0.03142447769641876
1666742445.59859681,865082924,1,0.9994832873344421,0.0058282422833144665,0.004031405318528414,0.0313514769077301
1666742445.63857484,865122902,1,0.9994847178459167,0.00583054730668664,0.00402093818411231,0.03130745142698288
1666742445.67863798,865162965,1,0.9994863271713257,0.005821158178150654,0.004033050965517759,0.03125585988163948
1666742445.69859290,865182920,1,0.99948650598526,0.005820621270686388,0.00403351616114378,0.03125039488077164
1666742445.71864390,865202971,1,0.9994868636131287,0.005826985463500023,0.004054557997733355,0.03123577870428562
1666742445.75859284,865242920,1,0.999487042427063,0.005850879475474358,0.004056958947330713,0.031224461272358894
1666742445.79859591,865282923,1,0.9994879961013794,0.00586408656090498,0.0040804664604365826,0.03118775598704815
1666742445.83859587,865322923,1,0.9994894862174988,0.0058661894872784615,0.004090312402695417,0.031138494610786438
1666742445.87859201,865362919,1,0.9994913339614868,0.005878645461052656,0.004090551752597094,0.03107653185725212
1666742445.89860487,865382932,1,0.9994919896125793,0.005873847287148237,0.004109793808311224,0.03105517104268074
1666742445.91863799,865402965,1,0.9994929432868958,0.005872149486094713,0.004107940476387739,0.031024809926748276
1666742445.95864296,865442970,1,0.9994944930076599,0.005878369323909283,0.004101951606571674,0.030973555520176888
1666742445.99860692,865482934,1,0.9994958639144897,0.005886904429644346,0.0041189431212842464,0.030925476923584938
1666742446.03859186,865522919,1,0.9994980096817017,0.005904003977775574,0.0041143205016851425,0.03085383214056492
1666742446.07858896,865562916,1,0.999499499797821,0.005911338608711958,0.004108392167836428,0.030805621296167374
1666742446.09859991,865582927,1,0.9994999170303345,0.005914717447012663,0.0041089109145104885,0.030789785087108612
1666742446.11862087,865602948,1,0.9995008707046509,0.005927502643316984,0.004119761288166046,0.030755503103137016
1666742446.15860987,865642937,1,0.9995020031929016,0.0059167370200157166,0.004133133217692375,0.030718062072992325
1666742446.19864893,865682976,1,0.999503493309021,0.005928543396294117,0.004096174146980047,0.030673827975988388
1666742446.23857689,865722904,1,0.9995042085647583,0.005926444195210934,0.004092805553227663,0.030651185661554337
1666742446.27859187,865762919,1,0.999504804611206,0.005942170042544603,0.004085173364728689,0.030628545209765434
1666742446.29863691,865782964,1,0.9995049834251404,0.005940310191363096,0.004082962870597839,0.030624903738498688
1666742446.31859589,865802923,1,0.999505341053009,0.005957403685897589,0.0040850332006812096,0.03060941770672798
1666742446.35860491,865842932,1,0.9995052814483643,0.005949727259576321,0.004084716085344553,0.030611785128712654
1666742446.39860296,865882930,1,0.9995060563087463,0.005936169996857643,0.004046943038702011,0.03059421293437481
1666742446.43864202,865922969,1,0.9995070695877075,0.005926425103098154,0.004031953401863575,0.030566003173589706
1666742446.47860503,865962932,1,0.9995076060295105,0.005916421767324209,0.004015443846583366,0.030551625415682793
1666742446.49864197,865982969,1,0.9995076656341553,0.005915017332881689,0.004012140911072493,0.03055041842162609
1666742446.51858401,866002911,1,0.9995073676109314,0.005933817941695452,0.004017089959233999,0.030556626617908478
1666742446.55859494,866042922,1,0.9995083808898926,0.005955815780907869,0.003988330252468586,0.030522193759679794
1666742446.59863496,866082962,1,0.9995083212852478,0.005967949982732534,0.003982779569923878,0.03052334301173687
1666742446.63860703,866122934,1,0.9995087385177612,0.00599311850965023,0.003974461928009987,0.030504411086440086
1666742446.67860198,866162929,1,0.999508261680603,0.006002842914313078,0.003970710560679436,0.030519630759954453
1666742446.69860792,866182935,1,0.9995086193084717,0.005994630046188831,0.003973479848355055,0.030509168282151222
1666742446.71859694,866202924,1,0.9995085597038269,0.0060049183666706085,0.003974593710154295,0.030509214848279953
1666742446.75857592,866242903,1,0.9995092749595642,0.006004680413752794,0.0039625270292162895,0.030486056581139565
1666742446.79858398,866282911,1,0.9995096921920776,0.0060111447237432,0.003959714900702238,0.030472593382000923
1666742446.83862901,866322956,1,0.9995102286338806,0.006027028895914555,0.0039789872244000435,0.030449066311120987
1666742446.87864304,866362970,1,0.9995112419128418,0.00605766149237752,0.003962557762861252,0.030411897227168083
1666742446.89862585,866382953,1,0.9995120167732239,0.006066230591386557,0.003943360410630703,0.030388087034225464
1666742446.91859984,866402927,1,0.999512255191803,0.006074309349060059,0.003931371960788965,0.03037858009338379
1666742446.95859289,866442920,1,0.9995130896568298,0.006028103642165661,0.0039589740335941315,0.03035704419016838
1666742446.99860287,866482930,1,0.9995139837265015,0.006029272451996803,0.00395929953083396,0.03032713197171688
1666742447.03860188,866522929,1,0.9995154738426208,0.00603021215647459,0.003981566056609154,0.03027445077896118
1666742447.07861900,866562946,1,0.9995158910751343,0.006028237286955118,0.003981095273047686,0.030261315405368805
1666742447.09859395,866582921,1,0.9995163679122925,0.006024722475558519,0.00398600846529007,0.03024604730308056
1666742447.11863589,866602963,1,0.9995164275169373,0.00602917792275548,0.004005223046988249,0.03024124726653099
1666742447.15859485,866642922,1,0.9995174407958984,0.006026965565979481,0.003990260884165764,0.030210847035050392
1666742447.19859481,866682922,1,0.9995181560516357,0.006021952256560326,0.003990690689533949,0.03018704615533352
1666742447.23859692,866722924,1,0.9995183348655701,0.006017446517944336,0.004004032351076603,0.030180223286151886
1666742447.27861500,866762942,1,0.999518632888794,0.006038009654730558,0.004014583304524422,0.030165566131472588
1666742447.29859781,866782925,1,0.9995191097259521,0.006036424543708563,0.004008494317531586,0.030150074511766434
1666742447.31859803,866802925,1,0.9995187520980835,0.006036852952092886,0.004005698952823877,0.03016229346394539
1666742447.35860991,866842937,1,0.9995192289352417,0.0060320342890918255,0.004042827524244785,0.03014216013252735
1666742447.39859390,866882921,1,0.9995197057723999,0.006042469292879105,0.004037095699459314,0.0301258135586977
1666742447.43859482,866922922,1,0.9995210766792297,0.006042050197720528,0.004045166075229645,0.030079670250415802
1666742447.47859883,866962926,1,0.9995220899581909,0.006052911747246981,0.004039019346237183,0.030044442042708397
1666742447.49858999,866982917,1,0.9995222687721252,0.006040216889232397,0.0040456028655171394,0.030039561912417412
1666742447.51864290,867002970,1,0.9995221495628357,0.0060372743755578995,0.0040275282226502895,0.030046317726373672
1666742447.55865288,867042980,1,0.9995225071907043,0.006025162059813738,0.004032044671475887,0.030035613104701042
1666742447.59861994,867082947,1,0.9995231628417969,0.006021898705512285,0.00402297917753458,0.03001667931675911
1666742447.63859487,867122922,1,0.9995233416557312,0.006036669481545687,0.004016555845737457,0.030008379369974136
1666742447.67861295,867162940,1,0.9995236396789551,0.0060462960973382,0.004046871792525053,0.029991701245307922
1666742447.69864082,867182968,1,0.9995235800743103,0.00605388917028904,0.004058845341205597,0.029991567134857178
1666742447.71862292,867202950,1,0.9995237588882446,0.0060647763311862946,0.004050752613693476,0.029984401538968086
1666742447.75864387,867242971,1,0.9995245337486267,0.00605631060898304,0.0040548150427639484,0.029959721490740776
1666742447.79864287,867282970,1,0.9995256066322327,0.006036314181983471,0.00408621970564127,0.02992318384349346
1666742447.83860803,867322935,1,0.9995267391204834,0.006047422531992197,0.004099560901522636,0.029882561415433884
1666742447.87859893,867362926,1,0.9995278716087341,0.006040357518941164,0.004086209461092949,0.029848096892237663
1666742447.89863896,867382966,1,0.9995284676551819,0.0060342117212712765,0.004094439093023539,0.029827386140823364
1666742447.91859102,867402918,1,0.9995290637016296,0.0060386937111616135,0.004090360831469297,0.029806867241859436
1666742447.95860982,867442937,1,0.9995300769805908,0.006039904896169901,0.004084640648216009,0.02977403998374939
1666742447.99861193,867482939,1,0.9995322823524475,0.006025068927556276,0.004086692817509174,0.029702039435505867
1666742448.03864884,867522976,1,0.9995338320732117,0.006014074198901653,0.004097289871424437,0.029649926349520683
1666742448.07860398,867562931,1,0.9995359778404236,0.005989952012896538,0.004124331288039684,0.02957870252430439
1666742448.09865499,867582982,1,0.9995349049568176,0.0060024140402674675,0.004139924421906471,0.029610445722937584
1666742448.11859894,867602926,1,0.9995350241661072,0.005979022476822138,0.004133980721235275,0.02961188182234764
1666742448.15859795,867642925,1,0.9995352029800415,0.005982164293527603,0.0041200872510671616,0.02960856445133686
1666742448.19864392,867682971,1,0.9995359182357788,0.005953561048954725,0.004131459165364504,0.029587317258119583
1666742448.23859787,867722925,1,0.9995390772819519,0.0059187146835029125,0.004160313867032528,0.02948467992246151
1666742448.27864695,867762974,1,0.9995423555374146,0.005898572504520416,0.004156802780926228,0.029376398772001266
1666742448.29860783,867782935,1,0.9995434284210205,0.005899800918996334,0.004174831323325634,0.02933698147535324
1666742448.31860185,867802929,1,0.9995447993278503,0.005906134843826294,0.004176869057118893,0.029288997873663902
1666742448.35859895,867842926,1,0.999545693397522,0.005915458779782057,0.004171519540250301,0.029257966205477715
1666742448.39859700,867882924,1,0.9995443224906921,0.005909716710448265,0.004185722675174475,0.02930431254208088
1666742448.43863082,867922958,1,0.9995396137237549,0.005928932689130306,0.00417118426412344,0.02946108765900135
1666742448.47867084,867962998,1,0.9995369911193848,0.0058465078473091125,0.00409792922437191,0.02957804873585701
1666742448.49860001,867982927,1,0.9995371699333191,0.005773377604782581,0.00403995718806982,0.029592957347631454
1666742448.51858997,868002917,1,0.9995386600494385,0.005678174085915089,0.003962557762861252,0.029573259875178337
1666742448.55860591,868042933,1,0.9995439648628235,0.005437471903860569,0.0038172104395926,0.029456844553351402
1666742448.59860396,868082931,1,0.9995465874671936,0.00548705505207181,0.003926529549062252,0.02934345416724682
1666742448.63857388,868122901,1,0.999549388885498,0.005575837101787329,0.0038761040195822716,0.02923896722495556
1666742448.67867303,868163000,1,0.9995489120483398,0.005667491350322962,0.0038842849899083376,0.0292368121445179
1666742448.69859886,868182926,1,0.9995463490486145,0.005477484781295061,0.003944265190511942,0.029351061210036278
1666742448.71864581,868202973,1,0.9995427131652832,0.005803809966892004,0.003705458715558052,0.029444929212331772
1666742448.75859189,868242919,1,0.9995318055152893,0.006198516581207514,0.004073577467352152,0.029684007167816162
1666742448.79859900,868282926,1,0.9995330572128296,0.005521625746041536,0.003942408133298159,0.0297923032194376
1666742448.83859992,868322927,1,0.9995295405387878,0.005614134948700666,0.003859546734020114,0.02990499697625637
1666742448.87862182,868362949,1,0.9995329976081848,0.005591921973973513,0.004056666046380997,0.029766065999865532
1666742448.89860201,868382929,1,0.9995341300964355,0.005642193369567394,0.003730038646608591,0.029762273654341698
1666742448.91863704,868402964,1,0.9995321035385132,0.00592408562079072,0.004144460894167423,0.029721351340413094
1666742448.95864391,868442971,1,0.9995294213294983,0.005817080847918987,0.00390591099858284,0.02986316941678524
1666742448.99859786,868482925,1,0.9995287656784058,0.005749119911342859,0.003843799000605941,0.02990628592669964
1666742449.03859997,868522927,1,0.9995247721672058,0.005709260702133179,0.003911085892468691,0.030038433149456978
1666742449.07857990,868562907,1,0.9995225071907043,0.005370350554585457,0.00405115308240056,0.03015853837132454
1666742449.09861088,868582938,1,0.9995245933532715,0.005461552180349827,0.00386434537358582,0.030096737667918205
1666742449.11865592,868602983,1,0.9995226860046387,0.005502553656697273,0.0041021257638931274,0.030120495706796646
1666742449.15858793,868642915,1,0.9995257258415222,0.0055341473780572414,0.0038971039466559887,0.03004087321460247
1666742449.19863081,868682958,1,0.9995269179344177,0.0056695821695029736,0.003905482590198517,0.029974903911352158
1666742449.23860097,868722928,1,0.9995266199111938,0.005606931634247303,0.004033486824482679,0.029981428757309914
1666742449.27857399,868762901,1,0.9995247721672058,0.005381673574447632,0.00403358181938529,0.030082235112786293
1666742449.29864287,868782970,1,0.9995229840278625,0.0056798760779201984,0.004002034664154053,0.030091142281889915
1666742449.31860995,868802937,1,0.9995236992835999,0.00553130405023694,0.003929750993847847,0.03010520525276661
1666742449.35864091,868842968,1,0.9995191097259521,0.005727231036871672,0.004024903755635023,0.03020847588777542
1666742449.39866185,868882989,1,0.9995211362838745,0.005517933517694473,0.0040452140383422375,0.03017723560333252
1666742449.43863392,868922961,1,0.9995194673538208,0.005697920452803373,0.004110357258468866,0.03019021451473236
1666742449.47860789,868962935,1,0.9995220899581909,0.005810458678752184,0.004011901095509529,0.030095338821411133
1666742449.49863291,868982960,1,0.9995244741439819,0.005553287919610739,0.004072743002325296,0.0300569087266922
1666742449.51859999,869002927,1,0.9995236992835999,0.005652553867548704,0.004006067756563425,0.030073242262005806
1666742449.55861902,869042946,1,0.9995237588882446,0.005434539169073105,0.0041477312333881855,0.030092289671301842
1666742449.59862900,869082956,1,0.9995219707489014,0.005350267514586449,0.003998203668743372,0.030186640098690987
1666742449.63864303,869122970,1,0.9995203018188477,0.005147255025804043,0.003915788140147924,0.03028724156320095
1666742449.67860985,869162937,1,0.9995161890983582,0.0053559765219688416,0.003985503688454628,0.030378516763448715
1666742449.69864583,869182973,1,0.9995150566101074,0.005511629860848188,0.00409475713968277,0.03037201054394245
1666742449.71860290,869202930,1,0.9995147585868835,0.005636169109493494,0.004155582748353481,0.030352117493748665
1666742449.75859785,869242925,1,0.9995162487030029,0.005847009364515543,0.004030273761600256,0.030279409140348434
1666742449.79863381,869282961,1,0.9995196461677551,0.005525404587388039,0.004056154750287533,0.030224492773413658
1666742449.83864093,869322968,1,0.9995174407958984,0.005405687727034092,0.004243216942995787,0.030293289572000504
1666742449.87860394,869362931,1,0.9995168447494507,0.005413027014583349,0.004281930159777403,0.03030659630894661
1666742449.89862990,869382957,1,0.9995163679122925,0.005198133643716574,0.004087928682565689,0.03038567677140236
1666742449.91859794,869402925,1,0.9995113611221313,0.005581628531217575,0.004342418164014816,0.03044622577726841
1666742449.95860291,869442930,1,0.9995107650756836,0.005417285021394491,0.00403092335909605,0.030538305640220642
1666742449.99857688,869482904,1,0.9995104670524597,0.005391363054513931,0.004254319705069065,0.03052375465631485
1666742450.03865004,869522977,1,0.9995131492614746,0.005295672453939915,0.004221718292683363,0.030456529930233955
1666742450.07868099,869563008,1,0.9995126724243164,0.00544890807941556,0.004100683145225048,0.030462319031357765
1666742450.09861088,869582938,1,0.9995118975639343,0.005334046669304371,0.004202842712402344,0.030492881312966347
1666742450.11859298,869602920,1,0.9995112419128418,0.005265012849122286,0.0042380341328680515,0.030522119253873825
1666742450.15859890,869642926,1,0.9995067119598389,0.00507081625983119,0.004147459752857685,0.03071461245417595
1666742450.19858599,869682913,1,0.9995048642158508,0.005275295116007328,0.004309816285967827,0.030718687921762466
1666742450.23866892,869722996,1,0.999505341053009,0.005207161884754896,0.004130497109144926,0.030738383531570435
1666742450.27861786,869762945,1,0.9995012283325195,0.005526057444512844,0.004238516092300415,0.03080182522535324
1666742450.29859996,869782927,1,0.9995006322860718,0.005501840263605118,0.004039640072733164,0.030852746218442917
1666742450.31865001,869802977,1,0.9995010495185852,0.005100115668028593,0.0041264756582677364,0.030895894393324852
1666742450.35857296,869842900,1,0.9994984269142151,0.005277448799461126,0.004016932100057602,0.03096570447087288
1666742450.39860296,869882930,1,0.9994966387748718,0.005332255735993385,0.004162376746535301,0.030995652079582214
1666742450.43860292,869922930,1,0.9994943141937256,0.005083499010652304,0.004202594980597496,0.031106725335121155
1666742450.47861695,869962944,1,0.9994889497756958,0.005490899085998535,0.004224941600114107,0.031206801533699036
1666742450.49860287,869982930,1,0.9994888305664062,0.005268222186714411,0.0041467431001365185,0.031259484589099884
1666742450.51861095,870002938,1,0.9994876384735107,0.0053575290367007256,0.00406688405200839,0.03129323199391365
1666742450.55866694,870042994,1,0.9994853138923645,0.005046285223215818,0.004059379454702139,0.03141869232058525
1666742450.59860897,870082936,1,0.9994829297065735,0.005168733187019825,0.0042219385504722595,0.03145381063222885
1666742450.63860083,870122928,1,0.9994785189628601,0.004980375990271568,0.004245233256369829,0.03162017837166786
1666742450.67859983,870162927,1,0.9994736313819885,0.0051553454250097275,0.0040808506309986115,0.03176840767264366
1666742450.69857502,870182902,1,0.9994694590568542,0.005126619711518288,0.0042539662681519985,0.03188076242804527
1666742450.71865082,870202978,1,0.9994685649871826,0.0051392558962106705,0.004232070874422789,0.03191022947430611
1666742450.75860000,870242927,1,0.9994645714759827,0.005362241994589567,0.004304415080696344,0.03198929503560066
1666742450.79864383,870282971,1,0.9994601011276245,0.0052888779900968075,0.004183614626526833,0.03215662017464638
1666742450.83860087,870322928,1,0.9994579553604126,0.005727341398596764,0.004326727706938982,0.03212860971689224
1666742450.87859893,870362926,1,0.9994605779647827,0.0053359828889369965,0.004183644894510508,0.0321340411901474
1666742450.89865184,870382979,1,0.99946129322052,0.0050102537497878075,0.00423826789483428,0.0321565642952919
1666742450.91860199,870402929,1,0.9994598627090454,0.005326535552740097,0.004303187597543001,0.032142505049705505
1666742450.95864391,870442971,1,0.9994625449180603,0.004981253296136856,0.004150773864239454,0.03213398531079292
1666742450.99866390,870482991,1,0.9994620680809021,0.0050159902311861515,0.004195319954305887,0.032137516885995865
1666742451.03860283,870522930,1,0.9994602203369141,0.005494915880262852,0.004252728074789047,0.03210902959108353
1666742451.07860804,870562935,1,0.9994581341743469,0.005249059293419123,0.00412476621568203,0.032231006771326065
1666742451.09860301,870582930,1,0.999456524848938,0.005062124691903591,0.004178556613624096,0.0323045440018177
1666742451.11865497,870602982,1,0.9994568824768066,0.005117923021316528,0.004171252716332674,0.03228546679019928
1666742451.15857887,870642906,1,0.9994559288024902,0.0050810654647648335,0.004225981887429953,0.032314226031303406
1666742451.19863892,870682966,1,0.9994523525238037,0.005228831432759762,0.004235218279063702,0.03240007534623146
1666742451.23865104,870722978,1,0.9994524121284485,0.0049537126906216145,0.004172412678599358,0.03244894742965698
1666742451.27858186,870762909,1,0.9994505047798157,0.005204285029321909,0.004234303254634142,0.03245999291539192
1666742451.29865098,870782978,1,0.9994483590126038,0.005274055991321802,0.004279840737581253,0.032508734613657
1666742451.31860399,870802931,1,0.9994484186172485,0.0052709118463099,0.004253351129591465,0.032510869204998016
1666742451.35860395,870842931,1,0.9994450211524963,0.005075335968285799,0.004173770546913147,0.03265757113695145
1666742451.39860702,870882934,1,0.9994441866874695,0.004938905127346516,0.004200659226626158,0.03270048275589943
1666742451.43861389,870922941,1,0.9994418621063232,0.004984157159924507,0.00422576954588294,0.03276136517524719
1666742451.47866392,870962991,1,0.9994394779205322,0.005272089038044214,0.004263365175575018,0.03278355672955513
1666742451.49862981,870982957,1,0.9994409084320068,0.004926646128296852,0.004142384976148605,0.03280945122241974
1666742451.51860595,871002933,1,0.999438464641571,0.005322788842022419,0.004098748322576284,0.0328277088701725
1666742451.55859303,871042920,1,0.9994370937347412,0.005109041463583708,0.004138330463320017,0.03289839252829552
1666742451.59860897,871082936,1,0.9994357228279114,0.005215136334300041,0.0042065223678946495,0.03291424736380577
1666742451.63863587,871122963,1,0.9994342923164368,0.005155299324542284,0.0041391244158148766,0.032975293695926666
1666742451.67866182,871162989,1,0.9994334578514099,0.0049354759976267815,0.004200359806418419,0.0330270379781723
1666742451.69857383,871182901,1,0.9994303584098816,0.005143753252923489,0.004196071997284889,0.0330897718667984
1666742451.71863699,871202964,1,0.9994321465492249,0.004810988903045654,0.00418437086045742,0.03308706730604172
1666742451.75859880,871242926,1,0.9994268417358398,0.005359722301363945,0.004093266557902098,0.033174607902765274
1666742451.79861093,871282938,1,0.999422550201416,0.005338592920452356,0.004171558190137148,0.033296406269073486
1666742451.83859682,871322924,1,0.9994226098060608,0.00492241932079196,0.004185608588159084,0.033356815576553345
1666742451.87863684,871362964,1,0.9994228482246399,0.005094860680401325,0.004073804244399071,0.033338338136672974
1666742451.89860296,871382930,1,0.9994239211082458,0.004842330701649189,0.004130874760448933,0.03333662450313568
1666742451.91866302,871402990,1,0.9994189739227295,0.005378584377467632,0.004183134064078331,0.03339597210288048
1666742451.95858192,871442909,1,0.999421238899231,0.004990488290786743,0.004187646321952343,0.0333869494497776
1666742451.99860501,871482932,1,0.9994204044342041,0.004733651410788298,0.003955029882490635,0.03347855806350708
1666742452.03857803,871522905,1,0.999416172504425,0.004988835193216801,0.004101406317204237,0.03354935348033905
1666742452.07862282,871562950,1,0.9994140267372131,0.005218292120844126,0.004177299793809652,0.03356881067156792
1666742452.09860182,871582929,1,0.9994142651557922,0.005223209038376808,0.004109327215701342,0.033569857478141785
1666742452.11865497,871602982,1,0.9994158744812012,0.0047342958860099316,0.004086790606379509,0.03359812870621681
1666742452.15864801,871642975,1,0.9994133114814758,0.005178709980100393,0.004081569146364927,0.03360800817608833
1666742452.19861603,871682943,1,0.9994156360626221,0.004780290182679892,0.004066920839250088,0.03360111266374588
1666742452.23860383,871722931,1,0.9994111657142639,0.005006926599889994,0.004046959802508354,0.03370346128940582
1666742452.27860785,871762935,1,0.999409556388855,0.0048842537216842175,0.003953936975449324,0.03377866744995117
1666742452.29860592,871782933,1,0.9994089007377625,0.004933714400976896,0.003922841511666775,0.033794887363910675
1666742452.31861091,871802938,1,0.9994078874588013,0.004981562495231628,0.004001252818852663,0.0338093601167202
1666742452.35863781,871842965,1,0.999407172203064,0.004821624141186476,0.0039009463507682085,0.03386570140719414
1666742452.39861298,871882940,1,0.9994040727615356,0.004940907936543226,0.003951852675527334,0.0339326336979866
1666742452.43860197,871922929,1,0.9994025230407715,0.004957383032888174,0.004100434947758913,0.033958762884140015
1666742452.47860098,871962928,1,0.9994033575057983,0.0051587591879069805,0.003972653765231371,0.03391994908452034
1666742452.49864984,871982977,1,0.9994066953659058,0.004815840162336826,0.0039419070817530155,0.03387518972158432
1666742452.51860595,872002933,1,0.9994077682495117,0.00466640992090106,0.003812444396317005,0.033879514783620834
1666742452.55865192,872042979,1,0.9994061589241028,0.004812111612409353,0.003872253466397524,0.033900149166584015
1666742452.59861493,872082942,1,0.9994030594825745,0.005012943409383297,0.0038710935041308403,0.03396225348114967
1666742452.63860989,872122937,1,0.9994030594825745,0.004977467004209757,0.00409711105749011,0.033939726650714874
1666742452.67859888,872162926,1,0.9994024038314819,0.004970833659172058,0.00401346804574132,0.03397058695554733
1666742452.69861102,872182938,1,0.9994043111801147,0.004879665095359087,0.003947609104216099,0.033935002982616425
1666742452.71857595,872202903,1,0.9994043707847595,0.00482088653370738,0.0038388222455978394,0.03395423665642738
1666742452.75860000,872242927,1,0.9994061589241028,0.004745178855955601,0.003735134145244956,0.033924784511327744
1666742452.79863691,872282964,1,0.999407947063446,0.004854438826441765,0.003712789388373494,0.03385930135846138
1666742452.83865094,872322978,1,0.9994075298309326,0.004815214313566685,0.0039059463888406754,0.033855341374874115
1666742452.87861991,872362947,1,0.999406099319458,0.0049296775832772255,0.0038523911498486996,0.03388714790344238
1666742452.89863682,872382964,1,0.9994081854820251,0.00476237153634429,0.003704044269397855,0.03386547416448593
1666742452.91860795,872402935,1,0.9994087219238281,0.0047347284853458405,0.0037300693802535534,0.033850450068712234
1666742452.95857382,872442901,1,0.9994038939476013,0.004700223915278912,0.003727442119270563,0.03399817645549774
1666742452.99864292,872482970,1,0.9994041323661804,0.0047065261751413345,0.003718614112585783,0.033990900963544846
1666742453.03864384,872522971,1,0.9994037747383118,0.004769762512296438,0.0038648112677037716,0.0339764840900898
1666742453.07864404,872562971,1,0.9994041919708252,0.005011406261473894,0.003760544117540121,0.03394043445587158
1666742453.09859896,872582926,1,0.9994065761566162,0.004826670978218317,0.0034951765555888414,0.033925414085388184
1666742453.11860800,872602935,1,0.9994055032730103,0.004884364083409309,0.0038662587758153677,0.033909160643815994
1666742453.15860081,872642928,1,0.9994035363197327,0.004756125621497631,0.0037060684990137815,0.034003857523202896
1666742453.19858003,872682907,1,0.9994015693664551,0.004820616450160742,0.0036663985811173916,0.034056082367897034
1666742453.23863602,872722963,1,0.9993977546691895,0.004925378132611513,0.003668677294626832,0.03415342792868614
1666742453.27860594,872762933,1,0.9993953108787537,0.004989555571228266,0.0036250301636755466,0.034218933433294296
1666742453.29860401,872782931,1,0.9993939995765686,0.004944245796650648,0.0036528033670037985,0.034260574728250504
1666742453.31861281,872802940,1,0.9993947744369507,0.005068392492830753,0.003634372726082802,0.03422282636165619
1666742453.35860395,872842931,1,0.9993979930877686,0.004888849798589945,0.0039483425207436085,0.034119874238967896
1666742453.39860702,872882934,1,0.9993928074836731,0.004794151522219181,0.0046136402525007725,0.03420086205005646
1666742453.43857384,872922901,1,0.9993795156478882,0.004897050093859434,0.005623954813927412,0.03442423418164253
1666742453.47864199,872962969,1,0.9993670582771301,0.004835739266127348,0.006810203660279512,0.0345790721476078
1666742453.49860191,872982929,1,0.9993605613708496,0.005157825071364641,0.00754972780123353,0.034567397087812424
1666742453.51864791,873002975,1,0.9993561506271362,0.00521552748978138,0.008019068278372288,0.034580450505018234
1666742453.55859590,873042923,1,0.9993504881858826,0.00526015181094408,0.008568350225687027,0.03460463136434555
1666742453.59860396,873082931,1,0.9993520379066467,0.004712828900665045,0.008401007391512394,0.03468054533004761
1666742453.63860703,873122934,1,0.9993435144424438,0.0043610516004264355,0.008269858546555042,0.03500162437558174
1666742453.67859292,873162920,1,0.9993336796760559,0.0042321947403252125,0.007856796495616436,0.035391632467508316
1666742453.69860387,873182931,1,0.9993290901184082,0.004339500330388546,0.007042315322905779,0.035678133368492126
1666742453.71864486,873202972,1,0.9993321299552917,0.004129112232476473,0.006069554947316647,0.03579631820321083
1666742453.75863600,873242963,1,0.9993294477462769,0.004621138796210289,0.004355433862656355,0.03605964407324791
1666742453.79863596,873282963,1,0.9993358254432678,0.004364300519227982,0.002797237364575267,0.03607014939188957
1666742453.83860397,873322931,1,0.9993357062339783,0.0043718102388083935,0.001840646960772574,0.036134298890829086
1666742453.87859988,873362927,1,0.9993399381637573,0.004704558290541172,0.0007866848027333617,0.036012183874845505
1666742453.89860392,873382931,1,0.9993382692337036,0.004703332204371691,0.0006286277202889323,0.036062974482774734
1666742453.91863799,873402965,1,0.9993358254432678,0.004829923156648874,0.00073100725421682,0.03611231967806816
1666742453.95860386,873442931,1,0.9993323087692261,0.004625973291695118,0.00172094174195081,0.03620131313800812
1666742453.99865103,873482978,1,0.9993262887001038,0.004123848397284746,0.0034534521400928497,0.03630416840314865
1666742454.03860283,873522930,1,0.9993147850036621,0.004602630157023668,0.004476508591324091,0.03645250201225281
1666742454.07861185,873562939,1,0.9993155598640442,0.004533843137323856,0.00492385309189558,0.03638071194291115
1666742454.09864092,873582968,1,0.9993091225624084,0.004461994860321283,0.0054671065881848335,0.03648983687162399
1666742454.11860085,873602928,1,0.9993059635162354,0.004306241404265165,0.005521963816136122,0.03658641502261162
1666742454.15864491,873642972,1,0.9992967247962952,0.004421042278409004,0.006170999258756638,0.03672132268548012
1666742454.19859886,873682926,1,0.9992910027503967,0.004218072164803743,0.005534911993891001,0.03700047731399536
1666742454.23860598,873722933,1,0.9992893934249878,0.004434527363628149,0.004719433840364218,0.03713185340166092
1666742454.27860785,873762935,1,0.999295711517334,0.004420128650963306,0.004021488595753908,0.0370461530983448
1666742454.29864097,873782968,1,0.9992996454238892,0.004357106518000364,0.003849708940833807,0.036965664476156235
1666742454.31859493,873802922,1,0.9993113279342651,0.004357859026640654,0.0034193163737654686,0.036690063774585724
1666742454.35858083,873842908,1,0.9993336796760559,0.004376900848001242,0.0026329357642680407,0.03614033758640289
1666742454.39864302,873882970,1,0.9993417859077454,0.004549597855657339,0.00255786394700408,0.03589927405118942
1666742454.43864989,873922977,1,0.9993405938148499,0.004615894053131342,0.0031649977900087833,0.03587529435753822
1666742454.47859693,873962924,1,0.9993301630020142,0.004457925446331501,0.0037526527885347605,0.03612930700182915
1666742454.49860883,873982936,1,0.9993229508399963,0.004536248743534088,0.004170989617705345,0.03627197444438934
1666742454.51859903,874002926,1,0.9993164539337158,0.004343463573604822,0.004372704774141312,0.036451227962970734
1666742454.55860090,874042928,1,0.9993020296096802,0.004444300662726164,0.004880467429757118,0.036767635494470596
1666742454.59862900,874082956,1,0.9992988705635071,0.004282251000404358,0.005167259834706783,0.03683443367481232
1666742454.63866496,874122992,1,0.9992983341217041,0.004542943090200424,0.004956053104251623,0.036845479160547256
1666742454.67867303,874163000,1,0.9993050694465637,0.00453863525763154,0.004364708438515663,0.036738526076078415
1666742454.69860101,874182928,1,0.9993076920509338,0.004613657481968403,0.004180354531854391,0.036678899079561234
1666742454.71863699,874202964,1,0.9993106126785278,0.004523850977420807,0.0039217849262058735,0.03663913905620575
1666742454.75860691,874242934,1,0.9993196725845337,0.004329622257500887,0.0034827066119760275,0.0364605188369751
1666742454.79860091,874282928,1,0.9993141293525696,0.00432165851816535,0.0033037338871508837,0.03662952035665512
1666742454.83861089,874322938,1,0.9993104934692383,0.0044999439269304276,0.003217697376385331,0.03671373426914215
1666742454.87860703,874362934,1,0.9993012547492981,0.004361549858003855,0.0034651339519768953,0.03695948049426079
1666742454.89860487,874382932,1,0.9992982745170593,0.0044171931222081184,0.0033976598642766476,0.037038709968328476
1666742454.91864991,874402977,1,0.9992929697036743,0.004548242315649986,0.003939877729862928,0.03711240366101265
1666742454.95860195,874442929,1,0.999284565448761,0.004519380629062653,0.004262963775545359,0.03730674460530281
1666742454.99860191,874482929,1,0.999284029006958,0.00446521770209074,0.004355074372142553,0.037317242473363876
1666742455.03860092,874522928,1,0.9992814660072327,0.004394627641886473,0.004454216919839382,0.03738189488649368
1666742455.07863903,874562966,1,0.9992844462394714,0.004371717106550932,0.004335534758865833,0.03731944039463997
1666742455.09860182,874582929,1,0.9992804527282715,0.00432753236964345,0.00417283596470952,0.03744940087199211
1666742455.11863685,874602964,1,0.9992778301239014,0.004525399301201105,0.004093713127076626,0.037504881620407104
1666742455.15863490,874642962,1,0.9992766380310059,0.004637980367988348,0.0036504475865513086,0.03756805881857872
1666742455.19860482,874682932,1,0.9992669820785522,0.004510067868977785,0.0034620866645127535,0.03785775601863861
1666742455.23860383,874722931,1,0.9992651343345642,0.004328127019107342,0.0033222779165953398,0.037940412759780884
1666742455.27859282,874762920,1,0.9992578029632568,0.004359837621450424,0.0032338513992726803,0.03813556581735611
1666742455.29860497,874782932,1,0.9992583990097046,0.004453595727682114,0.00339853810146451,0.03809615224599838
1666742455.31863785,874802965,1,0.9992561340332031,0.004480003844946623,0.0035073761828243732,0.038142457604408264
1666742455.35864902,874842976,1,0.9992518424987793,0.004309272859245539,0.003625266719609499,0.038263268768787384
1666742455.39862990,874882957,1,0.999249279499054,0.00450422428548336,0.00397403072565794,0.038273364305496216
1666742455.43859887,874922926,1,0.999243974685669,0.0046788472682237625,0.00388711947016418,0.038398377597332
1666742455.47860193,874962929,1,0.9992396831512451,0.004606988281011581,0.004017997067421675,0.03850579634308815
1666742455.49863601,874982963,1,0.9992349147796631,0.004748475272208452,0.003958147019147873,0.038617610931396484
1666742455.51864290,875002970,1,0.9992324113845825,0.004392821341753006,0.003895921865478158,0.03873054310679436
1666742455.55864787,875042975,1,0.9992265105247498,0.004684630315750837,0.0038001742213964462,0.03885907679796219
1666742455.59863997,875082967,1,0.9992209076881409,0.0044723013415932655,0.0035448740236461163,0.039051689207553864
1666742455.63858390,875122911,1,0.9992175698280334,0.004682381637394428,0.00340571952983737,0.03912414610385895
1666742455.67859888,875162926,1,0.9992106556892395,0.004648903384804726,0.003528573317453265,0.03929322585463524
1666742455.69866085,875182988,1,0.9992115497589111,0.004682765807956457,0.003628678387030959,0.03925730660557747
1666742455.71860385,875202931,1,0.9992089867591858,0.004721132572740316,0.0035534256603568792,0.03932582587003708
1666742455.75861597,875242943,1,0.999202311038971,0.004644325934350491,0.0036677171010524035,0.03949332982301712
1666742455.79864287,875282970,1,0.9991977214813232,0.00486781494691968,0.0037822083104401827,0.039571523666381836
1666742455.83865285,875322980,1,0.9991875886917114,0.004633536096662283,0.003933101426810026,0.03984009101986885
1666742455.87859893,875362926,1,0.9991849660873413,0.004630726296454668,0.0037703746929764748,0.03992230072617531
1666742455.89864087,875382968,1,0.9991804361343384,0.004640720784664154,0.003681289730593562,0.040041353553533554
1666742455.91859984,875402927,1,0.9991780519485474,0.004795972257852554,0.0038924836553633213,0.040063679218292236
1666742455.95860195,875442929,1,0.9991782307624817,0.004722661338746548,0.003668906632810831,0.04008915275335312
1666742455.99861383,875482941,1,0.9991700053215027,0.004750304855406284,0.003723460016772151,0.040284812450408936
1666742456.03861785,875522945,1,0.9991753101348877,0.004638005048036575,0.0035596457310020924,0.04018178582191467
1666742456.07865095,875562978,1,0.9991652369499207,0.004775319714099169,0.0037435595877468586,0.040398772805929184
1666742456.09860897,875582936,1,0.9991669654846191,0.004787840880453587,0.0036251915153115988,0.040365345776081085
1666742456.11860394,875602931,1,0.999163031578064,0.004871441517025232,0.003665909869596362,0.04044852405786514
1666742456.15859199,875642919,1,0.9991556406021118,0.004972266498953104,0.00377483107149601,0.0406089685857296
1666742456.19863796,875682965,1,0.9991488456726074,0.004992352798581123,0.003808890236541629,0.040769290179014206
1666742456.23863792,875722965,1,0.9991441369056702,0.004921433981508017,0.003768674796447158,0.040897127240896225
1666742456.27868199,875763009,1,0.9991429448127747,0.004909595474600792,0.003750053932890296,0.040929798036813736
1666742456.29859686,875782924,1,0.9991377592086792,0.005013547372072935,0.004009992815554142,0.041019193828105927
1666742456.31862783,875802955,1,0.9991374015808105,0.005258399061858654,0.003925890661776066,0.04100507125258446
1666742456.35861683,875842944,1,0.9991304874420166,0.005552716087549925,0.004024080000817776,0.041124556213617325
1666742456.39859295,875882920,1,0.9991236329078674,0.005552129819989204,0.0039564683102071285,0.04129703715443611
1666742456.43863201,875922959,1,0.9991214871406555,0.005685454700142145,0.003910036291927099,0.041335027664899826
1666742456.47863388,875962961,1,0.9991118311882019,0.005588661879301071,0.003986298572272062,0.04157426953315735
1666742456.49857092,875982898,1,0.9991120100021362,0.005619801580905914,0.003966230899095535,0.04156772419810295
1666742456.51864696,876002974,1,0.999112606048584,0.0055479565635323524,0.004062485881149769,0.04155324399471283
1666742456.55857491,876042902,1,0.999101459980011,0.00558355962857604,0.004110234789550304,0.04181104525923729
1666742456.59859300,876082920,1,0.9990977048873901,0.0056229145266115665,0.0039429012686014175,0.04191136732697487
1666742456.63859081,876122918,1,0.999092161655426,0.005574691575020552,0.003999908920377493,0.04204505681991577
1666742456.67859602,876162923,1,0.9990895986557007,0.005891755688935518,0.003983676433563232,0.04206379875540733
1666742456.69859099,876182918,1,0.9990895390510559,0.005963417235761881,0.004044076893478632,0.042049407958984375
1666742456.71859503,876202922,1,0.9990921020507812,0.005848173052072525,0.003973439335823059,0.04201200604438782
1666742456.75862694,876242954,1,0.9990928173065186,0.005929702427238226,0.003981057554483414,0.041982829570770264
1666742456.79860187,876282929,1,0.9990907311439514,0.005900625139474869,0.003916050307452679,0.04204300791025162
1666742456.83857989,876322907,1,0.9990911483764648,0.005854978691786528,0.003898254595696926,0.04204050451517105
1666742456.87858987,876362917,1,0.9990881681442261,0.005976936314254999,0.003925376571714878,0.042090900242328644
1666742456.89860296,876382930,1,0.9990851879119873,0.005970916245132685,0.0039290147833526134,0.042162612080574036
1666742456.91863704,876402964,1,0.9990819096565247,0.00609270203858614,0.003928087186068296,0.04222264140844345
1666742456.95863700,876442964,1,0.9990800023078918,0.0061513204127550125,0.003947210963815451,0.04225752130150795
1666742456.99859691,876482924,1,0.9990828633308411,0.006121656857430935,0.003920367918908596,0.0421963669359684
1666742457.03859282,876522920,1,0.9990851879119873,0.006156137678772211,0.0038757077418267727,0.0421409010887146
1666742457.07859182,876562919,1,0.9990875720977783,0.006162152159959078,0.0037789877969771624,0.042092885822057724
1666742457.09862995,876582957,1,0.9990910887718201,0.006102509330958128,0.0037406738847494125,0.04202071204781532
1666742457.11859083,876602918,1,0.999093234539032,0.006046623922884464,0.0037384568713605404,0.041978660970926285
1666742457.15863585,876642963,1,0.9990938305854797,0.006135622970759869,0.003680687164887786,0.04195640981197357
1666742457.19863582,876682963,1,0.9990900158882141,0.006279305089265108,0.0036384770646691322,0.04202984273433685
1666742457.23862886,876722956,1,0.9990876913070679,0.006370540242642164,0.003626217832788825,0.04207240045070648
1666742457.27858901,876762916,1,0.999085545539856,0.006273643579334021,0.0036147634964436293,0.04213900491595268
1666742457.29862189,876782949,1,0.9990864992141724,0.006255988031625748,0.0035762523766607046,0.042121823877096176
1666742457.31859493,876802922,1,0.9990872144699097,0.0062123797833919525,0.003585112513974309,0.042111098766326904
1666742457.35858583,876842913,1,0.999090850353241,0.006302299909293652,0.003559774486348033,0.04201224073767662
1666742457.39859080,876882918,1,0.9990923404693604,0.006308234762400389,0.0035415624734014273,0.041978128254413605
1666742457.43863583,876922963,1,0.9990940690040588,0.0063044121488928795,0.0035020604263991117,0.04194051772356033
1666742457.47857285,876962900,1,0.9990959763526917,0.006245432887226343,0.003435623599216342,0.04190994054079056
1666742457.49862289,876982950,1,0.9990965723991394,0.0062842476181685925,0.003393098246306181,0.04189315810799599
1666742457.51859093,877002918,1,0.9990967512130737,0.006349946837872267,0.0033993541728705168,0.04187779873609543
1666742457.55859089,877042918,1,0.9990959167480469,0.006419456098228693,0.003388248849660158,0.041888460516929626
1666742457.59862590,877082953,1,0.9990953803062439,0.0064506614580750465,0.0033851901534944773,0.04189726710319519
1666742457.63861990,877122947,1,0.9990957379341125,0.00637836055830121,0.0033376277424395084,0.04190363362431526
1666742457.67863894,877162966,1,0.9990968108177185,0.006332992110401392,0.003311835927888751,0.041887108236551285
1666742457.69862199,877182949,1,0.9990969896316528,0.006351224146783352,0.0032828347757458687,0.041881706565618515
1666742457.71859288,877202920,1,0.999097466468811,0.006372053176164627,0.0032757874578237534,0.04186807572841644
1666742457.75858998,877242917,1,0.9990989565849304,0.006456073839217424,0.0032647254411131144,0.04182076454162598
1666742457.79856491,877282892,1,0.9991027116775513,0.0065154735930264,0.003197162179276347,0.04172704741358757
1666742457.83863592,877322963,1,0.9991054534912109,0.00653150724247098,0.0031040601897984743,0.04166533052921295
1666742457.87868881,877363016,1,0.9991076588630676,0.006525048520416021,0.0030321942176669836,0.04161893576383591
1666742457.89860296,877382930,1,0.9991082549095154,0.006524709053337574,0.0030154609121382236,0.04160609468817711
1666742457.91863394,877402961,1,0.9991082549095154,0.006497980561107397,0.002973496913909912,0.041612472385168076
1666742457.95859385,877442921,1,0.9991065859794617,0.006501943804323673,0.002926431130617857,0.041655123233795166
1666742457.99859190,877482919,1,0.9991041421890259,0.006557350978255272,0.002891790121793747,0.04170802980661392
1666742458.03856897,877522896,1,0.9991042017936707,0.0066261435858905315,0.002890791743993759,0.04169547185301781
1666742458.07863402,877562961,1,0.9991058111190796,0.0066694761626422405,0.0028299831319600344,0.04165440425276756
1666742458.09859085,877582918,1,0.9991074204444885,0.006683833431452513,0.0027844009455293417,0.041616667062044144
1666742458.11864281,877602970,1,0.9991092681884766,0.006648289039731026,0.002738604787737131,0.04158107936382294
1666742458.15858698,877642914,1,0.9991139769554138,0.006625702604651451,0.0026811889838427305,0.04147506505250931
1666742458.19860196,877682929,1,0.9991153478622437,0.006595166865736246,0.0026364095974713564,0.041449617594480515
1666742458.23859382,877722921,1,0.9991149306297302,0.006606999319046736,0.0025765076279640198,0.04146212711930275
1666742458.27857780,877762905,1,0.9991121292114258,0.006644882261753082,0.0025437676813453436,0.041525159031152725
1666742458.29858899,877782916,1,0.9991105794906616,0.0066608707420527935,0.002555419923737645,0.04155854135751724
1666742458.31860185,877802929,1,0.9991102814674377,0.006721558514982462,0.0025437844451516867,0.04155674949288368
1666742458.35862184,877842949,1,0.9991100430488586,0.006756305228918791,0.002509570447728038,0.04155975207686424
1666742458.39860296,877882930,1,0.9991121292114258,0.0067255934700369835,0.002519825706258416,0.0415128730237484
1666742458.43859386,877922921,1,0.999115526676178,0.006698861252516508,0.0024938485585153103,0.041437745094299316
1666742458.47859097,877962918,1,0.9991198182106018,0.006677649449557066,0.002406145678833127,0.041342854499816895
1666742458.49861288,877982940,1,0.9991209506988525,0.006709533743560314,0.0023979642428457737,0.04131105914711952
1666742458.51863289,878002960,1,0.9991218447685242,0.006729091517627239,0.0023566358722746372,0.04128772392868996
1666742458.55859303,878042920,1,0.9991222620010376,0.006789756007492542,0.002291952259838581,0.041271161288022995
1666742458.59863496,878082962,1,0.9991217851638794,0.006863304879516363,0.0022398866713047028,0.04127378761768341
1666742458.63859081,878122918,1,0.9991238117218018,0.006900455337017775,0.002153981477022171,0.041223593056201935
1666742458.67859197,878162919,1,0.9991244077682495,0.00688772602006793,0.002129427157342434,0.04121221601963043
1666742458.69862986,878182957,1,0.9991254210472107,0.006875977385789156,0.0021136696450412273,0.04119010642170906
1666742458.71856594,878202893,1,0.9991267323493958,0.00685970950871706,0.002119664801284671,0.041161585599184036
1666742458.75864387,878242971,1,0.9991281032562256,0.006858772598206997,0.0020942401606589556,0.041128601878881454
1666742458.79862499,878282952,1,0.9991291165351868,0.006925663445144892,0.0020670942030847073,0.041095033288002014
1666742458.83858490,878322912,1,0.9991300702095032,0.0070118047297000885,0.0020280310418456793,0.0410589762032032
1666742458.87859082,878362918,1,0.9991318583488464,0.007046686019748449,0.0019909029360860586,0.04101104661822319
1666742458.89860702,878382934,1,0.9991316199302673,0.007041441276669502,0.001960068242624402,0.04101895913481712
1666742458.91858602,878402913,1,0.9991313815116882,0.007052178960293531,0.0019253587815910578,0.04102463275194168
1666742458.95858502,878442912,1,0.9991306066513062,0.00704980781301856,0.0018905008910223842,0.041045647114515305
1666742458.99862885,878482956,1,0.9991313219070435,0.007009364198893309,0.001845870167016983,0.0410379059612751
1666742459.03863597,878522963,1,0.9991320371627808,0.007028576917946339,0.001791386166587472,0.04101955518126488
1666742459.07859993,878562927,1,0.9991337656974792,0.007083093747496605,0.0017473966581746936,0.040970101952552795
1666742459.09862304,878582950,1,0.9991354942321777,0.007122121751308441,0.0017313589341938496,0.040921736508607864
1666742459.11859083,878602918,1,0.9991368651390076,0.00714083993807435,0.001719044055789709,0.04088432341814041
1666742459.15859294,878642920,1,0.999139130115509,0.007175940088927746,0.0016542403027415276,0.040826790034770966
1666742459.19861698,878682944,1,0.9991408586502075,0.007195864338427782,0.0015811524353921413,0.040782805532217026
1666742459.23864102,878722968,1,0.9991412162780762,0.007193413097411394,0.0015730559825897217,0.04077573120594025
1666742459.27864099,878762968,1,0.9991424083709717,0.007170416880398989,0.0015175456646829844,0.040751863270998
1666742459.29866982,878782997,1,0.9991430044174194,0.007161532528698444,0.0014853253960609436,0.04074082896113396
1666742459.31859088,878802918,1,0.9991437196731567,0.00717784371227026,0.0014554354129359126,0.0407201386988163
1666742459.35859585,878842923,1,0.9991449117660522,0.007252209819853306,0.001402428257279098,0.04068082198500633
1666742459.39858985,878882917,1,0.9991466403007507,0.007279748562723398,0.0013891231501474977,0.04063314571976662
1666742459.43863583,878922963,1,0.9991486072540283,0.007319997064769268,0.0013416659785434604,0.040578633546829224
1666742459.47862601,878962953,1,0.999151885509491,0.007304333616048098,0.001301574637182057,0.040502678602933884
1666742459.49858499,878982912,1,0.9991527795791626,0.007296466734260321,0.0012927055358886719,0.04048216715455055
1666742459.51864481,879002972,1,0.9991543889045715,0.00728905014693737,0.0012807485181838274,0.0404435470700264
1666742459.55859399,879042921,1,0.9991559982299805,0.007284310646355152,0.0012483781902119517,0.0404057577252388
1666742459.59858990,879082917,1,0.9991556406021118,0.007305686362087727,0.001193873817101121,0.04041270166635513
1666742459.63858986,879122917,1,0.9991561770439148,0.007327854633331299,0.001134079066105187,0.040397148579359055
1666742459.67863202,879162959,1,0.9991561770439148,0.007347067818045616,0.0011133603984490037,0.04039480909705162
1666742459.69858789,879182915,1,0.9991562366485596,0.007352277636528015,0.001102946582250297,0.0403924360871315
1666742459.71863890,879202966,1,0.9991570711135864,0.007347702048718929,0.001087559387087822,0.04037267714738846
1666742459.75858784,879242915,1,0.9991582632064819,0.007304125465452671,0.0010518593480810523,0.04035203531384468
1666742459.79858899,879282916,1,0.999160885810852,0.007267369888722897,0.00105966255068779,0.04029339551925659
1666742459.83857584,879322903,1,0.9991626143455505,0.007248989772051573,0.0010524140670895576,0.04025452211499214
1666742459.87856483,879362892,1,0.9991650581359863,0.0072697801515460014,0.0010534762404859066,0.04018941894173622
1666742459.89859390,879382921,1,0.999165415763855,0.007286227773874998,0.0010559484362602234,0.04017837345600128
1666742459.91862702,879402954,1,0.9991655349731445,0.007308138534426689,0.001038075308315456,0.040170818567276
1666742459.95864081,879442968,1,0.9991663694381714,0.007329109590500593,0.0010438893223181367,0.040146250277757645
1666742459.99856400,879482891,1,0.9991663694381714,0.007315951865166426,0.001007037004455924,0.040150247514247894
1666742460.03859401,879522921,1,0.9991685748100281,0.007268150802701712,0.0009995073778554797,0.04010364040732384
1666742460.07859492,879562922,1,0.999170184135437,0.007240965962409973,0.0009883824968710542,0.04006889835000038
1666742460.09857488,879582902,1,0.9991713166236877,0.007246118038892746,0.0009851078502833843,0.0400400385260582
1666742460.11859798,879602925,1,0.9991719126701355,0.007253702264279127,0.0009757213992998004,0.04002397879958153
1666742460.15859985,879642927,1,0.9991731643676758,0.007298347540199757,0.0009703863761387765,0.039984505623579025
1666742460.19859982,879682927,1,0.9991733431816101,0.007351198233664036,0.0009813106153160334,0.0399710051715374
1666742460.23859882,879722926,1,0.9991743564605713,0.007354848086833954,0.000990907079540193,0.039943959563970566
1666742460.27858996,879762917,1,0.9991745352745056,0.007368140388280153,0.0010005265939980745,0.03993728384375572
1666742460.29862881,879782956,1,0.9991748929023743,0.007356910966336727,0.0010128666181117296,0.03992993384599686
1666742460.31859994,879802927,1,0.9991750717163086,0.007341321092098951,0.001014504348859191,0.03992733731865883
1666742460.35863400,879842961,1,0.9991766810417175,0.007317048031836748,0.0010271841892972589,0.0398913212120533
1666742460.39862490,879882952,1,0.9991773366928101,0.007341746240854263,0.0010517543414607644,0.03986985981464386
1666742460.43862081,879922948,1,0.9991793036460876,0.007375217042863369,0.0010297211119905114,0.03981577232480049
1666742460.47859192,879962919,1,0.9991806745529175,0.007405945565551519,0.001038574380800128,0.03977573290467262
1666742460.49860287,879982930,1,0.999180793762207,0.007404496893286705,0.0010441525373607874,0.039772339165210724
1666742460.51859188,880002919,1,0.9991816282272339,0.0074162669479846954,0.0010383088374510407,0.03974967077374458
1666742460.55859303,880042920,1,0.9991819858551025,0.00740570854395628,0.001042492687702179,0.039742279797792435
1666742460.59862304,880082950,1,0.999182403087616,0.007386466022580862,0.0010531040607020259,0.03973441943526268
1666742460.63863397,880122961,1,0.9991828799247742,0.007399923168122768,0.0010577104985713959,0.03972041234374046
1666742460.67856383,880162891,1,0.999183714389801,0.007406078279018402,0.0010650836629793048,0.03969819098711014
1666742460.69860101,880182928,1,0.9991840720176697,0.007405587937682867,0.0010600271634757519,0.03968943655490875
1666742460.71859193,880202919,1,0.9991847276687622,0.007418390363454819,0.001065520104020834,0.03967048600316048
1666742460.75859785,880242925,1,0.9991859793663025,0.007445428986102343,0.0010809691157191992,0.039633218199014664
1666742460.79856992,880282897,1,0.9991875290870667,0.007445140741765499,0.0010931362630799413,0.03959343209862709
1666742460.83859181,880322919,1,0.9991894960403442,0.00738514494150877,0.001074463129043579,0.03955617547035217
1666742460.87860084,880362928,1,0.9991904497146606,0.0073479400016367435,0.0010691012721508741,0.03953813016414642
1666742460.89859390,880382921,1,0.9991910457611084,0.007335187867283821,0.0010665575973689556,0.039525847882032394
1666742460.91859794,880402925,1,0.999191403388977,0.00731850927695632,0.0010756868869066238,0.03951917588710785
1666742460.95859003,880442917,1,0.9991928935050964,0.007302821613848209,0.001072133076377213,0.039485737681388855
1666742460.99859190,880482919,1,0.9991950988769531,0.007302505429834127,0.001052368083037436,0.03942963480949402
1666742461.03861690,880522944,1,0.9991975426673889,0.0072955419309437275,0.0010432733688503504,0.03936966881155968
1666742461.07862496,880562952,1,0.9991994500160217,0.0072744968347251415,0.0010288802441209555,0.03932526335120201
1666742461.09856486,880582892,1,0.9992012977600098,0.007251608185470104,0.0010172934271395206,0.03928346559405327
1666742461.11863494,880602962,1,0.999202311038971,0.007234653923660517,0.0010010931873694062,0.039261266589164734
1666742461.15858984,880642917,1,0.9992040991783142,0.007212748751044273,0.000980896526016295,0.039219021797180176
1666742461.19859791,880682925,1,0.9992049336433411,0.007211025804281235,0.0009193193982355297,0.039200812578201294
1666742461.23859882,880722926,1,0.9992052912712097,0.007211713586002588,0.0008841948583722115,0.03919103741645813
1666742461.27863097,880762958,1,0.9992057085037231,0.007219047751277685,0.0008821125375106931,0.039179250597953796
1666742461.29859281,880782920,1,0.9992063045501709,0.007222809828817844,0.0008836500928737223,0.03916317597031593
1666742461.31861997,880802947,1,0.9992067813873291,0.007213877514004707,0.0008697625016793609,0.03915359079837799
1666742461.35859895,880842926,1,0.9992080330848694,0.00721668591722846,0.0008806222467683256,0.03912166506052017
1666742461.39859200,880882919,1,0.9992091655731201,0.0071995980106294155,0.0008769931737333536,0.03909476101398468
1666742461.43856502,880922892,1,0.9992109537124634,0.00719806831330061,0.0008832797757349908,0.039050158113241196
1666742461.47860599,880962933,1,0.9992110133171082,0.007218390703201294,0.0008964256849139929,0.03904378414154053
1666742461.49860787,880982935,1,0.9992116093635559,0.007237500976771116,0.0008869576267898083,0.03902485594153404
1666742461.51862693,881002954,1,0.9992122054100037,0.007260405924171209,0.0009056308772414923,0.03900579735636711
1666742461.55865002,881042977,1,0.9992126822471619,0.007281255442649126,0.0009043342433869839,0.03898974880576134
1666742461.59861088,881082938,1,0.9992111325263977,0.007292008027434349,0.0009200733620673418,0.03902709111571312
1666742461.63859081,881122918,1,0.99921053647995,0.007276886608451605,0.0008931959164328873,0.039045464247465134
1666742461.67858100,881162908,1,0.9992105960845947,0.007276490330696106,0.0009053380927070975,0.03904455155134201
1666742461.69859004,881182917,1,0.9992102384567261,0.007289533037692308,0.0008858415530994534,0.03905126079916954
1666742461.71860790,881202935,1,0.99921053647995,0.007292688358575106,0.0008776710601523519,0.039042312651872635
1666742461.75861883,881242946,1,0.9992102384567261,0.00729651004076004,0.0008832247112877667,0.03904968872666359
1666742461.79864383,881282971,1,0.9992111325263977,0.007312862668186426,0.0008720374316908419,0.0390232689678669
1666742461.83859801,881322925,1,0.9992119073867798,0.0073027536273002625,0.0008636793354526162,0.039005618542432785
1666742461.87858891,881362916,1,0.9992130994796753,0.007298127748072147,0.0008563093142583966,0.038977161049842834
1666742461.89863896,881382966,1,0.9992139935493469,0.007287237327545881,0.0008361402433365583,0.038957029581069946
1666742461.91859198,881402919,1,0.9992143511772156,0.007269697729498148,0.0008300981717184186,0.03895079344511032
1666742461.95862484,881442952,1,0.9992148876190186,0.007234289310872555,0.0008400233928114176,0.03894355148077011
1666742461.99858403,881482911,1,0.9992160797119141,0.00722492253407836,0.000856030557770282,0.03891386091709137
1666742462.03861284,881522940,1,0.9992178082466125,0.007202493492513895,0.0008534184307791293,0.038873445242643356
1666742462.07859397,881562921,1,0.9992197155952454,0.007189873605966568,0.0008423065883107483,0.03882749751210213
1666742462.09863186,881582959,1,0.999220073223114,0.007195508107542992,0.0008475291542708874,0.03881748765707016
1666742462.11858082,881602908,1,0.9992204308509827,0.007188519928604364,0.0008632823009975255,0.03880888596177101
1666742462.15860987,881642937,1,0.9992218017578125,0.007133615668863058,0.0008890529861673713,0.038782477378845215
1666742462.19864202,881682969,1,0.999221920967102,0.007108831778168678,0.0008864648989401758,0.038785144686698914
1666742462.23863983,881722967,1,0.9992228150367737,0.00710423244163394,0.0009054187685251236,0.03876190632581711
1666742462.27857494,881762902,1,0.9992238879203796,0.007072964683175087,0.0008826938574202359,0.03874020650982857
1666742462.29862785,881782955,1,0.9992231726646423,0.007066383026540279,0.0008945197332650423,0.03875903785228729
1666742462.31859493,881802922,1,0.999222993850708,0.007072399370372295,0.0008994431118480861,0.03876258805394173
1666742462.35857892,881842906,1,0.9992234110832214,0.007061026059091091,0.0008909045718610287,0.0387539379298687
1666742462.39862490,881882952,1,0.9992246031761169,0.0070429095067083836,0.0008692804258316755,0.038728196173906326
1666742462.43864083,881922968,1,0.9992260336875916,0.007002419792115688,0.0008956879028119147,0.03869818523526192
1666742462.47864103,881962968,1,0.9992271065711975,0.006994456984102726,0.0009065369958989322,0.038671672344207764
1666742462.49856782,881982895,1,0.9992279410362244,0.006985595915466547,0.0009055676637217402,0.038651593029499054
1666742462.51858401,882002911,1,0.9992282390594482,0.006983684375882149,0.0008920566760934889,0.03864409402012825
1666742462.55859184,882042919,1,0.9992290735244751,0.006996112875640392,0.0008859883528202772,0.038620058447122574
1666742462.59856796,882082895,1,0.9992298483848572,0.0070183733478188515,0.0008845299598760903,0.038595642894506454
1666742462.63857698,882122904,1,0.999230146408081,0.007021795026957989,0.0009164373623207211,0.038587819784879684
1666742462.67862391,882162951,1,0.9992316961288452,0.006998389959335327,0.0009360907133668661,0.03855122625827789
1666742462.69859099,882182918,1,0.9992318749427795,0.006986778695136309,0.000948779343161732,0.03854798525571823
1666742462.71860600,882202933,1,0.9992325901985168,0.006992263253778219,0.0009529434028081596,0.03852761536836624
1666742462.75860190,882242929,1,0.9992334842681885,0.0069647920317947865,0.0009697210625745356,0.038510143756866455
