timestamp,TimeUS,C,Roll,Pitch,Yaw,VN,VE,VD,dPD,PN,PE,PD,GX,GY,GZ,OH
1666742445.19859099,864682918,1,0.66,0.44,3.64,-0.07702400535345078,-0.03141151741147041,-0.010392907075583935,-0.05062910541892052,12.707307815551758,-3.227257490158081,0.9338833093643188,0.47000000000000003,-0.05,-0.19,250.35
1666742445.23860097,864722928,1,0.67,0.44,3.63,-0.07814878225326538,-0.03167325630784035,-0.01043439470231533,-0.03485409542918205,12.70047664642334,-3.2317850589752197,0.9324508905410767,0.46,-0.05,-0.19,250.35
1666742445.27863193,864762959,1,0.67,0.44,3.63,-0.0789911299943924,-0.0314895361661911,-0.010911943390965462,-0.026284826919436455,12.692681312561035,-3.2375526428222656,0.9310359954833984,0.46,-0.05,-0.19,250.35
1666742445.29860497,864782932,1,0.67,0.43,3.63,-0.07943137735128403,-0.03140408918261528,-0.011080221273005009,-0.02362699806690216,12.690065383911133,-3.239161252975464,0.9306065440177917,0.46,-0.05,-0.19,250.35
1666742445.31857681,864802904,1,0.67,0.43,3.62,-0.08022496849298477,-0.031356584280729294,-0.011307170614600182,-0.02142908424139023,12.686546325683594,-3.2415976524353027,0.9299992322921753,0.47000000000000003,-0.05,-0.19,250.35
1666742445.35859704,864842924,1,0.67,0.43,3.62,-0.08161232620477676,-0.03103223256766796,-0.011421438306570053,-0.017988696694374084,12.680747032165527,-3.245210886001587,0.9290540218353271,0.47000000000000003,-0.05,-0.19,250.35
1666742445.39859986,864882927,1,0.67,0.43,3.62,-0.08253548294305801,-0.031067857518792152,-0.011539097875356674,-0.018421093001961708,12.675249099731445,-3.248434543609619,0.9277474284172058,0.47000000000000003,-0.05,-0.19,250.35
1666742445.43862796,864922955,1,0.67,0.43,3.61,-0.08434154093265533,-0.03146054595708847,-0.011459178291261196,-0.012278770096600056,12.666068077087402,-3.2543513774871826,0.9278225898742676,0.47000000000000003,-0.05,-0.19,250.35
1666742445.47862387,864962951,1,0.67,0.44,3.61,-0.08594712615013123,-0.03245643153786659,-0.01034631859511137,-0.0016352181555703282,12.655989646911621,-3.260871648788452,0.9278970956802368,0.47000000000000003,-0.05,-0.19,250.35
1666742445.49859691,864982924,1,0.67,0.44,3.61,-0.08675885200500488,-0.032798707485198975,-0.010118660517036915,0.002447035163640976,12.652789115905762,-3.2626726627349854,0.9278187155723572,0.47000000000000003,-0.05,-0.19,250.35
1666742445.51864290,865002970,1,0.67,0.44,3.6,-0.08755362033843994,-0.032918788492679596,-0.009860135614871979,0.005486264359205961,12.64829158782959,-3.2654571533203125,0.9278693199157715,0.47000000000000003,-0.05,-0.19,250.35
1666742445.55859184,865042919,1,0.68,0.43,3.6,-0.08942311257123947,-0.03268047422170639,-0.009489244781434536,0.008700728416442871,12.641063690185547,-3.2695770263671875,0.9277443885803223,0.47000000000000003,-0.05,-0.19,250.35
1666742445.59859681,865082924,1,0.68,0.44,3.59,-0.09105093777179718,-0.03175109624862671,-0.009232500568032265,0.008337331935763359,12.634235382080078,-3.2732605934143066,0.927590548992157,0.47000000000000003,-0.05,-0.19,250.35
1666742445.63857484,865122902,1,0.68,0.43,3.59,-0.09348440915346146,-0.03142518177628517,-0.008675931952893734,0.012177952565252781,12.623310089111328,-3.2783865928649902,0.9282197952270508,0.47000000000000003,-0.05,-0.19,250.35
1666742445.67863798,865162965,1,0.68,0.44,3.58,-0.09615521878004074,-0.03149023652076721,-0.00787706021219492,0.016652336344122887,12.611275672912598,-3.283946990966797,0.9288618564605713,0.47000000000000003,-0.05,-0.19,250.35
1666742445.69859290,865182920,1,0.68,0.44,3.58,-0.09681357443332672,-0.031332895159721375,-0.007835717871785164,0.017895422875881195,12.607462882995605,-3.285531759262085,0.9289319515228271,0.47000000000000003,-0.05,-0.19,250.35
1666742445.71864390,865202971,1,0.68,0.44,3.58,-0.09813432395458221,-0.031285155564546585,-0.007518488448113203,0.018474295735359192,12.602066993713379,-3.287897825241089,0.9292227625846863,0.47000000000000003,-0.05,-0.19,250.35
1666742445.75859284,865242920,1,0.68,0.44,3.58,-0.1001599058508873,-0.030995456501841545,-0.007619050797075033,0.016480492427945137,12.593473434448242,-3.2914202213287354,0.9292440414428711,0.47000000000000003,-0.05,-0.19,250.35
1666742445.79859591,865282923,1,0.68,0.44,3.5700000000000003,-0.1022816151380539,-0.030776914209127426,-0.007507832255214453,0.010457242839038372,12.585371017456055,-3.2945823669433594,0.9291202425956726,0.47000000000000003,-0.05,-0.19,250.35
1666742445.83859587,865322923,1,0.68,0.44,3.5700000000000003,-0.10558391362428665,-0.030456731095910072,-0.006961506325751543,0.006167134270071983,12.572426795959473,-3.2999398708343506,0.9291517734527588,0.47000000000000003,-0.05,-0.19,250.35
1666742445.87859201,865362919,1,0.68,0.44,3.56,-0.10891461372375488,-0.03021821565926075,-0.007096517831087112,0.0033760659862309694,12.55809211730957,-3.305769443511963,0.9293084740638733,0.47000000000000003,-0.05,-0.19,250.35
1666742445.89860487,865382932,1,0.68,0.44,3.56,-0.11012273281812668,-0.030093329027295113,-0.007225284818559885,0.002564513823017478,12.553609848022461,-3.3073973655700684,0.9292697906494141,0.47000000000000003,-0.05,-0.19,250.35
1666742445.91863799,865402965,1,0.68,0.44,3.5500000000000003,-0.11153769493103027,-0.03015531413257122,-0.00721191568300128,0.001977047184482217,12.54723072052002,-3.3098604679107666,0.9293407201766968,0.47000000000000003,-0.05,-0.19,250.35
1666742445.95864296,865442970,1,0.68,0.44,3.5500000000000003,-0.1142229214310646,-0.03010069765150547,-0.007281121797859669,0.00010902997746597975,12.537002563476562,-3.313544273376465,0.9290968775749207,0.47000000000000003,-0.05,-0.19,250.35
1666742445.99860692,865482934,1,0.68,0.45,3.54,-0.11640193313360214,-0.03012126125395298,-0.007136601489037275,-0.003917966969311237,12.527413368225098,-3.3168463706970215,0.9287628531455994,0.47000000000000003,-0.05,-0.19,250.35
1666742446.03859186,865522919,1,0.6900000000000001,0.45,3.5300000000000002,-0.11888207495212555,-0.030071234330534935,-0.00691052433103323,-0.0029445646796375513,12.513317108154297,-3.3218674659729004,0.9290668368339539,0.47000000000000003,-0.05,-0.19,250.35
1666742446.07858896,865562916,1,0.6900000000000001,0.44,3.5300000000000002,-0.12209853529930115,-0.02968645468354225,-0.006327650044113398,-0.0007002300699241459,12.497763633728027,-3.327319383621216,0.929119884967804,0.47000000000000003,-0.05,-0.19,250.35
1666742446.09859991,865582927,1,0.6900000000000001,0.44,3.5300000000000002,-0.12318387627601624,-0.02884991094470024,-0.006298963911831379,-0.00026719135348685086,12.492856979370117,-3.3288495540618896,0.929069459438324,0.47000000000000003,-0.05,-0.19,250.35
1666742446.11862087,865602948,1,0.6900000000000001,0.45,3.52,-0.12466436624526978,-0.028497986495494843,-0.006559077184647322,-0.0004470236599445343,12.485878944396973,-3.331148862838745,0.9290974736213684,0.47000000000000003,-0.05,-0.19,250.35
1666742446.15860987,865642937,1,0.6900000000000001,0.45,3.52,-0.12704020738601685,-0.02794724889099598,-0.006278603337705135,-0.000518551969435066,12.474803924560547,-3.334542751312256,0.928981602191925,0.47000000000000003,-0.05,-0.19,250.35
1666742446.19864893,865682976,1,0.6900000000000001,0.44,3.5100000000000002,-0.12919415533542633,-0.027290554717183113,-0.006241290830075741,-0.0018463623709976673,12.464377403259277,-3.3375658988952637,0.9288459420204163,0.47000000000000003,-0.05,-0.19,250.35
1666742446.23857689,865722904,1,0.6900000000000001,0.44,3.5100000000000002,-0.1311703622341156,-0.02736520953476429,-0.006011282093822956,-0.0018567220540717244,12.453805923461914,-3.3412528038024902,0.928949236869812,0.47000000000000003,-0.05,-0.19,250.35
1666742446.27859187,865762919,1,0.6900000000000001,0.44,3.5100000000000002,-0.1311708390712738,-0.027627168223261833,-0.005877375137060881,0.0006776658701710403,12.440776824951172,-3.347623348236084,0.9291889667510986,0.47000000000000003,-0.05,-0.19,250.35
1666742446.29863691,865782964,1,0.6900000000000001,0.44,3.5100000000000002,-0.13136330246925354,-0.027590453624725342,-0.005507934372872114,0.0021693347953259945,12.436382293701172,-3.349350690841675,0.9291872978210449,0.47000000000000003,-0.05,-0.19,250.35
1666742446.31859589,865802923,1,0.6900000000000001,0.44,3.5100000000000002,-0.13130049407482147,-0.027453353628516197,-0.005269758868962526,0.003095424035564065,12.43056869506836,-3.3520617485046387,0.9293035864830017,0.47000000000000003,-0.05,-0.19,250.35
1666742446.35860491,865842932,1,0.6900000000000001,0.44,3.5100000000000002,-0.13163740932941437,-0.027352549135684967,-0.004846407100558281,0.0030021551065146923,12.421111106872559,-3.3560163974761963,0.9291046857833862,0.47000000000000003,-0.05,-0.19,250.35
1666742446.39860296,865882930,1,0.6900000000000001,0.44,3.5,-0.1323879063129425,-0.027160201221704483,-0.005176244769245386,-0.0017838148633018136,12.412181854248047,-3.35957670211792,0.9287775158882141,0.47000000000000003,-0.05,-0.19,250.35
1666742446.43864202,865922969,1,0.6900000000000001,0.44,3.5,-0.13073775172233582,-0.026310594752430916,-0.0047223265282809734,0.0016827136278152466,12.401941299438477,-3.3643312454223633,0.9294961094856262,0.47000000000000003,-0.05,-0.19,250.35
1666742446.47860503,865962932,1,0.6900000000000001,0.43,3.5,-0.12841269373893738,-0.024859845638275146,-0.004350501578301191,0.005724907387048006,12.39132022857666,-3.3694751262664795,0.9298000931739807,0.47000000000000003,-0.05,-0.19,250.35
1666742446.49864197,865982969,1,0.6900000000000001,0.43,3.5,-0.12802213430404663,-0.02460397779941559,-0.004181419033557177,0.006729046814143658,12.38764476776123,-3.3708605766296387,0.9298327565193176,0.47000000000000003,-0.05,-0.19,250.35
1666742446.51858401,866002911,1,0.6900000000000001,0.43,3.5,-0.12720192968845367,-0.024334914982318878,-0.0038282694295048714,0.007307974621653557,12.382908821105957,-3.3730251789093018,0.929976761341095,0.47000000000000003,-0.05,-0.19,250.35
1666742446.55859494,866042922,1,0.6900000000000001,0.43,3.5,-0.12566711008548737,-0.023478711023926735,-0.0034274416975677013,0.006441416218876839,12.375129699707031,-3.3761630058288574,0.9298996925354004,0.47000000000000003,-0.05,-0.19,250.35
1666742446.59863496,866082962,1,0.6900000000000001,0.43,3.5,-0.12485834956169128,-0.022591466084122658,-0.003095790045335889,0.0024281099904328585,12.367955207824707,-3.3789126873016357,0.929729163646698,0.47000000000000003,-0.05,-0.19,250.35
1666742446.63860703,866122934,1,0.7000000000000001,0.43,3.49,-0.12302080541849136,-0.020608514547348022,-0.0027252810541540384,-0.004207567777484655,12.357414245605469,-3.3822035789489746,0.9291329383850098,0.47000000000000003,-0.05,-0.19,250.35
1666742446.67860198,866162929,1,0.7000000000000001,0.43,3.5,-0.12124184519052505,-0.018571827560663223,-0.0029486380517482758,-0.011023003607988358,12.346537590026855,-3.3855769634246826,0.9284695386886597,0.47000000000000003,-0.05,-0.19,250.35
1666742446.69860792,866182935,1,0.7000000000000001,0.43,3.49,-0.12089607119560242,-0.017941774800419807,-0.0026701625902205706,-0.013071377761662006,12.342884063720703,-3.386483907699585,0.9282957911491394,0.47000000000000003,-0.05,-0.19,250.35
1666742446.71859694,866202924,1,0.7000000000000001,0.43,3.49,-0.11984127759933472,-0.01673581451177597,-0.0025882271584123373,-0.014479032717645168,12.338064193725586,-3.387833595275879,0.9280256628990173,0.47000000000000003,-0.05,-0.19,250.35
1666742446.75857592,866242903,1,0.7000000000000001,0.43,3.49,-0.11900436133146286,-0.01444834005087614,-0.0024667419493198395,-0.015888921916484833,12.330253601074219,-3.3897054195404053,0.927528440952301,0.47000000000000003,-0.05,-0.19,250.35
1666742446.79858398,866282911,1,0.7000000000000001,0.43,3.49,-0.1186763197183609,-0.012980177067220211,-0.001824491540901363,-0.01613731123507023,12.322991371154785,-3.391245126724243,0.9270522594451904,0.47000000000000003,-0.05,-0.19,250.35
1666742446.83862901,866322956,1,0.7000000000000001,0.43,3.49,-0.1191246286034584,-0.013243095949292183,-0.0012096348218619823,-0.010666546411812305,12.310132026672363,-3.3967862129211426,0.9273033142089844,0.47000000000000003,-0.05,-0.19,250.35
1666742446.87864304,866362970,1,0.7000000000000001,0.43,3.48,-0.11945841461420059,-0.013695167377591133,-0.0007637595990672708,-0.0064111920073628426,12.29633617401123,-3.4029834270477295,0.9270070791244507,0.47000000000000003,-0.05,-0.19,250.35
1666742446.89862585,866382953,1,0.7000000000000001,0.43,3.48,-0.11947537958621979,-0.0133017897605896,-0.00040339535917155445,-0.005330863408744335,12.291961669921875,-3.4045066833496094,0.9269427061080933,0.47000000000000003,-0.05,-0.19,250.35
1666742446.91859984,866402927,1,0.7000000000000001,0.42,3.48,-0.11963209509849548,-0.01332029514014721,1.287147642869968e-05,-0.004438818898051977,12.285880088806152,-3.407111644744873,0.9268444776535034,0.47000000000000003,-0.05,-0.19,250.35
1666742446.95859289,866442920,1,0.7000000000000001,0.43,3.48,-0.12047488987445831,-0.012872489169239998,0.0002481982228346169,-0.004817099776118994,12.27619457244873,-3.4107606410980225,0.9264240860939026,0.47000000000000003,-0.05,-0.19,250.35
1666742446.99860287,866482930,1,0.7000000000000001,0.43,3.47,-0.12076371908187866,-0.01300512533634901,0.0003854368405882269,-0.008435368537902832,12.26716136932373,-3.4140002727508545,0.9259333610534668,0.47000000000000003,-0.05,-0.19,250.35
1666742447.03860188,866522929,1,0.7000000000000001,0.43,3.47,-0.12170718610286713,-0.009407306089997292,0.00014361560170073062,-0.017211029306054115,12.253412246704102,-3.4152443408966064,0.9246477484703064,0.47000000000000003,-0.05,-0.19,250.35
1666742447.07861900,866562946,1,0.7000000000000001,0.43,3.47,-0.12213960289955139,-0.005299470853060484,0.0001232982613146305,-0.02852500230073929,12.238426208496094,-3.416273832321167,0.9227458834648132,0.47000000000000003,-0.05,-0.19,250.35
1666742447.09859395,866582921,1,0.7000000000000001,0.43,3.46,-0.12230052798986435,-0.004049643408507109,0.00024493387900292873,-0.03321562334895134,12.233757019042969,-3.4164927005767822,0.9223243594169617,0.47000000000000003,-0.05,-0.19,250.35
1666742447.11863589,866602963,1,0.7000000000000001,0.43,3.46,-0.12282327562570572,-0.0020243339240550995,0.00040881280438043177,-0.03600047901272774,12.22715950012207,-3.416743755340576,0.9215388298034668,0.47000000000000003,-0.05,-0.19,250.35
1666742447.15859485,866642922,1,0.7000000000000001,0.43,3.46,-0.12291088700294495,0.0012903083115816116,-5.088629768579267e-05,-0.03946596011519432,12.216727256774902,-3.4168968200683594,0.9202702641487122,0.47000000000000003,-0.05,-0.19,250.35
1666742447.19859481,866682922,1,0.7000000000000001,0.43,3.46,-0.12315946072340012,0.004327080678194761,-0.0001459515478927642,-0.040709033608436584,12.207029342651367,-3.4167580604553223,0.9190468788146973,0.47000000000000003,-0.05,-0.19,250.35
1666742447.23859692,866722924,1,0.7000000000000001,0.43,3.46,-0.12104664742946625,0.005519963335245848,0.0002047010202659294,-0.03355208411812782,12.195347785949707,-3.4201254844665527,0.9187270402908325,0.47000000000000003,-0.05,-0.19,250.35
1666742447.27861500,866762942,1,0.7000000000000001,0.43,3.46,-0.11902815103530884,0.006593800615519285,0.0008364866371266544,-0.024505430832505226,12.182985305786133,-3.423794746398926,0.9179478883743286,0.47000000000000003,-0.05,-0.19,250.35
1666742447.29859781,866782925,1,0.7000000000000001,0.43,3.45,-0.11821815371513367,0.00695281894877553,0.0010395155986770988,-0.02106715925037861,12.178909301757812,-3.424506902694702,0.9177914261817932,0.47000000000000003,-0.05,-0.19,250.35
1666742447.31859803,866802925,1,0.7000000000000001,0.43,3.45,-0.11716219037771225,0.007252619136124849,0.0010362169705331326,-0.018154248595237732,12.17350959777832,-3.4259297847747803,0.9174866080284119,0.47000000000000003,-0.05,-0.19,250.35
1666742447.35860991,866842937,1,0.7000000000000001,0.44,3.45,-0.11583193391561508,0.008183109574019909,0.0006729671149514616,-0.014149846509099007,12.16487979888916,-3.427665948867798,0.9170016646385193,0.47000000000000003,-0.05,-0.19,250.35
1666742447.39859390,866882921,1,0.7000000000000001,0.44,3.45,-0.11472440510988235,0.009721157141029835,0.0007923672674223781,-0.011570530012249947,12.156925201416016,-3.429035186767578,0.9165487885475159,0.47000000000000003,-0.05,-0.19,250.35
1666742447.43859482,866922922,1,0.7000000000000001,0.44,3.45,-0.11247184127569199,0.008261220529675484,0.001400046399794519,-0.003922187723219395,12.14648723602295,-3.435166835784912,0.9169402122497559,0.47000000000000003,-0.05,-0.19,250.35
1666742447.47859883,866962926,1,0.7000000000000001,0.44,3.44,-0.10962790250778198,0.006443174555897713,0.0014370736898854375,0.003955659456551075,12.135581970214844,-3.4423024654388428,0.917241632938385,0.47000000000000003,-0.05,-0.19,250.35
1666742447.49858999,866982917,1,0.7000000000000001,0.44,3.44,-0.10911394655704498,0.006156177259981632,0.0012770160101354122,0.006747512146830559,12.131952285766602,-3.4438388347625732,0.9173286557197571,0.47000000000000003,-0.05,-0.19,250.35
1666742447.51864290,867002970,1,0.7000000000000001,0.44,3.44,-0.10773661732673645,0.005306259263306856,0.00164029560983181,0.009122220799326897,12.127276420593262,-3.4468531608581543,0.9174730181694031,0.47000000000000003,-0.05,-0.19,250.35
1666742447.55865288,867042980,1,0.7000000000000001,0.44,3.44,-0.10614661872386932,0.004417905118316412,0.0018418100662529469,0.010911482386291027,12.119649887084961,-3.4508719444274902,0.9175163507461548,0.47000000000000003,-0.05,-0.19,250.35
1666742447.59861994,867082947,1,0.7000000000000001,0.44,3.44,-0.10451876372098923,0.003418056759983301,0.002370158676058054,0.009297138080000877,12.112701416015625,-3.4544389247894287,0.9175077080726624,0.47000000000000003,-0.05,-0.19,250.35
1666742447.63859487,867122922,1,0.7000000000000001,0.43,3.44,-0.10318134725093842,0.0021916881669312716,0.0025618690997362137,0.006920984014868736,12.1046781539917,-3.4590940475463867,0.9175324440002441,0.47000000000000003,-0.05,-0.19,250.35
1666742447.67861295,867162940,1,0.7000000000000001,0.44,3.44,-0.10168064385652542,-0.00018314702901989222,0.002998282667249441,0.0037156599573791027,12.092400550842285,-3.4681615829467773,0.917269766330719,0.47000000000000003,-0.05,-0.19,250.35
1666742447.69864082,867182968,1,0.7000000000000001,0.44,3.44,-0.10135100781917572,-0.000525734678376466,0.0032891875598579645,0.0020676637068390846,12.08853530883789,-3.470217704772949,0.9172570109367371,0.47000000000000003,-0.05,-0.19,250.35
1666742447.71862292,867202950,1,0.7000000000000001,0.44,3.43,-0.10094645619392395,-0.0015023265732452273,0.0031174623873084784,0.0004580903041642159,12.083198547363281,-3.4740889072418213,0.9171769022941589,0.47000000000000003,-0.05,-0.19,250.35
1666742447.75864387,867242971,1,0.7000000000000001,0.44,3.43,-0.10013935714960098,-0.002372197574004531,0.00317126652225852,-0.001130812568590045,12.074869155883789,-3.4793684482574463,0.9171462655067444,0.47000000000000003,-0.05,-0.19,250.35
1666742447.79864287,867282970,1,0.7000000000000001,0.44,3.43,-0.09993922710418701,-0.0027389656752347946,0.0027797180227935314,-0.0015794251812621951,12.067110061645508,-3.4840598106384277,0.9171607494354248,0.48,-0.05,-0.19,250.35
1666742447.83860803,867322935,1,0.7000000000000001,0.44,3.42,-0.09952686727046967,-0.003812522627413273,0.0027136767748743296,-0.0011557257967069745,12.057982444763184,-3.4896669387817383,0.9171248078346252,0.48,-0.05,-0.19,250.35
1666742447.87859893,867362926,1,0.7000000000000001,0.44,3.42,-0.10068818926811218,-0.006597653031349182,0.0029127011075615883,-0.0032729327213019133,12.04337215423584,-3.499687433242798,0.9166290163993835,0.48,-0.05,-0.19,250.35
1666742447.89863896,867382966,1,0.7000000000000001,0.44,3.42,-0.10090921074151993,-0.006881052628159523,0.002925038570538163,-0.004944872111082077,12.038960456848145,-3.5020265579223633,0.9165560007095337,0.48,-0.05,-0.19,250.35
1666742447.91859102,867402918,1,0.7000000000000001,0.44,3.41,-0.1010400578379631,-0.007853178307414055,0.002877315739169717,-0.006200156640261412,12.032557487487793,-3.506308078765869,0.9163681864738464,0.47000000000000003,-0.05,-0.19,250.35
1666742447.95860982,867442937,1,0.7000000000000001,0.44,3.41,-0.10194287449121475,-0.00843822956085205,0.0034009183291345835,-0.008409732021391392,12.022647857666016,-3.512213945388794,0.9158365726470947,0.48,-0.05,-0.19,250.35
1666742447.99861193,867482939,1,0.7000000000000001,0.44,3.4,-0.10275142639875412,-0.008375715464353561,0.003762990701943636,-0.012657017447054386,12.013443946838379,-3.517475128173828,0.9152565002441406,0.48,-0.05,-0.19,250.35
1666742448.03864884,867522976,1,0.7000000000000001,0.44,3.4,-0.10398385673761368,-0.0090885479003191,0.003877039533108473,-0.015409576706588268,12.002280235290527,-3.523357391357422,0.9147237539291382,0.48,-0.05,-0.19,250.35
1666742448.07860398,867562931,1,0.7000000000000001,0.45,3.39,-0.10863468796014786,-0.009400624781847,0.003960065543651581,-0.020154733210802078,11.98363208770752,-3.5330331325531006,0.9134290814399719,0.48,-0.05,-0.19,250.35
1666742448.09865499,867582982,1,0.7000000000000001,0.45,3.39,-0.10856673121452332,-0.010571069084107876,0.005203458480536938,-0.0214158333837986,11.97828197479248,-3.535311460494995,0.9131823182106018,0.48,-0.05,-0.19,250.35
1666742448.11859894,867602926,1,0.6900000000000001,0.45,3.39,-0.10970795154571533,-0.012596085667610168,0.004995245952159166,-0.023137161508202553,11.970008850097656,-3.5394349098205566,0.9126643538475037,0.48,-0.05,-0.19,250.35
1666742448.15859795,867642925,1,0.6900000000000001,0.45,3.39,-0.11308793723583221,-0.009355113841593266,0.0035491804592311382,-0.026637353003025055,11.957396507263184,-3.545098304748535,0.9117323756217957,0.48,-0.05,-0.19,250.35
1666742448.19864392,867682971,1,0.6900000000000001,0.45,3.39,-0.1135999783873558,-0.013320551253855228,0.003988593816757202,-0.028624190017580986,11.945756912231445,-3.550161361694336,0.9107756614685059,0.48,-0.05,-0.19,250.35
1666742448.23859787,867722925,1,0.6900000000000001,0.45,3.38,-0.11498866230249405,-0.012188488617539406,0.005113753490149975,-0.02838059328496456,11.931306838989258,-3.5579276084899902,0.9098513126373291,0.48,-0.05,-0.19,250.35
1666742448.27864695,867762974,1,0.68,0.45,3.36,-0.11694598942995071,-0.01321099977940321,0.004767836071550846,-0.0272724237293005,11.915602684020996,-3.5667457580566406,0.9087912440299988,0.48,-0.05,-0.19,250.35
1666742448.29860783,867782935,1,0.68,0.45,3.36,-0.11725551635026932,-0.0137430215254426,0.004617687780410051,-0.026314040645956993,11.91084098815918,-3.568845510482788,0.9085961580276489,0.48,-0.05,-0.19,250.35
1666742448.31860185,867802929,1,0.6900000000000001,0.45,3.35,-0.11569630354642868,-0.015125717967748642,0.003655908163636923,-0.025408940389752388,11.903839111328125,-3.5725958347320557,0.9081655144691467,0.48,-0.05,-0.19,250.35
1666742448.35859895,867842926,1,0.6900000000000001,0.45,3.35,-0.11891694366931915,-0.015557411126792431,0.003644627518951893,-0.021985841915011406,11.892995834350586,-3.5778133869171143,0.9074916839599609,0.48,-0.05,-0.19,250.35
1666742448.39859700,867882924,1,0.6900000000000001,0.45,3.36,-0.11674228310585022,-0.01662641391158104,0.00392216956242919,-0.019386518746614456,11.882915496826172,-3.5824787616729736,0.9068676829338074,0.48,-0.05,-0.19,250.35
1666742448.43863082,867922958,1,0.6900000000000001,0.45,3.37,-0.1142716109752655,-0.016834339126944542,0.004558013752102852,-0.011077938601374626,11.874251365661621,-3.5920815467834473,0.9070972204208374,0.48,-0.05,-0.19,250.35
1666742448.47867084,867962998,1,0.68,0.44,3.39,-0.10796989500522614,-0.019441789016127586,0.0033796275965869427,-0.007718208711594343,11.86553955078125,-3.603044033050537,0.906449556350708,0.48,-0.05,-0.19,250.35
1666742448.49860001,867982927,1,0.67,0.44,3.39,-0.1072932556271553,-0.019349779933691025,0.007104678079485893,-0.0035782784689217806,11.862482070922852,-3.605708360671997,0.9063609838485718,0.48,-0.05,-0.19,250.35
1666742448.51858997,868002917,1,0.66,0.43,3.39,-0.10597043484449387,-0.020899759605526924,0.007509612012654543,-0.002956624375656247,11.85871696472168,-3.610372304916382,0.9061273336410522,0.48,-0.05,-0.19,250.35
1666742448.55860591,868042933,1,0.63,0.41000000000000003,3.37,-0.10017910599708557,-0.018095288425683975,0.009821785613894463,-0.0019674792420119047,11.852638244628906,-3.6169755458831787,0.9054920673370361,0.48,-0.05,-0.19,250.35
1666742448.59860396,868082931,1,0.64,0.43,3.36,-0.09990078955888748,-0.025288188830018044,0.009863780811429024,-0.007119216490536928,11.847007751464844,-3.622901678085327,0.9047553539276123,0.48,-0.05,-0.19,250.35
1666742448.63857388,868122901,1,0.65,0.42,3.35,-0.09641335904598236,-0.03201064094901085,0.00668690912425518,-0.015355184674263,11.84010124206543,-3.6348016262054443,0.9039046764373779,0.48,-0.05,-0.19,250.35
1666742448.67867303,868163000,1,0.66,0.42,3.35,-0.09616013616323471,-0.03643306344747543,0.0041009667329490185,-0.022298363968729973,11.833065032958984,-3.648470163345337,0.9026705622673035,0.48,-0.05,-0.19,250.35
1666742448.69859886,868182926,1,0.64,0.43,3.36,-0.09623000770807266,-0.029330186545848846,0.009619399905204773,-0.01843259483575821,11.830504417419434,-3.651970863342285,0.9024752378463745,0.48,-0.05,-0.19,250.35
1666742448.71864581,868202973,1,0.67,0.4,3.37,-0.09418804198503494,-0.023829622194170952,-0.0024156393483281136,-0.030919164419174194,11.827537536621094,-3.6578311920166016,0.9019452929496765,0.48,-0.05,-0.19,250.35
1666742448.75859189,868242919,1,0.72,0.44,3.4,-0.0909050852060318,-0.023126700893044472,0.014554059132933617,-0.016140040010213852,11.822389602661133,-3.6662049293518066,0.9006482362747192,0.48,-0.05,-0.19,250.35
1666742448.79859900,868282926,1,0.64,0.43,3.41,-0.08344200998544693,-0.031246604397892952,-0.000508603872731328,-0.03899475559592247,11.817870140075684,-3.6739110946655273,0.8991990089416504,0.48,-0.05,-0.19,250.35
1666742448.83859992,868322927,1,0.65,0.42,3.42,-0.08139555901288986,-0.026751594617962837,0.024472182616591454,-0.020310433581471443,11.815279006958008,-3.6863186359405518,0.8976252675056458,0.48,-0.05,-0.19,250.35
1666742448.87862182,868362949,1,0.65,0.44,3.41,-0.07166755199432373,-0.043256208300590515,0.004434400703758001,-0.043487757444381714,11.81360149383545,-3.7004716396331787,0.8956218957901001,0.48,-0.05,-0.19,250.35
1666742448.89860201,868382929,1,0.65,0.4,3.41,-0.07371612638235092,-0.03845204785466194,-0.0003440097498241812,-0.0491599440574646,11.8125581741333,-3.7041923999786377,0.8952205181121826,0.48,-0.05,-0.19,250.35
1666742448.91863704,868402964,1,0.6900000000000001,0.45,3.4,-0.056687843054533005,-0.05450587347149849,-0.007241622544825077,-0.05543731153011322,11.811957359313965,-3.710317373275757,0.8943803906440735,0.48,-0.05,-0.19,250.35
1666742448.95864391,868442971,1,0.67,0.42,3.42,-0.05607123300433159,-0.056095823645591736,0.004847425501793623,-0.04284403845667839,11.810729026794434,-3.719209671020508,0.8926519155502319,0.48,-0.05,-0.19,250.35
1666742448.99859786,868482925,1,0.67,0.42,3.43,-0.060729630291461945,-0.049026958644390106,0.010262653231620789,-0.04114174470305443,11.809650421142578,-3.7273166179656982,0.8909103274345398,0.48,-0.05,-0.19,250.35
1666742449.03859997,868522927,1,0.66,0.42,3.44,-0.05490633100271225,-0.04908345639705658,0.004765096120536327,-0.04900280386209488,11.80884075164795,-3.7391912937164307,0.8891525864601135,0.48,-0.05,-0.19,250.35
1666742449.07857990,868562907,1,0.62,0.44,3.45,-0.050915855914354324,-0.05412355437874794,0.0060097272507846355,-0.05391453579068184,11.808815956115723,-3.752484083175659,0.8858908414840698,0.48,-0.05,-0.19,250.35
1666742449.09861088,868582938,1,0.63,0.42,3.45,-0.0487331859767437,-0.048438407480716705,0.0016926958924159408,-0.06229124218225479,11.8084135055542,-3.75608491897583,0.8851956129074097,0.48,-0.05,-0.19,250.35
1666742449.11865592,868602983,1,0.64,0.45,3.45,-0.04269197955727577,-0.0635913610458374,0.00889403373003006,-0.056515153497457504,11.808616638183594,-3.7618658542633057,0.8838082551956177,0.48,-0.05,-0.19,250.35
1666742449.15858793,868642915,1,0.64,0.42,3.44,-0.03335677087306976,-0.061392925679683685,0.004133271053433418,-0.0631290003657341,11.808661460876465,-3.770453453063965,0.8814616203308105,0.48,-0.05,-0.19,250.35
1666742449.19863081,868682958,1,0.66,0.42,3.43,-0.03398629650473595,-0.057077500969171524,-4.589460513670929e-05,-0.07001514732837677,11.808917045593262,-3.7783279418945312,0.8791404962539673,0.48,-0.05,-0.19,250.35
1666742449.23860097,868722928,1,0.65,0.44,3.43,-0.02917693927884102,-0.05932244285941124,0.0022309860214591026,-0.06655418872833252,11.804280281066895,-3.7911670207977295,0.8770480751991272,0.48,-0.05,-0.19,250.35
1666742449.27857399,868762901,1,0.63,0.44,3.45,-0.02330746315419674,-0.06925596296787262,0.0002559458662290126,-0.06982684135437012,11.79949951171875,-3.8056015968322754,0.8735202550888062,0.48,-0.05,-0.19,250.35
1666742449.29864287,868782970,1,0.66,0.43,3.45,-0.026260528713464737,-0.06493085622787476,0.0004920867504552007,-0.07113640010356903,11.798192977905273,-3.8095316886901855,0.8727664351463318,0.48,-0.05,-0.19,250.35
1666742449.31860995,868802937,1,0.64,0.43,3.45,-0.02421564795076847,-0.06473025679588318,-0.006172847934067249,-0.07724721729755402,11.796263694763184,-3.815768003463745,0.8712871670722961,0.48,-0.05,-0.19,250.35
1666742449.35864091,868842968,1,0.66,0.44,3.46,-0.02732645347714424,-0.06416643410921097,0.00029550903127528727,-0.0690915435552597,11.79343032836914,-3.825100898742676,0.8688639998435974,0.48,-0.05,-0.19,250.35
1666742449.39866185,868882989,1,0.64,0.44,3.46,-0.024672111496329308,-0.06393160670995712,-0.002016638172790408,-0.07110686600208282,11.790956497192383,-3.8336286544799805,0.8665079474449158,0.48,-0.05,-0.19,250.35
1666742449.43863392,868922961,1,0.66,0.45,3.46,-0.020703822374343872,-0.06891895830631256,0.0004368805675767362,-0.07521221041679382,11.783770561218262,-3.844684600830078,0.8629093170166016,0.48,-0.05,-0.19,250.35
1666742449.47860789,868962935,1,0.67,0.43,3.45,-0.021548539400100708,-0.07462279498577118,0.005875615868717432,-0.08637873083353043,11.77577018737793,-3.8568320274353027,0.8571222424507141,0.48,-0.05,-0.19,250.35
1666742449.49863291,868982960,1,0.65,0.44,3.44,-0.019119197502732277,-0.06995360553264618,0.0016370703233405948,-0.09954728186130524,11.773752212524414,-3.860386371612549,0.8558234572410583,0.48,-0.05,-0.19,250.35
1666742449.51859999,869002927,1,0.66,0.43,3.44,-0.017530329525470734,-0.07646553963422775,0.005838239565491676,-0.10013949126005173,11.770435333251953,-3.865642547607422,0.8533809185028076,0.48,-0.05,-0.19,250.35
1666742449.55861902,869042946,1,0.63,0.45,3.45,-0.01706673763692379,-0.07553035765886307,-0.002107101259753108,-0.1123129203915596,11.765743255615234,-3.8735363483428955,0.8495699167251587,0.48,-0.05,-0.19,250.35
1666742449.59862900,869082956,1,0.62,0.43,3.46,-0.01217291783541441,-0.07206498086452484,-0.0017080828547477722,-0.11220487207174301,11.761687278747559,-3.8807599544525146,0.8459544777870178,0.48,-0.05,-0.19,250.35
1666742449.63864303,869122970,1,0.6,0.43,3.47,-0.01828824356198311,-0.07289537787437439,-0.008488515391945839,-0.11396337300539017,11.749812126159668,-3.8926665782928467,0.8425692319869995,0.48,-0.05,-0.19,250.35
1666742449.67860985,869162937,1,0.62,0.43,3.48,-0.025823259726166725,-0.07430846244096756,-0.005231346935033798,-0.10224836319684982,11.736210823059082,-3.9058587551116943,0.8384599089622498,0.48,-0.05,-0.19,250.35
1666742449.69864583,869182973,1,0.64,0.44,3.48,-0.02106131613254547,-0.07524184137582779,-0.000611534749623388,-0.09350984543561935,11.732884407043457,-3.909618854522705,0.8375134468078613,0.48,-0.05,-0.19,250.35
1666742449.71860290,869202930,1,0.66,0.45,3.48,-0.02832147106528282,-0.07968152314424515,-0.0011480245739221573,-0.08827626705169678,11.726977348327637,-3.9154093265533447,0.8357976675033569,0.48,-0.05,-0.19,250.35
1666742449.75859785,869242925,1,0.68,0.44,3.47,-0.027528533712029457,-0.07542853057384491,0.002018098719418049,-0.07505183666944504,11.718633651733398,-3.924104928970337,0.8329868316650391,0.48,-0.05,-0.19,250.35
1666742449.79863381,869282961,1,0.64,0.44,3.46,-0.02966318093240261,-0.07328101247549057,-0.0015381751582026482,-0.07249119132757187,11.711007118225098,-3.9320032596588135,0.8303247690200806,0.48,-0.05,-0.19,250.35
1666742449.83864093,869322968,1,0.63,0.46,3.47,-0.036222174763679504,-0.0744534507393837,0.006983510684221983,-0.06042778119444847,11.697187423706055,-3.9412357807159424,0.8274827003479004,0.48,-0.05,-0.19,250.35
1666742449.87860394,869362931,1,0.63,0.47000000000000003,3.47,-0.032674528658390045,-0.0886317566037178,-0.01337419357150793,-0.07701980322599411,11.681344985961914,-3.95104718208313,0.8243061900138855,0.48,-0.05,-0.19,250.35
1666742449.89862990,869382957,1,0.6,0.45,3.48,-0.035642966628074646,-0.06895885616540909,-0.017167475074529648,-0.07861518114805222,11.677424430847168,-3.954127550125122,0.8235465288162231,0.48,-0.05,-0.19,250.35
1666742449.91859794,869402925,1,0.65,0.47000000000000003,3.49,-0.028628939762711525,-0.08882039785385132,-0.013031069189310074,-0.07114926725625992,11.670580863952637,-3.958414077758789,0.82220458984375,0.48,-0.05,-0.19,250.35
1666742449.95860291,869442930,1,0.63,0.44,3.5,-0.035853732377290726,-0.07876117527484894,0.001995038939639926,-0.049241725355386734,11.660855293273926,-3.965136766433716,0.8201332092285156,0.48,-0.05,-0.19,250.35
1666742449.99857688,869482904,1,0.63,0.46,3.5,-0.03974505141377449,-0.07728690654039383,-0.0006331981276161969,-0.04666556790471077,11.65207290649414,-3.971330165863037,0.81822669506073,0.48,-0.05,-0.19,250.35
1666742450.03865004,869522977,1,0.62,0.46,3.49,-0.03377361595630646,-0.0796186625957489,-0.0019473095890134573,-0.039341118186712265,11.64140510559082,-3.982457160949707,0.8169573545455933,0.48,-0.05,-0.19,250.35
1666742450.07868099,869563008,1,0.63,0.45,3.49,-0.035046983510255814,-0.07890478521585464,-0.012227581813931465,-0.041263826191425323,11.629325866699219,-3.994654417037964,0.8152034282684326,0.48,-0.05,-0.19,250.35
1666742450.09861088,869582938,1,0.62,0.46,3.49,-0.03393248841166496,-0.07837080955505371,-0.017874954268336296,-0.04394130781292915,11.62619686126709,-3.9982199668884277,0.8147565126419067,0.48,-0.05,-0.19,250.35
1666742450.11859298,869602920,1,0.61,0.46,3.5,-0.037417974323034286,-0.09029581397771835,-0.0026533054187893867,-0.025735165923833847,11.620988845825195,-4.003536224365234,0.8140383958816528,0.48,-0.05,-0.19,250.35
1666742450.15859890,869642926,1,0.59,0.45,3.52,-0.03729063272476196,-0.08877372741699219,-0.00518357427790761,-0.024765554815530777,11.613471984863281,-4.0117645263671875,0.8126217722892761,0.48,-0.05,-0.19,250.35
1666742450.19858599,869682913,1,0.61,0.47000000000000003,3.52,-0.03781507536768913,-0.08652080595493317,-0.0007498965132981539,-0.021493544802069664,11.606741905212402,-4.019354820251465,0.8112171292304993,0.48,-0.05,-0.19,250.35
1666742450.23866892,869722996,1,0.61,0.45,3.52,-0.039280813187360764,-0.08085566014051437,0.0019041127525269985,-0.019748300313949585,11.598112106323242,-4.029130458831787,0.809966504573822,0.48,-0.05,-0.19,250.35
1666742450.27861786,869762945,1,0.64,0.46,3.5300000000000002,-0.04377743601799011,-0.09724106639623642,-0.0019303198205307126,-0.025743352249264717,11.582086563110352,-4.0464653968811035,0.8080188632011414,0.48,-0.05,-0.19,250.35
1666742450.29859996,869782927,1,0.64,0.44,3.5300000000000002,-0.04342617094516754,-0.09218768030405045,-0.01363012008368969,-0.03893650695681572,11.578024864196777,-4.051309585571289,0.8075332641601562,0.48,-0.05,-0.19,250.35
1666742450.31865001,869802977,1,0.59,0.45,3.54,-0.037779200822114944,-0.08885781466960907,-0.009344804100692272,-0.03517654910683632,11.571159362792969,-4.058867454528809,0.8067148327827454,0.48,-0.05,-0.19,250.35
1666742450.35857296,869842900,1,0.61,0.44,3.5500000000000003,-0.049828171730041504,-0.09347698092460632,-0.016238125041127205,-0.042983461171388626,11.561297416687012,-4.070196628570557,0.8052288293838501,0.48,-0.05,-0.19,250.35
1666742450.39860296,869882930,1,0.62,0.45,3.5500000000000003,-0.04114898666739464,-0.10111105442047119,-0.014582719653844833,-0.04433726891875267,11.552397727966309,-4.080662250518799,0.8036738634109497,0.48,-0.05,-0.19,250.35
1666742450.43860292,869922930,1,0.59,0.46,3.56,-0.04568440467119217,-0.09524670243263245,-0.007102886214852333,-0.03993501514196396,11.536123275756836,-4.095571517944336,0.8020400404930115,0.48,-0.05,-0.19,250.35
1666742450.47861695,869962944,1,0.64,0.46,3.5700000000000003,-0.056205276399850845,-0.10424254089593887,-0.013971617445349693,-0.04913725331425667,11.51761245727539,-4.112147331237793,0.7999626994132996,0.48,-0.05,-0.19,250.35
1666742450.49860287,869982930,1,0.61,0.45,3.58,-0.049919385462999344,-0.10640891641378403,-0.007212428841739893,-0.04321807622909546,11.512804985046387,-4.117071151733398,0.7994545698165894,0.48,-0.05,-0.19,250.35
1666742450.51861095,870002938,1,0.62,0.44,3.58,-0.06166723370552063,-0.09880059957504272,0.0020255213603377342,-0.03360887989401817,11.504725456237793,-4.124348163604736,0.7986141443252563,0.48,-0.05,-0.19,250.35
1666742450.55866694,870042994,1,0.59,0.44,3.6,-0.05476757884025574,-0.10625222325325012,-0.0023059891536831856,-0.0354066900908947,11.49311351776123,-4.1355438232421875,0.7974647283554077,0.48,-0.05,-0.2,250.35
1666742450.59860897,870082936,1,0.6,0.46,3.6,-0.05624260753393173,-0.10174571722745895,-0.010433708317577839,-0.03874313831329346,11.482478141784668,-4.145786762237549,0.7964667677879333,0.48,-0.05,-0.2,250.35
1666742450.63860083,870122928,1,0.58,0.46,3.62,-0.06450467556715012,-0.11117107421159744,-0.004310339689254761,-0.029362762346863747,11.467658996582031,-4.159785270690918,0.7952556610107422,0.48,-0.05,-0.2,250.35
1666742450.67859983,870162927,1,0.6,0.44,3.64,-0.0649024248123169,-0.11147758364677429,-0.009463697671890259,-0.0388500802218914,11.450994491577148,-4.175168037414551,0.7927063703536987,0.48,-0.05,-0.2,250.35
1666742450.69857502,870182902,1,0.6,0.46,3.65,-0.06479551643133163,-0.11011195182800293,-0.008933664299547672,-0.04214182496070862,11.446516036987305,-4.179939270019531,0.792068362236023,0.48,-0.05,-0.2,250.35
1666742450.71865082,870202978,1,0.6,0.46,3.65,-0.06540714204311371,-0.11183464527130127,-0.0027364094275981188,-0.038144223392009735,11.439288139343262,-4.186717987060547,0.7910152077674866,0.48,-0.05,-0.2,250.35
1666742450.75860000,870242927,1,0.62,0.47000000000000003,3.66,-0.06282651424407959,-0.11651280522346497,-0.010364365763962269,-0.049652229994535446,11.428699493408203,-4.197380065917969,0.7890979051589966,0.48,-0.05,-0.2,250.35
1666742450.79864383,870282971,1,0.62,0.45,3.68,-0.06817423552274704,-0.117033950984478,-0.0030234206933528185,-0.04689163714647293,11.419066429138184,-4.207260608673096,0.7871202230453491,0.48,-0.05,-0.2,250.35
1666742450.83860087,870322928,1,0.67,0.47000000000000003,3.68,-0.06910454481840134,-0.11821102350950241,-0.008291914127767086,-0.054977692663669586,11.401705741882324,-4.221131324768066,0.7851024866104126,0.48,-0.05,-0.2,250.35
1666742450.87859893,870362926,1,0.62,0.45,3.68,-0.07502973079681396,-0.11712399125099182,-0.01735718362033367,-0.07275282591581345,11.382105827331543,-4.2363386154174805,0.7812591195106506,0.48,-0.05,-0.2,250.35
1666742450.89865184,870382979,1,0.58,0.46,3.68,-0.07438435405492783,-0.123579241335392,-0.012335355393588543,-0.07334566861391068,11.376805305480957,-4.24104118347168,0.7803139090538025,0.48,-0.05,-0.2,250.35
1666742450.91860199,870402929,1,0.62,0.47000000000000003,3.68,-0.07910648733377457,-0.12007612735033035,-0.0125947380438447,-0.07651488482952118,11.368284225463867,-4.247744560241699,0.7786988019943237,0.48,-0.05,-0.2,250.35
1666742450.95864391,870442971,1,0.58,0.45,3.68,-0.07974682748317719,-0.1225326731801033,-0.012779690325260162,-0.07835951447486877,11.355745315551758,-4.25828742980957,0.776299238204956,0.48,-0.05,-0.2,250.35
1666742450.99866390,870482991,1,0.58,0.46,3.68,-0.07891320437192917,-0.12986189126968384,-0.014577771537005901,-0.07718294113874435,11.34422492980957,-4.268231391906738,0.7741901278495789,0.48,-0.05,-0.2,250.35
1666742451.03860283,870522930,1,0.64,0.46,3.68,-0.0854286402463913,-0.12231289595365524,-0.00016816474089864641,-0.05684518814086914,11.329254150390625,-4.28292179107666,0.772131621837616,0.48,-0.05,-0.2,250.35
1666742451.07860804,870562935,1,0.61,0.45,3.69,-0.08413977175951004,-0.12407674640417099,-0.006150540430098772,-0.05779426172375679,11.312627792358398,-4.299139022827148,0.7694603800773621,0.48,-0.05,-0.2,250.35
1666742451.09860301,870582930,1,0.59,0.45,3.7,-0.08556732535362244,-0.12137284129858017,-0.01479820441454649,-0.0646398663520813,11.307964324951172,-4.304073810577393,0.7687594890594482,0.48,-0.05,-0.2,250.35
1666742451.11865497,870602982,1,0.6,0.45,3.7,-0.08309199661016464,-0.12855544686317444,-0.016475748270750046,-0.06371431797742844,11.30075454711914,-4.311125755310059,0.7676037549972534,0.48,-0.05,-0.2,250.35
1666742451.15857887,870642906,1,0.59,0.46,3.7,-0.08874160796403885,-0.13070090115070343,-0.01126257237046957,-0.055880386382341385,11.289957046508789,-4.322287559509277,0.7652627825737,0.48,-0.05,-0.2,250.35
1666742451.19863892,870682966,1,0.61,0.46,3.71,-0.08594673126935959,-0.13196255266666412,-0.013336889445781708,-0.061268530786037445,11.280118942260742,-4.332625389099121,0.7627920508384705,0.48,-0.05,-0.2,250.35
1666742451.23865104,870722978,1,0.58,0.45,3.72,-0.08861222118139267,-0.13346287608146667,-0.011182439513504505,-0.0644819363951683,11.267784118652344,-4.345937252044678,0.7600072622299194,0.48,-0.05,-0.2,250.35
1666742451.27858186,870762909,1,0.61,0.46,3.72,-0.08743541687726974,-0.13476689159870148,-0.014497919008135796,-0.0738154873251915,11.254429817199707,-4.360123634338379,0.7562880516052246,0.48,-0.05,-0.2,250.35
1666742451.29865098,870782978,1,0.62,0.47000000000000003,3.72,-0.08726741373538971,-0.12948356568813324,-0.008025798946619034,-0.06999196857213974,11.250544548034668,-4.364686965942383,0.7553415894508362,0.48,-0.05,-0.2,250.35
1666742451.31860399,870802931,1,0.61,0.46,3.72,-0.0897928923368454,-0.13236387073993683,-0.011075287126004696,-0.07340137660503387,11.244712829589844,-4.370988368988037,0.7537583708763123,0.48,-0.05,-0.2,250.35
1666742451.35860395,870842931,1,0.59,0.45,3.74,-0.08673297613859177,-0.13033106923103333,-0.01431230828166008,-0.07425124198198318,11.235867500305176,-4.381115436553955,0.7514926791191101,0.48,-0.05,-0.2,250.35
1666742451.39860702,870882934,1,0.58,0.46,3.75,-0.08568685501813889,-0.138879656791687,-0.02244601584970951,-0.07554320245981216,11.227849006652832,-4.390430450439453,0.7494986653327942,0.48,-0.05,-0.2,250.35
1666742451.43861389,870922941,1,0.58,0.46,3.75,-0.08720503002405167,-0.1336159110069275,-0.01996014453470707,-0.07471191138029099,11.212124824523926,-4.400563716888428,0.7462158799171448,0.48,-0.05,-0.2,250.35
1666742451.47866392,870962991,1,0.61,0.46,3.7600000000000002,-0.0927712544798851,-0.13952785730361938,-0.012056240811944008,-0.07404480874538422,11.194721221923828,-4.411106586456299,0.7421209216117859,0.48,-0.05,-0.2,250.35
1666742451.49862981,870982957,1,0.5700000000000001,0.45,3.7600000000000002,-0.0910334512591362,-0.13748985528945923,-0.00406468054279685,-0.06947184354066849,11.189888000488281,-4.414902687072754,0.7410705089569092,0.48,-0.05,-0.2,250.35
1666742451.51860595,871002933,1,0.62,0.44,3.7600000000000002,-0.09231491386890411,-0.132669135928154,-0.016650797799229622,-0.08302990347146988,11.182311058044434,-4.419704914093018,0.7392895817756653,0.48,-0.05,-0.2,250.35
1666742451.55859303,871042920,1,0.6,0.45,3.77,-0.09259135276079178,-0.13239379227161407,-0.012632924132049084,-0.07899047434329987,11.170940399169922,-4.4277215003967285,0.7364075183868408,0.48,-0.05,-0.2,250.35
1666742451.59860897,871082936,1,0.61,0.46,3.77,-0.0961662083864212,-0.13347351551055908,-0.016742710024118423,-0.08219975978136063,11.160562515258789,-4.435156345367432,0.7336056232452393,0.48,-0.05,-0.2,250.35
1666742451.63863587,871122963,1,0.6,0.45,3.7800000000000002,-0.10046058148145676,-0.1320807784795761,-0.015591536648571491,-0.08234994113445282,11.136783599853516,-4.446277141571045,0.7302843928337097,0.48,-0.05,-0.2,250.35
1666742451.67866182,871162989,1,0.58,0.46,3.7800000000000002,-0.10701330751180649,-0.13245944678783417,-0.00814713817089796,-0.08181585371494293,11.109848976135254,-4.458076000213623,0.7253894209861755,0.48,-0.05,-0.2,250.35
1666742451.69857383,871182901,1,0.6,0.46,3.79,-0.10893882811069489,-0.136674165725708,-0.014225444756448269,-0.09204159677028656,11.102642059326172,-4.46206521987915,0.7241368889808655,0.48,-0.05,-0.2,250.35
1666742451.71863699,871202964,1,0.56,0.46,3.79,-0.11350579559803009,-0.13337190449237823,-0.01628410629928112,-0.09571894258260727,11.090853691101074,-4.467377662658691,0.7220324277877808,0.48,-0.05,-0.2,250.35
1666742451.75859880,871242926,1,0.62,0.44,3.8000000000000003,-0.11520276218652725,-0.13668356835842133,-0.012037613429129124,-0.09024419635534286,11.073501586914062,-4.47602653503418,0.7189934253692627,0.48,-0.05,-0.2,250.35
1666742451.79861093,871282938,1,0.62,0.45,3.81,-0.11494959890842438,-0.12876035273075104,-0.004569684155285358,-0.07629142701625824,11.057597160339355,-4.484255790710449,0.7162015438079834,0.48,-0.05,-0.2,250.35
1666742451.83859682,871322924,1,0.5700000000000001,0.46,3.8200000000000003,-0.12368129193782806,-0.12913773953914642,-0.010891294106841087,-0.07284574955701828,11.039704322814941,-4.493342876434326,0.7137874960899353,0.48,-0.05,-0.2,250.35
1666742451.87863684,871362964,1,0.59,0.44,3.8200000000000003,-0.12412198632955551,-0.13548427820205688,-0.01705837994813919,-0.07030367851257324,11.011744499206543,-4.506126880645752,0.7106369733810425,0.48,-0.05,-0.2,250.35
1666742451.89860296,871382930,1,0.5700000000000001,0.45,3.8200000000000003,-0.13242308795452118,-0.12736251950263977,-0.01749119535088539,-0.06768956780433655,11.004026412963867,-4.510446548461914,0.7097492814064026,0.48,-0.05,-0.2,250.35
1666742451.91866302,871402990,1,0.63,0.45,3.83,-0.12900924682617188,-0.13490556180477142,-0.008957401849329472,-0.05552477762103081,10.991686820983887,-4.51615047454834,0.7083796858787537,0.48,-0.05,-0.2,250.35
1666742451.95858192,871442909,1,0.58,0.46,3.8200000000000003,-0.13585388660430908,-0.13009527325630188,-0.024478867650032043,-0.0648810863494873,10.973383903503418,-4.52541971206665,0.7062122821807861,0.48,-0.05,-0.2,250.35
1666742451.99860501,871482932,1,0.55,0.43,3.83,-0.14137014746665955,-0.13615883886814117,-0.02004438266158104,-0.0558440163731575,10.956572532653809,-4.534152507781982,0.7041640281677246,0.48,-0.05,-0.2,250.35
1666742452.03857803,871522905,1,0.58,0.45,3.84,-0.13695229589939117,-0.1387251615524292,-0.01995318941771984,-0.05028224363923073,10.938959121704102,-4.543896198272705,0.702471911907196,0.48,-0.05,-0.2,250.35
1666742452.07862282,871562950,1,0.61,0.45,3.84,-0.13967250287532806,-0.13343872129917145,-0.023385941982269287,-0.044762831181287766,10.914405822753906,-4.557729244232178,0.7009381651878357,0.48,-0.05,-0.2,250.35
1666742452.09860182,871582929,1,0.61,0.45,3.85,-0.14316347241401672,-0.13725648820400238,-0.018787657842040062,-0.03599631041288376,10.907266616821289,-4.5623626708984375,0.7003704905509949,0.48,-0.05,-0.2,250.35
1666742452.11865497,871602982,1,0.55,0.44,3.85,-0.14853741228580475,-0.1380818635225296,-0.016774436458945274,-0.030269606038928032,10.896567344665527,-4.568438529968262,0.6997238993644714,0.48,-0.05,-0.2,250.35
1666742452.15864801,871642975,1,0.6,0.44,3.85,-0.1462319940328598,-0.13843539357185364,-0.013050000183284283,-0.0190997626632452,10.880126953125,-4.578474521636963,0.6988832354545593,0.48,-0.05,-0.2,250.35
1666742452.19861603,871682943,1,0.56,0.44,3.85,-0.14793507754802704,-0.13630738854408264,-0.01850065588951111,-0.015634866431355476,10.865030288696289,-4.587780475616455,0.6983047723770142,0.48,-0.05,-0.2,250.35
1666742452.23860383,871722931,1,0.58,0.44,3.86,-0.1532008945941925,-0.14021910727024078,-0.014090023934841156,-0.004686983767896891,10.842098236083984,-4.601725101470947,0.6977531909942627,0.48,-0.05,-0.2,250.35
1666742452.27860785,871762935,1,0.5700000000000001,0.43,3.87,-0.15932431817054749,-0.1399296075105667,-0.01399911753833294,-0.003123462898656726,10.816652297973633,-4.616806507110596,0.6968833208084106,0.48,-0.05,-0.2,250.35
1666742452.29860592,871782933,1,0.58,0.43,3.87,-0.15958504378795624,-0.13961577415466309,-0.01899273879826069,-0.008703498169779778,10.809141159057617,-4.621766090393066,0.6965129971504211,0.48,-0.05,-0.2,250.35
1666742452.31861091,871802938,1,0.58,0.43,3.87,-0.15910065174102783,-0.14572010934352875,-0.025965038686990738,-0.016486112028360367,10.798022270202637,-4.628412246704102,0.69612717628479,0.48,-0.05,-0.2,250.35
1666742452.35863781,871842965,1,0.56,0.42,3.88,-0.16354411840438843,-0.14171944558620453,-0.026083631440997124,-0.018632294610142708,10.780783653259277,-4.639334201812744,0.6953568458557129,0.48,-0.05,-0.2,250.35
1666742452.39861298,871882940,1,0.58,0.43,3.89,-0.16204123198986053,-0.14105139672756195,-0.0243509691208601,-0.019319826737046242,10.764922142028809,-4.649477481842041,0.6945773959159851,0.48,-0.05,-0.2,250.35
1666742452.43860197,871922929,1,0.58,0.45,3.89,-0.1675647497177124,-0.14647726714611053,-0.013212536461651325,-0.0096279950812459,10.748034477233887,-4.660273551940918,0.6939117908477783,0.48,-0.05,-0.2,250.35
1666742452.47860098,871962928,1,0.6,0.43,3.89,-0.17467670142650604,-0.1418466418981552,-0.015422694385051727,-0.016538534313440323,10.724376678466797,-4.67484188079834,0.6924843192100525,0.48,-0.05,-0.2,250.35
1666742452.49864984,871982977,1,0.56,0.43,3.88,-0.16712890565395355,-0.14831294119358063,-0.011416266672313213,-0.015836521983146667,10.717145919799805,-4.679734230041504,0.6919983625411987,0.48,-0.05,-0.2,250.35
1666742452.51860595,872002933,1,0.54,0.41000000000000003,3.88,-0.17556101083755493,-0.14189596474170685,-0.01229610200971365,-0.01920779049396515,10.706809043884277,-4.686127185821533,0.691394031047821,0.48,-0.05,-0.2,250.35
1666742452.55865192,872042979,1,0.56,0.42,3.88,-0.17192241549491882,-0.14979617297649384,-0.01409417949616909,-0.025789890438318253,10.69058609008789,-4.696699619293213,0.6900067925453186,0.48,-0.05,-0.2,250.35
1666742452.59861493,872082942,1,0.58,0.42,3.89,-0.16856680810451508,-0.14593471586704254,-0.014938696287572384,-0.03273767605423927,10.675448417663574,-4.706567764282227,0.6885559558868408,0.48,-0.05,-0.2,250.35
1666742452.63860989,872122937,1,0.58,0.44,3.89,-0.18028517067432404,-0.14885027706623077,-0.014197902753949165,-0.03382498770952225,10.651731491088867,-4.719407081604004,0.6874299645423889,0.48,-0.05,-0.2,250.35
1666742452.67859888,872162926,1,0.58,0.44,3.89,-0.19026950001716614,-0.13881655037403107,-0.018097806721925735,-0.04323273524641991,10.625561714172363,-4.733200550079346,0.6849737167358398,0.48,-0.05,-0.2,250.35
1666742452.69861102,872182938,1,0.5700000000000001,0.43,3.89,-0.1805924028158188,-0.1523270457983017,-0.018179195001721382,-0.04699128493666649,10.617685317993164,-4.737812042236328,0.6842660903930664,0.48,-0.05,-0.2,250.35
1666742452.71857595,872202903,1,0.56,0.42,3.89,-0.19176217913627625,-0.1432260274887085,-0.014719666913151741,-0.04588455334305763,10.606252670288086,-4.74382209777832,0.6832259893417358,0.48,-0.05,-0.2,250.35
1666742452.75860000,872242927,1,0.55,0.4,3.89,-0.18672475218772888,-0.14841927587985992,-0.010888852179050446,-0.046345897018909454,10.58823013305664,-4.7539496421813965,0.6811091899871826,0.48,-0.05,-0.2,250.35
1666742452.79863691,872282964,1,0.5700000000000001,0.4,3.88,-0.18725724518299103,-0.1457250565290451,-0.01514155138283968,-0.05623096600174904,10.571681022644043,-4.7632880210876465,0.678970217704773,0.48,-0.05,-0.2,250.35
1666742452.83865094,872322978,1,0.56,0.42,3.88,-0.19037359952926636,-0.15424375236034393,-0.016265517100691795,-0.05778960511088371,10.554315567016602,-4.778778076171875,0.6772371530532837,0.48,-0.05,-0.2,250.35
1666742452.87861991,872362947,1,0.5700000000000001,0.42,3.88,-0.19186225533485413,-0.14758515357971191,-0.011358194053173065,-0.048708122223615646,10.535938262939453,-4.795377254486084,0.6753904819488525,0.48,-0.05,-0.2,250.35
1666742452.89863682,872382964,1,0.55,0.4,3.88,-0.19490531086921692,-0.1543595939874649,-0.013332133181393147,-0.04823142662644386,10.529805183410645,-4.800668716430664,0.6748294234275818,0.48,-0.05,-0.2,250.35
1666742452.91860795,872402935,1,0.55,0.4,3.88,-0.19620950520038605,-0.15190963447093964,-0.015996389091014862,-0.04783254116773605,10.521566390991211,-4.8080220222473145,0.6740254163742065,0.48,-0.05,-0.2,250.35
1666742452.95857382,872442901,1,0.55,0.4,3.89,-0.19538627564907074,-0.15057632327079773,-0.021516995504498482,-0.048089999705553055,10.508026123046875,-4.8199663162231445,0.6725253462791443,0.48,-0.05,-0.2,250.35
1666742452.99864292,872482970,1,0.55,0.4,3.89,-0.19562944769859314,-0.1532314419746399,-0.011866034008562565,-0.03544571250677109,10.495500564575195,-4.831003665924072,0.671103298664093,0.48,-0.05,-0.2,250.35
1666742453.03864384,872522971,1,0.56,0.42,3.89,-0.19447658956050873,-0.16230271756649017,-0.018001999706029892,-0.04168589413166046,10.47633171081543,-4.843325138092041,0.6693336367607117,0.48,-0.05,-0.2,250.35
1666742453.07864404,872562971,1,0.58,0.41000000000000003,3.89,-0.1992740035057068,-0.15913350880146027,-0.018674857914447784,-0.04439136013388634,10.45557975769043,-4.8564958572387695,0.6672137975692749,0.48,-0.05,-0.2,250.35
1666742453.09859896,872582926,1,0.56,0.38,3.89,-0.19360896944999695,-0.15052738785743713,-0.01844090409576893,-0.044973865151405334,10.448945999145508,-4.861053943634033,0.6665899753570557,0.48,-0.05,-0.2,250.35
1666742453.11860800,872602935,1,0.5700000000000001,0.42,3.88,-0.19991861283779144,-0.15773548185825348,-0.020302198827266693,-0.046829719096422195,10.43970012664795,-4.866983413696289,0.6656694412231445,0.48,-0.05,-0.2,250.35
1666742453.15860081,872642928,1,0.55,0.4,3.89,-0.20182980597019196,-0.1498105376958847,-0.009452108293771744,-0.03412413224577904,10.424910545349121,-4.876826286315918,0.6643018126487732,0.48,-0.05,-0.2,250.35
1666742453.19858003,872682907,1,0.56,0.4,3.9,-0.20142492651939392,-0.15034650266170502,-0.012328701093792915,-0.032991375774145126,10.411051750183105,-4.886063098907471,0.6630801558494568,0.48,-0.05,-0.2,250.35
1666742453.23863602,872722963,1,0.5700000000000001,0.4,3.91,-0.20454531908035278,-0.15359221398830414,-0.014109864830970764,-0.03229305520653725,10.396020889282227,-4.896549224853516,0.6616132259368896,0.48,-0.05,-0.2,250.35
1666742453.27860594,872762933,1,0.58,0.39,3.92,-0.204191654920578,-0.1573483645915985,-0.017455413937568665,-0.033646952360868454,10.380136489868164,-4.90747594833374,0.660184919834137,0.48,-0.05,-0.2,250.35
1666742453.29860401,872782931,1,0.58,0.39,3.92,-0.2027449756860733,-0.1516060084104538,-0.01594555750489235,-0.031167836859822273,10.37449836730957,-4.911553382873535,0.6596828103065491,0.48,-0.05,-0.2,250.35
1666742453.31861281,872802940,1,0.59,0.39,3.92,-0.20249614119529724,-0.15866601467132568,-0.016077211126685143,-0.0300168264657259,10.367291450500488,-4.916574478149414,0.6590411067008972,0.48,-0.05,-0.2,250.35
1666742453.35860395,872842931,1,0.5700000000000001,0.43,3.91,-0.2057429999113083,-0.15175193548202515,-0.024331169202923775,-0.03377724811434746,10.355119705200195,-4.925157070159912,0.6584620475769043,0.48,-0.05,-0.2,250.35
1666742453.39860702,872882934,1,0.56,0.5,3.92,-0.21906696259975433,-0.1541709303855896,-0.022020692005753517,-0.02232632227241993,10.343409538269043,-4.93334436416626,0.6580450534820557,0.48,-0.05,-0.2,250.35
1666742453.43857384,872922901,1,0.58,0.62,3.94,-0.23694472014904022,-0.15689347684383392,-0.02478189207613468,-0.01451785210520029,10.327735900878906,-4.943424224853516,0.6579772233963013,0.48,-0.05,-0.2,250.35
1666742453.47864199,872962969,1,0.58,0.76,3.96,-0.25571584701538086,-0.1625414341688156,-0.017511319369077682,0.0016045492375269532,10.3108549118042,-4.953971862792969,0.6579720973968506,0.48,-0.05,-0.2,250.35
1666742453.49860191,872982929,1,0.62,0.84,3.96,-0.26499825716018677,-0.16028110682964325,-0.026141684502363205,-0.0038321739993989468,10.304075241088867,-4.958063125610352,0.6577491760253906,0.48,-0.05,-0.2,250.35
1666742453.51864791,873002975,1,0.62,0.89,3.96,-0.27390724420547485,-0.1540156751871109,-0.017860764637589455,0.006436453666538,10.295734405517578,-4.963015079498291,0.6577160954475403,0.48,-0.05,-0.2,250.35
1666742453.55859590,873042923,1,0.63,0.96,3.97,-0.2684338688850403,-0.1576056033372879,-0.01625804603099823,0.010494964197278023,10.281262397766113,-4.971485137939453,0.658015787601471,0.48,-0.05,-0.2,250.35
1666742453.59860396,873082931,1,0.5700000000000001,0.9400000000000001,3.97,-0.23436057567596436,-0.150478795170784,-0.010191927663981915,0.019791802391409874,10.268107414245605,-4.979441165924072,0.6583280563354492,0.48,-0.05,-0.2,250.35
1666742453.63860703,873122934,1,0.53,0.92,4.01,-0.18695680797100067,-0.1421177238225937,-0.003715435741469264,0.032154496759176254,10.247751235961914,-4.990523338317871,0.6593225002288818,0.48,-0.05,-0.2,250.35
1666742453.67859292,873162920,1,0.51,0.88,4.0600000000000005,-0.1509232223033905,-0.1480032354593277,-0.020586734637618065,0.023158658295869827,10.227657318115234,-5.002092361450195,0.6610725522041321,0.48,-0.05,-0.21,250.35
1666742453.69860387,873182931,1,0.52,0.78,4.09,-0.1315537393093109,-0.14322307705879211,-0.016411712393164635,0.030896320939064026,10.221842765808105,-5.00633430480957,0.6613146662712097,0.48,-0.05,-0.21,250.35
1666742453.71864486,873202972,1,0.49,0.67,4.1,-0.12444998323917389,-0.14429014921188354,-0.009521127678453922,0.03942292183637619,10.213886260986328,-5.011563777923584,0.662032425403595,0.48,-0.05,-0.21,250.35
1666742453.75863600,873242963,1,0.54,0.47000000000000003,4.13,-0.10159711539745331,-0.15523962676525116,-0.010087106376886368,0.03964589908719063,10.20219898223877,-5.0207695960998535,0.6628766655921936,0.48,-0.05,-0.21,250.35
1666742453.79863596,873282963,1,0.51,0.3,4.13,-0.10345500707626343,-0.1553610861301422,-0.014074878767132759,0.03407207503914833,10.191933631896973,-5.029452323913574,0.663759708404541,0.48,-0.05,-0.21,250.35
1666742453.83860397,873322931,1,0.5,0.19,4.14,-0.13042528927326202,-0.1469898223876953,-0.022490771487355232,0.026189463213086128,10.177595138549805,-5.0418243408203125,0.6647981405258179,0.48,-0.05,-0.21,250.35
1666742453.87859988,873362927,1,0.54,0.07,4.12,-0.18586483597755432,-0.14909853041172028,-0.010658481158316135,0.04135312885046005,10.160385131835938,-5.054661273956299,0.6666730642318726,0.48,-0.05,-0.21,250.35
1666742453.89860392,873382931,1,0.54,0.05,4.13,-0.20409123599529266,-0.16108959913253784,-0.016090869903564453,0.03780628740787506,10.153999328613281,-5.059357166290283,0.6670143604278564,0.48,-0.05,-0.21,250.35
1666742453.91863799,873402965,1,0.55,0.06,4.13,-0.23403623700141907,-0.16011077165603638,-0.010711324401199818,0.043322548270225525,10.145246505737305,-5.0652899742126465,0.667859673500061,0.48,-0.05,-0.21,250.35
1666742453.95860386,873442931,1,0.53,0.17,4.15,-0.26476386189460754,-0.150394007563591,-0.012996110133826733,0.04017617180943489,10.129314422607422,-5.07520055770874,0.6691432595252991,0.48,-0.05,-0.2,250.35
1666742453.99865103,873482978,1,0.48,0.37,4.16,-0.30159953236579895,-0.16830231249332428,-0.010192633606493473,0.04125446081161499,10.113036155700684,-5.084860324859619,0.6703121662139893,0.48,-0.05,-0.2,250.35
1666742454.03860283,873522930,1,0.54,0.49,4.18,-0.3154822587966919,-0.15078982710838318,-0.02055543102324009,0.034231968224048615,10.089204788208008,-5.0943379402160645,0.6722787618637085,0.48,-0.05,-0.2,250.35
1666742454.07861185,873562939,1,0.53,0.54,4.17,-0.29198402166366577,-0.1679966300725937,-0.015248879790306091,0.04806626960635185,10.06460189819336,-5.104242324829102,0.6753095984458923,0.48,-0.05,-0.2,250.35
1666742454.09864092,873582968,1,0.53,0.6,4.18,-0.26927584409713745,-0.16104675829410553,-0.013494105078279972,0.05441781133413315,10.056106567382812,-5.108361721038818,0.6758862733840942,0.48,-0.05,-0.2,250.35
