timestamp,TimeUS,DesRoll,Roll,DesPitch,Pitch,DesYaw,Yaw,ErrRP,ErrYaw,AEKF
1680042508.38058209,141765255,0.0,-0.87,0.0,-0.18,331.31,331.32,0.0,0.0,3
1680042508.48062611,141865299,0.0,-0.87,0.0,-0.18,331.31,331.32,0.0,0.0,3
1680042508.58058023,141965253,0.0,-0.86,0.0,-0.18,331.31,331.32,0.0,0.0,3
1680042508.68066311,142065336,0.0,-0.86,0.0,-0.18,331.32,331.33,0.0,0.0,3
1680042508.78059316,142165266,0.0,-0.87,0.0,-0.18,331.32,331.33,0.0,0.0,3
1680042508.88052607,142265199,0.0,-0.87,0.0,-0.18,331.32,331.33,0.0,0.0,3
1680042508.98039913,142365072,0.0,-0.87,0.0,-0.18,331.32,331.33,0.0,0.0,3
1680042509.08037305,142465046,0.0,-0.87,0.0,-0.17,331.32,331.33,0.0,0.01,3
1680042509.18040013,142565073,0.0,-0.87,0.0,-0.17,331.33,331.34000000000003,0.0,0.0,3
1680042509.28061318,142665286,0.0,-0.87,0.0,-0.17,331.33,331.34000000000003,0.0,0.01,3
1680042509.38069701,142765370,0.0,-0.86,0.0,-0.17,331.33,331.34000000000003,0.0,0.0,3
1680042509.48021913,142864892,0.0,-0.87,0.0,-0.17,331.33,331.34000000000003,0.0,0.0,3
1680042509.58032608,142964999,0.0,-0.87,0.0,-0.17,331.33,331.34000000000003,0.0,0.0,3
1680042509.68053913,143065212,0.0,-0.87,0.0,-0.17,331.33,331.34000000000003,0.0,0.0,3
1680042509.78058720,143165260,0.0,-0.87,0.0,-0.17,331.34000000000003,331.35,0.0,0.0,3
1680042509.88064814,143265321,0.0,-0.87,0.0,-0.17,331.34000000000003,331.35,0.0,0.0,3
1680042509.98064613,143365319,0.0,-0.86,0.0,-0.16,331.34000000000003,331.35,0.0,0.0,3
1680042510.08063507,143465308,0.0,-0.86,0.0,-0.16,331.34000000000003,331.35,0.0,0.0,3
1680042510.18060517,143565278,0.0,-0.86,0.0,-0.16,331.34000000000003,331.35,0.0,0.0,3
1680042510.28078604,143665459,0.0,-0.86,0.0,-0.16,331.34000000000003,331.35,0.0,0.0,3
1680042510.38063002,143765303,0.0,-0.86,0.0,-0.16,331.34000000000003,331.35,0.0,0.0,3
1680042510.48073316,143865406,0.0,-0.86,0.0,-0.16,331.34000000000003,331.35,0.0,0.0,3
1680042510.58053422,143965207,0.0,-0.86,0.0,-0.17,331.34000000000003,331.35,0.0,0.0,3
1680042510.68057513,144065248,0.0,-0.86,0.0,-0.17,331.34000000000003,331.35,0.0,0.0,3
1680042510.78054810,144165221,0.0,-0.86,0.0,-0.17,331.34000000000003,331.35,0.0,0.0,3
1680042510.88066411,144265337,0.0,-0.86,0.0,-0.17,331.34000000000003,331.35,0.0,0.0,3
1680042510.98062706,144365300,0.0,-0.86,0.0,-0.17,331.34000000000003,331.35,0.0,0.0,3
1680042511.08057714,144465250,0.0,-0.85,0.0,-0.17,331.34000000000003,331.35,0.0,0.0,3
1680042511.18077803,144565451,0.0,-0.85,0.0,-0.17,331.34000000000003,331.35,0.0,0.0,3
1680042511.28024602,144664919,0.0,-0.85,0.0,-0.17,331.34000000000003,331.35,0.0,0.0,3
1680042511.38047314,144765146,0.0,-0.84,0.0,-0.17,331.34000000000003,331.35,0.0,0.0,3
1680042511.48032713,144865000,0.0,-0.84,0.0,-0.17,331.34000000000003,331.35,0.0,0.0,3
1680042511.58037114,144965044,0.0,-0.84,0.0,-0.17,331.34000000000003,331.35,0.0,0.0,3
1680042511.68036222,145065035,0.0,-0.84,0.0,-0.16,331.35,331.36,0.0,0.0,3
1680042511.78038120,145165054,0.0,-0.84,0.0,-0.16,331.35,331.36,0.0,0.0,3
1680042511.88050604,145265179,0.0,-0.8300000000000001,0.0,-0.16,331.35,331.36,0.0,0.0,3
1680042511.98043418,145365107,0.0,-0.8300000000000001,0.0,-0.16,331.35,331.36,0.0,0.01,3
1680042512.08029318,145464966,0.0,-0.8300000000000001,0.0,-0.16,331.35,331.36,0.0,0.0,3
1680042512.18023515,145564908,0.0,-0.8300000000000001,0.0,-0.16,331.35,331.36,0.0,0.0,3
1680042512.28066516,145665338,0.0,-0.8200000000000001,0.0,-0.16,331.36,331.37,0.0,0.0,3
1680042512.38064408,145765317,0.0,-0.8200000000000001,0.0,-0.17,331.36,331.37,0.0,0.0,3
1680042512.48066401,145865337,0.0,-0.8200000000000001,0.0,-0.17,331.36,331.37,0.0,0.0,3
1680042512.58070803,145965381,0.0,-0.81,0.0,-0.16,331.36,331.37,0.0,0.0,3
1680042512.68061423,146065287,0.0,-0.81,0.0,-0.16,331.36,331.37,0.0,0.0,3
1680042512.78061819,146165291,0.0,-0.81,0.0,-0.16,331.36,331.37,0.0,0.01,3
1680042512.88068914,146265362,0.0,-0.81,0.0,-0.16,331.36,331.37,0.0,0.01,3
1680042512.98086309,146365536,0.0,-0.8,0.0,-0.16,331.36,331.37,0.0,0.0,3
1680042513.08059216,146465265,0.0,-0.8,0.0,-0.16,331.36,331.37,0.0,0.0,3
1680042513.18032718,146565000,0.0,-0.8,0.0,-0.16,331.36,331.37,0.0,0.01,3
1680042513.28030515,146664978,0.0,-0.79,0.0,-0.16,331.36,331.37,0.0,0.01,3
1680042513.38049912,146765172,0.0,-0.8,0.0,-0.16,331.36,331.37,0.0,0.01,3
1680042513.48034215,146865015,0.0,-0.8,0.0,-0.16,331.36,331.37,0.0,0.01,3
1680042513.58039212,146965065,0.0,-0.79,0.0,-0.16,331.36,331.37,0.0,0.01,3
1680042513.68061614,147065289,0.0,-0.79,0.0,-0.17,331.35,331.36,0.0,0.01,3
1680042513.78061008,147165283,0.0,-0.78,0.0,-0.17,331.35,331.36,0.0,0.01,3
1680042513.88069701,147265370,0.0,-0.78,0.0,-0.17,331.35,331.36,0.0,0.01,3
1680042513.98037720,147365050,0.0,-0.78,0.0,-0.17,331.35,331.36,0.0,0.01,3
1680042514.08055115,147465224,0.0,-0.78,0.0,-0.18,331.34000000000003,331.35,0.0,0.01,3
1680042514.18055320,147565226,0.0,-0.78,0.0,-0.18,331.35,331.36,0.0,0.01,3
1680042514.28059220,147665265,0.0,-0.78,0.0,-0.18,331.35,331.36,0.0,0.01,3
1680042514.38065124,147765324,0.0,-0.77,0.0,-0.17,331.35,331.35,0.0,0.01,3
1680042514.48082805,147865501,0.0,-0.77,0.0,-0.17,331.35,331.36,0.0,0.0,3
1680042514.58075809,147965431,0.0,-0.77,0.0,-0.17,331.35,331.36,0.0,0.0,3
1680042514.68045115,148065124,0.0,-0.77,0.0,-0.17,331.35,331.36,0.0,0.01,3
1680042514.78029609,148164969,0.0,-0.76,0.0,-0.17,331.35,331.36,0.0,0.0,3
1680042514.88038921,148265062,0.0,-0.76,0.0,-0.16,331.36,331.37,0.0,0.0,3
1680042514.98044801,148365121,0.0,-0.76,0.0,-0.17,331.36,331.37,0.0,0.0,3
1680042515.08025503,148464928,0.0,-0.76,0.0,-0.17,331.36,331.37,0.0,0.0,3
1680042515.18070912,148565382,0.0,-0.76,0.0,-0.16,331.36,331.37,0.0,0.0,3
1680042515.28056908,148665242,0.0,-0.76,0.0,-0.16,331.36,331.37,0.0,0.0,3
1680042515.38051009,148765183,0.0,-0.76,0.0,-0.16,331.36,331.37,0.0,0.0,3
1680042515.48038411,148865057,0.0,-0.76,0.0,-0.17,331.36,331.37,0.0,0.0,3
1680042515.58040309,148965076,0.0,-0.76,0.0,-0.16,331.36,331.37,0.0,0.01,3
1680042515.68030119,149064974,0.0,-0.75,0.0,-0.16,331.37,331.38,0.0,0.01,3
1680042515.78025508,149164928,0.0,-0.75,0.0,-0.15,331.37,331.38,0.0,0.01,3
1680042515.88047218,149265145,0.0,-0.75,0.0,-0.15,331.36,331.37,0.0,0.01,3
1680042515.98035312,149365026,0.0,-0.75,0.0,-0.15,331.36,331.37,0.0,0.0,3
1680042516.08035111,149465024,0.0,-0.75,0.0,-0.15,331.36,331.37,0.0,0.0,3
1680042516.18035221,149565025,0.0,-0.75,0.0,-0.15,331.36,331.37,0.0,0.01,3
1680042516.28039312,149665066,0.0,-0.76,0.0,-0.15,331.36,331.36,0.0,0.0,3
1680042516.38068509,149765358,0.0,-0.76,0.0,-0.15,331.36,331.37,0.0,0.0,3
1680042516.48038101,149865054,0.0,-0.76,0.0,-0.15,331.36,331.37,0.0,0.0,3
1680042516.58030510,149964978,0.0,-0.76,0.0,-0.15,331.36,331.37,0.0,0.0,3
1680042516.68026614,150064939,0.0,-0.75,0.0,-0.15,331.36,331.37,0.0,0.0,3
1680042516.78045011,150165123,0.0,-0.75,0.0,-0.15,331.36,331.37,0.0,0.0,3
1680042516.88038301,150265056,0.0,-0.75,0.0,-0.15,331.36,331.37,0.0,0.0,3
1680042516.98073816,150365411,0.0,-0.75,0.0,-0.15,331.36,331.37,0.0,0.0,3
1680042517.08056903,150465242,0.0,-0.75,0.0,-0.14,331.36,331.37,0.0,0.01,3
1680042517.18039322,150565066,0.0,-0.75,0.0,-0.14,331.36,331.37,0.0,0.01,3
1680042517.28040814,150665081,0.0,-0.75,0.0,-0.14,331.36,331.37,0.0,0.01,3
1680042517.38050604,150765179,0.0,-0.74,0.0,-0.14,331.37,331.38,0.0,0.0,3
1680042517.48029923,150864972,0.0,-0.75,0.0,-0.14,331.37,331.38,0.0,0.0,3
1680042517.58039308,150965066,0.0,-0.75,0.0,-0.14,331.37,331.38,0.0,0.01,3
1680042517.68029809,151064971,0.0,-0.75,0.0,-0.13,331.38,331.39,0.0,0.0,3
1680042517.78028011,151164953,0.0,-0.75,0.0,-0.13,331.37,331.38,0.0,0.0,3
1680042517.88050508,151265178,0.0,-0.75,0.0,-0.13,331.38,331.39,0.0,0.0,3
1680042517.98066211,151365335,0.0,-0.75,0.0,-0.13,331.38,331.39,0.0,0.0,3
1680042518.08038020,151465053,0.0,-0.75,0.0,-0.13,331.38,331.39,0.0,0.0,3
1680042518.18040514,151565078,0.0,-0.75,0.0,-0.12,331.38,331.39,0.0,0.0,3
1680042518.28039122,151665064,0.0,-0.75,0.0,-0.12,331.38,331.39,0.0,0.01,3
1680042518.38046122,151765134,0.0,-0.75,0.0,-0.12,331.38,331.39,0.0,0.01,3
1680042518.48024201,151864915,0.0,-0.75,0.0,-0.12,331.38,331.39,0.0,0.0,3
1680042518.58033204,151965005,0.0,-0.75,0.0,-0.12,331.38,331.39,0.0,0.0,3
1680042518.68058610,152065259,0.0,-0.75,0.0,-0.11,331.38,331.39,0.0,0.0,3
1680042518.78040314,152165076,0.0,-0.75,0.0,-0.11,331.38,331.39,0.0,0.0,3
1680042518.88083410,152265507,0.0,-0.75,0.0,-0.11,331.38,331.39,0.0,0.0,3
1680042518.98067617,152365349,0.0,-0.75,0.0,-0.11,331.38,331.39,0.0,0.0,3
1680042519.08060408,152465277,0.0,-0.75,0.0,-0.11,331.38,331.39,0.0,0.01,3
1680042519.18064713,152565320,0.0,-0.75,0.0,-0.11,331.38,331.39,0.0,0.01,3
1680042519.28060722,152665280,0.0,-0.75,0.0,-0.11,331.38,331.39,0.0,0.01,3
1680042519.38070703,152765380,0.0,-0.75,0.0,-0.11,331.38,331.39,0.0,0.01,3
1680042519.48093510,152865608,0.0,-0.75,0.0,-0.11,331.38,331.39,0.0,0.01,3
1680042519.58084512,152965518,0.0,-0.75,0.0,-0.11,331.38,331.39,0.0,0.01,3
1680042519.68068123,153065354,0.0,-0.76,0.0,-0.1,331.38,331.39,0.0,0.01,3
1680042519.78057814,153165251,0.0,-0.75,0.0,-0.1,331.38,331.39,0.0,0.0,3
1680042519.88068414,153265357,0.0,-0.75,0.0,-0.1,331.38,331.39,0.0,0.0,3
1680042519.98067307,153365346,0.0,-0.75,0.0,-0.1,331.38,331.39,0.0,0.01,3
1680042520.08061004,153465283,0.0,-0.75,0.0,-0.1,331.38,331.39,0.0,0.01,3
1680042520.18082523,153565498,0.0,-0.75,0.0,-0.1,331.38,331.39,0.0,0.0,3
1680042520.28060222,153665275,0.0,-0.76,0.0,-0.09,331.37,331.38,0.0,0.01,3
1680042520.38076305,153765436,0.0,-0.76,0.0,-0.09,331.38,331.39,0.0,0.01,3
1680042520.48057818,153865251,0.0,-0.76,0.0,-0.09,331.37,331.38,0.0,0.01,3
1680042520.58035517,153965028,0.0,-0.75,0.0,-0.09,331.37,331.38,0.0,0.0,3
1680042520.68054223,154065215,0.0,-0.75,0.0,-0.09,331.37,331.38,0.0,0.0,3
1680042520.78059411,154165267,0.0,-0.75,0.0,-0.09,331.37,331.38,0.0,0.0,3
1680042520.88065004,154265323,0.0,-0.75,0.0,-0.09,331.36,331.37,0.0,0.0,3
1680042520.98090506,154365578,0.0,-0.75,0.0,-0.09,331.36,331.37,0.0,0.0,3
1680042521.08062601,154465299,0.0,-0.74,0.0,-0.08,331.36,331.37,0.0,0.0,3
1680042521.18025923,154564932,0.0,-0.74,0.0,-0.08,331.36,331.37,0.0,0.0,3
1680042521.28032303,154664996,0.0,-0.75,0.0,-0.08,331.36,331.37,0.0,0.0,3
1680042521.38042307,154765096,0.0,-0.75,0.0,-0.08,331.35,331.36,0.0,0.01,3
1680042521.48039412,154865067,0.0,-0.76,0.0,-0.07,331.35,331.36,0.0,0.01,3
1680042521.58035922,154965032,0.0,-0.76,0.0,-0.07,331.35,331.36,0.0,0.01,3
1680042521.68061805,155065291,0.0,-0.77,0.0,-0.08,331.35,331.36,0.0,0.01,3
1680042521.78060913,155165282,0.0,-0.77,0.0,-0.08,331.35,331.36,0.0,0.0,3
1680042521.88044405,155265117,0.0,-0.77,0.0,-0.08,331.34000000000003,331.35,0.0,0.01,3
1680042521.98041916,155365092,0.0,-0.77,0.0,-0.09,331.35,331.36,0.0,0.01,3
1680042522.08024216,155464915,0.0,-0.77,0.0,-0.08,331.36,331.37,0.0,0.01,3
1680042522.18032122,155564994,0.0,-0.78,0.0,-0.08,331.35,331.36,0.0,0.01,3
1680042522.28026509,155664938,0.0,-0.78,0.0,-0.08,331.35,331.36,0.0,0.01,3
1680042522.38051319,155765186,0.0,-0.78,0.0,-0.08,331.35,331.36,0.0,0.01,3
1680042529.48057818,162865251,0.0,-0.89,0.0,-0.05,331.37,331.38,0.0,0.0,3
1680042529.58035612,162965029,0.0,-0.88,0.0,-0.05,331.37,331.38,0.0,0.0,3
1680042529.68064618,163065319,0.0,-0.88,0.0,-0.05,331.37,331.38,0.0,0.0,3
1680042529.78059101,163165264,0.0,-0.88,0.0,-0.05,331.37,331.38,0.0,0.0,3
1680042529.88065004,163265323,0.0,-0.88,0.0,-0.05,331.37,331.38,0.0,0.0,3
1680042529.98065019,163365323,0.0,-0.88,0.0,-0.05,331.37,331.38,0.0,0.0,3
1680042530.08077621,163465449,0.0,-0.88,0.0,-0.05,331.37,331.38,0.0,0.0,3
1680042530.18083405,163565507,0.0,-0.88,0.0,-0.05,331.37,331.38,0.0,0.0,3
1680042530.28029919,163664972,0.0,-0.87,0.0,-0.05,331.37,331.38,0.0,0.0,3
1680042530.38037014,163765043,0.0,-0.87,0.0,-0.05,331.37,331.38,0.0,0.0,3
1680042530.48034406,163865017,0.0,-0.87,0.0,-0.05,331.37,331.38,0.0,0.0,3
1680042530.58033919,163965012,0.0,-0.86,0.0,-0.05,331.37,331.38,0.0,0.0,3
1680042530.68038917,164065062,0.0,-0.86,0.0,-0.05,331.37,331.38,0.0,0.01,3
1680042530.78064322,164165316,0.0,-0.85,0.0,-0.06,331.37,331.38,0.0,0.0,3
1680042530.88070703,164265380,0.0,-0.85,0.0,-0.06,331.37,331.38,0.0,0.0,3
1680042530.98068118,164365354,0.0,-0.84,0.0,-0.06,331.37,331.38,0.0,0.0,3
1680042531.08022714,164464900,0.0,-0.8300000000000001,0.0,-0.06,331.37,331.38,0.01,0.01,3
1680042531.18031907,164564992,0.0,-0.8300000000000001,0.0,-0.06,331.37,331.37,0.01,0.0,3
1680042531.28025603,164664929,0.0,-0.8300000000000001,0.0,-0.06,331.37,331.38,0.0,0.0,3
1680042531.38050103,164765174,0.0,-0.8300000000000001,0.0,-0.06,331.37,331.38,0.0,0.0,3
1680042531.48041511,164865088,0.0,-0.8200000000000001,0.0,-0.06,331.37,331.38,0.01,0.0,3
1680042531.58066106,164965334,0.0,-0.8200000000000001,0.0,-0.06,331.37,331.38,0.01,0.0,3
1680042531.68063307,165065306,0.0,-0.81,0.0,-0.06,331.38,331.39,0.0,0.0,3
1680042531.78039813,165165071,0.0,-0.81,0.0,-0.06,331.38,331.39,0.0,0.0,3
1680042531.88066912,165265342,0.0,-0.8,0.0,-0.05,331.38,331.39,0.0,0.0,3
1680042531.98063421,165365307,0.0,-0.79,0.0,-0.06,331.38,331.39,0.0,0.0,3
1680042532.08056521,165465238,0.0,-0.79,0.0,-0.06,331.38,331.39,0.0,0.01,3
1680042532.18049002,165565163,0.0,-0.78,0.0,-0.06,331.38,331.39,0.0,0.01,3
1680042532.28096104,165665634,0.0,-0.78,0.0,-0.06,331.38,331.39,0.0,0.0,3
1680042532.38099313,165765666,0.0,-0.78,0.0,-0.06,331.38,331.39,0.0,0.0,3
1680042532.48040414,165865077,0.0,-0.78,0.0,-0.06,331.38,331.42,0.0,0.0,3
1680042532.58039117,165965064,0.0,-0.77,0.0,-0.06,331.38,331.39,0.0,0.0,3
1680042532.68040609,166065079,0.0,-0.75,0.0,-0.06,331.38,331.38,0.01,0.0,3
1680042532.78029609,166164969,0.0,-0.74,0.0,-0.06,331.38,331.39,0.01,0.0,3
1680042532.88039708,166265070,0.0,-0.64,0.0,-0.06,331.38,331.36,0.01,0.0,3
1680042532.98072314,166365396,0.0,-0.64,0.0,-0.07,331.38,331.40000000000003,0.01,0.0,3
1680042533.08059812,166465271,0.0,-0.61,0.0,-0.07,331.38,331.40000000000003,0.01,0.0,3
1680042533.18040204,166565075,0.0,-0.64,0.0,-0.07,331.38,331.38,0.01,0.0,3
1680042533.28036809,166665041,0.0,-0.65,0.0,-0.06,331.38,331.42,0.01,0.0,3
1680042533.38051915,166765192,0.0,-0.61,0.0,-0.07,331.38,331.40000000000003,0.01,0.0,3
1680042533.48039603,166865069,0.0,-0.63,0.0,-0.07,331.35,331.40000000000003,0.01,0.0,3
1680042533.58075523,166965428,0.0,-0.58,0.0,-0.07,331.22,331.39,0.01,0.01,3
1680042533.68065810,167065331,0.0,-0.59,0.0,-0.08,331.22,331.37,0.01,0.01,3
1680042533.78033113,167165004,0.0,-0.51,0.05,-0.06,331.15000000000003,331.43,0.01,0.01,3
1680042533.88073707,167265410,0.0,-0.49,0.02,-0.09,331.15000000000003,331.34000000000003,0.01,0.01,3
1680042533.98060822,167365281,0.0,-0.15,0.01,-0.24,331.15000000000003,331.22,0.01,0.02,3
1680042534.08064818,167465321,0.0,0.53,0.0,-0.36,331.15000000000003,331.03000000000003,0.01,0.02,3
1680042534.18057609,167565249,0.0,0.9400000000000001,0.0,-0.54,331.15000000000003,330.8,0.01,0.02,3
1680042534.28082418,167665497,0.0,1.42,0.0,-0.84,331.15000000000003,330.55,0.01,0.02,3
1680042534.38089824,167765571,-0.44,1.56,0.0,-0.76,331.15000000000003,330.29,0.01,0.02,3
1680042534.48039317,167865066,-0.31,1.04,0.0,-0.44,331.15000000000003,329.97,0.03,0.03,3
1680042534.58038807,167965061,-0.16,0.77,0.0,-0.34,331.15000000000003,329.69,0.03,0.03,3
1680042534.68063402,168065307,-0.08,0.9,0.0,-0.31,331.29,329.45,0.05,0.03,3
1680042534.78071117,168165384,-0.04,0.58,0.0,-0.27,332.22,329.25,0.05,0.03,3
1680042534.88068223,168265355,-0.09,0.11,0.0,-0.4,333.86,329.26,0.05,0.03,3
1680042534.98107219,168365745,-0.48,-0.17,0.0,-0.47000000000000003,335.83,329.57,0.05,0.02,3
1680042535.08065319,168465326,-0.42,-0.61,0.0,0.0,338.59000000000003,330.17,0.07,0.03,3
1680042535.18042517,168565098,-0.21,-0.23,0.0,0.27,342.22,331.14,0.07,0.03,3
1680042535.28041005,168665083,-0.11,0.07,0.0,0.15,345.76,332.59000000000003,0.08,0.02,3
1680042535.38052702,168765200,-0.05,-0.12,0.0,0.14,348.47,334.36,0.08,0.03,3
1680042535.48042011,168865093,-0.02,-0.09,0.0,0.21,350.29,336.26,0.07,0.03,3
1680042535.58062005,168965293,-0.01,0.12,0.0,0.29,351.24,338.17,0.07,0.03,3
1680042535.68077612,169065449,0.0,0.0,0.0,0.24,351.3,339.97,0.06,0.04,3
1680042535.78060412,169165277,0.0,-0.08,0.0,0.24,350.49,341.64,0.06,0.04,3
1680042535.88053417,169265207,0.0,0.06,0.0,0.09,349.68,343.08,0.05,0.05,3
1680042535.98041105,169365084,0.0,0.17,0.0,-0.16,349.26,344.45,0.05,0.05,3
1680042536.08039904,169465072,0.0,0.2,0.0,-0.19,348.39,345.71,0.05,0.05,3
1680042536.18043303,169565106,0.0,0.28,0.0,-0.32,348.03000000000003,346.82,0.05,0.05,3
1680042536.28064513,169665318,0.0,0.29,0.0,-0.26,347.93,347.74,0.04,0.04,3
1680042536.38073802,169765411,0.0,-0.03,0.0,-0.21,347.93,348.53000000000003,0.04,0.05,3
1680042536.48024821,169864921,0.0,0.04,0.0,-0.4,347.93,349.16,0.03,0.05,3
1680042536.58031821,169964991,0.0,0.28,0.0,-0.42,347.93,349.67,0.03,0.05,3
1680042536.68056202,170065235,0.0,0.07,0.0,-0.42,347.93,349.98,0.03,0.04,3
1680042536.78066611,170165339,0.0,-0.1,0.0,-0.52,347.93,350.17,0.03,0.04,3
1680042536.88068223,170265355,0.0,-0.09,0.0,-0.41000000000000003,347.93,350.22,0.02,0.03,3
1680042536.98095608,170365629,0.0,-0.03,0.0,-0.15,347.93,350.15000000000003,0.02,0.03,3
1680042537.08064818,170465321,0.03,-0.03,0.0,-0.05,347.93,349.96,0.02,0.02,3
1680042537.18041801,170565091,0.2,0.1,0.0,0.03,347.94,349.71,0.02,0.03,3
1680042537.28040218,170665075,0.73,0.45,-0.22,0.16,348.46,349.37,0.03,0.02,3
1680042537.38042617,170765099,1.16,1.2,-0.38,-0.04,349.78000000000003,349.07,0.03,0.02,3
1680042537.48067617,170865349,2.21,1.79,-0.77,-0.29,351.74,348.94,0.02,0.02,3
1680042537.58031702,170964990,3.04,3.25,-0.47000000000000003,-0.54,353.43,349.16,0.02,0.02,3
1680042537.68072009,171065393,3.42,4.11,-0.24,-0.37,355.57,349.66,0.03,0.03,3
1680042537.78074217,171165415,3.61,3.97,-0.12,0.22,358.58,350.42,0.03,0.02,3
1680042537.88054013,171265213,3.64,3.85,-0.06,0.5700000000000001,2.47,351.54,0.03,0.02,3
1680042537.98049521,171365168,3.41,3.72,-0.03,0.75,7.18,353.12,0.03,0.02,3
1680042538.08040404,171465077,3.34,3.15,-0.01,0.96,11.700000000000001,355.24,0.04,0.02,3
1680042538.18033314,171565006,3.47,3.0700000000000003,0.0,1.1500000000000001,15.34,357.72,0.04,0.02,3
1680042538.28061914,171665292,3.68,3.33,0.0,1.24,18.11,0.33,0.04,0.02,3
1680042538.38076305,171765436,3.79,3.5300000000000002,0.0,1.28,19.990000000000002,2.97,0.04,0.01,3
1680042538.48090219,171865575,3.73,3.5100000000000002,0.0,1.18,21.0,5.5600000000000005,0.04,0.01,3
1680042538.58038616,171965059,3.5,3.52,0.0,0.98,21.12,7.99,0.04,0.01,3
1680042538.68064523,172065318,3.36,2.98,0.0,0.7000000000000001,20.35,10.32,0.04,0.01,3
1680042538.78077507,172165448,3.3200000000000003,2.96,0.0,0.43,18.94,12.35,0.04,0.01,3
1680042538.88071704,172265390,3.5300000000000002,2.85,0.0,0.17,18.17,14.15,0.04,0.02,3
1680042538.98087120,172365544,3.96,3.35,0.0,0.06,18.1,15.82,0.04,0.03,3
1680042539.08065820,172465331,4.76,3.96,0.0,0.07,18.1,17.41,0.04,0.04,3
1680042539.18033719,172565010,5.48,4.94,0.0,0.0,18.1,18.86,0.04,0.07,3
1680042539.28033423,172665007,5.0,5.79,0.0,-0.06,18.1,20.09,0.05,0.09,3
1680042539.38043308,172765106,4.42,4.37,0.0,-0.2,18.1,21.06,0.05,0.11,3
1680042539.48041511,172865088,2.95,3.15,0.0,-0.24,18.1,21.81,0.05,0.09,3
1680042539.58037305,172965046,1.5,1.42,0.0,-0.19,18.35,22.36,0.05,0.1,3
1680042539.68064213,173065315,0.77,-0.55,0.0,0.0,19.0,22.76,0.06,0.09,3
1680042539.78065515,173165328,0.39,-0.8300000000000001,0.0,0.16,19.54,23.13,0.06,0.08,3
1680042539.88060021,173265273,0.2,-0.62,0.0,0.14,20.45,23.43,0.06,0.09,3
1680042539.98047805,173365151,0.1,-0.92,0.0,0.09,21.57,23.71,0.06,0.11,3
1680042540.08055711,173465230,0.05,-0.75,0.0,0.08,22.35,24.01,0.06,0.12,3
1680042540.18063903,173565312,0.02,-0.5700000000000001,0.0,0.02,23.86,24.3,0.06,0.13,3
1680042540.28053308,173665206,0.01,-0.58,0.0,-0.03,26.240000000000002,24.69,0.07,0.15,3
1680042540.38077807,173765451,0.0,-0.37,0.0,-0.17,29.400000000000002,25.330000000000002,0.07,0.16,3
1680042540.48066902,173865342,0.0,-0.11,0.0,-0.22,32.8,26.41,0.07,0.18,3
1680042540.58040404,173965077,0.0,-0.08,0.0,-0.26,36.7,27.91,0.07,0.19,3
1680042540.68041420,174065087,0.0,-0.01,0.0,-0.15,41.32,29.79,0.06,0.21,3
1680042540.78041315,174165086,0.0,0.08,0.0,-0.07,45.68,32.17,0.06,0.22,3
1680042540.88046908,174265142,0.0,0.07,0.0,0.05,49.17,34.88,0.06,0.23,3
1680042540.98071408,174365387,0.0,0.28,0.0,0.13,51.79,37.76,0.06,0.25,3
1680042541.08067608,174465349,0.0,0.19,0.0,0.15,53.52,40.62,0.05,0.27,3
1680042541.18062520,174565298,0.0,0.11,0.0,0.2,54.38,43.43,0.05,0.29,3
1680042541.28038216,174665055,0.0,-0.05,0.0,0.24,54.35,46.09,0.06,0.32,3
1680042541.38043213,174765105,0.0,-0.12,0.0,0.25,53.44,48.63,0.06,0.36,3
1680042541.48039412,174865067,0.0,0.0,0.0,0.32,52.28,50.870000000000005,0.05,0.39,3
1680042541.58040714,174965080,0.0,-0.19,0.0,0.34,51.96,52.85,0.05,0.43,3
1680042541.68065810,175065331,0.0,-0.13,0.0,0.42,51.96,54.58,0.05,0.46,3
1680042541.78065515,175165328,0.0,-0.14,0.0,0.44,51.96,56.120000000000005,0.05,0.48,3
1680042541.88041615,175265089,0.0,-0.19,0.0,0.48,51.96,57.38,0.05,0.52,3
1680042541.98053408,175365207,0.0,-0.24,0.0,0.55,51.96,58.4,0.05,0.54,3
1680042542.08062100,175465294,0.0,-0.13,0.0,0.62,51.96,59.18,0.04,0.55,3
1680042542.18075204,175565425,0.0,-0.04,0.0,0.7000000000000001,51.96,59.75,0.04,0.5700000000000001,3
1680042542.28065920,175665332,0.0,-0.04,0.0,0.76,51.96,60.11,0.04,0.59,3
1680042542.38104820,175765721,0.0,-0.12,0.0,0.76,51.96,60.31,0.04,0.6,3
1680042542.48066211,175865335,0.0,-0.06,0.0,0.72,52.06,60.33,0.04,0.61,3
1680042542.58043909,175965112,0.0,-0.09,0.02,0.66,97.45,104.83,0.04,0.62,3
1680042542.68039513,176065068,0.0,-0.1,0.01,0.63,98.83,104.63,0.04,0.63,3
1680042542.78033614,176165009,0.15,-0.01,0.0,0.58,100.39,104.49000000000001,0.04,0.63,3
1680042542.88048315,176265156,0.66,0.33,0.0,0.45,102.21000000000001,104.44,0.04,0.63,3
1680042542.98036003,176365033,0.48,1.09,0.0,0.43,104.79,104.52,0.04,0.63,3
1680042543.08069110,176465364,0.27,0.5700000000000001,0.0,0.41000000000000003,107.26,104.89,0.04,0.62,3
1680042543.18064809,176565321,0.13,0.19,0.0,0.46,108.85000000000001,105.53,0.04,0.62,3
1680042543.28041911,176665092,0.07,0.25,0.0,0.39,109.73,106.37,0.04,0.63,3
1680042543.38054013,176765213,0.03,0.24,0.0,0.4,110.95,107.21000000000001,0.04,0.63,3
1680042543.48044705,176865120,0.01,0.08,0.0,0.39,113.02,108.12,0.04,0.64,3
1680042543.58037019,176965043,0.13,-0.01,0.0,0.42,114.87,109.27,0.04,0.63,3
1680042543.68033504,177065008,0.4,0.35000000000000003,0.0,0.52,115.84,110.62,0.04,0.64,3
1680042543.78069806,177165371,0.58,0.8,0.03,0.5700000000000001,116.0,111.93,0.04,0.63,3
1680042543.88068604,177265359,0.79,0.9,0.01,0.6,116.0,113.03,0.04,0.63,3
1680042543.98071003,177365383,0.96,0.99,0.0,0.54,116.0,114.05,0.04,0.64,3
1680042544.08060622,177465279,0.98,1.24,0.0,0.46,116.0,114.95,0.04,0.64,3
1680042544.18059921,177565272,1.45,1.06,0.0,0.35000000000000003,116.0,115.77,0.04,0.65,3
1680042544.28059220,177665265,1.79,1.7,0.0,0.28,116.0,116.45,0.04,0.66,3
1680042544.38066602,177765339,1.9000000000000001,2.4,0.05,0.15,116.0,117.0,0.04,0.66,3
1680042544.48064113,177865314,1.93,2.07,0.29,0.02,116.0,117.39,0.04,0.66,3
1680042544.58032012,177964993,1.8800000000000001,2.0,0.42,0.33,116.0,117.67,0.04,0.67,3
1680042544.68033624,178065009,1.8,1.92,0.38,0.56,116.0,117.74000000000001,0.04,0.67,3
1680042544.78032303,178164996,1.71,1.67,0.85,0.59,116.0,117.67,0.04,0.67,3
1680042544.88055110,178265224,1.72,1.76,1.1300000000000001,1.07,116.0,117.44,0.03,0.68,3
1680042544.98042011,178365093,1.11,1.79,1.35,1.62,116.0,117.21000000000001,0.03,0.67,3
1680042545.08042622,178465099,0.56,0.65,1.73,1.77,116.0,116.82000000000001,0.03,0.67,3
1680042545.18065715,178565330,0.28,0.09,2.06,2.05,116.0,116.44,0.03,0.68,3
1680042545.28041601,178665089,0.14,0.16,2.0,2.36,116.01,116.04,0.03,0.67,3
1680042545.38073206,178765405,0.07,0.11,2.07,2.24,116.57000000000001,115.77,0.03,0.67,3
1680042545.48060822,178865281,0.03,0.0,1.97,2.06,117.4,115.77,0.04,0.66,3
1680042545.58069301,178965366,0.01,0.12,1.8,1.83,117.78,115.98,0.04,0.66,3
1680042545.68059921,179065272,0.01,0.05,1.27,1.48,117.94,116.32000000000001,0.04,0.66,3
1680042545.78100419,179165677,0.0,0.0,0.89,0.77,118.16,116.67,0.04,0.65,3
1680042545.88071513,179265388,0.0,-0.07,0.77,0.25,118.32000000000001,116.88,0.04,0.65,3
1680042545.98051405,179365187,0.73,0.07,0.85,0.25,118.32000000000001,117.07000000000001,0.04,0.65,3
1680042546.08041501,179465088,0.44,0.97,1.12,0.5,118.32000000000001,117.33,0.04,0.65,3
1680042546.18052602,179565199,0.22,0.54,1.03,0.87,118.52,117.68,0.04,0.64,3
1680042546.28042603,179665099,0.11,-0.06,1.0,0.97,119.19,118.10000000000001,0.04,0.64,3
1680042546.38043404,179765107,0.08,-0.14,0.72,0.79,119.88,118.67,0.04,0.64,3
1680042546.48039317,179865066,0.42,0.17,0.42,0.45,120.77,119.32000000000001,0.04,0.63,3
1680042546.58032703,179965000,1.36,0.56,0.22,0.07,122.10000000000001,120.03,0.04,0.63,3
1680042546.68037224,180065045,1.97,2.06,0.19,-0.18,123.87,120.85000000000001,0.05,0.62,3
1680042546.78037024,180165043,1.85,2.85,0.3,-0.04,124.95,121.86,0.05,0.61,3
1680042546.88053012,180265203,1.26,1.95,0.51,0.25,125.21000000000001,122.88,0.05,0.61,3
1680042546.98069906,180365372,0.8200000000000001,0.85,0.58,0.59,125.21000000000001,123.75,0.05,0.61,3
1680042547.08062601,180465299,0.45,0.55,0.63,0.8300000000000001,125.43,124.52,0.05,0.62,3
1680042547.18059206,180565265,0.53,0.27,0.72,0.8300000000000001,125.8,125.31,0.05,0.61,3
1680042547.28055406,180665227,0.58,0.42,0.89,0.9500000000000001,125.94,126.07000000000001,0.05,0.61,3
1680042547.38071203,180765385,0.63,0.58,1.03,1.21,125.95,126.78,0.05,0.61,3
1680042547.48058319,180865256,0.8200000000000001,0.5,1.04,1.31,125.95,127.36,0.05,0.6,3
1680042547.58096719,180965640,0.9400000000000001,0.87,1.01,1.35,125.95,127.79,0.05,0.6,3
1680042547.68064404,181065317,0.98,1.01,1.04,1.21,125.95,128.16,0.05,0.59,3
1680042547.78041911,181165092,1.08,0.9500000000000001,1.04,1.24,125.95,128.45,0.05,0.6,3
1680042547.88055801,181265231,1.58,1.24,1.1400000000000001,1.27,125.95,128.71,0.05,0.6,3
1680042547.98051310,181365186,2.12,1.81,1.06,1.35,126.01,128.9,0.05,0.59,3
1680042548.08031511,181464988,2.52,2.61,0.9,1.2,126.44,129.06,0.05,0.59,3
1680042548.18033123,181565004,2.82,2.91,0.68,0.9,127.11,129.22,0.05,0.58,3
1680042548.28079820,181665471,2.92,3.21,0.46,0.53,127.86,129.37,0.06,0.58,3
1680042548.38068414,181765357,2.97,3.11,0.34,0.3,129.36,129.54,0.06,0.58,3
1680042548.48042822,181865101,2.57,2.91,0.3,0.34,131.4,129.85,0.06,0.5700000000000001,3
1680042548.58038521,181965058,2.4,2.27,0.34,0.5700000000000001,133.77,130.45,0.06,0.5700000000000001,3
1680042548.68043423,182065107,2.65,2.15,0.33,0.72,136.25,131.24,0.05,0.5700000000000001,3
1680042548.78043914,182165112,2.7800000000000002,2.69,0.26,0.76,138.54,132.33,0.05,0.5700000000000001,3
1680042548.88054204,182265215,2.36,3.0,0.36,0.47000000000000003,140.04,133.65,0.06,0.56,3
1680042548.98076510,182365438,2.34,2.27,0.38,0.45,140.67000000000002,135.09,0.06,0.55,3
1680042549.08062601,182465299,2.43,2.14,0.56,0.55,140.69,136.4,0.06,0.56,3
1680042549.18069315,182565366,2.0300000000000002,2.45,0.71,0.75,140.69,137.55,0.06,0.55,3
1680042549.28063512,182665308,2.06,1.79,0.7000000000000001,0.9400000000000001,140.69,138.36,0.06,0.54,3
1680042549.38079906,182765472,2.5500000000000003,1.73,0.7000000000000001,0.97,140.69,139.08,0.06,0.54,3
1680042549.48065400,182865327,3.0300000000000002,2.63,0.74,0.9500000000000001,140.69,139.82,0.07,0.53,3
1680042549.58074212,182965415,3.42,3.33,0.86,0.92,140.69,140.59,0.07,0.52,3
1680042549.68066621,183065339,3.5100000000000002,3.37,0.73,1.02,140.69,141.08,0.07,0.52,3
1680042549.78064704,183165320,3.1,3.33,0.37,0.8200000000000001,140.69,141.44,0.07,0.52,3
1680042549.88073301,183265406,2.81,2.44,0.22,0.3,140.69,141.68,0.07,0.51,3
1680042549.98040915,183365082,2.5,2.09,0.22,0.01,140.69,141.85,0.07,0.51,3
1680042550.08057213,183465245,2.68,2.25,0.13,-0.02,140.69,141.96,0.06,0.5,3
1680042550.18059707,183565270,2.29,2.5,0.28,-0.1,140.69,141.98,0.06,0.5,3
1680042550.28068209,183665355,2.0300000000000002,1.83,0.36,-0.01,140.69,141.93,0.06,0.49,3
1680042550.38081002,183765483,1.49,1.42,0.62,0.22,140.69,141.95000000000002,0.06,0.49,3
1680042550.48061204,183865285,0.98,1.06,0.91,0.61,140.69,141.99,0.05,0.49,3
1680042550.58061314,183965286,0.76,0.39,1.02,1.11,140.69,142.05,0.05,0.49,3
1680042550.68060923,184065282,0.39,0.43,0.96,1.3,140.69,142.01,0.05,0.49,3
1680042550.78059912,184165272,0.2,0.05,1.0,1.1300000000000001,140.69,141.97,0.05,0.48,3
1680042550.88042212,184265095,0.1,-0.3,0.88,1.02,140.69,141.9,0.05,0.47000000000000003,3
1680042550.98046017,184365133,0.06,-0.11,0.87,0.86,140.69,141.84,0.05,0.47000000000000003,3
1680042551.08032203,184464995,0.03,-0.28,0.9,0.74,140.95000000000002,141.79,0.04,0.47000000000000003,3
1680042551.18043804,184565111,0.01,-0.11,0.91,0.8,141.3,141.83,0.04,0.47000000000000003,3
1680042551.28039622,184665069,0.0,-0.07,0.5700000000000001,0.8200000000000001,141.56,141.89000000000001,0.04,0.46,3
1680042551.38056421,184765237,0.0,-0.11,0.41000000000000003,0.36,142.46,141.98,0.04,0.45,3
1680042551.48041201,184865085,0.0,0.08,0.54,0.0,144.18,142.21,0.03,0.45,3
1680042551.58041310,184965086,0.0,-0.12,1.12,0.13,145.95000000000002,142.69,0.03,0.44,3
1680042551.68064809,185065321,0.0,-0.25,1.51,0.81,148.06,143.42000000000002,0.04,0.44,3
1680042551.78033710,185165010,0.0,-0.06,1.86,1.53,150.47,144.39000000000001,0.04,0.43,3
1680042551.88045907,185265132,0.0,-0.05,1.92,2.02,153.09,145.6,0.04,0.42,3
1680042551.98037314,185365046,0.0,-0.08,1.99,2.15,155.56,147.07,0.04,0.41000000000000003,3
1680042552.08036804,185465041,0.0,-0.23,1.95,2.08,157.32,148.73,0.03,0.4,3
1680042552.18038917,185565062,0.21,0.01,1.84,1.92,158.20000000000002,150.52,0.03,0.4,3
1680042552.28041410,185665087,0.64,0.36,1.67,1.81,158.32,152.20000000000002,0.03,0.39,3
1680042552.38055205,185765225,0.99,1.1500000000000001,1.44,1.69,158.32,153.73,0.03,0.39,3
1680042552.48054123,185865214,1.16,1.21,1.36,1.5,158.32,155.11,0.02,0.37,3
1680042552.58066201,185965335,1.16,1.31,1.21,1.3800000000000001,158.32,156.42000000000002,0.02,0.36,3
1680042552.68031311,186064986,0.96,1.01,1.29,1.23,158.37,157.65,0.02,0.36,3
1680042552.78062201,186165295,1.08,0.8200000000000001,1.31,1.35,159.01,158.8,0.02,0.36,3
1680042552.88068509,186265358,1.1500000000000001,1.18,1.12,1.44,159.36,159.96,0.03,0.35000000000000003,3
1680042552.98075318,186365426,1.28,1.52,1.07,1.23,159.36,161.06,0.03,0.34,3
1680042553.08065319,186465326,1.3900000000000001,1.26,1.1,1.02,159.36,161.94,0.03,0.34,3
1680042553.18066907,186565342,1.7,1.54,1.25,1.1400000000000001,159.36,162.58,0.03,0.33,3
1680042553.28065801,186665331,1.41,1.86,1.49,1.35,159.36,163.08,0.03,0.32,3
1680042553.38053203,186765205,1.5,1.51,1.51,1.6300000000000001,159.36,163.51,0.03,0.32,3
1680042553.48065805,186865331,1.67,1.37,1.46,1.68,159.39000000000001,163.82,0.03,0.32,3
1680042553.58054805,186965221,1.76,2.0100000000000002,1.34,1.5,159.39000000000001,163.98,0.03,0.31,3
1680042553.68059421,187065267,1.94,2.09,1.21,1.25,159.45000000000002,164.0,0.03,0.3,3
1680042553.78056002,187165233,2.11,2.14,1.1,0.9,159.64000000000001,163.91,0.03,0.31,3
1680042553.88073421,187265407,1.96,2.31,1.1,0.7000000000000001,160.26,163.79,0.03,0.3,3
1680042553.98059320,187365266,1.75,1.86,1.1500000000000001,0.75,161.73,163.67000000000002,0.03,0.3,3
1680042554.08083701,187465510,1.6400000000000001,1.27,1.1,0.88,163.27,163.70000000000002,0.02,0.3,3
1680042554.18066216,187565335,1.59,1.49,0.98,0.91,164.13,163.85,0.02,0.3,3
1680042554.28041601,187665089,1.56,1.4000000000000001,0.9400000000000001,0.73,164.93,164.09,0.02,0.3,3
1680042554.38046408,187765137,1.53,1.57,0.96,0.65,165.77,164.38,0.02,0.29,3
1680042554.48033118,187865004,1.32,1.6600000000000001,1.05,0.78,166.66,164.71,0.01,0.29,3
1680042554.58045316,187965126,1.27,1.16,1.02,0.8200000000000001,167.23,165.16,0.01,0.29,3
1680042554.68031812,188064991,1.72,1.3,1.05,0.75,167.96,165.64000000000001,0.01,0.28,3
1680042554.78071713,188165390,1.84,1.71,1.03,0.75,168.82,166.19,0.01,0.27,3
1680042554.88071704,188265390,1.87,1.99,1.08,0.75,169.62,166.86,0.01,0.26,3
1680042554.98051023,188365183,1.8900000000000001,1.6400000000000001,1.12,0.76,170.43,167.61,0.01,0.26,3
1680042555.08040810,188465081,1.92,1.79,1.12,0.9,170.93,168.44,0.01,0.25,3
1680042555.18042111,188565094,1.67,1.9000000000000001,1.1,1.03,170.93,169.24,0.01,0.25,3
1680042555.28031802,188664991,1.69,1.57,1.21,1.05,170.93,169.93,0.01,0.24,3
1680042555.38041711,188765090,1.7,1.32,1.1500000000000001,1.1500000000000001,170.93,170.55,0.01,0.24,3
1680042555.48070121,188865374,1.6500000000000001,1.6400000000000001,1.1400000000000001,1.17,170.93,171.11,0.01,0.23,3
1680042555.58060718,188965280,1.6400000000000001,1.58,1.22,1.05,170.93,171.58,0.01,0.22,3
1680042555.68071508,189065388,1.68,1.6,0.97,1.18,170.93,171.95000000000002,0.01,0.22,3
1680042555.78064013,189165313,1.17,1.45,0.49,0.89,170.93,172.27,0.01,0.21,3
1680042555.88076019,189265433,0.62,0.71,0.25,0.21,171.16,172.47,0.01,0.21,3
1680042555.98072720,189365400,0.31,-0.14,0.13,-0.33,171.39000000000001,172.61,0.01,0.21,3
1680042556.08064103,189465314,0.16,-0.15,0.06,-0.5,171.39000000000001,172.76,0.02,0.2,3
1680042556.18085814,189565531,0.08,-0.28,0.03,-0.49,171.39000000000001,172.81,0.02,0.2,3
1680042556.28034210,189665015,0.04,-0.02,0.01,-0.45,171.39000000000001,172.81,0.02,0.2,3
1680042556.38051605,189765189,0.02,-0.07,0.0,-0.38,171.39000000000001,172.77,0.02,0.2,3
1680042556.48033023,189865003,0.01,0.06,-0.01,-0.29,171.39000000000001,172.67000000000002,0.02,0.2,3
1680042556.58037400,189965047,0.0,-0.06,-0.55,-0.45,171.39000000000001,172.55,0.02,0.19,3
1680042556.68043804,190065111,0.0,0.04,-0.88,-1.03,171.39000000000001,172.39000000000001,0.01,0.19,3
1680042556.78042316,190165096,0.0,0.19,-1.17,-1.48,171.39000000000001,172.24,0.01,0.19,3
1680042556.88053513,190265208,0.0,-0.08,-1.53,-1.67,171.39000000000001,172.08,0.01,0.18,3
1680042556.98043823,190365111,0.0,0.2,-2.06,-1.96,171.39000000000001,171.9,0.01,0.18,3
1680042557.08040118,190465074,0.0,-0.02,-2.45,-2.54,171.39000000000001,171.8,0.02,0.18,3
1680042557.18032908,190565002,0.0,0.29,-2.1,-2.7800000000000002,171.76,171.68,0.02,0.18,3
1680042557.28070402,190665377,0.0,0.27,-1.8800000000000001,-2.2800000000000002,172.38,171.63,0.02,0.18,3
1680042557.38067412,190765347,0.0,0.37,-1.51,-1.6,172.9,171.69,0.02,0.18,3
1680042557.48037219,190865045,0.0,0.28,-1.05,-1.1,173.38,171.88,0.02,0.17,3
1680042557.58036804,190965041,0.0,0.14,-0.68,-0.58,174.24,172.16,0.02,0.17,3
1680042557.68041706,191065090,0.0,0.23,-0.9400000000000001,-0.1,175.93,172.55,0.03,0.17,3
1680042557.78039622,191165069,0.0,0.12,-1.2,-0.37,177.67000000000002,173.20000000000002,0.03,0.17,3
1680042557.88052702,191265200,0.0,0.12,-1.3900000000000001,-1.02,178.56,174.08,0.02,0.16,3
1680042557.98069620,191365369,0.0,0.35000000000000003,-1.45,-1.51,178.68,175.0,0.02,0.16,3
1680042558.08060503,191465278,0.0,0.22,-1.1400000000000001,-1.45,178.68,175.83,0.02,0.15,3
1680042558.18070006,191565373,0.0,0.27,-0.84,-0.86,178.68,176.61,0.02,0.15,3
1680042558.28061724,191665290,0.0,0.02,-0.76,-0.34,178.68,177.39000000000001,0.02,0.14,3
1680042558.38074517,191765418,0.0,0.19,-1.05,-0.23,178.68,178.17000000000002,0.02,0.13,3
1680042558.48055601,191865229,0.0,0.0,-1.23,-0.55,178.68,178.9,0.02,0.13,3
1680042558.58062005,191965293,0.0,0.13,-1.47,-0.92,178.68,179.54,0.02,0.13,3
1680042558.68061113,192065284,0.53,0.17,-1.8800000000000001,-1.1500000000000001,178.68,180.11,0.02,0.12,3
1680042558.78068519,192165358,1.9100000000000001,0.9400000000000001,-2.07,-1.6,178.68,180.59,0.02,0.12,3
1680042558.88065600,192265329,2.87,2.86,-2.11,-2.07,178.68,181.01,0.02,0.11,3
1680042558.98060203,192365275,3.56,4.19,-2.18,-2.04,178.68,181.33,0.02,0.11,3
1680042559.08056903,192465242,3.88,4.28,-2.61,-2.12,178.68,181.61,0.03,0.1,3
1680042559.18062115,192565294,3.86,4.16,-3.5100000000000002,-2.57,178.68,181.78,0.03,0.1,3
1680042559.28072500,192665398,3.5500000000000003,3.75,-4.3500000000000005,-3.73,178.68,181.87,0.03,0.1,3
1680042559.38071609,192765389,3.38,3.08,-4.71,-4.8100000000000005,178.68,181.9,0.03,0.1,3
1680042559.48064804,192865321,3.29,2.87,-4.63,-5.09,178.68,181.89000000000001,0.02,0.1,3
1680042559.58065414,192965327,3.27,2.96,-4.04,-4.65,178.68,181.81,0.02,0.1,3
1680042559.68065405,193065327,3.27,3.0300000000000002,-3.15,-3.56,178.68,181.72,0.02,0.1,3
1680042559.78065705,193165330,3.27,3.1,-2.49,-2.23,178.68,181.61,0.02,0.1,3
1680042559.88075900,193265432,2.92,3.0,-2.04,-1.24,178.68,181.45000000000002,0.02,0.1,3
1680042559.98098707,193365660,2.63,2.47,-1.82,-0.74,178.68,181.21,0.02,0.11,3
1680042560.08060718,193465280,2.46,2.04,-1.87,-0.68,178.68,180.88,0.02,0.11,3
1680042560.18072009,193565393,2.24,1.8900000000000001,-2.05,-1.01,178.68,180.5,0.02,0.11,3
1680042560.28064108,193665314,1.35,1.6500000000000001,-2.27,-1.54,178.68,180.11,0.02,0.11,3
1680042560.38070917,193765382,0.6900000000000001,0.55,-1.98,-1.8900000000000001,178.68,179.78,0.02,0.1,3
1680042560.48064113,193865314,0.35000000000000003,-0.4,-1.59,-1.56,178.68,179.45000000000002,0.02,0.11,3
1680042560.58063817,193965311,0.18,-0.23,-1.11,-0.96,178.68,179.12,0.02,0.11,3
1680042560.68067217,194065345,0.09,-0.45,-0.84,-0.44,178.77,178.86,0.03,0.11,3
1680042560.78032923,194165002,0.04,-0.43,-0.66,-0.12,178.77,178.64000000000001,0.03,0.11,3
1680042560.88057518,194265248,0.02,-0.54,-0.34,0.03,178.77,178.32,0.03,0.11,3
1680042560.98035002,194365023,0.01,-0.54,-0.17,0.2,178.77,178.17000000000002,0.03,0.1,3
1680042561.08036613,194465039,0.0,-0.46,-0.08,0.33,178.77,177.96,0.03,0.1,3
1680042561.18039203,194565065,0.0,-0.44,-0.04,0.28,178.77,177.87,0.03,0.1,3
1680042561.28041911,194665092,0.0,-0.44,-0.02,0.31,178.77,177.81,0.03,0.1,3
1680042561.38072109,194765394,0.0,-0.31,-0.01,0.23,178.77,177.81,0.03,0.1,3
1680042561.48058605,194865259,0.0,-0.34,0.0,0.18,178.77,177.83,0.03,0.1,3
1680042561.58052802,194965201,0.0,-0.12,0.0,0.07,178.77,177.92000000000002,0.03,0.1,3
1680042561.68054914,195065222,0.0,-0.13,0.0,0.09,178.77,178.05,0.03,0.09,3
1680042561.78055811,195165231,0.0,0.1,0.0,0.03,178.77,178.16,0.03,0.09,3
1680042561.88063908,195265312,0.0,0.13,0.0,0.01,178.77,178.33,0.03,0.09,3
1680042561.98071313,195365386,0.0,-0.02,0.0,0.02,178.77,178.48,0.03,0.08,3
1680042562.08055115,195465224,0.0,0.06,0.0,0.04,178.77,178.61,0.02,0.08,3
1680042562.18060708,195565280,0.0,0.0,0.0,0.08,178.77,178.79,0.02,0.07,3
1680042562.28063321,195665306,0.0,-0.15,0.0,-0.06,178.77,178.95000000000002,0.03,0.08,3
1680042562.38071918,195765392,0.0,-0.05,0.0,-0.01,178.77,179.07,0.03,0.07,3
1680042562.48064208,195865315,0.0,0.04,0.0,-0.12,178.77,179.24,0.03,0.07,3
1680042562.58032823,195965001,0.0,-0.03,0.0,-0.18,178.77,179.36,0.03,0.07,3
1680042562.68033314,196065006,0.0,0.08,0.0,-0.24,178.77,179.45000000000002,0.03,0.07,3
1680042562.78032517,196164998,0.0,0.09,0.0,-0.29,178.77,179.54,0.03,0.06,3
1680042562.88053417,196265207,0.0,0.13,0.0,-0.25,178.77,179.58,0.02,0.06,3
1680042562.98047423,196365147,0.0,0.07,0.0,-0.17,178.77,179.6,0.02,0.06,3
1680042563.08038116,196465054,0.0,0.0,0.0,-0.14,178.77,179.61,0.02,0.06,3
1680042563.18066502,196565338,0.0,0.01,0.0,-0.15,178.77,179.61,0.02,0.06,3
1680042563.28040719,196665080,0.0,-0.06,0.0,-0.03,178.77,179.58,0.02,0.06,3
1680042563.38073015,196765403,0.0,-0.18,0.0,-0.01,178.77,179.57,0.02,0.06,3
1680042563.48061419,196865287,0.0,-0.06,0.0,0.06,178.77,179.53,0.02,0.06,3
1680042563.58072305,196965396,0.0,-0.03,0.0,0.0,178.77,179.53,0.02,0.05,3
1680042563.68060422,197065277,0.0,0.06,0.0,-0.04,178.77,179.5,0.02,0.05,3
1680042563.78071404,197165387,0.0,0.0,0.0,-0.08,178.77,179.48,0.02,0.05,3
1680042563.88071513,197265388,0.0,0.34,0.0,-0.12,178.77,179.45000000000002,0.02,0.04,3
1680042563.98077011,197365443,0.48,0.21,0.0,-0.07,178.77,179.41,0.02,0.05,3
1680042564.08082223,197465495,2.2800000000000002,1.17,0.0,-0.08,178.77,179.34,0.02,0.05,3
1680042564.18043923,197565112,2.91,3.74,0.0,-0.05,178.77,179.3,0.02,0.04,3
1680042564.28033304,197665006,2.81,4.12,0.0,-0.07,178.77,179.18,0.02,0.03,3
1680042564.38042808,197765101,1.78,2.79,0.0,-0.1,178.77,179.1,0.02,0.04,3
1680042564.48032117,197864994,0.91,0.93,0.0,-0.08,178.77,179.03,0.02,0.05,3
1680042564.58031511,197964988,0.46,0.02,0.0,-0.1,178.77,178.91,0.02,0.05,3
1680042564.68040204,198065075,0.23,-0.14,0.23,-0.14,178.77,178.86,0.01,0.06,3
1680042564.78066206,198165335,0.12,-0.12,0.49,0.07,178.77,178.82,0.01,0.06,3
1680042564.88068104,198265354,0.11,-0.25,0.5700000000000001,0.38,178.77,178.8,0.02,0.06,3
1680042564.98064423,198365317,0.33,0.14,0.62,0.53,178.77,178.77,0.02,0.05,3
1680042565.08064103,198465314,0.56,0.36,0.73,0.5,178.77,178.75,0.01,0.05,3
1680042565.18059921,198565272,0.92,0.71,0.76,0.64,178.77,178.72,0.01,0.04,3
1680042565.28056502,198665238,1.3800000000000001,1.26,0.58,0.64,178.77,178.70000000000002,0.01,0.04,3
1680042565.38071918,198765392,1.85,1.86,0.48,0.4,178.77,178.64000000000001,0.01,0.04,3
1680042565.48055410,198865227,2.16,2.18,0.63,0.24,178.77,178.64000000000001,0.01,0.04,3
1680042565.58096313,198965636,2.22,2.4,0.62,0.4,178.77,178.59,0.01,0.04,3
1680042565.68039322,199065066,2.0100000000000002,2.21,0.46,0.49,178.77,178.62,0.01,0.04,3
1680042565.78041315,199165086,1.6500000000000001,1.81,0.3,0.2,178.77,178.58,0.01,0.04,3
1680042565.88054705,199265220,1.2,1.3800000000000001,0.15,-0.08,178.77,178.58,0.02,0.05,3
1680042565.98046517,199365138,0.87,0.9500000000000001,0.08,-0.29,178.77,178.56,0.02,0.05,3
1680042566.08031416,199464987,0.45,0.47000000000000003,0.04,-0.41000000000000003,178.77,178.6,0.02,0.05,3
1680042566.18033004,199565003,0.23,0.25,0.02,-0.37,178.77,178.63,0.02,0.05,3
1680042566.28071523,199665388,0.11,0.02,0.01,-0.28,178.77,178.64000000000001,0.02,0.05,3
1680042566.38068819,199765361,0.06,-0.12,0.0,-0.25,178.77,178.64000000000001,0.02,0.04,3
1680042566.48075104,199865424,0.03,-0.22,0.0,-0.23,178.77,178.66,0.02,0.04,3
1680042566.58063102,199965304,0.01,-0.21,0.0,-0.14,178.77,178.62,0.02,0.04,3
1680042566.68067122,200065344,0.0,-0.15,0.0,-0.14,178.77,178.62,0.02,0.04,3
1680042566.78065801,200165331,0.0,-0.02,0.0,-0.12,178.77,178.61,0.02,0.04,3
1680042566.88072419,200265397,0.0,0.13,0.0,-0.19,178.77,178.61,0.02,0.04,3
1680042566.98085809,200365531,0.0,0.07,0.0,-0.1,178.77,178.63,0.02,0.04,3
1680042567.08024502,200464918,0.0,0.13,0.0,-0.03,178.77,178.64000000000001,0.02,0.04,3
1680042567.18048000,200565153,0.0,-0.07,0.0,-0.03,178.77,178.67000000000002,0.02,0.04,3
1680042567.28031707,200664990,0.0,0.04,0.0,-0.07,178.77,178.71,0.02,0.04,3
1680042567.38054824,200765221,0.0,0.17,0.0,-0.06,178.77,178.73,0.02,0.04,3
1680042567.48037910,200865052,0.0,0.15,0.0,0.0,178.77,178.77,0.02,0.04,3
1680042567.58039618,200965069,0.0,0.09,0.0,-0.04,178.77,178.81,0.02,0.04,3
1680042567.68042707,201065100,0.0,-0.07,0.0,-0.05,178.77,178.86,0.02,0.04,3
1680042567.78042221,201165095,0.0,0.1,0.0,0.02,178.77,178.87,0.02,0.04,3
1680042567.88074613,201265419,0.0,-0.05,0.0,0.05,178.77,178.92000000000002,0.02,0.04,3
1680042567.98072720,201365400,0.0,0.03,0.0,0.01,178.77,178.89000000000001,0.02,0.04,3
1680042568.08054900,201465222,0.0,0.17,0.0,-0.04,178.77,178.91,0.02,0.03,3
1680042568.18054509,201565218,0.0,0.27,0.0,0.02,178.77,178.88,0.02,0.03,3
1680042568.28058815,201665261,0.0,0.18,0.0,-0.02,178.77,178.89000000000001,0.02,0.03,3
1680042568.38066006,201765333,0.0,0.02,0.0,-0.06,178.77,178.89000000000001,0.02,0.03,3
1680042568.48057818,201865251,0.0,0.01,0.0,-0.03,178.77,178.87,0.02,0.03,3
1680042568.58062410,201965297,0.0,0.14,0.0,0.02,178.77,178.86,0.02,0.02,3
1680042568.68064404,202065317,0.0,-0.14,0.0,0.03,178.77,178.83,0.02,0.02,3
1680042568.78031111,202164984,0.0,0.04,0.0,0.02,178.77,178.83,0.02,0.02,3
1680042568.88041806,202265091,0.0,0.26,0.0,0.06,178.77,178.79,0.02,0.03,3
1680042568.98044920,202365122,0.0,0.2,0.0,0.07,178.77,178.78,0.02,0.02,3
1680042569.08031201,202464985,0.0,0.17,0.0,0.04,178.77,178.76,0.02,0.02,3
1680042569.18072009,202565393,0.0,0.22,0.0,0.0,178.77,178.78,0.02,0.02,3
1680042569.28072023,202665393,0.0,0.38,0.0,0.04,178.77,178.79,0.02,0.02,3
1680042569.38071418,202765387,0.0,0.05,0.0,0.0,178.77,178.79,0.02,0.02,3
1680042569.48067617,202865349,0.0,0.01,0.0,-0.03,178.77,178.81,0.02,0.02,3
1680042569.58040214,202965075,0.0,0.15,0.0,-0.04,178.77,178.82,0.02,0.02,3
1680042569.68031716,203064990,0.0,0.19,0.0,-0.08,178.77,178.85,0.01,0.02,3
1680042569.78033209,203165005,0.0,0.25,0.0,-0.03,178.77,178.87,0.01,0.02,3
1680042569.88048410,203265157,0.15,0.11,0.0,-0.02,178.77,178.89000000000001,0.01,0.02,3
1680042569.98035908,203365032,1.45,0.48,0.0,-0.05,178.77,178.92000000000002,0.01,0.02,3
1680042570.08072114,203465394,2.41,2.58,0.0,-0.03,178.77,178.97,0.01,0.01,3
1680042570.18066311,203565336,3.0,3.83,0.0,-0.14,178.77,178.98,0.01,0.02,3
1680042570.28066921,203665342,3.97,3.72,0.0,-0.21,178.77,178.99,0.02,0.01,3
1680042570.38071704,203765390,4.78,4.53,0.0,-0.24,178.77,178.97,0.02,0.01,3
1680042570.48064017,203865313,5.19,5.88,0.01,-0.22,178.77,178.98,0.02,0.01,3
1680042570.58065605,203965329,5.65,5.62,0.0,-0.25,178.77,178.96,0.02,0.01,3
1680042570.68062019,204065293,5.92,5.83,0.0,-0.19,178.77,178.94,0.03,0.01,3
1680042570.78097105,204165644,6.05,6.21,0.04,-0.17,178.77,178.93,0.03,0.0,3
1680042570.88068008,204265353,6.08,5.98,0.39,-0.09,178.77,178.93,0.03,0.0,3
1680042570.98074818,204365421,6.1000000000000005,6.01,0.93,0.34,178.77,178.92000000000002,0.03,0.01,3
1680042571.08064103,204465314,5.88,6.04,1.72,1.09,178.77,178.95000000000002,0.03,0.0,3
1680042571.18062401,204565297,5.53,5.32,2.2600000000000002,2.1,178.77,178.98,0.03,0.01,3
1680042571.28065705,204665330,4.96,4.97,2.66,2.7800000000000002,178.77,178.96,0.03,0.01,3
1680042571.38059521,204765268,4.3100000000000005,4.3100000000000005,2.72,3.14,178.77,178.96,0.03,0.01,3
1680042571.48059511,204865268,3.86,3.33,2.7,3.06,178.77,178.96,0.02,0.01,3
1680042571.58057022,204965243,3.6,2.83,2.5300000000000002,2.72,178.77,178.93,0.02,0.01,3
1680042571.68057704,205065250,3.4,2.82,2.16,2.31,178.77,178.95000000000002,0.03,0.01,3
1680042571.78079820,205165471,3.18,2.88,1.79,1.73,178.93,178.9,0.03,0.01,3
1680042571.88072014,205265393,3.0100000000000002,2.71,1.42,1.1400000000000001,179.20000000000002,178.91,0.04,0.0,3
1680042571.98060608,205365279,2.85,2.5,1.22,0.76,179.8,178.9,0.04,0.01,3
1680042572.08059001,205465263,2.2800000000000002,2.5300000000000002,0.98,0.61,180.56,179.04,0.04,0.01,3
1680042572.18065119,205565324,1.27,1.6500000000000001,0.75,0.54,181.71,179.24,0.04,0.01,3
1680042572.28064609,205665319,0.64,0.31,0.67,0.29,182.89000000000001,179.65,0.03,0.0,3
1680042572.38048410,205765157,0.33,-0.18,0.37,0.18,183.51,180.23,0.03,0.0,3
1680042572.48033118,205865004,0.16,-0.15,0.19,-0.06,183.53,180.94,0.04,0.01,3
1680042572.58032823,205965001,0.08,-0.16,0.09,-0.35000000000000003,183.53,181.57,0.04,0.01,3
1680042572.68031907,206064992,0.04,-0.31,0.04,-0.3,183.53,182.15,0.03,0.01,3
1680042572.78072309,206165396,0.02,0.04,0.02,-0.27,183.53,182.72,0.03,0.01,3
1680042572.88071322,206265386,0.01,-0.22,0.01,-0.26,183.42000000000002,183.25,0.03,0.01,3
1680042572.98049712,206365170,0.0,-0.22,0.0,-0.17,182.97,183.63,0.03,0.02,3
1680042573.08040714,206465080,0.0,0.01,0.0,-0.08,182.93,183.89000000000001,0.03,0.02,3
1680042573.18041921,206565092,0.0,-0.14,0.0,0.0,182.93,184.06,0.03,0.02,3
1680042573.28031421,206664987,0.0,-0.12,0.0,0.01,182.93,184.18,0.02,0.02,3
1680042573.38041615,206765089,0.0,-0.02,0.0,0.0,182.93,184.25,0.02,0.02,3
1680042573.48078704,206865460,0.0,-0.07,0.0,-0.02,182.93,184.29,0.02,0.02,3
1680042573.58060408,206965277,0.0,0.14,0.0,-0.02,182.93,184.20000000000002,0.02,0.02,3
1680042573.68072224,207065395,0.0,0.27,0.0,-0.03,182.93,184.09,0.01,0.02,3
1680042573.78065610,207165329,0.0,-0.03,0.0,-0.04,182.93,183.95000000000002,0.01,0.03,3
1680042573.88069916,207265372,0.0,0.04,0.0,-0.07,182.93,183.77,0.02,0.03,3
1680042573.98067212,207365345,0.0,0.22,0.0,-0.06,182.93,183.56,0.02,0.03,3
1680042574.08062816,207465301,0.0,0.28,0.0,-0.06,182.93,183.33,0.02,0.03,3
1680042574.18064213,207565315,0.0,0.12,0.0,-0.08,182.93,183.09,0.02,0.03,3
1680042574.28060818,207665281,0.0,0.06,0.0,-0.05,182.93,182.86,0.02,0.02,3
1680042574.38102603,207765699,0.0,0.0,0.0,-0.12,182.75,182.61,0.02,0.02,3
1680042574.48061419,207865287,0.0,-0.02,0.0,-0.08,182.65,182.36,0.02,0.02,3
1680042574.58065915,207965332,0.0,0.19,0.0,-0.03,182.65,182.1,0.02,0.02,3
1680042574.68057513,208065248,0.0,0.23,0.0,-0.02,182.65,181.87,0.02,0.01,3
1680042574.78069210,208165365,0.0,0.16,0.0,-0.04,182.65,181.66,0.02,0.01,3
1680042574.88067007,208265343,0.0,0.17,0.0,-0.03,182.65,181.45000000000002,0.02,0.01,3
1680042574.98062205,208365295,0.0,0.11,0.0,-0.05,182.65,181.31,0.02,0.01,3
1680042575.08052611,208465199,0.0,0.14,0.0,0.0,182.65,181.18,0.02,0.01,3
1680042575.18081713,208565490,0.0,0.2,0.0,0.01,182.65,181.09,0.02,0.01,3
1680042575.28060603,208665279,0.0,0.02,0.0,-0.01,182.65,181.02,0.01,0.02,3
1680042575.38069510,208765368,0.0,0.14,0.0,0.1,182.65,180.99,0.01,0.02,3
1680042575.48037219,208865045,0.0,0.07,0.0,0.15,182.65,180.98,0.01,0.01,3
1680042575.58044124,208965114,0.0,0.15,0.0,0.04,182.65,180.99,0.01,0.01,3
1680042575.68042922,209065102,0.0,-0.02,0.0,0.05,182.65,181.06,0.01,0.02,3
1680042575.78044009,209165113,0.0,0.17,0.0,0.1,182.65,181.1,0.01,0.01,3
1680042575.88055015,209265223,0.0,0.15,0.0,0.07,182.65,181.15,0.01,0.01,3
1680042575.98068023,209365353,0.0,0.0,0.0,0.11,182.65,181.25,0.01,0.01,3
1680042576.08026719,209464940,0.0,0.03,0.0,0.15,182.65,181.34,0.01,0.01,3
1680042576.18033409,209565007,0.0,0.03,0.0,0.12,182.62,181.43,0.01,0.01,3
1680042576.28034019,209665013,0.0,0.13,0.0,0.15,182.12,181.51,0.01,0.01,3
1680042576.38054323,209765216,0.0,0.1,0.0,0.12,181.77,181.48,0.01,0.01,3
1680042576.48038721,209865060,0.0,0.03,0.0,0.17,181.6,181.39000000000001,0.01,0.01,3
1680042576.58042502,209965098,0.0,0.0,0.0,0.19,181.51,181.3,0.01,0.01,3
1680042576.68067813,210065351,0.0,-0.19,0.0,0.12,181.47,181.21,0.01,0.01,3
1680042576.78045702,210165130,0.0,-0.21,0.0,-2.27,181.47,181.11,0.01,0.01,3
1680042576.88074303,210265416,0.0,-0.32,0.0,-11.75,181.47,181.11,0.01,0.02,3
1680042576.98074102,210365414,0.0,-0.1,0.0,-23.06,181.46,181.03,0.01,0.03,3
1680042577.08070922,210465382,0.0,0.11,0.0,-30.44,181.44,180.96,0.04,0.04,3
1680042577.18062305,210565296,0.0,0.76,0.0,-25.51,181.43,180.86,0.04,0.03,3
1680042577.28071713,210665390,0.0,0.33,0.0,-15.18,181.42000000000002,180.81,0.04,0.05,3
1680042577.38072610,210765399,0.0,-0.03,0.0,-7.2,181.42000000000002,180.76,0.04,0.08,3
1680042577.48066711,210865340,0.0,0.21,0.0,-1.6600000000000001,181.42000000000002,180.70000000000002,0.08,0.09,3
1680042577.58087707,210965550,0.0,0.36,0.0,1.79,181.42000000000002,180.59,0.08,0.09,3
1680042577.68049502,211065168,0.0,0.38,0.0,2.91,181.42000000000002,180.53,0.08,0.08,3
1680042577.78063512,211165308,0.0,0.22,0.0,3.14,181.42000000000002,180.41,0.08,0.06,3
1680042577.88064623,211265319,0.0,0.11,0.0,3.39,181.42000000000002,180.29,0.06,0.05,3
1680042577.98071218,211365385,0.0,0.19,0.0,3.61,181.42000000000002,180.16,0.06,0.04,3
1680042578.08050513,211465178,0.0,-0.09,0.0,3.86,181.42000000000002,180.02,0.05,0.03,3
1680042578.18068314,211565356,0.0,0.17,0.0,3.97,181.42000000000002,179.9,0.05,0.03,3
1680042578.28058004,211665253,0.0,-0.06,0.0,3.91,181.42000000000002,179.81,0.05,0.02,3
1680042578.38068223,211765355,0.0,0.33,0.0,3.83,181.42000000000002,179.81,0.05,0.02,3
1680042578.48042512,211865098,0.0,-0.07,0.0,3.72,181.42000000000002,179.86,0.06,0.02,3
1680042578.58041406,211965087,0.0,0.06,0.0,3.64,181.42000000000002,179.97,0.06,0.01,3
1680042578.68041420,212065087,0.0,-0.02,0.0,3.5700000000000003,181.42000000000002,180.1,0.05,0.01,3
1680042578.78035617,212165029,0.0,-0.27,0.0,1.27,181.42000000000002,180.26,0.05,0.01,3
1680042578.88051605,212265189,0.0,-0.09,0.0,-7.01,181.42000000000002,180.47,0.05,0.03,3
1680042578.98037314,212365046,0.0,-0.38,0.0,-16.72,181.42000000000002,180.75,0.05,0.04,3
1680042579.08070612,212465379,0.0,0.01,0.0,-24.400000000000002,181.42000000000002,180.96,0.07,0.05,3
1680042579.18065119,212565324,0.0,0.15,0.0,-21.8,181.42000000000002,181.08,0.07,0.05,3
1680042579.28042221,212665095,0.0,0.04,0.0,-11.63,181.42000000000002,181.1,0.06,0.04,3
1680042579.38053107,212765204,0.0,-0.11,0.0,-3.48,181.42000000000002,181.13,0.06,0.05,3
1680042579.48041201,212865085,0.0,-0.12,0.0,1.12,181.42000000000002,181.20000000000002,0.09,0.06,3
1680042579.58031511,212964988,0.0,0.21,0.0,3.21,181.42000000000002,181.25,0.09,0.06,3
1680042579.68034005,213065013,0.0,0.2,0.0,3.71,181.42000000000002,181.27,0.08,0.05,3
1680042579.78049707,213165170,0.0,0.03,0.0,3.92,181.42000000000002,181.23,0.08,0.04,3
1680042579.88042521,213265098,0.0,0.08,0.0,4.19,181.42000000000002,181.19,0.07,0.03,3
1680042579.98096704,213365640,0.0,0.12,0.0,4.4,181.42000000000002,181.13,0.07,0.03,3
1680042580.08072400,213465397,0.0,0.05,0.0,4.8100000000000005,181.42000000000002,181.06,0.07,0.02,3
1680042580.18042421,213565097,0.0,0.05,0.0,4.75,181.42000000000002,181.01,0.07,0.02,3
1680042580.28067303,213665346,0.0,0.21,0.0,-0.19,181.42000000000002,180.99,0.06,0.02,3
1680042580.38073802,213765411,0.0,-0.21,0.0,-8.75,181.42000000000002,181.05,0.06,0.04,3
1680042580.48065901,213865332,0.0,0.12,0.0,-17.01,181.42000000000002,181.19,0.06,0.05,3
1680042580.58061504,213965288,0.0,0.03,0.0,-22.29,181.42000000000002,181.32,0.06,0.06,3
1680042580.68094206,214065615,0.0,-0.23,0.0,-16.62,181.42000000000002,181.35,0.07,0.05,3
1680042580.78061819,214165291,0.0,0.04,0.0,-6.5,181.42000000000002,181.32,0.07,0.06,3
1680042580.88078308,214265456,0.0,-0.17,0.0,0.0,181.42000000000002,181.38,0.09,0.08,3
1680042580.98068714,214365360,0.0,0.17,0.0,3.0300000000000002,181.42000000000002,181.4,0.09,0.07,3
1680042581.08060122,214465274,0.0,-0.05,0.0,4.17,181.42000000000002,181.41,0.09,0.06,3
1680042581.18061519,214565288,0.0,-0.01,0.0,4.39,181.42000000000002,181.43,0.09,0.05,3
1680042581.28061008,214665283,0.0,0.23,0.0,4.36,181.42000000000002,181.44,0.09,0.04,3
1680042581.38068008,214765353,0.0,0.2,0.0,4.49,181.42000000000002,181.45000000000002,0.09,0.04,3
1680042581.48057508,214865248,0.0,0.15,0.0,4.8100000000000005,181.42000000000002,181.45000000000002,0.07,0.03,3
1680042581.58097005,214965643,0.0,0.07,0.0,4.87,181.42000000000002,181.43,0.07,0.03,3
1680042581.68062615,215065299,0.0,0.01,0.0,2.41,181.42000000000002,181.45000000000002,0.07,0.03,3
1680042581.78039002,215165063,0.0,0.02,0.0,-5.58,181.42000000000002,181.55,0.07,0.04,3
1680042581.88058114,215265254,0.0,0.13,0.0,-14.790000000000001,181.42000000000002,181.66,0.07,0.05,3
1680042581.98049903,215365172,0.0,0.34,0.0,-22.22,181.42000000000002,181.76,0.07,0.06,3
1680042582.08040905,215465082,0.0,-0.08,0.0,-19.490000000000002,181.42000000000002,181.79,0.08,0.06,3
1680042582.18042207,215565095,0.0,0.41000000000000003,0.0,-9.57,181.42000000000002,181.78,0.08,0.05,3
1680042582.28039908,215665072,0.0,-0.05,0.0,-1.86,181.42000000000002,181.75,0.09,0.06,3
1680042582.38076711,215765440,0.0,0.0,0.0,1.99,181.42000000000002,181.77,0.09,0.06,3
1680042582.48070002,215865373,0.0,0.27,0.0,3.63,181.42000000000002,181.77,0.09,0.05,3
1680042582.58060718,215965280,0.0,0.45,0.0,4.2,181.42000000000002,181.79,0.09,0.05,3
1680042582.68037415,216065047,0.0,0.21,0.0,4.26,181.42000000000002,181.86,0.1,0.04,3
1680042582.78038406,216165057,0.0,0.27,0.0,4.37,181.42000000000002,181.86,0.1,0.04,3
1680042582.88053608,216265209,0.0,0.03,0.0,4.23,181.42000000000002,181.91,0.09,0.04,3
1680042582.98049617,216365169,0.0,-0.17,0.0,4.22,181.42000000000002,181.85,0.09,0.04,3
1680042583.08043218,216465105,0.0,-0.25,0.0,3.7,181.42000000000002,181.83,0.09,0.04,3
1680042583.18067217,216565345,0.0,-0.16,0.0,-1.84,181.42000000000002,181.79,0.09,0.04,3
1680042583.28035307,216665026,0.0,-0.06,0.0,-10.82,181.42000000000002,181.84,0.07,0.05,3
1680042583.38084412,216765517,0.0,-0.24,0.0,-19.18,181.42000000000002,181.83,0.07,0.06,3
1680042583.48061705,216865290,0.0,-0.17,0.0,-22.92,181.42000000000002,181.81,0.09,0.07,3
1680042583.58072400,216965397,0.0,-0.2,0.0,-15.57,181.42000000000002,181.58,0.09,0.06,3
1680042583.68066907,217065342,0.0,0.3,0.0,-5.87,181.42000000000002,181.37,0.08,0.07,3
1680042583.78066015,217165333,0.0,0.13,0.0,0.06,181.42000000000002,181.26,0.08,0.08,3
1680042583.88071203,217265385,0.0,-0.18,0.0,2.87,181.42000000000002,181.19,0.08,0.08,3
1680042583.98077416,217365447,0.0,-0.16,0.0,3.7800000000000002,181.42000000000002,181.13,0.08,0.06,3
1680042584.08066511,217465338,0.0,-0.15,0.0,3.85,181.42000000000002,181.07,0.08,0.05,3
1680042584.18035316,217565026,0.0,0.18,0.0,3.81,181.42000000000002,181.01,0.08,0.05,3
1680042584.28055501,217665228,0.0,-0.2,0.0,3.69,181.42000000000002,180.99,0.07,0.05,3
1680042584.38063812,217765311,0.0,-0.06,0.0,3.7600000000000002,181.42000000000002,180.96,0.07,0.04,3
1680042584.48069715,217865370,0.0,-0.18,0.0,3.87,181.42000000000002,180.9,0.07,0.04,3
1680042584.58057213,217965245,0.0,-0.16,0.0,1.21,181.42000000000002,180.91,0.07,0.04,3
1680042584.68061900,218065292,0.0,-0.25,0.0,-6.22,181.42000000000002,181.05,0.06,0.06,3
1680042584.78062701,218165300,0.0,-0.26,0.0,-13.99,181.42000000000002,181.19,0.06,0.06,3
1680042584.88066721,218265340,0.0,-0.11,0.0,-20.18,181.42000000000002,181.35,0.08,0.07,3
1680042584.98084116,218365514,0.0,0.02,0.0,-17.12,181.42000000000002,181.37,0.08,0.07,3
1680042585.08058405,218465257,0.0,-0.07,0.0,-7.76,181.42000000000002,181.34,0.07,0.06,3
1680042585.18057108,218565244,0.0,-0.11,0.0,-0.9,181.42000000000002,181.37,0.07,0.06,3
1680042585.28057909,218665252,0.0,0.2,0.0,2.31,181.42000000000002,181.4,0.08,0.05,3
1680042585.38073611,218765409,0.0,0.35000000000000003,0.0,3.62,181.42000000000002,181.42000000000002,0.08,0.04,3
1680042585.48063922,218865312,0.0,0.14,0.0,4.01,181.42000000000002,181.4,0.08,0.03,3
1680042585.58061719,218965290,0.0,0.03,0.0,4.01,181.42000000000002,181.35,0.08,0.04,3
1680042585.68067002,219065343,0.0,0.07,0.0,3.81,181.42000000000002,181.34,0.07,0.04,3
1680042585.78048301,219165156,0.0,-0.09,0.0,3.81,181.42000000000002,181.29,0.07,0.04,3
1680042585.88051510,219265188,0.0,-0.18,0.0,4.01,181.42000000000002,181.3,0.07,0.04,3
1680042585.98039722,219365070,0.0,-0.18,0.0,4.44,181.42000000000002,181.24,0.07,0.04,3
1680042586.08047414,219465147,0.0,0.0,0.0,4.64,181.42000000000002,181.25,0.06,0.04,3
1680042586.18033814,219565011,0.0,0.03,0.0,4.83,181.42000000000002,181.15,0.06,0.04,3
1680042586.28038907,219665062,0.0,0.27,0.0,4.5,181.42000000000002,181.12,0.06,0.05,3
1680042586.38049603,219765169,0.0,-0.09,0.0,4.17,181.42000000000002,181.06,0.06,0.05,3
1680042586.48042917,219865102,0.0,-0.32,0.0,3.68,181.42000000000002,180.96,0.06,0.05,3
1680042586.58065820,219965331,0.0,-0.08,0.0,3.6,181.42000000000002,180.91,0.06,0.05,3
1680042586.68068218,220065355,0.0,-0.34,0.0,3.61,181.42000000000002,180.96,0.05,0.05,3
1680042586.78069806,220165371,0.0,-0.27,0.0,3.7600000000000002,181.42000000000002,180.96,0.05,0.05,3
1680042586.88078308,220265456,0.0,-0.17,0.0,3.66,181.42000000000002,181.05,0.06,0.06,3
1680042586.98075914,220365432,0.0,0.07,0.0,3.62,181.42000000000002,181.09,0.06,0.06,3
1680042587.08061504,220465288,0.0,0.17,0.0,3.44,181.42000000000002,181.20000000000002,0.05,0.05,3
1680042587.18102503,220565698,0.0,-0.07,0.0,3.4,181.42000000000002,181.23,0.05,0.06,3
1680042587.28064919,220665322,0.0,0.3,0.0,3.38,181.42000000000002,181.31,0.04,0.06,3
1680042587.38070607,220765379,0.37,0.09,0.0,3.29,181.42000000000002,181.39000000000001,0.04,0.06,3
1680042587.48064923,220865322,1.24,0.66,0.0,3.11,181.42000000000002,181.43,0.03,0.06,3
1680042587.58044410,220965117,2.83,2.06,0.0,2.7600000000000002,181.42000000000002,181.46,0.03,0.07,3
1680042587.68041205,221065085,3.7600000000000002,4.1,0.21,2.34,181.42000000000002,181.5,0.03,0.07,3
1680042587.78034520,221165018,4.25,5.16,0.87,2.12,181.42000000000002,181.64000000000001,0.03,0.08,3
1680042587.88047504,221265148,4.59,4.7,2.04,2.57,181.42000000000002,181.74,0.03,0.08,3
1680042587.98036122,221365034,5.34,4.94,3.25,3.7,181.42000000000002,181.88,0.03,0.08,3
1680042588.08037019,221465043,6.3,5.86,4.14,4.9,181.42000000000002,182.03,0.03,0.08,3
