timestamp,TimeUS,I,Status,GMS,GWk,NSats,HDop,Lat,Lng,Alt,Spd,GCrs,VZ,Yaw,U
1680042508.40000010,141784673,0,3,253726400,2255,17,0.62,42.689958999999995,-84.4889196,277.26,0.016278821974992752,349.3803405761719,0.01900000125169754,0.0,1
1680042508.60007405,141984747,0,3,253726600,2255,17,0.62,42.689959099999996,-84.4889197,277.27,0.014560219831764698,254.0546112060547,0.10400000214576721,0.0,1
1680042508.80013609,142184809,0,3,253726800,2255,17,0.62,42.689959099999996,-84.48891979999999,277.27,0.017804494127631187,218.15724182128906,0.09400000423192978,0.0,1
1680042509.00036120,142385034,0,3,253727000,2255,16,0.62,42.6899592,-84.48892,277.27,0.020615529268980026,230.90615844726562,0.009000000543892384,0.0,1
1680042509.19996309,142584636,0,3,253727200,2255,16,0.7000000000000001,42.6899592,-84.4889202,277.27,0.013601470738649368,197.1027374267578,0.029000001028180122,0.0,1
1680042509.40008402,142784757,0,3,253727400,2255,16,0.7000000000000001,42.6899592,-84.48892029999999,277.27,0.014035669155418873,175.91436767578125,-0.03100000135600567,0.0,1
1680042509.60013413,142984807,0,3,253727600,2255,16,0.7000000000000001,42.6899592,-84.4889204,277.29,0.026627056300640106,235.713134765625,0.08000000566244125,0.0,1
1680042509.80016518,143184838,0,3,253727800,2255,16,0.7000000000000001,42.6899593,-84.4889206,277.28000000000003,0.013038406148552895,237.52880859375,0.01900000125169754,0.0,1
1680042510.01999903,143404672,0,3,253728000,2255,16,0.7000000000000001,42.6899594,-84.4889207,277.29,0.012041594833135605,311.633544921875,0.08800000697374344,0.0,1
1680042510.20021701,143584890,0,3,253728200,2255,16,0.7000000000000001,42.6899595,-84.4889209,277.29,0.027018513530492783,308.9909973144531,0.03700000047683716,0.0,1
1680042510.40025115,143784924,0,3,253728400,2255,16,0.7000000000000001,42.6899595,-84.4889211,277.28000000000003,0.03590264543890953,257.125,0.03200000151991844,0.0,1
1680042510.60055804,143985231,0,3,253728600,2255,16,0.7000000000000001,42.689959599999995,-84.4889213,277.27,0.02500000037252903,306.8699035644531,0.05000000074505806,0.0,1
1680042510.80035019,144185023,0,3,253728800,2255,16,0.7000000000000001,42.689959699999996,-84.4889214,277.27,0.021931713446974754,335.7722473144531,0.05400000140070915,0.0,1
1680042511.02007508,144404748,0,3,253729000,2255,16,0.7000000000000001,42.689959699999996,-84.4889216,277.28000000000003,0.02088061533868313,196.69924926757812,0.06200000271201134,0.0,1
1680042511.20007610,144584749,0,3,253729200,2255,16,0.7000000000000001,42.6899598,-84.48892169999999,277.27,0.015811389312148094,55.30484390258789,0.026000000536441803,0.0,1
1680042511.40036106,144785034,0,3,253729400,2255,16,0.7000000000000001,42.6899599,-84.48892169999999,277.28000000000003,0.01486606989055872,227.726318359375,0.11900000274181366,0.0,1
1680042511.60015917,144984832,0,3,253729600,2255,16,0.7000000000000001,42.68996,-84.4889219,277.28000000000003,0.021931713446974754,245.7722625732422,0.09100000560283661,0.0,1
1680042511.80007815,145184751,0,3,253729800,2255,16,0.7000000000000001,42.68996,-84.4889221,277.28000000000003,0.02420743741095066,231.70985412597656,0.012000000104308128,0.0,1
1680042511.99999118,145384664,0,3,253730000,2255,16,0.7000000000000001,42.6899601,-84.48892219999999,277.28000000000003,0.021931713446974754,24.22774314880371,0.014000000432133675,0.0,1
1680042512.20007706,145584750,0,3,253730200,2255,16,0.7000000000000001,42.6899602,-84.4889223,277.28000000000003,0.005385165102779865,248.1986083984375,0.009000000543892384,0.0,1
1680042512.40010405,145784777,0,3,253730400,2255,16,0.7000000000000001,42.689960299999996,-84.4889225,277.28000000000003,0.010816654190421104,303.6900634765625,0.0990000069141388,0.0,1
1680042512.60034609,145985019,0,3,253730600,2255,16,0.7000000000000001,42.6899604,-84.4889226,277.28000000000003,0.0070710680447518826,315.0,0.0430000014603138,0.0,1
1680042512.80025721,146184930,0,3,253730800,2255,16,0.7000000000000001,42.6899605,-84.48892269999999,277.27,0.01900000125169754,0.0,0.04800000041723251,0.0,1
1680042513.00027823,146384951,0,3,253731000,2255,16,0.7000000000000001,42.6899606,-84.4889228,277.27,0.025317978113889694,189.0902862548828,0.05400000140070915,0.0,1
1680042513.20058012,146585253,0,3,253731200,2255,16,0.7000000000000001,42.6899607,-84.488923,277.26,0.015231546014547348,293.1986083984375,-0.03100000135600567,0.0,1
1680042513.40016317,146784836,0,3,253731400,2255,16,0.7000000000000001,42.6899608,-84.4889231,277.26,0.02385372295975685,33.02386474609375,0.007000000216066837,0.0,1
1680042513.60008311,146984756,0,3,253731600,2255,16,0.7000000000000001,42.689961,-84.4889232,277.26,0.015811389312148094,235.30484008789062,0.09400000423192978,0.0,1
1680042513.79999018,147184663,0,3,253731800,2255,16,0.7000000000000001,42.6899611,-84.4889233,277.25,0.015652475878596306,206.56504821777344,0.030000001192092896,0.0,1
1680042514.02014208,147404815,0,3,253732000,2255,16,0.7000000000000001,42.6899612,-84.4889235,277.23,0.010816654190421104,213.69007873535156,0.03100000135600567,0.0,1
1680042514.20034122,147585014,0,3,253732200,2255,16,0.7000000000000001,42.6899613,-84.48892359999999,277.22,0.0036055513191968203,213.69007873535156,0.07600000500679016,0.0,1
1680042514.40014601,147784819,0,3,253732400,2255,16,0.7000000000000001,42.6899614,-84.4889237,277.2,0.023021729663014412,34.38034439086914,0.07900000363588333,0.0,1
1680042514.59999418,147984667,0,3,253732600,2255,16,0.7000000000000001,42.6899616,-84.4889237,277.21,0.040706269443035126,242.1759033203125,0.15000000596046448,0.0,1
1680042514.80007720,148184750,0,3,253732800,2255,16,0.7000000000000001,42.6899617,-84.4889239,277.2,0.0036055513191968203,33.690067291259766,0.07300000637769699,0.0,1
1680042515.02054501,148405218,0,3,253733000,2255,16,0.7000000000000001,42.6899618,-84.488924,277.2,0.006324555724859238,288.4349365234375,-0.006000000052154064,0.0,1
1680042515.22055411,148605227,0,3,253733200,2255,16,0.7000000000000001,42.6899619,-84.48892409999999,277.21,0.029154760763049126,5.9061408042907715,0.055000003427267075,0.0,1
1680042515.40037322,148785046,0,3,253733400,2255,16,0.7000000000000001,42.689962,-84.4889242,277.21,0.015811389312148094,161.56504821777344,0.05900000408291817,0.0,1
1680042515.60021901,148984892,0,3,253733600,2255,16,0.7000000000000001,42.689962099999995,-84.4889243,277.22,0.008944272063672543,206.56504821777344,0.052000001072883606,0.0,1
1680042515.80049300,149185166,0,3,253733800,2255,16,0.7000000000000001,42.6899622,-84.4889244,277.23,0.019313208758831024,21.250503540039062,-0.0430000014603138,0.0,1
1680042516.02055001,149405223,0,3,253734000,2255,16,0.7000000000000001,42.6899623,-84.4889245,277.25,0.02280350960791111,232.12501525878906,0.02200000174343586,0.0,1
1680042516.22050023,149605173,0,3,253734200,2255,16,0.7000000000000001,42.6899623,-84.4889247,277.25,0.0020000000949949026,180.0,-0.07200000435113907,0.0,1
1680042516.40000200,149784675,0,3,253734400,2255,16,0.7000000000000001,42.6899624,-84.48892479999999,277.28000000000003,0.01603122055530548,356.4236755371094,0.08800000697374344,0.0,1
1680042516.60027719,149984950,0,3,253734600,2255,17,0.7000000000000001,42.6899625,-84.4889249,277.28000000000003,0.02163330838084221,33.6900634765625,0.03700000047683716,0.0,1
1680042516.80013514,150184808,0,3,253734800,2255,17,0.7000000000000001,42.6899626,-84.488925,277.29,0.019924860447645187,252.4744415283203,0.06300000101327896,0.0,1
1680042517.00016809,150384841,0,3,253735000,2255,17,0.7000000000000001,42.6899626,-84.4889251,277.3,0.023086795583367348,175.03025817871094,0.06400000303983688,0.0,1
1680042517.20044923,150585122,0,3,253735200,2255,17,0.62,42.6899626,-84.4889252,277.3,0.00824621133506298,284.0362548828125,0.12000000476837158,0.0,1
1680042517.39999819,150784671,0,3,253735400,2255,17,0.62,42.689962699999995,-84.48892529999999,277.31,0.020223749801516533,261.46923828125,0.07900000363588333,0.0,1
1680042517.60007501,150984748,0,3,253735600,2255,17,0.62,42.689962699999995,-84.4889254,277.32,0.027658633887767792,192.52880859375,0.07300000637769699,0.0,1
1680042517.80011606,151184789,0,3,253735800,2255,17,0.62,42.689962799999996,-84.4889255,277.33,0.013601471669971943,233.97262573242188,0.08700000494718552,0.0,1
1680042518.00016022,151384833,0,3,253736000,2255,17,0.62,42.689962799999996,-84.4889256,277.33,0.010198039934039116,258.6900634765625,0.11000000685453415,0.0,1
1680042518.20028710,151584960,0,3,253736200,2255,17,0.62,42.689962799999996,-84.4889256,277.34000000000003,0.011180341243743896,63.4349479675293,0.09000000357627869,0.0,1
1680042518.40027213,151784945,0,3,253736400,2255,17,0.62,42.6899629,-84.4889257,277.34000000000003,0.018027756363153458,326.3099365234375,0.04000000283122063,0.0,1
1680042518.60027909,151984952,0,3,253736600,2255,17,0.62,42.6899629,-84.48892579999999,277.35,0.009055386297404766,276.3402099609375,0.05300000309944153,0.0,1
1680042518.80032921,152185002,0,3,253736800,2255,17,0.62,42.689963,-84.4889259,277.35,0.023021729663014412,304.3803405761719,0.06100000441074371,0.0,1
1680042519.00031018,152384983,0,3,253737000,2255,17,0.62,42.689963,-84.48892599999999,277.36,0.038897302001714706,287.9691467285156,0.07100000232458115,0.0,1
1680042519.20018601,152584859,0,3,253737200,2255,17,0.62,42.689963,-84.4889261,277.37,0.01615549437701702,111.80139923095703,0.05300000309944153,0.0,1
1680042519.40022016,152784893,0,3,253737400,2255,17,0.62,42.689963,-84.4889262,277.38,0.032388269901275635,171.11932373046875,0.046000003814697266,0.0,1
1680042519.60026503,152984938,0,3,253737600,2255,17,0.62,42.689963,-84.4889263,277.40000000000003,0.020518286153674126,313.02508544921875,0.029000001028180122,0.0,1
1680042519.80057621,153185249,0,3,253737800,2255,17,0.62,42.689963,-84.4889263,277.41,0.032649654895067215,130.03025817871094,-0.03500000014901161,0.0,1
1680042520.00000620,153384679,0,3,253738000,2255,17,0.62,42.6899629,-84.4889264,277.42,0.018973667174577713,161.56504821777344,0.01100000087171793,0.0,1
1680042520.20008302,153584756,0,3,253738200,2255,17,0.62,42.6899629,-84.4889264,277.44,0.010198039934039116,168.6900634765625,-0.032999999821186066,0.0,1
1680042520.40014219,153784815,0,3,253738400,2255,17,0.62,42.6899629,-84.48892649999999,277.47,0.031240999698638916,50.194427490234375,-0.07300000637769699,0.0,1
1680042520.60016513,153984838,0,3,253738600,2255,17,0.62,42.6899629,-84.48892649999999,277.48,0.047853946685791016,26.029592514038086,0.07900000363588333,0.0,1
1680042520.80008411,154184757,0,3,253738800,2255,17,0.62,42.6899629,-84.48892649999999,277.51,0.034828152507543564,140.8263397216797,0.01100000087171793,0.0,1
1680042520.99999022,154384663,0,3,253739000,2255,17,0.62,42.689962799999996,-84.4889264,277.5,0.05240229144692421,131.90594482421875,0.08500000089406967,0.0,1
1680042521.20008302,154584756,0,3,253739200,2255,15,0.66,42.689962799999996,-84.48892649999999,277.46,0.07211102545261383,303.6900634765625,0.0950000062584877,0.0,1
1680042521.40041018,154785083,0,3,253739400,2255,15,0.66,42.6899629,-84.4889266,277.45,0.06381222605705261,327.80426025390625,0.16500000655651093,0.0,1
1680042521.60013223,154984805,0,3,253739600,2255,15,0.66,42.689963,-84.48892649999999,277.43,0.020124612376093864,63.4349479675293,0.10200000554323196,0.0,1
1680042521.80023313,155184906,0,3,253739800,2255,15,0.66,42.689963,-84.4889264,277.43,0.02376973070204258,337.7509765625,0.10000000149011612,0.0,1
1680042522.02014112,155404814,0,3,253740000,2255,15,0.66,42.6899631,-84.4889263,277.42,0.023194829002022743,352.568603515625,0.07000000029802322,0.0,1
1680042522.20058107,155585254,0,3,253740200,2255,15,0.66,42.6899632,-84.4889263,277.40000000000003,0.024041632190346718,315.0,0.07500000298023224,0.0,1
1680042522.40016222,155784835,0,3,253740400,2255,15,0.66,42.689963399999996,-84.4889261,277.39,0.05414794757962227,4.236394882202148,0.12200000882148743,0.0,1
1680042529.60016704,162984840,0,3,253747600,2255,17,0.62,42.689962099999995,-84.48892269999999,277.68,0.016401220113039017,232.43142700195312,0.06800000369548798,0.0,1
1680042529.80012918,163184802,0,3,253747800,2255,17,0.62,42.689962,-84.4889226,277.68,0.014142136089503765,188.13011169433594,-0.013000000268220901,0.0,1
1680042530.00000310,163384676,0,3,253748000,2255,17,0.62,42.6899619,-84.4889226,277.72,0.013000000268220901,202.619873046875,0.046000003814697266,0.0,1
1680042530.20009923,163584772,0,3,253748200,2255,17,0.62,42.6899618,-84.4889225,277.73,0.0070710680447518826,225.0,-0.02200000174343586,0.0,1
1680042530.40036702,163785040,0,3,253748400,2255,17,0.62,42.6899617,-84.48892239999999,277.76,0.02942787855863571,170.2175750732422,0.00800000037997961,0.0,1
1680042530.60016704,163984840,0,3,253748600,2255,17,0.62,42.6899616,-84.4889223,277.77,0.027294687926769257,8.426968574523926,0.08000000566244125,0.0,1
1680042530.80025506,164184928,0,3,253748800,2255,17,0.62,42.6899616,-84.4889221,277.78000000000003,0.01345362514257431,48.01278305053711,0.06000000238418579,0.0,1
1680042531.00026011,164384933,0,3,253749000,2255,17,0.62,42.689961499999995,-84.488922,277.79,0.011045361869037151,185.19442749023438,-0.05300000309944153,0.0,1
1680042531.22018003,164604853,0,3,253749200,2255,17,0.62,42.6899614,-84.4889219,277.82,0.018439089879393578,282.52880859375,0.05100000277161598,0.0,1
1680042531.40035915,164785032,0,3,253749400,2255,17,0.62,42.6899613,-84.4889218,277.83,0.012649111449718475,198.43495178222656,0.013000000268220901,0.0,1
1680042531.60040212,164985075,0,3,253749600,2255,17,0.62,42.6899613,-84.4889218,277.85,0.012083047069609165,294.4439697265625,0.058000002056360245,0.0,1
1680042531.80024409,165184917,0,3,253749800,2255,17,0.62,42.6899612,-84.48892169999999,277.87,0.014317820779979229,204.775146484375,0.04100000113248825,0.0,1
1680042532.02016211,165404835,0,3,253750000,2255,17,0.62,42.6899611,-84.4889216,277.89,0.01612451672554016,209.74488830566406,0.01100000087171793,0.0,1
1680042532.20038700,165585060,0,3,253750200,2255,17,0.62,42.689961,-84.48892149999999,277.91,0.018027758225798607,86.82015991210938,0.02800000086426735,0.0,1
1680042532.40041518,165785088,0,3,253750400,2255,17,0.62,42.689960899999996,-84.4889214,277.93,0.007810249924659729,320.1944274902344,0.006000000052154064,0.0,1
1680042532.60030508,165984978,0,3,253750600,2255,17,0.62,42.689960899999996,-84.4889214,277.93,0.0688186064362526,324.4623107910156,0.06800000369548798,0.0,1
1680042532.80034018,166185013,0,3,253750800,2255,17,0.62,42.689960899999996,-84.4889213,277.95,0.013152946718037128,351.25384521484375,0.052000001072883606,0.0,1
1680042533.00037122,166385044,0,3,253751000,2255,17,0.62,42.689960899999996,-84.4889213,277.97,0.02751363441348076,289.093505859375,0.06200000271201134,0.0,1
1680042533.20044518,166585118,0,3,253751200,2255,17,0.62,42.6899608,-84.4889212,277.99,0.014317821711301804,12.094756126403809,0.07200000435113907,0.0,1
1680042533.40040708,166785080,0,3,253751400,2255,17,0.62,42.6899608,-84.4889211,278.0,0.014317820779979229,294.775146484375,-0.01600000075995922,0.0,1
1680042533.60032415,166984997,0,3,253751600,2255,17,0.62,42.6899607,-84.48892099999999,278.02,0.012369317002594471,345.9637451171875,-0.017000000923871994,0.0,1
1680042533.80033517,167185008,0,3,253751800,2255,17,0.62,42.6899607,-84.4889209,278.04,0.017088009044528008,110.55603790283203,0.026000000536441803,0.0,1
1680042534.02020216,167404875,0,3,253752000,2255,17,0.62,42.6899606,-84.4889208,278.07,0.015264337882399559,58.392494201660156,0.030000001192092896,0.0,1
1680042534.20019507,167584868,0,3,253752200,2255,17,0.62,42.6899605,-84.4889207,278.12,0.09837175160646439,72.85444641113281,-0.5230000019073486,0.0,1
1680042534.40004420,167784717,0,3,253752400,2255,17,0.62,42.6899607,-84.4889206,278.22,0.21770164370536804,348.0706787109375,-0.527999997138977,0.0,1
1680042534.60011601,167984789,0,3,253752600,2255,17,0.62,42.6899607,-84.48892049999999,278.36,0.08452810347080231,100.91112518310547,-0.5430000424385071,0.0,1
1680042534.80015302,168184826,0,3,253752800,2255,17,0.62,42.6899606,-84.48892029999999,278.45,0.08720091730356216,143.39291381835938,-0.30900001525878906,0.0,1
1680042535.00018716,168384860,0,3,253753000,2255,17,0.62,42.6899607,-84.4889199,278.48,0.32405248284339905,42.999210357666016,-0.2240000069141388,0.0,1
1680042535.22060013,168605273,0,3,253753200,2255,17,0.62,42.689960899999996,-84.4889195,278.52,0.10346980392932892,66.65599060058594,-0.05000000074505806,0.0,1
1680042535.40001702,168784690,0,3,253753400,2255,17,0.62,42.6899611,-84.4889192,278.54,0.1636154055595398,30.483299255371094,0.03400000184774399,0.0,1
1680042535.62059617,169005269,0,3,253753600,2255,17,0.62,42.6899612,-84.488919,278.53000000000003,0.13701096177101135,33.690067291259766,0.09100000560283661,0.0,1
1680042535.80033612,169185009,0,3,253753800,2255,17,0.62,42.6899614,-84.4889187,278.51,0.08697701245546341,44.5341911315918,0.09100000560283661,0.0,1
1680042536.00060415,169385277,0,3,253754000,2255,17,0.62,42.689961499999995,-84.4889184,278.49,0.14516542851924896,41.92853927612305,0.13199999928474426,0.0,1
1680042536.20003414,169584707,0,3,253754200,2255,17,0.62,42.6899617,-84.48891809999999,278.46,0.15890249609947205,24.145540237426758,0.17100000381469727,0.0,1
1680042536.40011621,169784789,0,3,253754400,2255,17,0.62,42.6899619,-84.48891789999999,278.42,0.18338210880756378,32.30345153808594,-0.010000000707805157,0.0,1
1680042536.60015011,169984823,0,3,253754600,2255,17,0.62,42.6899622,-84.4889176,278.44,0.2268766313791275,34.040279388427734,0.01100000087171793,0.0,1
1680042536.80017519,170184848,0,3,253754800,2255,17,0.62,42.6899625,-84.4889171,278.44,0.2560175955295563,37.541297912597656,-0.21000000834465027,0.0,1
1680042537.00041413,170385087,0,3,253755000,2255,17,0.62,42.689962799999996,-84.48891669999999,278.5,0.18139460682868958,34.215702056884766,-0.4480000138282776,0.0,1
1680042537.20034814,170585021,0,3,253755200,2255,17,0.62,42.6899631,-84.4889163,278.62,0.29085391759872437,35.76667404174805,-0.3840000033378601,0.0,1
1680042537.40062714,170785300,0,3,253755400,2255,16,0.62,42.6899635,-84.4889159,278.81,0.24550561606884003,32.52488708496094,-0.6630000472068787,0.0,1
1680042537.60038304,170985056,0,3,253755600,2255,16,0.62,42.6899638,-84.4889154,278.92,0.26576682925224304,61.699241638183594,-0.6850000619888306,0.0,1
1680042537.80040622,171185079,0,3,253755800,2255,16,0.62,42.6899641,-84.4889147,279.08,0.2983035445213318,48.66952133178711,-0.6910000443458557,0.0,1
1680042538.02053213,171405205,0,3,253756000,2255,16,0.62,42.6899644,-84.48891379999999,279.16,0.4351460039615631,72.06470489501953,-0.49400001764297485,0.0,1
1680042538.20013618,171584809,0,3,253756200,2255,16,0.62,42.689964599999996,-84.48891259999999,279.23,0.4582401514053345,73.77980041503906,-0.40700000524520874,0.0,1
1680042538.40017223,171784845,0,3,253756400,2255,16,0.62,42.6899647,-84.4889113,279.3,0.5530579090118408,89.17118072509766,-0.281000018119812,0.0,1
1680042538.60020208,171984875,0,3,253756600,2255,16,0.62,42.689964599999996,-84.4889098,279.37,0.6148577332496643,104.60125732421875,-0.3100000023841858,0.0,1
1680042538.80012703,172184800,0,3,253756800,2255,17,0.62,42.6899643,-84.48890829999999,279.40000000000003,0.687363862991333,105.61334228515625,-0.13700000941753387,0.0,1
1680042539.00019908,172384872,0,3,253757000,2255,17,0.62,42.689963999999996,-84.4889063,279.38,0.8525332808494568,100.95405578613281,0.1210000067949295,0.0,1
1680042539.20024800,172584921,0,3,253757200,2255,17,0.62,42.6899636,-84.48890399999999,279.33,0.8622696995735168,116.00042724609375,0.0020000000949949026,0.0,1
1680042539.40055323,172785226,0,3,253757400,2255,17,0.62,42.689963,-84.4889017,279.33,1.0480163097381592,107.95085906982422,0.05100000277161598,0.0,1
1680042539.60020614,172984879,0,3,253757600,2255,17,0.62,42.6899622,-84.4888991,279.33,1.1535966396331787,119.09801483154297,-0.0690000057220459,0.0,1
1680042539.80003023,173184703,0,3,253757800,2255,17,0.62,42.6899612,-84.4888967,279.38,1.1081264019012451,122.1697998046875,-0.13700000941753387,0.0,1
1680042540.02014804,173404821,0,3,253758000,2255,17,0.62,42.6899601,-84.4888943,279.37,1.2497539520263672,120.484130859375,0.10300000756978989,0.0,1
1680042540.20014405,173584817,0,3,253758200,2255,17,0.62,42.689959099999996,-84.4888915,279.39,1.2326058149337769,109.62567901611328,0.09400000423192978,0.0,1
1680042540.40040708,173785080,0,3,253758400,2255,17,0.62,42.689958499999996,-84.48888869999999,279.39,1.0967005491256714,105.65834045410156,-0.10500000417232513,0.0,1
1680042540.60040021,173985073,0,3,253758600,2255,17,0.62,42.689958,-84.4888859,279.43,1.1783671379089355,102.59735870361328,-0.2880000174045563,0.0,1
1680042540.80032706,174185000,0,3,253758800,2255,17,0.62,42.6899576,-84.4888828,279.5,1.2734991312026978,100.03924560546875,-0.2600000202655792,0.0,1
1680042541.00032806,174385001,0,3,253759000,2255,17,0.62,42.689957199999995,-84.48887979999999,279.57,1.1575568914413452,99.09613800048828,-0.43400001525878906,0.0,1
1680042541.20039606,174585069,0,3,253759200,2255,17,0.62,42.689957,-84.48887669999999,279.61,1.2952111959457397,92.47801971435547,-0.1900000125169754,0.0,1
1680042541.40065122,174785324,0,3,253759400,2255,16,0.62,42.6899569,-84.4888734,279.63,1.3343861103057861,94.08255004882812,-0.2240000069141388,0.0,1
1680042541.60003901,174984712,0,3,253759600,2255,17,0.62,42.6899568,-84.48886999999999,279.71,1.3703508377075195,91.2962417602539,-0.4750000238418579,0.0,1
1680042541.80010605,175184779,0,3,253759800,2255,17,0.62,42.689956699999996,-84.4888666,279.8,1.3186558485031128,95.30850219726562,-0.46300002932548523,0.0,1
1680042542.00015616,175384829,0,3,253760000,2255,17,0.62,42.6899563,-84.4888634,279.92,1.3156002759933472,98.83224487304688,-0.44300001859664917,0.0,1
1680042542.20019817,175584871,0,3,253760200,2255,17,0.62,42.6899559,-84.4888601,280.01,1.3634076118469238,97.41690826416016,-0.4050000309944153,0.0,1
1680042542.40043020,175785103,0,3,253760400,2255,17,0.62,42.6899556,-84.4888567,280.09000000000003,1.4546563625335693,95.4832763671875,-0.36900001764297485,0.0,1
1680042542.60020018,175984873,0,3,253760600,2255,17,0.62,42.689955399999995,-84.4888531,280.16,1.4092779159545898,92.44009399414062,-0.2930000126361847,0.0,1
1680042542.80050516,176185178,0,3,253760800,2255,16,0.62,42.6899553,-84.4888497,280.22,1.3550829887390137,89.36575317382812,-0.22500000894069672,0.0,1
1680042543.02135110,176406024,0,3,253761000,2255,17,0.62,42.6899553,-84.4888462,280.29,1.42781662940979,92.89044952392578,-0.13500000536441803,0.0,1
1680042543.20036912,176585042,0,3,253761200,2255,17,0.62,42.6899552,-84.4888428,280.34000000000003,1.3591623306274414,89.11470031738281,-0.12000000476837158,0.0,1
1680042543.40028310,176784956,0,3,253761400,2255,17,0.62,42.6899552,-84.4888393,280.38,1.4450498819351196,90.47579193115234,-0.07600000500679016,0.0,1
1680042543.60009503,176984768,0,3,253761600,2255,17,0.62,42.6899552,-84.4888359,280.37,1.3601621389389038,89.11534881591797,0.02500000037252903,0.0,1
1680042543.80016422,177184837,0,3,253761800,2255,17,0.62,42.6899553,-84.4888325,280.37,1.4093208312988281,87.51927185058594,0.15300001204013824,0.0,1
1680042544.00019002,177384863,0,3,253762000,2255,17,0.62,42.6899553,-84.4888289,280.36,1.4821094274520874,90.69585418701172,0.14100000262260437,0.0,1
1680042544.20012808,177584801,0,3,253762200,2255,17,0.62,42.689955399999995,-84.4888253,280.34000000000003,1.4553519487380981,88.7400894165039,0.17100000381469727,0.0,1
1680042544.40033221,177785005,0,3,253762400,2255,17,0.62,42.6899553,-84.4888218,280.37,1.3666433095932007,92.81005859375,0.02200000174343586,0.0,1
1680042544.60031915,177984992,0,3,253762600,2255,17,0.62,42.6899552,-84.48881829999999,280.34000000000003,1.4571659564971924,93.77745056152344,0.2240000069141388,0.0,1
1680042544.80065107,178185324,0,3,253762800,2255,17,0.62,42.6899549,-84.4888148,280.34000000000003,1.3872426748275757,96.24896240234375,-0.03700000047683716,0.0,1
1680042545.00018811,178384861,0,3,253763000,2255,17,0.62,42.6899547,-84.4888115,280.34000000000003,1.3947681188583374,96.04985046386719,0.055000003427267075,0.0,1
1680042545.20004201,178584715,0,3,253763200,2255,16,0.68,42.6899544,-84.4888082,280.35,1.3032885789871216,100.61154174804688,-0.203000009059906,0.0,1
1680042545.42015600,178804829,0,3,253763400,2255,17,0.68,42.6899541,-84.488805,280.41,1.3094159364700317,91.4441146850586,-0.21000000834465027,0.0,1
1680042545.60032511,178984998,0,3,253763600,2255,17,0.68,42.6899541,-84.4888019,280.45,1.2176830768585205,93.01277923583984,-0.24000000953674316,0.0,1
1680042545.80035615,179185029,0,3,253763800,2255,17,0.68,42.6899538,-84.488799,280.55,1.1544562578201294,99.97634887695312,-0.5210000276565552,0.0,1
1680042546.02115202,179405825,0,3,253764000,2255,17,0.68,42.689953599999996,-84.4887962,280.66,1.1823557615280151,91.40544891357422,-0.4820000231266022,0.0,1
1680042546.22123313,179605906,0,3,253764200,2255,17,0.62,42.689953599999996,-84.4887933,280.69,1.2112044095993042,92.5552978515625,-0.38100001215934753,0.0,1
1680042546.40010905,179784782,0,3,253764400,2255,17,0.62,42.6899535,-84.4887904,280.78000000000003,1.0942212343215942,91.15203857421875,-0.484000027179718,0.0,1
1680042546.60016012,179984833,0,3,253764600,2255,17,0.62,42.6899535,-84.4887876,280.86,1.2283753156661987,94.24845123291016,-0.37700000405311584,0.0,1
1680042546.80018806,180184861,0,3,253764800,2255,17,0.62,42.6899532,-84.4887847,280.91,1.1470751762390137,98.3208236694336,-0.32200002670288086,0.0,1
1680042547.02014518,180404818,0,3,253765000,2255,17,0.62,42.689952999999996,-84.488782,280.94,1.1179062128067017,92.30699157714844,-0.17600001394748688,0.0,1
1680042547.20033002,180585003,0,3,253765200,2255,17,0.62,42.6899528,-84.4887792,281.01,1.1480613946914673,103.14049530029297,-0.37400001287460327,0.0,1
1680042547.40039206,180785065,0,3,253765400,2255,17,0.62,42.689952299999995,-84.4887766,281.06,1.103653073310852,99.96587371826172,-0.20500001311302185,0.0,1
1680042547.60040903,180985082,0,3,253765600,2255,17,0.62,42.689952,-84.48877399999999,281.06,1.107377529144287,95.64881134033203,0.029000001028180122,0.0,1
1680042547.80041003,181185083,0,3,253765800,2255,17,0.62,42.689951699999995,-84.4887715,281.06,1.0116190910339355,103.89887237548828,-0.012000000104308128,0.0,1
1680042548.02112317,181405796,0,3,253766000,2255,17,0.62,42.6899514,-84.4887691,281.06,1.0047736167907715,94.9672622680664,0.03200000151991844,0.0,1
1680042548.20009708,181584770,0,3,253766200,2255,17,0.62,42.689951,-84.4887668,281.06,0.9833860397338867,110.3514633178711,-0.00800000037997961,0.0,1
1680042548.40016007,181784833,0,3,253766400,2255,17,0.62,42.6899504,-84.4887646,281.04,0.9123294949531555,108.13704681396484,0.1730000078678131,0.0,1
1680042548.60041523,181985088,0,3,253766600,2255,17,0.62,42.6899497,-84.4887627,280.98,0.8794146180152893,118.75083923339844,0.30100002884864807,0.0,1
1680042548.80028605,182184959,0,3,253766800,2255,17,0.62,42.689949,-84.4887608,280.97,0.8710465431213379,109.51664733886719,0.14800000190734863,0.0,1
1680042549.02015424,182404827,0,3,253767000,2255,17,0.62,42.6899483,-84.4887589,280.96,0.8600704073905945,120.76952362060547,0.046000003814697266,0.0,1
1680042549.20066905,182585342,0,3,253767200,2255,17,0.62,42.6899474,-84.4887572,280.91,0.905068576335907,131.10255432128906,0.2290000170469284,0.0,1
1680042549.40019703,182784870,0,3,253767400,2255,17,0.62,42.6899465,-84.4887555,280.91,0.7803877592086792,122.38671112060547,0.1810000091791153,0.0,1
1680042549.60014820,182984821,0,3,253767600,2255,17,0.62,42.6899456,-84.48875389999999,280.89,0.9141116142272949,133.04949951171875,-0.013000000268220901,0.0,1
1680042549.80002117,183184694,0,3,253767800,2255,17,0.62,42.6899446,-84.48875249999999,280.86,0.7831041216850281,140.70028686523438,0.02800000086426735,0.0,1
1680042550.00009322,183384766,0,3,253768000,2255,16,0.62,42.6899435,-84.48875129999999,280.82,0.7999250292778015,141.4967803955078,0.046000003814697266,0.0,1
1680042550.20039201,183585065,0,3,253768200,2255,17,0.62,42.6899424,-84.4887502,280.81,0.7463578581809998,146.03314208984375,0.004000000189989805,0.0,1
1680042550.40017104,183784844,0,3,253768400,2255,17,0.62,42.6899413,-84.4887492,280.78000000000003,0.7659047245979309,145.210205078125,0.09000000357627869,0.0,1
1680042550.60000014,183984673,0,3,253768600,2255,17,0.62,42.6899401,-84.48874819999999,280.77,0.85783451795578,152.65829467773438,0.0650000050663948,0.0,1
1680042550.80012703,184184800,0,3,253768800,2255,17,0.62,42.6899388,-84.48874719999999,280.77,0.7376917004585266,150.968017578125,-0.08400000631809235,0.0,1
1680042551.00039506,184385068,0,3,253769000,2255,17,0.62,42.689937799999996,-84.4887463,280.75,0.6796058416366577,142.89404296875,-0.0950000062584877,0.0,1
1680042551.20018506,184584858,0,3,253769200,2255,17,0.62,42.6899369,-84.4887454,280.77,0.6343193650245667,145.85897827148438,-0.04200000315904617,0.0,1
1680042551.42116022,184805833,0,3,253769400,2255,17,0.62,42.689935899999995,-84.4887445,280.77,0.6571225523948669,145.41513061523438,-0.1730000078678131,0.0,1
1680042551.60033512,184985008,0,3,253769600,2255,17,0.62,42.6899349,-84.4887437,280.8,0.6296110153198242,151.44036865234375,-0.09300000220537186,0.0,1
1680042551.80033302,185185006,0,3,253769800,2255,17,0.62,42.689934099999995,-84.48874289999999,280.83,0.5565043091773987,134.635986328125,-0.15400001406669617,0.0,1
1680042552.02020001,185404873,0,3,253770000,2255,17,0.62,42.6899334,-84.4887419,280.83,0.5585203766822815,132.31509399414062,-0.2200000137090683,0.0,1
1680042552.20043302,185585106,0,3,253770200,2255,17,0.62,42.689932899999995,-84.4887409,280.87,0.4626229703426361,123.89617156982422,-0.3230000138282776,0.0,1
1680042552.40027523,185784948,0,3,253770400,2255,17,0.62,42.6899325,-84.48873999999999,280.93,0.40347617864608765,117.77175903320312,-0.17000000178813934,0.0,1
1680042552.60027313,185984946,0,3,253770600,2255,17,0.62,42.6899322,-84.48873909999999,280.93,0.4332782030105591,109.27131652832031,-0.1810000091791153,0.0,1
1680042552.80066919,186185342,0,3,253770800,2255,17,0.62,42.6899319,-84.4887382,280.93,0.39111125469207764,124.58396911621094,-0.032999999821186066,0.0,1
1680042553.00020313,186384876,0,3,253771000,2255,17,0.62,42.6899316,-84.4887375,280.95,0.27214884757995605,124.97476196289062,-0.05300000309944153,0.0,1
1680042553.22043800,186605111,0,3,253771200,2255,17,0.62,42.6899313,-84.48873689999999,280.94,0.31995314359664917,118.56756591796875,-0.05300000309944153,0.0,1
1680042553.40003514,186784708,0,3,253771400,2255,17,0.62,42.6899312,-84.4887363,280.95,0.17967194318771362,109.84687042236328,0.0010000000474974513,0.0,1
1680042553.60032916,186985002,0,3,253771600,2255,17,0.62,42.689931099999995,-84.4887359,280.95,0.14536163210868835,115.68364715576172,0.014000000432133675,0.0,1
1680042553.80016112,187184834,0,3,253771800,2255,17,0.62,42.689931,-84.4887356,280.94,0.10722406953573227,109.61787414550781,0.0860000029206276,0.0,1
1680042554.00019622,187384869,0,3,253772000,2255,17,0.62,42.6899309,-84.4887354,280.92,0.0382099486887455,132.87889099121094,0.0860000029206276,0.0,1
1680042554.20002508,187584698,0,3,253772200,2255,17,0.62,42.6899309,-84.4887353,280.91,0.01303840521723032,184.39871215820312,0.16300000250339508,0.0,1
1680042554.40011907,187784792,0,3,253772400,2255,17,0.62,42.6899309,-84.4887353,280.86,0.03157530725002289,259.04595947265625,0.06599999964237213,0.0,1
1680042554.62128019,188005953,0,3,253772600,2255,17,0.62,42.689931,-84.4887353,280.84000000000003,0.0720069482922554,297.2767639160156,0.13700000941753387,0.0,1
1680042554.82113504,188205808,0,3,253772800,2255,17,0.62,42.689931099999995,-84.4887354,280.81,0.08811923861503601,297.728271484375,0.1380000114440918,0.0,1
1680042555.02110910,188405782,0,3,253773000,2255,17,0.62,42.6899312,-84.4887356,280.78000000000003,0.09270383417606354,293.5232238769531,0.12600000202655792,0.0,1
1680042555.22117305,188605846,0,3,253773200,2255,17,0.62,42.6899313,-84.4887358,280.74,0.15839824080467224,285.0013122558594,0.18700000643730164,0.0,1
1680042555.42018819,188804861,0,3,253773400,2255,17,0.62,42.6899315,-84.48873619999999,280.69,0.20271408557891846,308.792236328125,0.20400001108646393,0.0,1
1680042555.62020421,189004877,0,3,253773600,2255,17,0.62,42.689931699999995,-84.4887366,280.65000000000003,0.23380549252033234,299.744873046875,0.10000000149011612,0.0,1
1680042555.82005620,189204729,0,3,253773800,2255,17,0.62,42.689932,-84.4887372,280.62,0.32758817076683044,300.2438659667969,0.07700000703334808,0.0,1
1680042556.02124310,189405916,0,3,253774000,2255,16,0.62,42.689932299999995,-84.4887378,280.6,0.26102107763290405,300.88848876953125,0.05700000375509262,0.0,1
1680042556.22054601,189605219,0,3,253774200,2255,17,0.62,42.6899326,-84.4887383,280.62,0.3058512806892395,305.8207702636719,0.04200000315904617,0.0,1
1680042556.42133904,189806012,0,3,253774400,2255,16,0.62,42.6899328,-84.4887389,280.63,0.2469109296798706,308.58734130859375,-0.06599999964237213,0.0,1
1680042556.62124610,190005919,0,3,253774600,2255,16,0.62,42.6899331,-84.48873929999999,280.65000000000003,0.23564593493938446,312.7643737792969,-0.04800000041723251,0.0,1
1680042556.82118416,190205857,0,3,253774800,2255,16,0.62,42.6899333,-84.4887396,280.68,0.1599625051021576,312.4664306640625,-0.16600000858306885,0.0,1
1680042557.02121711,190405890,0,3,253775000,2255,16,0.62,42.689933499999995,-84.4887399,280.76,0.17140595614910126,318.3109436035156,-0.20200000703334808,0.0,1
1680042557.22131705,190605990,0,3,253775200,2255,16,0.66,42.689933599999996,-84.4887399,280.85,0.021587034687399864,76.60749816894531,-0.3060000240802765,0.0,1
1680042557.42019916,190804872,0,3,253775400,2255,17,0.66,42.689933499999995,-84.4887399,280.94,0.054644305258989334,214.56253051757812,-0.4970000088214874,0.0,1
1680042557.62004709,191004720,0,3,253775600,2255,17,0.66,42.6899334,-84.4887399,281.03000000000003,0.09849365800619125,138.70462036132812,-0.45600003004074097,0.0,1
1680042557.82124114,191205914,0,3,253775800,2255,17,0.66,42.6899332,-84.4887396,281.11,0.10495713353157043,120.96373748779297,-0.2670000195503235,0.0,1
1680042558.02017403,191404847,0,3,253776000,2255,17,0.66,42.689932999999996,-84.48873929999999,281.23,0.1942807286977768,128.52162170410156,-0.4310000240802765,0.0,1
1680042558.22020507,191604878,0,3,253776200,2255,17,0.62,42.6899328,-84.488739,281.33,0.17255723476409912,135.93917846679688,-0.4130000174045563,0.0,1
1680042558.42011905,191804792,0,3,253776400,2255,17,0.62,42.6899325,-84.48873859999999,281.42,0.23521266877651215,124.43324279785156,-0.4750000238418579,0.0,1
1680042558.62003016,192004703,0,3,253776600,2255,17,0.62,42.6899322,-84.48873809999999,281.5,0.27139824628829956,138.73463439941406,-0.27400001883506775,0.0,1
1680042558.82011724,192204790,0,3,253776800,2255,17,0.62,42.6899319,-84.4887376,281.55,0.29376351833343506,128.78163146972656,-0.21700000762939453,0.0,1
1680042559.02126312,192405936,0,3,253777000,2255,17,0.62,42.6899315,-84.4887372,281.61,0.23671291768550873,151.48611450195312,-0.15200001001358032,0.0,1
1680042559.22043800,192605111,0,3,253777200,2255,16,0.62,42.689931,-84.48873689999999,281.63,0.31559786200523376,161.3354034423828,-0.11400000751018524,0.0,1
1680042559.40041423,192785087,0,3,253777400,2255,17,0.62,42.6899304,-84.4887368,281.68,0.35640567541122437,182.7339630126953,-0.0560000017285347,0.0,1
1680042559.62135410,193006027,0,3,253777600,2255,18,0.62,42.6899296,-84.4887371,281.69,0.49712175130844116,195.5179443359375,0.03100000135600567,0.0,1
1680042559.82134724,193206020,0,3,253777800,2255,18,0.62,42.689928599999995,-84.4887375,281.71,0.6673080325126648,197.62037658691406,0.005000000353902578,0.0,1
1680042560.02019906,193404872,0,3,253778000,2255,18,0.62,42.6899273,-84.488738,281.71,0.7876103520393372,194.9361114501953,0.03400000184774399,0.0,1
1680042560.22014618,193604819,0,3,253778200,2255,17,0.62,42.689926,-84.4887387,281.69,0.7980501651763916,205.21641540527344,0.14500001072883606,0.0,1
1680042560.42001319,193804686,0,3,253778400,2255,18,0.62,42.6899246,-84.4887395,281.72,0.90254145860672,203.92381286621094,-0.013000000268220901,0.0,1
1680042560.62124324,194005916,0,3,253778600,2255,18,0.62,42.689923199999996,-84.4887404,281.73,0.8585814833641052,204.86370849609375,0.242000013589859,0.0,1
1680042560.80024910,194184922,0,3,253778800,2255,18,0.62,42.6899218,-84.4887411,281.71,0.7778592705726624,196.9673614501953,0.039000000804662704,0.0,1
1680042561.02135205,194406025,0,3,253779000,2255,18,0.62,42.6899204,-84.48874169999999,281.7,0.8268065452575684,195.43138122558594,-0.07200000435113907,0.0,1
1680042561.22118902,194605862,0,3,253779200,2255,18,0.6,42.689918999999996,-84.4887421,281.69,0.7779794335365295,190.06771850585938,0.06300000101327896,0.0,1
1680042561.42010212,194804775,0,3,253779400,2255,18,0.6,42.689917699999995,-84.4887425,281.71,0.7713708877563477,190.68353271484375,0.005000000353902578,0.0,1
1680042561.62015820,195004831,0,3,253779600,2255,18,0.6,42.6899164,-84.4887428,281.74,0.6603673696517944,191.97357177734375,-0.2750000059604645,0.0,1
1680042561.82019305,195204866,0,3,253779800,2255,18,0.6,42.6899152,-84.4887431,281.79,0.6703566908836365,185.73611450195312,-0.20100000500679016,0.0,1
1680042562.02010012,195404773,0,3,253780000,2255,18,0.6,42.689914099999996,-84.4887432,281.86,0.65440434217453,182.01417541503906,-0.33800002932548523,0.0,1
1680042562.20040321,195585076,0,3,253780200,2255,18,0.6,42.689913,-84.4887433,281.94,0.6348102688789368,187.057861328125,-0.367000013589859,0.0,1
1680042562.40033317,195785006,0,3,253780400,2255,18,0.6,42.6899118,-84.4887433,282.03000000000003,0.6781534552574158,175.4328155517578,-0.30400002002716064,0.0,1
1680042562.62118101,196005854,0,3,253780600,2255,18,0.6,42.6899107,-84.4887432,282.1,0.5959362983703613,175.38006591796875,-0.3630000054836273,0.0,1
1680042562.82124400,196205917,0,3,253780800,2255,18,0.6,42.6899097,-84.4887431,282.18,0.5519828200340271,172.29559326171875,-0.3540000021457672,0.0,1
1680042563.02115417,196405827,0,3,253781000,2255,18,0.6,42.6899087,-84.48874289999999,282.24,0.5379415154457092,173.05992126464844,-0.2710000276565552,0.0,1
1680042563.22007918,196604752,0,3,253781200,2255,18,0.6,42.6899078,-84.4887427,282.24,0.5340908169746399,167.7853546142578,-0.03400000184774399,0.0,1
1680042563.40011406,196784787,0,3,253781400,2255,18,0.6,42.6899069,-84.4887423,282.3,0.562894344329834,161.2431640625,-0.03400000184774399,0.0,1
1680042563.62015510,197004828,0,3,253781600,2255,18,0.6,42.689906,-84.4887418,282.34000000000003,0.5720140337944031,163.33912658691406,-0.1550000011920929,0.0,1
1680042563.82016921,197204842,0,3,253781800,2255,18,0.6,42.6899051,-84.4887414,282.36,0.5474029779434204,159.57870483398438,-0.017000000923871994,0.0,1
1680042564.04010201,197424775,0,3,253782000,2255,18,0.6,42.6899042,-84.4887409,282.37,0.5641932487487793,160.8585205078125,0.06200000271201134,0.0,1
1680042564.22038007,197605053,0,3,253782200,2255,18,0.6,42.689903199999996,-84.4887404,282.37,0.5933245420455933,158.75448608398438,-0.023000001907348633,0.0,1
1680042564.42125821,197805931,0,3,253782400,2255,18,0.6,42.6899023,-84.4887399,282.39,0.5444998145103455,164.22804260253906,-0.06300000101327896,0.0,1
1680042564.62133503,198006008,0,3,253782600,2255,18,0.6,42.689901299999995,-84.4887396,282.39,0.5435448884963989,169.82713317871094,0.01900000125169754,0.0,1
1680042564.82002521,198204698,0,3,253782800,2255,18,0.6,42.6899005,-84.48873929999999,282.43,0.48202595114707947,167.17465209960938,-0.08300000429153442,0.0,1
1680042565.02011704,198404790,0,3,253783000,2255,18,0.6,42.6898996,-84.488739,282.43,0.507961630821228,163.88417053222656,0.0020000000949949026,0.0,1
1680042565.22133517,198606008,0,3,253783200,2255,18,0.6,42.6898987,-84.48873859999999,282.46,0.5233784914016724,162.08433532714844,-0.10100000351667404,0.0,1
1680042565.42134809,198806021,0,3,253783400,2255,18,0.6,42.6898979,-84.4887382,282.47,0.4272248148918152,161.43780517578125,-0.03100000135600567,0.0,1
1680042565.62042022,199005093,0,3,253783600,2255,18,0.6,42.6898972,-84.4887378,282.46,0.4548516571521759,157.09912109375,-0.046000003814697266,0.0,1
1680042565.82110119,199205774,0,3,253783800,2255,18,0.6,42.689896399999995,-84.4887375,282.48,0.4391412138938904,171.22406005859375,0.003000000026077032,0.0,1
1680042566.02112508,199405798,0,3,253784000,2255,18,0.6,42.6898956,-84.4887373,282.49,0.4379589259624481,170.5376739501953,-0.13900001347064972,0.0,1
1680042566.20009613,199584769,0,3,253784200,2255,18,0.6,42.689895,-84.4887371,282.53000000000003,0.33604317903518677,173.6786346435547,-0.09300000220537186,0.0,1
1680042566.42021012,199804883,0,3,253784400,2255,18,0.6,42.6898943,-84.48873689999999,282.56,0.45213383436203003,165.13388061523438,-0.09400000423192978,0.0,1
1680042566.62003207,200004705,0,3,253784600,2255,18,0.6,42.6898936,-84.4887366,282.58,0.3831057548522949,164.40383911132812,-0.0820000022649765,0.0,1
1680042566.82124519,200205918,0,3,253784800,2255,18,0.6,42.689892799999996,-84.48873619999999,282.62,0.47261929512023926,157.61326599121094,-0.026000000536441803,0.0,1
1680042567.02051401,200405187,0,3,253785000,2255,18,0.6,42.689892,-84.4887358,282.63,0.46622955799102783,160.3213653564453,0.003000000026077032,0.0,1
1680042567.22134304,200606016,0,3,253785200,2255,18,0.6,42.6898912,-84.4887353,282.64,0.4729873239994049,147.51951599121094,-0.04500000178813934,0.0,1
1680042567.42125320,200805926,0,3,253785400,2255,18,0.6,42.6898905,-84.4887346,282.63,0.5033498406410217,148.89959716796875,0.08000000566244125,0.0,1
1680042567.60015607,200984829,0,3,253785600,2255,18,0.6,42.689889699999995,-84.488734,282.63,0.5067870020866394,145.3691864013672,0.04000000283122063,0.0,1
1680042567.82122016,201205893,0,3,253785800,2255,18,0.6,42.689889099999995,-84.4887332,282.65000000000003,0.43528497219085693,141.99801635742188,-0.032999999821186066,0.0,1
1680042568.02017021,201404843,0,3,253786000,2255,18,0.6,42.689888499999995,-84.4887325,282.67,0.4596390128135681,135.52886962890625,-0.11100000888109207,0.0,1
1680042568.22019100,201604864,0,3,253786200,2255,18,0.6,42.689887899999995,-84.4887317,282.66,0.5671702027320862,139.1466827392578,0.017000000923871994,0.0,1
1680042568.42116618,201805839,0,3,253786400,2255,18,0.6,42.6898872,-84.48873069999999,282.65000000000003,0.53793865442276,137.5615234375,0.07300000637769699,0.0,1
1680042568.62034917,202005022,0,3,253786600,2255,18,0.6,42.6898866,-84.4887298,282.65000000000003,0.5252237915992737,132.37640380859375,0.02800000086426735,0.0,1
1680042568.82126117,202205934,0,3,253786800,2255,18,0.6,42.6898859,-84.48872879999999,282.64,0.5957558751106262,129.7563018798828,0.0860000029206276,0.0,1
1680042569.00015116,202384824,0,3,253787000,2255,18,0.6,42.6898853,-84.4887277,282.63,0.5252123475074768,130.05699157714844,0.10600000619888306,0.0,1
1680042569.22013617,202604809,0,3,253787200,2255,18,0.6,42.6898847,-84.4887267,282.63,0.5363553166389465,129.47731018066406,-0.023000001907348633,0.0,1
1680042569.42001820,202804691,0,3,253787400,2255,18,0.6,42.6898842,-84.4887256,282.62,0.518119752407074,124.30348205566406,0.14900000393390656,0.0,1
1680042569.60032415,202984997,0,3,253787600,2255,18,0.6,42.689883699999996,-84.48872449999999,282.62,0.5760712027549744,124.10384368896484,-0.04100000113248825,0.0,1
1680042569.82018209,203204855,0,3,253787800,2255,18,0.6,42.6898832,-84.48872329999999,282.62,0.5281401872634888,122.78736877441406,-0.03200000151991844,0.0,1
1680042570.02135706,203406030,0,3,253788000,2255,18,0.6,42.6898827,-84.48872209999999,282.63,0.6132813692092896,122.88677978515625,0.10500000417232513,0.0,1
1680042570.20037007,203585043,0,3,253788200,2255,18,0.6,42.6898821,-84.48872089999999,282.62,0.5778322219848633,129.94522094726562,-0.01900000125169754,0.0,1
1680042570.40039802,203785071,0,3,253788400,2255,18,0.6,42.6898816,-84.48871989999999,282.63,0.4581877589225769,123.96751403808594,-0.018000001087784767,0.0,1
1680042570.62015820,204004831,0,3,253788600,2255,18,0.6,42.689881,-84.48871919999999,282.61,0.3968488574028015,155.11392211914062,0.05000000074505806,0.0,1
1680042570.82022214,204204895,0,3,253788800,2255,18,0.6,42.6898804,-84.4887189,282.59000000000003,0.3631225824356079,162.86245727539062,0.04500000178813934,0.0,1
1680042571.02126503,204405938,0,3,253789000,2255,18,0.6,42.6898798,-84.4887188,282.58,0.3689512014389038,190.3048553466797,0.04000000283122063,0.0,1
1680042571.22041321,204605086,0,3,253789200,2255,18,0.6,42.6898792,-84.48871919999999,282.57,0.4222712516784668,220.10092163085938,0.11500000208616257,0.0,1
1680042571.42121720,204805890,0,3,253789400,2255,18,0.6,42.689878799999995,-84.48872,282.55,0.46609121561050415,244.58950805664062,0.12300000339746475,0.0,1
1680042571.60032105,204984994,0,3,253789600,2255,18,0.6,42.6898784,-84.48872109999999,282.54,0.5442811846733093,243.95281982421875,0.01100000087171793,0.0,1
1680042571.80043602,205185109,0,3,253789800,2255,18,0.6,42.6898781,-84.4887225,282.54,0.6469776034355164,264.50091552734375,-0.006000000052154064,0.0,1
1680042572.02119207,205405865,0,3,253790000,2255,18,0.6,42.689878,-84.4887242,282.55,0.7330661416053772,265.69720458984375,-0.11300000548362732,0.0,1
1680042572.22051311,205605186,0,3,253790200,2255,18,0.6,42.6898779,-84.488726,282.59000000000003,0.7551695704460144,268.7859802246094,-0.08300000429153442,0.0,1
1680042572.42125511,205805928,0,3,253790400,2255,18,0.6,42.6898781,-84.48872759999999,282.62,0.6657041311264038,276.8154296875,-0.15400001406669617,0.0,1
1680042572.60036922,205985042,0,3,253790600,2255,18,0.6,42.689878199999995,-84.4887291,282.64,0.6622703671455383,273.5493469238281,-0.09800000488758087,0.0,1
1680042572.82012606,206204799,0,3,253790800,2255,18,0.6,42.6898783,-84.4887306,282.66,0.6320957541465759,269.00286865234375,-0.03200000151991844,0.0,1
1680042573.00039315,206385066,0,3,253791000,2255,18,0.6,42.6898783,-84.488732,282.66,0.551003634929657,270.2079772949219,-0.05300000309944153,0.0,1
1680042573.22010207,206604775,0,3,253791200,2255,18,0.6,42.6898783,-84.4887334,282.66,0.5751052498817444,271.0959777832031,0.03800000250339508,0.0,1
1680042573.42130804,206805981,0,3,253791400,2255,18,0.6,42.6898783,-84.4887347,282.66,0.5329033732414246,265.156005859375,0.004000000189989805,0.0,1
1680042573.62018704,207004860,0,3,253791600,2255,18,0.6,42.689878199999995,-84.4887359,282.64,0.47574153542518616,263.84600830078125,-0.023000001907348633,0.0,1
1680042573.82002521,207204698,0,3,253791800,2255,18,0.6,42.6898781,-84.488737,282.62,0.3958004415035248,263.18023681640625,0.055000003427267075,0.0,1
1680042574.00039601,207385069,0,3,253792000,2255,18,0.6,42.6898781,-84.488738,282.6,0.4320937395095825,271.1934814453125,0.09700000286102295,0.0,1
1680042574.20009708,207584770,0,3,253792200,2255,18,0.6,42.6898781,-84.4887389,282.6,0.3574143350124359,260.9857177734375,-0.020000001415610313,0.0,1
1680042574.40016007,207784833,0,3,253792400,2255,18,0.6,42.6898781,-84.4887397,282.59000000000003,0.3750546872615814,261.56744384765625,0.004000000189989805,0.0,1
1680042574.60020924,207984882,0,3,253792600,2255,18,0.6,42.6898781,-84.48874049999999,282.59000000000003,0.3120657205581665,259.6623229980469,0.02500000037252903,0.0,1
1680042574.82114816,208205821,0,3,253792800,2255,17,0.6,42.689878,-84.48874119999999,282.58,0.3082742691040039,267.5831298828125,0.03100000135600567,0.0,1
1680042575.02119422,208405867,0,3,253793000,2255,18,0.6,42.689878,-84.4887419,282.57,0.2556423544883728,260.3166198730469,0.00800000037997961,0.0,1
1680042575.20006919,208584742,0,3,253793200,2255,18,0.6,42.689878,-84.4887425,282.55,0.24829016625881195,267.22979736328125,-0.01900000125169754,0.0,1
1680042575.42125511,208805928,0,3,253793400,2255,18,0.6,42.689878,-84.488743,282.54,0.2052437663078308,267.2073059082031,0.04400000348687172,0.0,1
1680042575.62106204,209005735,0,3,253793600,2255,18,0.6,42.689878,-84.48874339999999,282.51,0.18866372108459473,258.6900634765625,0.010000000707805157,0.0,1
1680042575.80041218,209185085,0,3,253793800,2255,18,0.6,42.689878,-84.4887438,282.49,0.1705579310655594,262.2499694824219,0.055000003427267075,0.0,1
1680042576.04017520,209424848,0,3,253794000,2255,18,0.6,42.689878,-84.4887442,282.5,0.1336338371038437,264.41741943359375,0.05400000140070915,0.0,1
1680042576.20038819,209585061,0,3,253794200,2255,18,0.6,42.689878,-84.4887445,282.5,0.10920165479183197,285.9454040527344,0.0010000000474974513,0.0,1
1680042576.42016411,209804837,0,3,253794400,2255,18,0.6,42.6898781,-84.4887447,282.5,0.10017984360456467,266.5663757324219,-0.027000000700354576,0.0,1
1680042576.62003613,210004709,0,3,253794600,2255,18,0.6,42.6898781,-84.4887449,282.5,0.07106335461139679,283.8406982421875,0.015000000596046448,0.0,1
1680042576.82010722,210204780,0,3,253794800,2255,18,0.6,42.6898781,-84.488745,282.51,0.04440721124410629,305.837646484375,0.12800000607967377,0.0,1
1680042577.02015424,210404827,0,3,253795000,2255,17,0.6,42.6898777,-84.488745,282.51,0.5571651458740234,172.98977661132812,-0.42100003361701965,0.0,1
1680042577.20016503,210584838,0,3,253795200,2255,18,0.6,42.689876299999995,-84.48874479999999,282.58,1.0222818851470947,178.6547393798828,0.10100000351667404,0.0,1
1680042577.42115712,210805830,0,3,253795400,2255,17,0.6,42.6898741,-84.48874479999999,282.57,1.4490221738815308,179.68365478515625,0.25200000405311584,0.0,1
1680042577.62050605,211005179,0,3,253795600,2255,18,0.6,42.6898711,-84.48874459999999,282.61,1.938158392906189,178.01893615722656,0.10700000822544098,0.0,1
1680042577.82135510,211206028,0,3,253795800,2255,18,0.6,42.6898675,-84.4887444,282.6,1.9392848014831543,175.38601684570312,0.009000000543892384,0.0,1
1680042578.02135420,211406027,0,3,253796000,2255,18,0.6,42.689864199999995,-84.488744,282.59000000000003,1.779746174812317,174.0010986328125,0.08900000154972076,0.0,1
1680042578.22126222,211605935,0,3,253796200,2255,18,0.6,42.689861199999996,-84.48874359999999,282.58,1.5647048950195312,173.6153106689453,0.16900001466274261,0.0,1
1680042578.40014219,211784815,0,3,253796400,2255,18,0.6,42.6898585,-84.4887432,282.56,1.4013497829437256,173.0321807861328,0.1290000081062317,0.0,1
1680042578.62117219,212005845,0,3,253796600,2255,18,0.6,42.6898561,-84.4887427,282.56,1.2856003046035767,170.50836181640625,0.06300000101327896,0.0,1
1680042578.80033302,212185006,0,3,253796800,2255,18,0.6,42.689853899999996,-84.4887421,282.55,1.1409471035003662,165.37911987304688,0.11700000613927841,0.0,1
1680042579.02135205,212406025,0,3,253797000,2255,18,0.6,42.6898516,-84.4887414,282.55,1.4475101232528687,171.3380889892578,-0.18900001049041748,0.0,1
1680042579.22004414,212604717,0,3,253797200,2255,18,0.6,42.6898488,-84.4887408,282.59000000000003,1.7727223634719849,173.1315460205078,0.23600001633167267,0.0,1
1680042579.40067911,212785352,0,3,253797400,2255,18,0.6,42.6898455,-84.4887401,282.56,1.9877527952194214,170.4144744873047,0.12700000405311584,0.0,1
1680042579.60033107,212985004,0,3,253797600,2255,18,0.6,42.689841699999995,-84.48873909999999,282.57,2.3094770908355713,170.52951049804688,0.11900000274181366,0.0,1
1680042579.80033302,213185006,0,3,253797800,2255,18,0.6,42.6898377,-84.48873809999999,282.59000000000003,2.210786819458008,169.3914794921875,-0.046000003814697266,0.0,1
1680042580.02015209,213404825,0,3,253798000,2255,18,0.6,42.689834,-84.4887371,282.56,2.0004265308380127,168.31932067871094,0.13600000739097595,0.0,1
1680042580.20046020,213585133,0,3,253798200,2255,18,0.6,42.6898306,-84.4887361,282.53000000000003,1.859561800956726,166.34486389160156,0.10200000554323196,0.0,1
1680042580.40004516,213784718,0,3,253798400,2255,18,0.6,42.6898274,-84.4887349,282.52,1.8744983673095703,165.16307067871094,-0.13700000941753387,0.0,1
1680042580.60009217,213984765,0,3,253798600,2255,18,0.6,42.689824,-84.4887335,282.59000000000003,2.1157867908477783,164.31497192382812,0.2590000033378601,0.0,1
1680042580.80016422,214184837,0,3,253798800,2255,18,0.6,42.689820399999995,-84.4887321,282.54,2.129227638244629,166.1138458251953,0.4390000104904175,0.0,1
1680042581.00020313,214384876,0,3,253799000,2255,18,0.6,42.689816199999996,-84.48873069999999,282.53000000000003,2.637192726135254,166.4696044921875,0.10400000214576721,0.0,1
1680042581.20041704,214585090,0,3,253799200,2255,18,0.6,42.6898117,-84.4887293,282.51,2.513233184814453,167.96572875976562,0.1120000034570694,0.0,1
1680042581.42133617,214806009,0,3,253799400,2255,18,0.6,42.6898075,-84.4887279,282.47,2.343275308609009,165.341064453125,0.1720000058412552,0.0,1
1680042581.60015321,214984826,0,3,253799600,2255,18,0.6,42.6898037,-84.4887263,282.48,2.0855371952056885,161.7822265625,0.1340000033378601,0.0,1
1680042581.80021811,215184891,0,3,253799800,2255,18,0.6,42.6898002,-84.4887248,282.48,1.9436055421829224,162.04978942871094,-0.11300000548362732,0.0,1
1680042582.02110720,215405780,0,3,253800000,2255,18,0.6,42.6897966,-84.4887232,282.53000000000003,2.275804281234741,163.85055541992188,0.19700001180171967,0.0,1
1680042582.20033622,215585009,0,3,253800200,2255,18,0.6,42.689792499999996,-84.4887217,282.49,2.424474000930786,166.45094299316406,0.36000001430511475,0.0,1
1680042582.40033603,215785009,0,3,253800400,2255,18,0.6,42.6897877,-84.4887202,282.49,2.9985339641571045,167.63697814941406,-0.0020000000949949026,0.0,1
1680042582.60037518,215985048,0,3,253800600,2255,18,0.6,42.689782699999995,-84.48871849999999,282.48,2.76054310798645,166.03924560546875,0.08400000631809235,0.0,1
1680042582.80064917,216185322,0,3,253800800,2255,18,0.6,42.689778,-84.488717,282.47,2.6758956909179688,165.9637451171875,0.007000000216066837,0.0,1
1680042583.00027823,216384951,0,3,253801000,2255,18,0.6,42.689773599999995,-84.48871539999999,282.49,2.3634603023529053,164.36428833007812,0.017000000923871994,0.0,1
1680042583.20030403,216584977,0,3,253801200,2255,18,0.6,42.6897696,-84.4887138,282.5,2.223836898803711,162.16795349121094,0.14000000059604645,0.0,1
1680042583.40034819,216785021,0,3,253801400,2255,18,0.6,42.6897655,-84.48871199999999,282.52,2.584026575088501,163.22003173828125,0.0010000000474974513,0.0,1
1680042583.62011623,217004789,0,3,253801600,2255,18,0.6,42.689760799999995,-84.4887102,282.53000000000003,2.8480117321014404,165.0024871826172,0.31200000643730164,0.0,1
1680042583.80014205,217184815,0,3,253801800,2255,18,0.6,42.6897557,-84.4887084,282.5,3.101822853088379,166.7298583984375,0.08300000429153442,0.0,1
1680042584.00002623,217384699,0,3,253802000,2255,18,0.6,42.6897502,-84.4887064,282.52,3.1732006072998047,164.6498565673828,-0.017000000923871994,0.0,1
1680042584.20010519,217584778,0,3,253802200,2255,18,0.6,42.6897449,-84.4887044,282.51,3.0490081310272217,163.87132263183594,-0.04700000211596489,0.0,1
1680042584.40043712,217785110,0,3,253802400,2255,18,0.6,42.6897399,-84.4887023,282.51,2.798895835876465,163.0281982421875,-0.04500000178813934,0.0,1
1680042584.60021615,217984889,0,3,253802600,2255,18,0.6,42.689735299999995,-84.48870029999999,282.5,2.6339738368988037,161.0353546142578,0.14400000870227814,0.0,1
1680042584.82136607,218206039,0,3,253802800,2255,18,0.6,42.6897306,-84.488698,282.51,2.9522950649261475,160.7364959716797,-0.07500000298023224,0.0,1
1680042585.02016211,218404835,0,3,253803000,2255,18,0.6,42.6897254,-84.4886956,282.5,3.130767822265625,162.815185546875,0.20000000298023224,0.0,1
1680042585.20038104,218585054,0,3,253803200,2255,18,0.6,42.689720099999995,-84.4886933,282.46,3.172484874725342,164.15878295898438,0.28200000524520874,0.0,1
1680042585.42013407,218804807,0,3,253803400,2255,18,0.6,42.6897144,-84.488691,282.45,3.3992722034454346,163.01499938964844,0.06100000441074371,0.0,1
1680042585.62034011,219005013,0,3,253803600,2255,18,0.6,42.6897087,-84.4886886,282.45,3.199909210205078,161.58201599121094,-0.036000002175569534,0.0,1
1680042585.80035019,219185023,0,3,253803800,2255,18,0.6,42.6897035,-84.4886861,282.42,3.050645351409912,160.74539184570312,-0.03800000250339508,0.0,1
1680042586.02119517,219405868,0,3,253804000,2255,18,0.6,42.6896985,-84.4886836,282.44,2.8673505783081055,158.45462036132812,0.08800000697374344,0.0,1
1680042586.20039415,219585067,0,3,253804200,2255,18,0.6,42.689693999999996,-84.488681,282.42,2.596280813217163,155.10308837890625,0.015000000596046448,0.0,1
1680042586.40019417,219784867,0,3,253804400,2255,18,0.6,42.6896899,-84.4886784,282.42,2.408188819885254,154.4670867919922,0.07400000095367432,0.0,1
1680042586.60003901,219984712,0,3,253804600,2255,18,0.6,42.6896862,-84.4886756,282.41,2.2883098125457764,148.9288787841797,0.07300000637769699,0.0,1
1680042586.80036807,220185041,0,3,253804800,2255,18,0.6,42.6896829,-84.48867279999999,282.39,2.074946165084839,148.01803588867188,0.1510000079870224,0.0,1
1680042587.02019405,220404867,0,3,253805000,2255,18,0.6,42.6896798,-84.4886701,282.36,2.0007572174072266,144.21263122558594,0.17000000178813934,0.0,1
1680042587.22051811,220605191,0,3,253805200,2255,18,0.6,42.6896771,-84.4886671,282.39,1.8555485010147095,137.31504821777344,-0.03400000184774399,0.0,1
1680042587.40037107,220785044,0,3,253805400,2255,18,0.6,42.6896748,-84.488664,282.40000000000003,1.7607877254486084,133.2740478515625,-0.07000000029802322,0.0,1
1680042587.60019922,220984872,0,3,253805600,2255,18,0.6,42.689672699999996,-84.48866079999999,282.42,1.645316481590271,128.98068237304688,-0.05100000277161598,0.0,1
1680042587.80031800,221184991,0,3,253805800,2255,18,0.6,42.689671,-84.4886578,282.45,1.5006389617919922,127.2822494506836,-0.08800000697374344,0.0,1
1680042588.02133322,221406006,0,3,253806000,2255,18,0.6,42.6896694,-84.488655,282.48,1.3319655656814575,125.52767181396484,-0.012000000104308128,0.0,1
1680042588.20017624,221584849,0,3,253806200,2255,18,0.6,42.6896682,-84.4886525,282.48,1.136521577835083,120.92051696777344,-0.08700000494718552,0.0,1
1680042588.40002418,221784697,0,3,253806400,2255,18,0.6,42.689667299999996,-84.4886504,282.49,0.822477400302887,119.9004135131836,-0.0430000014603138,0.0,1
1680042588.60011816,221984791,0,3,253806600,2255,18,0.6,42.6896668,-84.4886489,282.49,0.6091731786727905,109.56524658203125,0.005000000353902578,0.0,1
1680042588.80038309,222185056,0,3,253806800,2255,18,0.6,42.689666599999995,-84.48864789999999,282.49,0.2771371603012085,77.91968536376953,-0.05300000309944153,0.0,1
1680042589.00039911,222385072,0,3,253807000,2255,18,0.6,42.6896669,-84.4886475,282.49,0.32184624671936035,14.208949089050293,0.03700000047683716,0.0,1
1680042589.20042014,222585093,0,3,253807200,2255,18,0.6,42.6896676,-84.4886476,282.49,0.44966211915016174,345.84014892578125,0.06000000238418579,0.0,1
1680042589.40034509,222785018,0,3,253807400,2255,18,0.6,42.6896686,-84.488648,282.45,0.6983094215393066,337.25390625,0.020000001415610313,0.0,1
1680042589.60010719,222984780,0,3,253807600,2255,18,0.6,42.68967,-84.4886489,282.47,0.9718940854072571,332.61761474609375,0.032999999821186066,0.0,1
1680042589.80014706,223184820,0,3,253807800,2255,18,0.6,42.6896717,-84.4886502,282.46,1.2251473665237427,332.326416015625,0.03800000250339508,0.0,1
1680042590.00019813,223384871,0,3,253808000,2255,18,0.6,42.6896738,-84.4886518,282.46,1.38907790184021,330.5007019042969,0.029000001028180122,0.0,1
1680042590.22009611,223604769,0,3,253808200,2255,18,0.6,42.6896762,-84.4886535,282.45,1.6222963333129883,332.4240417480469,-0.07400000095367432,0.0,1
1680042590.40024209,223784915,0,3,253808400,2255,18,0.6,42.6896791,-84.4886555,282.44,1.877402901649475,333.4212951660156,-0.049000002443790436,0.0,1
1680042590.60030413,223984977,0,3,253808600,2255,18,0.6,42.6896823,-84.4886575,282.45,2.0624310970306396,336.7539978027344,-0.07300000637769699,0.0,1
1680042590.80036116,224185034,0,3,253808800,2255,18,0.6,42.6896859,-84.48865959999999,282.44,2.276879072189331,337.0723571777344,-0.023000001907348633,0.0,1
1680042591.00036120,224385034,0,3,253809000,2255,18,0.6,42.6896898,-84.4886617,282.43,2.323729991912842,336.8111267089844,-0.0430000014603138,0.0,1
1680042591.20033407,224585007,0,3,253809200,2255,18,0.6,42.6896938,-84.4886641,282.43,2.5209858417510986,336.5059814453125,0.0430000014603138,0.0,1
1680042591.40009308,224784766,0,3,253809400,2255,18,0.6,42.689698199999995,-84.4886666,282.43,2.690230131149292,337.8110046386719,-0.015000000596046448,0.0,1
1680042591.60015106,224984824,0,3,253809600,2255,18,0.6,42.6897028,-84.488669,282.46,2.8044610023498535,339.74285888671875,-0.10100000351667404,0.0,1
