timestamp,TimeUS,Lat,Lng,Alt,RelHomeAlt,RelOriginAlt
1680042508.38076615,141765439,42.689959699999996,-84.4889189,284.8800048828125,1.5438532829284668,1.5438532829284668
1680042508.48077321,141865446,42.6899598,-84.488919,284.8800048828125,1.5427119731903076,1.5427119731903076
1680042508.58081913,141965492,42.6899598,-84.48891909999999,284.8800048828125,1.5431609153747559,1.5431609153747559
1680042508.68090320,142065576,42.6899598,-84.48891909999999,284.8800048828125,1.5416481494903564,1.5416481494903564
1680042508.78088403,142165557,42.6899599,-84.4889192,284.8699951171875,1.5391409397125244,1.5391409397125244
1680042508.88073206,142265405,42.6899599,-84.48891929999999,284.8699951171875,1.5352692604064941,1.5352692604064941
1680042508.98059201,142365265,42.6899599,-84.4889194,284.8699951171875,1.5325465202331543,1.5325465202331543
1680042509.08058023,142465253,42.68996,-84.4889195,284.8699951171875,1.5316811800003052,1.5316811800003052
1680042509.18059611,142565269,42.68996,-84.4889195,284.8699951171875,1.5315971374511719,1.5315971374511719
1680042509.28076410,142665437,42.68996,-84.4889196,284.8699951171875,1.5318154096603394,1.5318154096603394
1680042509.38085008,142765523,42.68996,-84.4889197,284.8699951171875,1.5319968461990356,1.5319968461990356
1680042509.48053217,142865205,42.6899601,-84.48891979999999,284.8699951171875,1.5341227054595947,1.5341227054595947
1680042509.58065915,142965332,42.6899601,-84.48891979999999,284.8699951171875,1.5359997749328613,1.5359997749328613
1680042509.68079400,143065467,42.6899601,-84.4889199,284.8699951171875,1.5369220972061157,1.5369220972061157
1680042509.78088713,143165560,42.6899601,-84.48892,284.8699951171875,1.5384706258773804,1.5384706258773804
1680042509.88088202,143265555,42.6899601,-84.4889201,284.8800048828125,1.5405218601226807,1.5405218601226807
1680042509.98083401,143365507,42.6899602,-84.4889201,284.8800048828125,1.5423325300216675,1.5423325300216675
1680042510.08079410,143465467,42.6899602,-84.4889202,284.8800048828125,1.5423263311386108,1.5423263311386108
1680042510.18075609,143565429,42.6899602,-84.48892029999999,284.8800048828125,1.5424480438232422,1.5424480438232422
1680042510.28093719,143665610,42.6899602,-84.4889204,284.8800048828125,1.5437253713607788,1.5437253713607788
1680042510.38085413,143765527,42.689960299999996,-84.4889204,284.8800048828125,1.5458418130874634,1.5458418130874634
1680042510.48094511,143865618,42.689960299999996,-84.48892049999999,284.8800048828125,1.5467276573181152,1.5467276573181152
1680042510.58080411,143965477,42.6899604,-84.4889206,284.8800048828125,1.5472224950790405,1.5472224950790405
1680042510.68078303,144065456,42.6899604,-84.4889207,284.8800048828125,1.5476319789886475,1.5476319789886475
1680042510.78072619,144165399,42.6899604,-84.4889208,284.8800048828125,1.548771619796753,1.548771619796753
1680042510.88088322,144265556,42.6899605,-84.4889209,284.8800048828125,1.5498661994934082,1.5498661994934082
1680042510.98077917,144365452,42.6899605,-84.48892099999999,284.8899841308594,1.551298975944519,1.551298975944519
1680042511.08072901,144465402,42.6899605,-84.4889211,284.8899841308594,1.5519404411315918,1.5519404411315918
1680042511.18093014,144565603,42.6899606,-84.4889212,284.8899841308594,1.5521873235702515,1.5521873235702515
1680042511.28054523,144665218,42.6899606,-84.4889212,284.8899841308594,1.5515973567962646,1.5515973567962646
1680042511.38071203,144765385,42.6899606,-84.4889213,284.8899841308594,1.5519543886184692,1.5519543886184692
1680042511.48055315,144865226,42.6899607,-84.4889214,284.8899841308594,1.5500445365905762,1.5500445365905762
1680042511.58067203,144965345,42.6899607,-84.4889214,284.8800048828125,1.548315167427063,1.548315167427063
1680042511.68055701,145065230,42.6899607,-84.48892149999999,284.8800048828125,1.5463578701019287,1.5463578701019287
1680042511.78057814,145165251,42.6899608,-84.4889216,284.8800048828125,1.5466097593307495,1.5466097593307495
1680042511.88065815,145265331,42.6899608,-84.48892169999999,284.8800048828125,1.548192024230957,1.548192024230957
1680042511.98063016,145365303,42.6899608,-84.4889218,284.8899841308594,1.5511022806167603,1.5511022806167603
1680042512.08057308,145465246,42.6899608,-84.4889218,284.8899841308594,1.5532668828964233,1.5532668828964233
1680042512.18055606,145565229,42.689960899999996,-84.4889219,284.8899841308594,1.5548220872879028,1.5548220872879028
1680042512.28089213,145665565,42.689960899999996,-84.488922,284.8899841308594,1.557050108909607,1.557050108909607
1680042512.38091016,145765583,42.689961,-84.488922,284.8999938964844,1.560144305229187,1.560144305229187
1680042512.48089910,145865572,42.689961,-84.4889221,284.8999938964844,1.5620869398117065,1.5620869398117065
1680042512.58099914,145965672,42.689961,-84.4889221,284.8999938964844,1.5628854036331177,1.5628854036331177
1680042512.68081212,146065485,42.6899611,-84.48892219999999,284.8999938964844,1.5616283416748047,1.5616283416748047
1680042512.78076720,146165440,42.6899611,-84.4889223,284.8999938964844,1.5605511665344238,1.5605511665344238
1680042512.88084602,146265519,42.6899612,-84.4889223,284.8999938964844,1.560408115386963,1.560408115386963
1680042512.98101020,146365683,42.6899612,-84.48892239999999,284.8999938964844,1.5616471767425537,1.5616471767425537
1680042513.08082223,146465495,42.6899613,-84.4889225,284.8999938964844,1.5628662109375,1.5628662109375
1680042513.18066216,146565335,42.6899613,-84.4889225,284.8999938964844,1.564849853515625,1.564849853515625
1680042513.28053403,146665207,42.6899613,-84.4889226,284.8999938964844,1.569141149520874,1.569141149520874
1680042513.38070321,146765376,42.6899614,-84.4889226,284.9100036621094,1.574987530708313,1.574987530708313
1680042513.48053408,146865207,42.6899614,-84.48892269999999,284.91998291015625,1.5803890228271484,1.5803890228271484
1680042513.58059621,146965269,42.689961499999995,-84.48892269999999,284.91998291015625,1.5857900381088257,1.5857900381088257
1680042513.68076706,147065440,42.689961499999995,-84.4889228,284.91998291015625,1.5882638692855835,1.5882638692855835
1680042513.78077507,147165448,42.6899616,-84.48892289999999,284.92999267578125,1.5901938676834106,1.5901938676834106
1680042513.88084602,147265519,42.6899616,-84.48892289999999,284.92999267578125,1.5931720733642578,1.5931720733642578
1680042513.98060513,147365278,42.6899617,-84.488923,284.92999267578125,1.595876932144165,1.595876932144165
1680042514.08079910,147465472,42.6899617,-84.488923,284.92999267578125,1.5976414680480957,1.5976414680480957
1680042514.18080020,147565473,42.6899618,-84.4889231,284.92999267578125,1.5992048978805542,1.5992048978805542
1680042514.28089619,147665569,42.6899618,-84.4889232,284.94000244140625,1.600097894668579,1.600097894668579
1680042514.38089705,147765570,42.6899619,-84.4889232,284.94000244140625,1.6019853353500366,1.6019853353500366
1680042514.48106503,147865738,42.6899619,-84.4889233,284.94000244140625,1.6034091711044312,1.6034091711044312
1680042514.58096409,147965637,42.689962,-84.4889233,284.94000244140625,1.6051037311553955,1.6051037311553955
1680042514.68067503,148065348,42.689962,-84.48892339999999,284.94000244140625,1.6031248569488525,1.6031248569488525
1680042514.78053212,148165205,42.689962099999995,-84.4889235,284.94000244140625,1.6009942293167114,1.6009942293167114
1680042514.88062310,148265296,42.6899622,-84.4889235,284.92999267578125,1.5987037420272827,1.5987037420272827
1680042514.98061013,148365283,42.6899622,-84.48892359999999,284.92999267578125,1.5979673862457275,1.5979673862457275
1680042515.08051920,148465192,42.6899623,-84.48892359999999,284.92999267578125,1.598393440246582,1.598393440246582
1680042515.18097520,148565648,42.6899623,-84.4889237,284.92999267578125,1.5987554788589478,1.5987554788589478
1680042515.28082824,148665501,42.6899624,-84.4889238,284.92999267578125,1.5981651544570923,1.5981651544570923
1680042515.38065505,148765328,42.6899625,-84.4889238,284.92999267578125,1.5981264114379883,1.5981264114379883
1680042515.48058510,148865258,42.6899625,-84.4889239,284.92999267578125,1.5990900993347168,1.5990900993347168
1680042515.58061123,148965284,42.6899626,-84.4889239,284.94000244140625,1.6015734672546387,1.6015734672546387
1680042515.68054008,149065213,42.6899626,-84.4889239,284.94000244140625,1.6039879322052002,1.6039879322052002
1680042515.78056312,149165236,42.689962699999995,-84.488924,284.94000244140625,1.6077910661697388,1.6077910661697388
1680042515.88072205,149265395,42.689962799999996,-84.488924,284.9499816894531,1.613555669784546,1.613555669784546
1680042515.98060417,149365277,42.689962799999996,-84.48892409999999,284.9499816894531,1.6179845333099365,1.6179845333099365
1680042516.08059907,149465272,42.6899629,-84.48892409999999,284.9599914550781,1.6217074394226074,1.6217074394226074
1680042516.18055916,149565232,42.6899629,-84.4889242,284.9599914550781,1.6259809732437134,1.6259809732437134
1680042516.28059220,149665265,42.689963,-84.4889243,284.9700012207031,1.632347822189331,1.632347822189331
1680042516.38086605,149765539,42.689963,-84.4889243,284.97998046875,1.640392541885376,1.640392541885376
1680042516.48057604,149865249,42.6899631,-84.4889243,284.97998046875,1.6449534893035889,1.6449534893035889
1680042516.58058500,149965258,42.6899631,-84.4889244,284.97998046875,1.648658037185669,1.648658037185669
1680042516.68055320,150065226,42.6899632,-84.4889244,284.989990234375,1.6508896350860596,1.6508896350860596
1680042516.78073311,150165406,42.689963299999995,-84.4889245,284.989990234375,1.6523782014846802,1.6523782014846802
1680042516.88062620,150265299,42.689963299999995,-84.4889245,284.989990234375,1.6526395082473755,1.6526395082473755
1680042516.98100305,150365676,42.689963399999996,-84.48892459999999,284.989990234375,1.6539087295532227,1.6539087295532227
1680042517.08084106,150465514,42.689963399999996,-84.4889247,284.989990234375,1.6540980339050293,1.6540980339050293
1680042517.18059015,150565263,42.689963399999996,-84.4889247,284.989990234375,1.6540329456329346,1.6540329456329346
1680042517.28060317,150665276,42.6899635,-84.48892479999999,284.989990234375,1.6511824131011963,1.6511824131011963
1680042517.38065720,150765330,42.6899635,-84.48892479999999,284.989990234375,1.6501578092575073,1.6501578092575073
1680042517.48052812,150865201,42.6899635,-84.4889249,284.97998046875,1.6483510732650757,1.6483510732650757
1680042517.58064914,150965322,42.6899636,-84.4889249,284.97998046875,1.647741675376892,1.647741675376892
1680042517.68056417,151065237,42.6899636,-84.488925,284.97998046875,1.6484187841415405,1.6484187841415405
1680042517.78052807,151165201,42.6899636,-84.488925,284.97998046875,1.6498463153839111,1.6498463153839111
1680042517.88071704,151265390,42.6899637,-84.4889251,284.97998046875,1.648526906967163,1.648526906967163
1680042517.98090410,151365577,42.6899637,-84.4889251,284.97998046875,1.6474312543869019,1.6474312543869019
1680042518.08059001,151465263,42.6899637,-84.4889252,284.97998046875,1.6441158056259155,1.6441158056259155
1680042518.18060422,151565277,42.6899637,-84.4889252,284.97998046875,1.6436975002288818,1.6436975002288818
1680042518.28058219,151665255,42.6899638,-84.4889254,284.97998046875,1.6423437595367432,1.6423437595367432
1680042518.38068414,151765357,42.6899638,-84.4889254,284.97998046875,1.641993761062622,1.641993761062622
1680042518.48054314,151865216,42.6899638,-84.4889254,284.97998046875,1.643068552017212,1.643068552017212
1680042518.58066010,151965333,42.689963899999995,-84.4889254,284.97998046875,1.6455200910568237,1.6455200910568237
1680042518.68085909,152065532,42.689963899999995,-84.4889255,284.97998046875,1.646162509918213,1.646162509918213
1680042518.78065801,152165331,42.689963899999995,-84.4889255,284.97998046875,1.6479171514511108,1.6479171514511108
1680042518.88112521,152265798,42.689963899999995,-84.4889255,284.97998046875,1.6491590738296509,1.6491590738296509
1680042518.98086905,152365542,42.689963999999996,-84.4889256,284.989990234375,1.6503534317016602,1.6503534317016602
1680042519.08076215,152465435,42.689963999999996,-84.4889257,284.989990234375,1.6500798463821411,1.6500798463821411
1680042519.18079805,152565471,42.689963999999996,-84.4889257,284.989990234375,1.6500698328018188,1.6500698328018188
1680042519.28078508,152665458,42.6899641,-84.48892579999999,284.97998046875,1.6481014490127563,1.6481014490127563
1680042519.38088608,152765559,42.6899641,-84.48892579999999,284.97998046875,1.6456272602081299,1.6456272602081299
1680042519.48108506,152865758,42.6899641,-84.4889259,284.97998046875,1.6434122323989868,1.6434122323989868
1680042519.58101606,152965689,42.6899641,-84.4889259,284.97998046875,1.6417306661605835,1.6417306661605835
1680042519.68091917,153065592,42.6899641,-84.4889259,284.97998046875,1.6411573886871338,1.6411573886871338
1680042519.78085113,153165524,42.6899641,-84.48892599999999,284.97998046875,1.640373706817627,1.640373706817627
1680042519.88094115,153265614,42.6899641,-84.48892599999999,284.97998046875,1.6431353092193604,1.6431353092193604
1680042519.98082209,153365495,42.6899642,-84.48892599999999,284.97998046875,1.646600604057312,1.646600604057312
1680042520.08077717,153465450,42.6899641,-84.4889261,284.97998046875,1.649855375289917,1.649855375289917
1680042520.18097401,153565647,42.6899641,-84.4889261,284.989990234375,1.654093861579895,1.654093861579895
1680042520.28083205,153665505,42.6899641,-84.4889262,284.989990234375,1.6581028699874878,1.6581028699874878
1680042520.38098502,153765658,42.6899641,-84.4889262,285.0,1.6622793674468994,1.6622793674468994
1680042520.48081112,153865484,42.6899641,-84.4889262,285.0,1.6673779487609863,1.6673779487609863
1680042520.58066010,153965333,42.6899641,-84.4889262,285.0099792480469,1.672276496887207,1.672276496887207
1680042520.68074203,154065415,42.6899642,-84.4889262,285.0099792480469,1.675333023071289,1.675333023071289
1680042520.78077602,154165449,42.6899642,-84.4889262,285.0099792480469,1.67727792263031,1.67727792263031
1680042520.88079906,154265472,42.6899642,-84.4889262,285.0099792480469,1.6792261600494385,1.6792261600494385
1680042520.98108816,154365761,42.6899642,-84.4889262,285.0199890136719,1.6806055307388306,1.6806055307388306
1680042521.08078718,154465460,42.6899642,-84.4889262,285.0199890136719,1.6800569295883179,1.6800569295883179
1680042521.18054605,154565219,42.6899641,-84.4889262,285.0099792480469,1.6794800758361816,1.6794800758361816
1680042521.28058720,154665260,42.6899641,-84.4889263,285.0099792480469,1.6764086484909058,1.6764086484909058
1680042521.38063717,154765310,42.6899641,-84.4889263,285.0099792480469,1.673360824584961,1.673360824584961
1680042521.48058915,154865262,42.6899642,-84.4889264,285.0,1.6676734685897827,1.6676734685897827
1680042521.58056712,154965240,42.6899642,-84.4889264,285.0,1.6624724864959717,1.6624724864959717
1680042521.68081522,155065488,42.6899642,-84.4889264,284.989990234375,1.6566230058670044,1.6566230058670044
1680042521.78076220,155165435,42.6899642,-84.4889264,284.989990234375,1.6529247760772705,1.6529247760772705
1680042521.88064909,155265322,42.6899642,-84.4889264,284.97998046875,1.6485894918441772,1.6485894918441772
1680042521.98066521,155365338,42.6899643,-84.4889264,284.97998046875,1.6454626321792603,1.6454626321792603
1680042522.08054423,155465217,42.6899643,-84.4889264,284.97998046875,1.6427665948867798,1.6427665948867798
1680042522.18056417,155565237,42.6899643,-84.48892649999999,284.97998046875,1.6401232481002808,1.6401232481002808
1680042522.28049421,155665167,42.6899643,-84.4889266,284.9700012207031,1.6375700235366821,1.6375700235366821
1680042522.38072419,155765397,42.6899643,-84.4889266,284.9700012207031,1.6354296207427979,1.6354296207427979
1680042529.48080015,162865473,42.689963899999995,-84.4889238,285.0299987792969,0.007932519540190697,1.697932481765747
1680042529.58058214,162965255,42.689963899999995,-84.4889237,285.0299987792969,0.008261417970061302,1.6982613801956177
1680042529.68088222,163065555,42.6899638,-84.4889237,285.0299987792969,0.006734108552336693,1.696734070777893
1680042529.78079414,163165467,42.6899638,-84.4889237,285.0299987792969,0.0050699468702077866,1.6950699090957642
1680042529.88079619,163265469,42.6899637,-84.4889237,285.0299987792969,0.0045729633420705795,1.694572925567627
1680042529.98079610,163365469,42.6899637,-84.48892359999999,285.0299987792969,0.003955697640776634,1.693955659866333
1680042530.08093119,163465604,42.6899636,-84.48892359999999,285.0299987792969,0.002506112679839134,1.6925060749053955
1680042530.18097806,163565651,42.6899636,-84.48892359999999,285.0299987792969,0.001569962128996849,1.6915699243545532
1680042530.28055406,163665227,42.6899635,-84.48892359999999,285.0299987792969,0.0020018573850393295,1.6920018196105957
1680042530.38062406,163765297,42.6899635,-84.48892359999999,285.0299987792969,0.0028252359479665756,1.692825198173523
1680042530.48058224,163865255,42.689963399999996,-84.48892359999999,285.0299987792969,0.0035583730787038803,1.6935583353042603
1680042530.58053923,163965212,42.689963299999995,-84.48892359999999,285.0299987792969,0.004471277818083763,1.6944712400436401
1680042530.68058014,164065253,42.689963299999995,-84.4889235,285.0299987792969,0.002953624352812767,1.6929535865783691
1680042530.78079319,164165466,42.6899632,-84.4889235,285.0299987792969,0.0015829559415578842,1.6915829181671143
1680042530.88086104,164265534,42.6899632,-84.4889235,285.0199890136719,-0.0007850173860788345,1.6892149448394775
1680042530.98082805,164365501,42.6899632,-84.4889235,285.0199890136719,-0.0028211120516061783,1.6871788501739502
1680042531.08056402,164465237,42.6899631,-84.48892339999999,285.0199890136719,-0.001585269346833229,1.6884146928787231
1680042531.18058419,164565257,42.6899631,-84.48892339999999,285.0299987792969,0.0003571268171072006,1.6903570890426636
1680042531.28047705,164665150,42.6899631,-84.48892339999999,285.0299987792969,0.00039133988320827484,1.6903913021087646
1680042531.38071609,164765389,42.689963,-84.4889233,285.0299987792969,0.0003947969526052475,1.6903947591781616
1680042531.48061514,164865288,42.689963,-84.4889233,285.0299987792969,0.0005974527448415756,1.690597414970398
1680042531.58088017,164965553,42.6899629,-84.4889233,285.0299987792969,0.0010552164167165756,1.691055178642273
1680042531.68078804,165065461,42.6899629,-84.4889233,285.0199890136719,-0.0001901630312204361,1.689809799194336
1680042531.78059220,165165265,42.6899629,-84.4889232,285.0199890136719,-0.000998878851532936,1.6890010833740234
1680042531.88081717,165265490,42.689962799999996,-84.4889232,285.0199890136719,-0.0027671102434396744,1.6872328519821167
1680042531.98084903,165365522,42.689962799999996,-84.4889232,285.0199890136719,-0.00420990027487278,1.6857900619506836
1680042532.08086014,165465533,42.689962699999995,-84.4889232,285.0199890136719,-0.005154157057404518,1.6848458051681519
1680042532.18069315,165565366,42.689962699999995,-84.4889231,285.0199890136719,-0.00538184680044651,1.6846181154251099
1680042532.28110814,165665781,42.6899626,-84.4889231,285.0199890136719,-0.005438113585114479,1.684561848640442
1680042532.38115811,165765831,42.6899626,-84.48892289999999,285.0199890136719,-0.004856491461396217,1.6851434707641602
1680042532.48060107,165865274,42.6899625,-84.48892289999999,285.0199890136719,-0.003711843863129616,1.6862881183624268
1680042532.58059406,165965267,42.6899625,-84.48892289999999,285.0199890136719,-0.0023963693529367447,1.6876035928726196
1680042532.68059611,166065269,42.6899625,-84.48892289999999,285.0199890136719,-0.003015303984284401,1.686984658241272
1680042532.78057122,166165244,42.6899625,-84.48892289999999,285.0199890136719,-0.0031876806169748306,1.6868122816085815
1680042532.88063622,166265309,42.6899624,-84.4889228,285.0199890136719,-0.004503512755036354,1.68549644947052
1680042532.98095703,166365630,42.6899624,-84.4889228,285.0199890136719,-0.005297565832734108,1.6847023963928223
1680042533.08084106,166465514,42.6899624,-84.4889228,285.0199890136719,-0.00811626948416233,1.681883692741394
1680042533.18066001,166565333,42.6899624,-84.48892269999999,285.0199890136719,-0.009990120306611061,1.6800098419189453
1680042533.28056312,166665236,42.6899624,-84.48892269999999,285.0099792480469,-0.013117576017975807,1.6768823862075806
1680042533.38066220,166765335,42.6899624,-84.48892269999999,285.0099792480469,-0.015051508322358131,1.6749484539031982
1680042533.48059916,166865272,42.6899624,-84.48892269999999,285.0099792480469,-0.014548445120453835,1.6754515171051025
1680042533.58090806,166965581,42.6899624,-84.4889226,285.0099792480469,-0.012794280424714088,1.6772056818008423
1680042533.68081808,167065491,42.6899623,-84.4889226,285.0199890136719,-0.00916280783712864,1.6808371543884277
1680042533.78057814,167165251,42.6899623,-84.4889226,285.0199890136719,-0.005628252401947975,1.6843717098236084
1680042533.88095117,167265624,42.6899623,-84.4889225,285.0199890136719,-0.003038192167878151,1.6869617700576782
1680042533.98088908,167365562,42.6899623,-84.48892239999999,285.0299987792969,0.008490419015288353,1.6984903812408447
1680042534.08090711,167465580,42.6899622,-84.4889223,285.07000732421875,0.04601416736841202,1.7360141277313232
1680042534.18085718,167565530,42.6899623,-84.48892219999999,285.1300048828125,0.10924980789422989,1.7992497682571411
1680042534.28106713,167665740,42.6899623,-84.4889221,285.2200012207031,0.19410046935081482,1.8841004371643066
1680042534.38113213,167765805,42.6899622,-84.4889219,285.29998779296875,0.2784363925457001,1.968436360359192
1680042534.48060107,167865274,42.6899624,-84.4889218,285.3699951171875,0.3451724946498871,2.035172462463379
1680042534.58061409,167965287,42.6899625,-84.48892169999999,285.42999267578125,0.4026537835597992,2.092653751373291
1680042534.68084812,168065521,42.6899626,-84.48892149999999,285.4700012207031,0.4474738538265228,2.1374738216400146
1680042534.78092813,168165601,42.689962699999995,-84.4889214,285.5099792480469,0.4864703118801117,2.1764702796936035
1680042534.88096619,168265639,42.689962699999995,-84.4889212,285.5400085449219,0.5104225873947144,2.200422525405884
1680042534.98122311,168365896,42.689962799999996,-84.4889211,285.55999755859375,0.5361329317092896,2.226132869720459
1680042535.08090019,168465573,42.689962799999996,-84.4889209,285.5899963378906,0.5633445978164673,2.2533445358276367
1680042535.18062019,168565293,42.6899629,-84.4889207,285.6199951171875,0.591607928276062,2.2816078662872314
1680042535.28060317,168665276,42.689963,-84.48892049999999,285.6399841308594,0.6102954149246216,2.300295352935791
1680042535.38067007,168765343,42.6899631,-84.48892029999999,285.6399841308594,0.6187232732772827,2.308723211288452
1680042535.48063922,168865312,42.6899631,-84.4889201,285.6399841308594,0.6169344186782837,2.306934356689453
1680042535.58084607,168965519,42.6899632,-84.4889199,285.6399841308594,0.6115678548812866,2.301567792892456
1680042535.68098807,169065661,42.6899632,-84.48891979999999,285.6300048828125,0.6048449277877808,2.29484486579895
1680042535.78085923,169165532,42.689963299999995,-84.4889196,285.6199951171875,0.5994216203689575,2.289421558380127
1680042535.88074708,169265420,42.689963399999996,-84.4889194,285.6199951171875,0.5954641103744507,2.28546404838562
1680042535.98063207,169365305,42.689963399999996,-84.4889192,285.6099853515625,0.5889347791671753,2.2789347171783447
1680042536.08059812,169465271,42.6899635,-84.488919,285.6099853515625,0.5827344655990601,2.2727344036102295
1680042536.18063116,169565304,42.6899636,-84.4889188,285.6000061035156,0.5797077417373657,2.269707679748535
1680042536.28079224,169665465,42.6899637,-84.48891859999999,285.6099853515625,0.5807868242263794,2.270786762237549
1680042536.38088512,169765558,42.6899638,-84.4889184,285.6099853515625,0.5841084718704224,2.274108409881592
1680042536.48055315,169865226,42.689963899999995,-84.4889183,285.6199951171875,0.590255618095398,2.2802555561065674
1680042536.58057618,169965249,42.689963999999996,-84.48891809999999,285.6300048828125,0.6050375699996948,2.2950375080108643
1680042536.68080211,170065475,42.6899642,-84.48891789999999,285.6499938964844,0.6296819448471069,2.3196818828582764
1680042536.78090715,170165580,42.6899643,-84.4889177,285.69000244140625,0.660187840461731,2.3501877784729004
1680042536.88091803,170265591,42.689964499999995,-84.4889175,285.72998046875,0.7020803689956665,2.392080307006836
1680042536.98115611,170365829,42.6899647,-84.4889173,285.7799987792969,0.753947377204895,2.4439473152160645
1680042537.08080411,170465477,42.6899649,-84.4889171,285.8399963378906,0.8140488862991333,2.5040488243103027
1680042537.18062115,170565294,42.689965,-84.48891689999999,285.8999938964844,0.8796490430831909,2.5696489810943604
1680042537.28062606,170665299,42.689965199999996,-84.48891669999999,285.9700012207031,0.9471529722213745,2.637152910232544
1680042537.38065219,170765325,42.6899654,-84.4889165,286.0400085449219,1.0156766176223755,2.705676555633545
1680042537.48090315,170865576,42.6899656,-84.48891619999999,286.1099853515625,1.0841261148452759,2.7741260528564453
1680042537.58053613,170965209,42.689965799999996,-84.4889159,286.17999267578125,1.152342438697815,2.8423423767089844
1680042537.68098211,171065655,42.689966,-84.48891549999999,286.239990234375,1.2196305990219116,2.909630537033081
1680042537.78102112,171165694,42.6899662,-84.4889151,286.30999755859375,1.2844496965408325,2.974449634552002
1680042537.88068509,171265358,42.689966399999996,-84.48891449999999,286.3699951171875,1.3487352132797241,3.0387351512908936
1680042537.98065209,171365325,42.6899666,-84.4889139,286.44000244140625,1.412843108177185,3.1028430461883545
1680042538.08061123,171465284,42.6899667,-84.4889132,286.5,1.4720793962478638,3.162079334259033
1680042538.18061113,171565284,42.689966899999995,-84.48891239999999,286.54998779296875,1.5260950326919556,3.216094970703125
1680042538.28083801,171665511,42.689966999999996,-84.4889116,286.5899963378906,1.5697733163833618,3.2597732543945312
1680042538.38098407,171765657,42.6899671,-84.48891069999999,286.6300048828125,1.6078811883926392,3.2978811264038086
1680042538.48104620,171865719,42.6899671,-84.4889097,286.6600036621094,1.6350523233413696,3.325052261352539
1680042538.58067918,171965352,42.6899671,-84.4889087,286.67999267578125,1.658166527748108,3.3481664657592773
1680042538.68088412,172065557,42.689966999999996,-84.48890759999999,286.6999816894531,1.676841139793396,3.3668410778045654
1680042538.78101206,172165685,42.689966899999995,-84.4889065,286.7200012207031,1.6925960779190063,3.382596015930176
1680042538.88091111,172265584,42.6899666,-84.4889054,286.72998046875,1.706328272819519,3.3963282108306885
1680042538.98105907,172365732,42.6899665,-84.4889042,286.75,1.7212971448898315,3.411297082901001
1680042539.08081508,172465488,42.689966299999995,-84.4889029,286.75,1.7296892404556274,3.419689178466797
1680042539.18058014,172565253,42.6899661,-84.48890159999999,286.7599792480469,1.7362176179885864,3.426217555999756
1680042539.28066516,172665338,42.689965699999995,-84.48890019999999,286.7599792480469,1.7382007837295532,3.4282007217407227
1680042539.38063812,172765311,42.6899653,-84.4888988,286.7599792480469,1.737653374671936,3.4276533126831055
1680042539.48066401,172865337,42.6899649,-84.48889729999999,286.7599792480469,1.7350314855575562,3.4250314235687256
1680042539.58058619,172965259,42.689964499999995,-84.4888957,286.7599792480469,1.732181429862976,3.4221813678741455
1680042539.68083811,173065511,42.689963999999996,-84.48889419999999,286.7599792480469,1.7324084043502808,3.42240834236145
1680042539.78080821,173165481,42.6899635,-84.4888927,286.7599792480469,1.7352477312088013,3.4252476692199707
1680042539.88077617,173265449,42.689963,-84.4888914,286.7699890136719,1.7430917024612427,3.433091640472412
1680042539.98069501,173365368,42.6899624,-84.48889009999999,286.7799987792969,1.751015543937683,3.4410154819488525
1680042540.08079410,173465467,42.6899619,-84.4888888,286.7799987792969,1.7567967176437378,3.4467966556549072
1680042540.18087316,173565546,42.6899613,-84.48888749999999,286.7900085449219,1.763450264930725,3.4534502029418945
1680042540.28080201,173665475,42.6899607,-84.48888629999999,286.79998779296875,1.7716799974441528,3.4616799354553223
1680042540.38105011,173765723,42.6899602,-84.488885,286.80999755859375,1.787389874458313,3.4773898124694824
1680042540.48090911,173865582,42.689959699999996,-84.4888838,286.8399963378906,1.8109229803085327,3.500922918319702
1680042540.58060718,173965280,42.6899593,-84.4888825,286.8599853515625,1.8393734693527222,3.5293734073638916
1680042540.68060803,174065281,42.6899589,-84.4888812,286.8999938964844,1.8722184896469116,3.562218427658081
1680042540.78060603,174165279,42.6899586,-84.4888799,286.92999267578125,1.9059547185897827,3.595954656600952
1680042540.88069916,174265372,42.6899583,-84.4888785,286.9599914550781,1.9381009340286255,3.628100872039795
1680042540.98089314,174365566,42.689958,-84.4888771,286.989990234375,1.9684826135635376,3.658482551574707
1680042541.08090806,174465581,42.6899577,-84.4888756,287.0299987792969,2.000697612762451,3.69069766998291
1680042541.18089819,174565571,42.6899574,-84.4888742,287.05999755859375,2.0342941284179688,3.7242941856384277
1680042541.28067613,174665349,42.689957199999995,-84.4888726,287.0899963378906,2.068509101867676,3.7585091590881348
1680042541.38065815,174765331,42.689957,-84.4888711,287.1300048828125,2.104250907897949,3.794250965118408
1680042541.48059201,174865265,42.6899569,-84.48886949999999,287.16998291015625,2.140869379043579,3.830869436264038
1680042541.58061123,174965284,42.689956699999996,-84.4888679,287.2099914550781,2.1819112300872803,3.8719112873077393
1680042541.68080616,175065479,42.689956599999995,-84.48886619999999,287.2599792480469,2.2312381267547607,3.9212381839752197
1680042541.78081012,175165483,42.6899565,-84.48886449999999,287.30999755859375,2.2817537784576416,3.9717538356781006
1680042541.88064909,175265322,42.6899564,-84.48886279999999,287.3599853515625,2.332632064819336,4.022632122039795
1680042541.98084211,175365515,42.6899563,-84.4888611,287.4100036621094,2.3831019401550293,4.073101997375488
1680042542.08089423,175465567,42.689956099999996,-84.4888594,287.4599914550781,2.4306631088256836,4.120663166046143
1680042542.18100619,175565679,42.689955999999995,-84.48885779999999,287.5,2.47426176071167,4.164261817932129
1680042542.28089714,175665570,42.6899558,-84.48885609999999,287.5400085449219,2.5184779167175293,4.208477973937988
1680042542.38125610,175765929,42.6899557,-84.4888545,287.5899963378906,2.561751365661621,4.25175142288208
1680042542.48081207,175865485,42.689955499999996,-84.48885279999999,287.6300048828125,2.6018896102905273,4.291889667510986
1680042542.58063817,175965311,42.689955399999995,-84.488851,287.6600036621094,2.6394424438476562,4.329442501068115
1680042542.68061113,176065284,42.6899552,-84.4888493,287.69000244140625,2.669543743133545,4.359543800354004
1680042542.78058910,176165262,42.6899551,-84.4888476,287.7200012207031,2.6952004432678223,4.385200500488281
1680042542.88072610,176265399,42.6899551,-84.48884579999999,287.739990234375,2.7172341346740723,4.407234191894531
1680042542.98060012,176365273,42.689955,-84.4888441,287.7599792480469,2.7357254028320312,4.42572546005249
1680042543.08096218,176465635,42.689955,-84.4888424,287.7699890136719,2.7495808601379395,4.439580917358398
1680042543.18090010,176565573,42.6899549,-84.4888407,287.7900085449219,2.761003017425537,4.451003074645996
1680042543.28061724,176665290,42.6899549,-84.48883889999999,287.79998779296875,2.771681785583496,4.461681842803955
1680042543.38068318,176765356,42.689954799999995,-84.48883719999999,287.80999755859375,2.780088424682617,4.470088481903076
1680042543.48064423,176865317,42.689954799999995,-84.4888354,287.80999755859375,2.7847485542297363,4.474748611450195
1680042543.58061123,176965284,42.689954799999995,-84.4888337,287.80999755859375,2.787327766418457,4.477327823638916
1680042543.68058324,177065256,42.689954799999995,-84.4888319,287.80999755859375,2.7864580154418945,4.4764580726623535
1680042543.78091121,177165584,42.689954799999995,-84.4888302,287.80999755859375,2.780928134918213,4.470928192138672
1680042543.88096714,177265640,42.689954799999995,-84.4888284,287.7900085449219,2.769376754760742,4.459376811981201
1680042543.98097110,177365644,42.689954799999995,-84.48882669999999,287.7799987792969,2.7582340240478516,4.4482340812683105
1680042544.08090019,177465573,42.689954799999995,-84.4888249,287.7699890136719,2.746809959411621,4.43681001663208
1680042544.18078208,177565455,42.689954799999995,-84.48882309999999,287.7599792480469,2.736021041870117,4.426021099090576
1680042544.28073812,177665411,42.689954799999995,-84.4888213,287.75,2.724144458770752,4.414144515991211
1680042544.38082623,177765499,42.689954799999995,-84.48881949999999,287.739990234375,2.714242935180664,4.404242992401123
1680042544.48079610,177865469,42.6899547,-84.48881779999999,287.72998046875,2.708305835723877,4.398305892944336
1680042544.58056211,177965235,42.6899546,-84.488816,287.72998046875,2.7080235481262207,4.39802360534668
1680042544.68058109,178065254,42.6899545,-84.4888143,287.72998046875,2.708354949951172,4.398355007171631
1680042544.78054905,178165222,42.6899544,-84.4888126,287.739990234375,2.712601661682129,4.402601718902588
1680042544.88075423,178265427,42.689954199999995,-84.4888108,287.75,2.722228527069092,4.412228584289551
1680042544.98064709,178365320,42.689954,-84.48880919999999,287.7599792480469,2.737192153930664,4.427192211151123
1680042545.08062506,178465298,42.6899539,-84.4888075,287.7799987792969,2.7534494400024414,4.4434494972229
1680042545.18081307,178565486,42.6899537,-84.4888058,287.79998779296875,2.7728586196899414,4.4628586769104
1680042545.28062916,178665302,42.6899535,-84.48880419999999,287.82000732421875,2.796970844268799,4.486970901489258
1680042545.38088608,178765559,42.6899534,-84.4888027,287.8500061035156,2.8249197006225586,4.514919757843018
1680042545.48083210,178865505,42.6899533,-84.4888012,287.8800048828125,2.855435848236084,4.545435905456543
1680042545.58091116,178965584,42.6899532,-84.4887997,287.9100036621094,2.888801097869873,4.578801155090332
1680042545.68083906,179065512,42.6899532,-84.48879819999999,287.9499816894531,2.923671245574951,4.61367130279541
1680042545.78116322,179165836,42.6899532,-84.4887967,287.989990234375,2.9601640701293945,4.6501641273498535
1680042545.88099313,179265666,42.6899532,-84.4887952,288.0299987792969,3.0050039291381836,4.695003986358643
1680042545.98065901,179365332,42.6899531,-84.4887938,288.0799865722656,3.051079273223877,4.741079330444336
1680042546.08061910,179465292,42.6899531,-84.4887923,288.1199951171875,3.097651481628418,4.787651538848877
1680042546.18070912,179565382,42.689952999999996,-84.4887909,288.16998291015625,3.1455531120300293,4.835553169250488
1680042546.28064823,179665321,42.689952999999996,-84.4887894,288.2200012207031,3.1909704208374023,4.880970478057861
1680042546.38071418,179765387,42.689952999999996,-84.48878789999999,288.2599792480469,3.233157157897949,4.923157215118408
1680042546.48069906,179865372,42.689952999999996,-84.48878649999999,288.29998779296875,3.274076461791992,4.964076519012451
1680042546.58055401,179965227,42.689952999999996,-84.488785,288.3399963378906,3.3110570907592773,5.001057147979736
1680042546.68067002,180065343,42.689952999999996,-84.48878359999999,288.3699951171875,3.3448591232299805,5.0348591804504395
1680042546.78057623,180165249,42.6899529,-84.4887821,288.3999938964844,3.377312660217285,5.067312717437744
1680042546.88067722,180265350,42.6899527,-84.4887806,288.42999267578125,3.406714916229248,5.096714973449707
1680042546.98088717,180365560,42.6899526,-84.4887792,288.4599914550781,3.432790756225586,5.122790813446045
1680042547.08078408,180465457,42.689952399999996,-84.4887779,288.47998046875,3.4553747177124023,5.145374774932861
1680042547.18076301,180565436,42.689952299999995,-84.4887765,288.5,3.4742679595947266,5.1642680168151855
1680042547.28078008,180665453,42.6899521,-84.48877519999999,288.5199890136719,3.493478775024414,5.183478832244873
1680042547.38095617,180765629,42.6899519,-84.48877379999999,288.5299987792969,3.5098180770874023,5.199818134307861
1680042547.48082924,180865502,42.689951699999995,-84.4887725,288.54998779296875,3.5234060287475586,5.213406085968018
1680042547.58112621,180965799,42.6899516,-84.4887712,288.55999755859375,3.533698558807373,5.223698616027832
1680042547.68090105,181065574,42.6899514,-84.48877,288.55999755859375,3.537858486175537,5.227858543395996
1680042547.78061414,181165287,42.6899513,-84.4887687,288.57000732421875,3.540353775024414,5.230353832244873
1680042547.88070321,181265376,42.689951099999995,-84.4887675,288.55999755859375,3.5399789810180664,5.229979038238525
1680042547.98066115,181365334,42.6899509,-84.4887664,288.55999755859375,3.537059783935547,5.227059841156006
1680042548.08059120,181465264,42.6899507,-84.4887653,288.55999755859375,3.5315475463867188,5.221547603607178
1680042548.18058014,181565253,42.689950499999995,-84.4887643,288.54998779296875,3.5225133895874023,5.212513446807861
1680042548.28101110,181665684,42.6899503,-84.4887632,288.5400085449219,3.5125608444213867,5.202560901641846
1680042548.38094521,181765618,42.689949999999996,-84.4887622,288.5299987792969,3.5004167556762695,5.1904168128967285
1680042548.48067808,181865351,42.6899497,-84.4887613,288.5099792480469,3.485182285308838,5.175182342529297
1680042548.58058500,181965258,42.689949299999995,-84.4887603,288.489990234375,3.469412326812744,5.159412384033203
1680042548.68062711,182065300,42.6899489,-84.48875939999999,288.4700012207031,3.449617385864258,5.139617443084717
1680042548.78063202,182165305,42.6899485,-84.4887586,288.4499816894531,3.428884506225586,5.118884563446045
1680042548.88069105,182265364,42.689948099999995,-84.4887577,288.42999267578125,3.407618999481201,5.09761905670166
1680042548.98091221,182365585,42.689947599999996,-84.4887569,288.4100036621094,3.385615348815918,5.075615406036377
1680042549.08085418,182465527,42.6899472,-84.48875609999999,288.3899841308594,3.365839958190918,5.055840015411377
1680042549.18091416,182565587,42.6899467,-84.4887553,288.3699951171875,3.3471879959106445,5.0371880531311035
1680042549.28090620,182665579,42.6899462,-84.4887546,288.3500061035156,3.3272438049316406,5.0172438621521
1680042549.38106608,182765739,42.6899456,-84.48875389999999,288.3299865722656,3.3093132972717285,4.9993133544921875
1680042549.48091221,182865585,42.689945099999996,-84.48875319999999,288.32000732421875,3.293826103210449,4.983826160430908
1680042549.58098722,182965660,42.6899446,-84.48875249999999,288.29998779296875,3.2797107696533203,4.969710826873779
1680042549.68081212,183065485,42.6899441,-84.4887519,288.29998779296875,3.270327091217041,4.9603271484375
1680042549.78080106,183165474,42.6899435,-84.48875129999999,288.2900085449219,3.264432907104492,4.954432964324951
1680042549.88088703,183265560,42.6899429,-84.4887507,288.2900085449219,3.263957977294922,4.953958034515381
1680042549.98064709,183365320,42.6899422,-84.48875029999999,288.2900085449219,3.2650723457336426,4.955072402954102
1680042550.08087516,183465548,42.6899416,-84.4887498,288.2900085449219,3.2659225463867188,4.955922603607178
1680042550.18085814,183565531,42.689940899999996,-84.4887493,288.2900085449219,3.2658133506774902,4.955813407897949
1680042550.28094220,183665615,42.689940299999996,-84.4887488,288.2900085449219,3.266721248626709,4.956721305847168
1680042550.38107204,183765745,42.689939599999995,-84.48874839999999,288.2900085449219,3.267909049987793,4.957909107208252
1680042550.48079705,183865470,42.689938999999995,-84.48874789999999,288.2900085449219,3.2693872451782227,4.959387302398682
1680042550.58076310,183965436,42.6899383,-84.4887475,288.29998779296875,3.2761077880859375,4.9661078453063965
1680042550.68075705,184065430,42.6899377,-84.48874699999999,288.30999755859375,3.2886791229248047,4.978679180145264
1680042550.78077221,184165445,42.689937099999995,-84.4887466,288.3299865722656,3.3046350479125977,4.994635105133057
1680042550.88065720,184265330,42.689936499999995,-84.4887461,288.3500061035156,3.3267664909362793,5.016766548156738
1680042550.98070812,184365381,42.689935899999995,-84.4887457,288.3800048828125,3.3510451316833496,5.041045188903809
1680042551.08056903,184465242,42.689935399999996,-84.4887452,288.3999938964844,3.3722167015075684,5.062216758728027
1680042551.18069100,184565364,42.689935,-84.48874479999999,288.41998291015625,3.3926196098327637,5.082619667053223
1680042551.28059006,184665263,42.6899345,-84.4887443,288.44000244140625,3.410490036010742,5.100490093231201
1680042551.38071012,184765383,42.689934099999995,-84.4887438,288.4499816894531,3.4287662506103516,5.1187663078308105
1680042551.48061824,184865291,42.6899337,-84.4887433,288.4700012207031,3.448132038116455,5.138132095336914
1680042551.58062410,184965297,42.6899332,-84.4887428,288.489990234375,3.4686460494995117,5.158646106719971
1680042551.68080020,185065473,42.6899328,-84.4887423,288.5099792480469,3.4884963035583496,5.178496360778809
1680042551.78059220,185165265,42.6899324,-84.4887418,288.5299987792969,3.5095019340515137,5.199501991271973
1680042551.88070822,185265381,42.6899321,-84.4887413,288.55999755859375,3.5311765670776367,5.221176624298096
1680042551.98061514,185365288,42.6899318,-84.4887408,288.5799865722656,3.554760456085205,5.244760513305664
1680042552.08067417,185465347,42.6899315,-84.48874029999999,288.6000061035156,3.5782723426818848,5.268272399902344
1680042552.18060708,185565280,42.6899313,-84.4887399,288.6300048828125,3.6006875038146973,5.290687561035156
1680042552.28060603,185665279,42.689931099999995,-84.4887394,288.6499938964844,3.6250362396240234,5.315036296844482
1680042552.38070202,185765375,42.6899309,-84.488739,288.67999267578125,3.651806354522705,5.341806411743164
1680042552.48073721,185865410,42.6899308,-84.48873859999999,288.6999816894531,3.676063060760498,5.366063117980957
1680042552.58082008,185965493,42.6899306,-84.4887382,288.7200012207031,3.695030689239502,5.385030746459961
1680042552.68058801,186065261,42.689930499999996,-84.4887378,288.739990234375,3.710679054260254,5.400679111480713
1680042552.78094220,186165615,42.689930499999996,-84.4887375,288.75,3.72371768951416,5.413717746734619
1680042552.88097215,186265645,42.6899304,-84.4887371,288.7599792480469,3.733099937438965,5.423099994659424
1680042552.98101616,186365689,42.6899303,-84.4887368,288.7699890136719,3.741208553314209,5.431208610534668
1680042553.08090401,186465577,42.6899302,-84.4887366,288.7699890136719,3.746959686279297,5.436959743499756
1680042553.18088102,186565554,42.6899301,-84.4887363,288.7799987792969,3.7509055137634277,5.440905570983887
1680042553.28080606,186665479,42.6899301,-84.4887361,288.7799987792969,3.751762866973877,5.441762924194336
1680042553.38068414,186765357,42.68993,-84.4887359,288.7799987792969,3.751460552215576,5.441460609436035
1680042553.48081207,186865485,42.68993,-84.48873569999999,288.7799987792969,3.750178337097168,5.440178394317627
1680042553.58079910,186965472,42.68993,-84.4887356,288.7699890136719,3.7474679946899414,5.4374680519104
1680042553.68089509,187065568,42.68993,-84.48873549999999,288.7699890136719,3.7417173385620117,5.431717395782471
1680042553.78080606,187165479,42.68993,-84.4887354,288.7599792480469,3.7338356971740723,5.423835754394531
1680042553.88101411,187265687,42.68993,-84.4887354,288.75,3.7243294715881348,5.414329528808594
1680042553.98086500,187365538,42.68993,-84.4887354,288.739990234375,3.713904857635498,5.403904914855957
1680042554.08113313,187465806,42.6899301,-84.4887354,288.72998046875,3.7038145065307617,5.393814563751221
1680042554.18081403,187565487,42.6899301,-84.4887354,288.7200012207031,3.6944093704223633,5.384409427642822
1680042554.28061604,187665289,42.6899301,-84.48873549999999,288.7099914550781,3.682520866394043,5.372520923614502
1680042554.38070202,187765375,42.68993,-84.48873549999999,288.69000244140625,3.66866397857666,5.358664035797119
1680042554.48058105,187865254,42.6899301,-84.48873549999999,288.67999267578125,3.6560254096984863,5.346025466918945
1680042554.58075523,187965428,42.6899301,-84.4887356,288.66998291015625,3.6434473991394043,5.333447456359863
1680042554.68053102,188065204,42.6899301,-84.4887358,288.6600036621094,3.6320619583129883,5.322062015533447
1680042554.78098416,188165657,42.6899302,-84.4887359,288.6499938964844,3.621217727661133,5.311217784881592
1680042554.88099623,188265669,42.6899303,-84.4887361,288.6300048828125,3.6098155975341797,5.299815654754639
1680042554.98066306,188365336,42.6899303,-84.48873619999999,288.6199951171875,3.598130226135254,5.288130283355713
1680042555.08061218,188465285,42.6899304,-84.4887364,288.6099853515625,3.5865187644958496,5.276518821716309
1680042555.18062210,188565295,42.6899304,-84.4887366,288.6000061035156,3.5752415657043457,5.265241622924805
1680042555.28060317,188665276,42.689930499999996,-84.4887368,288.5899963378906,3.5626168251037598,5.252616882324219
1680042555.38064909,188765322,42.6899306,-84.488737,288.5799865722656,3.550328254699707,5.240328311920166
1680042555.48091722,188865590,42.6899307,-84.4887373,288.55999755859375,3.536825656890869,5.226825714111328
1680042555.58087802,188965551,42.6899308,-84.4887375,288.54998779296875,3.5218629837036133,5.211863040924072
1680042555.68098807,189065661,42.689931,-84.4887378,288.5299987792969,3.509960174560547,5.199960231781006
1680042555.78088307,189165556,42.689931099999995,-84.48873809999999,288.5299987792969,3.5016446113586426,5.191644668579102
1680042555.88099909,189265672,42.6899313,-84.4887384,288.5199890136719,3.496212959289551,5.18621301651001
1680042555.98091316,189365586,42.6899315,-84.4887387,288.5199890136719,3.49354887008667,5.183548927307129
1680042556.08080220,189465475,42.6899316,-84.488739,288.5199890136719,3.492554187774658,5.182554244995117
1680042556.18100119,189565674,42.6899318,-84.48873929999999,288.5199890136719,3.491354465484619,5.181354522705078
1680042556.28059506,189665268,42.6899319,-84.4887395,288.5199890136719,3.4949779510498047,5.184978008270264
1680042556.38076019,189765433,42.689932,-84.4887397,288.5299987792969,3.505997657775879,5.195997714996338
1680042556.48058701,189865260,42.6899322,-84.4887399,288.54998779296875,3.5221657752990723,5.212165832519531
1680042556.58066607,189965339,42.689932299999995,-84.4887401,288.57000732421875,3.5406246185302734,5.230624675750732
1680042556.68064213,190065315,42.6899324,-84.4887402,288.5899963378906,3.5615296363830566,5.251529693603516
1680042556.78061604,190165289,42.6899325,-84.48874029999999,288.6099853515625,3.5855703353881836,5.275570392608643
1680042556.88068223,190265355,42.6899326,-84.4887404,288.6399841308594,3.6115832328796387,5.301583290100098
1680042556.98064017,190365313,42.6899326,-84.48874049999999,288.66998291015625,3.64083194732666,5.330832004547119
1680042557.08062816,190465301,42.6899326,-84.4887406,288.6999816894531,3.6740341186523438,5.364034175872803
1680042557.18057609,190565249,42.6899326,-84.4887406,288.739990234375,3.7100791931152344,5.400079250335693
1680042557.28091812,190665591,42.6899325,-84.4887406,288.7699890136719,3.7483348846435547,5.438334941864014
1680042557.38095307,190765626,42.6899324,-84.4887406,288.80999755859375,3.7888131141662598,5.478813171386719
1680042557.48066306,190865336,42.6899324,-84.48874049999999,288.8599853515625,3.8308448791503906,5.52084493637085
1680042557.58057117,190965244,42.689932299999995,-84.48874049999999,288.8999938964844,3.8739542961120605,5.5639543533325195
1680042557.68060803,191065281,42.6899322,-84.4887404,288.94000244140625,3.919576644897461,5.60957670211792
1680042557.78060222,191165275,42.689932,-84.4887404,288.989990234375,3.9670615196228027,5.657061576843262
1680042557.88068223,191265355,42.6899319,-84.48874029999999,289.0400085449219,4.011663436889648,5.701663494110107
1680042557.98085022,191365523,42.6899318,-84.4887401,289.0799865722656,4.052886962890625,5.742887020111084
1680042558.08083510,191465508,42.689931699999995,-84.4887399,289.1199951171875,4.090780258178711,5.78078031539917
1680042558.18092918,191565602,42.6899315,-84.4887397,289.1499938964844,4.126953125,5.816953182220459
1680042558.28088307,191665556,42.6899313,-84.4887395,289.19000244140625,4.162696838378906,5.852696895599365
1680042558.38099909,191765672,42.6899312,-84.48873929999999,289.2200012207031,4.19622802734375,5.886228084564209
1680042558.48081613,191865489,42.689931,-84.488739,289.2599792480469,4.230536937713623,5.920536994934082
1680042558.58081222,191965485,42.6899309,-84.4887388,289.2900085449219,4.263552665710449,5.953552722930908
1680042558.68075705,192065430,42.6899307,-84.4887385,289.32000732421875,4.292032241821289,5.982032299041748
1680042558.78083110,192165504,42.689930499999996,-84.4887383,289.3500061035156,4.320568084716797,6.010568141937256
1680042558.88081622,192265489,42.6899303,-84.48873809999999,289.3699951171875,4.344172954559326,6.034173011779785
1680042558.98081517,192365488,42.6899301,-84.48873789999999,289.3800048828125,4.359306812286377,6.049306869506836
1680042559.08084822,192465521,42.6899298,-84.4887378,289.3899841308594,4.3686089515686035,6.0586090087890625
1680042559.18089104,192565564,42.6899295,-84.4887378,289.3999938964844,4.374179840087891,6.06417989730835
1680042559.28098011,192665653,42.689929199999995,-84.48873789999999,289.3999938964844,4.377699851989746,6.067699909210205
1680042559.38099623,192765669,42.6899288,-84.488738,289.3999938964844,4.377871036529541,6.06787109375
1680042559.48085213,192865525,42.6899284,-84.488738,289.3999938964844,4.376326084136963,6.066326141357422
1680042559.58080721,192965480,42.6899278,-84.4887382,289.3999938964844,4.372433662414551,6.06243371963501
1680042559.68081307,193065486,42.6899273,-84.4887385,289.3899841308594,4.366764068603516,6.056764125823975
1680042559.78081107,193165484,42.6899267,-84.4887387,289.3800048828125,4.359818935394287,6.049818992614746
1680042559.88091516,193265588,42.689926,-84.48873909999999,289.3800048828125,4.352409839630127,6.042409896850586
1680042559.98112917,193365802,42.6899254,-84.4887394,289.3699951171875,4.344058513641357,6.034058570861816
1680042560.08089113,193465564,42.6899247,-84.48873979999999,289.3599853515625,4.334483623504639,6.024483680725098
1680042560.18099213,193565665,42.689924,-84.4887402,289.3500061035156,4.324515342712402,6.014515399932861
1680042560.28088713,193665560,42.6899234,-84.4887406,289.3399963378906,4.311845779418945,6.001845836639404
1680042560.38099122,193765664,42.6899227,-84.48874099999999,289.32000732421875,4.297757625579834,5.987757682800293
1680042560.48079705,193865470,42.689921999999996,-84.4887414,289.30999755859375,4.28700590133667,5.977005958557129
1680042560.58079600,193965469,42.6899212,-84.4887419,289.29998779296875,4.278973579406738,5.968973636627197
1680042560.68082118,194065494,42.6899205,-84.48874219999999,289.2900085449219,4.269911766052246,5.959911823272705
1680042560.78058815,194165261,42.6899197,-84.4887425,289.2900085449219,4.261688232421875,5.951688289642334
1680042560.88084102,194265514,42.689918999999996,-84.4887428,289.2799987792969,4.259242057800293,5.949242115020752
1680042560.98059916,194365272,42.689918299999995,-84.488743,289.2900085449219,4.260484218597412,5.950484275817871
1680042561.08066916,194465342,42.6899176,-84.4887432,289.2900085449219,4.268913269042969,5.958913326263428
1680042561.18058920,194565262,42.6899169,-84.48874339999999,289.30999755859375,4.2830095291137695,5.9730095863342285
1680042561.28061509,194665288,42.6899162,-84.48874359999999,289.32000732421875,4.298737525939941,5.9887375831604
1680042561.38090205,194765575,42.6899156,-84.4887437,289.3399963378906,4.3171162605285645,6.007116317749023
1680042561.48073101,194865404,42.6899149,-84.4887438,289.3599853515625,4.338623046875,6.028623104095459
1680042561.58074808,194965421,42.6899143,-84.4887438,289.3899841308594,4.361863136291504,6.051863193511963
1680042561.68078017,195065453,42.6899137,-84.4887439,289.4100036621094,4.388833999633789,6.078834056854248
1680042561.78079915,195165472,42.6899131,-84.4887439,289.4499816894531,4.421668529510498,6.111668586730957
1680042561.88090205,195265575,42.6899125,-84.4887439,289.47998046875,4.456099510192871,6.14609956741333
1680042561.98096609,195365639,42.6899119,-84.4887439,289.5199890136719,4.491811275482178,6.181811332702637
1680042562.08081913,195465492,42.6899113,-84.4887438,289.55999755859375,4.531703948974609,6.221704006195068
1680042562.18078804,195565461,42.6899108,-84.4887438,289.6000061035156,4.573266506195068,6.263266563415527
1680042562.28078008,195665453,42.6899102,-84.4887437,289.6399841308594,4.613946437835693,6.303946495056152
1680042562.38086605,195765539,42.6899097,-84.4887437,289.67999267578125,4.652321815490723,6.342321872711182
1680042562.48079920,195865472,42.6899091,-84.48874359999999,289.7099914550781,4.68611478805542,6.376114845275879
1680042562.58057213,195965245,42.689908599999995,-84.48874359999999,289.739990234375,4.716944694519043,6.406944751739502
1680042562.68056703,196065240,42.689907999999996,-84.4887435,289.7699890136719,4.746230602264404,6.436230659484863
1680042562.78057909,196165252,42.6899075,-84.48874339999999,289.79998779296875,4.773617744445801,6.46361780166626
1680042562.88073707,196265410,42.689907,-84.4887433,289.8299865722656,4.8025593757629395,6.492559432983398
1680042562.98075414,196365427,42.6899064,-84.4887432,289.8599853515625,4.8334455490112305,6.5234456062316895
1680042563.08058023,196465253,42.6899059,-84.488743,289.8899841308594,4.860940933227539,6.550940990447998
1680042563.18081903,196565492,42.689905499999995,-84.48874289999999,289.9100036621094,4.887693405151367,6.577693462371826
1680042563.28060818,196665281,42.689904999999996,-84.4887427,289.92999267578125,4.907062530517578,6.597062587738037
1680042563.38087702,196765550,42.6899045,-84.4887425,289.9499816894531,4.92237663269043,6.612376689910889
1680042563.48083210,196865505,42.6899041,-84.4887423,289.9599914550781,4.935093879699707,6.625093936920166
1680042563.58094311,196965616,42.6899036,-84.488742,289.9700012207031,4.945042133331299,6.635042190551758
1680042563.68088722,197065560,42.689903199999996,-84.4887418,289.97998046875,4.95178747177124,6.641787528991699
1680042563.78096509,197165638,42.6899027,-84.4887415,289.97998046875,4.955660820007324,6.645660877227783
1680042563.88101411,197265687,42.6899023,-84.48874119999999,289.97998046875,4.9553656578063965,6.6453657150268555
1680042563.98099709,197365670,42.6899018,-84.4887409,289.97998046875,4.953291416168213,6.643291473388672
1680042564.08109307,197465766,42.6899014,-84.4887407,289.97998046875,4.952269554138184,6.642269611358643
1680042564.18063021,197565303,42.689901,-84.4887404,289.97998046875,4.954831123352051,6.64483118057251
1680042564.28061318,197665286,42.6899005,-84.48874029999999,289.97998046875,4.959140777587891,6.64914083480835
1680042564.38065600,197765329,42.689900099999996,-84.4887401,289.989990234375,4.9631524085998535,6.6531524658203125
1680042564.48058915,197865262,42.6898996,-84.48873999999999,289.989990234375,4.967470645904541,6.657470703125
1680042564.58058023,197965253,42.6898992,-84.4887399,290.0,4.972195148468018,6.662195205688477
1680042564.68069005,198065363,42.6898987,-84.48873979999999,290.0,4.976167678833008,6.666167736053467
1680042564.78091502,198165588,42.689898299999996,-84.4887396,290.0,4.9788665771484375,6.6688666343688965
1680042564.88094115,198265614,42.6898979,-84.4887395,290.0099792480469,4.983178615570068,6.673178672790527
1680042564.98079014,198365463,42.6898975,-84.4887392,290.0099792480469,4.989436626434326,6.679436683654785
1680042565.08082414,198465497,42.689897099999996,-84.488739,290.0199890136719,4.996180057525635,6.686180114746094
1680042565.18077207,198565445,42.6898967,-84.4887388,290.0299987792969,5.002808094024658,6.692808151245117
1680042565.28078318,198665456,42.6898963,-84.48873859999999,290.0299987792969,5.008890628814697,6.698890686035156
1680042565.38094020,198765613,42.689895899999996,-84.4887384,290.0400085449219,5.016119480133057,6.706119537353516
1680042565.48080015,198865473,42.6898956,-84.4887382,290.04998779296875,5.022838592529297,6.712838649749756
1680042565.58112001,198965793,42.689895199999995,-84.48873809999999,290.04998779296875,5.029037952423096,6.719038009643555
1680042565.68058419,199065257,42.6898949,-84.48873789999999,290.05999755859375,5.034567356109619,6.724567413330078
1680042565.78060603,199165279,42.689894599999995,-84.4887378,290.07000732421875,5.040145397186279,6.730145454406738
1680042565.88069415,199265367,42.6898942,-84.4887378,290.07000732421875,5.045013427734375,6.735013484954834
1680042565.98065519,199365328,42.6898939,-84.4887377,290.07000732421875,5.049131870269775,6.739131927490234
1680042566.08060718,199465280,42.6898935,-84.4887376,290.0799865722656,5.0558390617370605,6.7458391189575195
1680042566.18056917,199565242,42.6898932,-84.4887375,290.0899963378906,5.063615798950195,6.753615856170654
1680042566.28093719,199665610,42.689892799999996,-84.48873739999999,290.1000061035156,5.07317590713501,6.763175964355469
1680042566.38094902,199765622,42.6898924,-84.4887373,290.1099853515625,5.082613468170166,6.772613525390625
1680042566.48102021,199865693,42.6898921,-84.4887372,290.1099853515625,5.089135646820068,6.779135704040527
1680042566.58089304,199965566,42.6898917,-84.488737,290.1199951171875,5.095162391662598,6.785162448883057
1680042566.68089914,200065572,42.6898914,-84.4887368,290.1300048828125,5.100410461425781,6.79041051864624
1680042566.78080821,200165481,42.689890999999996,-84.48873669999999,290.1300048828125,5.104384422302246,6.794384479522705
1680042566.88088202,200265555,42.6898907,-84.4887364,290.1300048828125,5.105408191680908,6.795408248901367
1680042566.98100209,200365675,42.689890299999995,-84.48873619999999,290.1300048828125,5.103634834289551,6.79363489151001
1680042567.08057809,200465251,42.6898899,-84.4887359,290.1300048828125,5.10274076461792,6.792740821838379
1680042567.18074918,200565422,42.6898896,-84.4887356,290.1300048828125,5.101950645446777,6.791950702667236
1680042567.28053617,200665209,42.689889199999996,-84.4887353,290.1300048828125,5.102669715881348,6.792669773101807
1680042567.38077116,200765444,42.6898888,-84.48873499999999,290.1300048828125,5.103649616241455,6.793649673461914
1680042567.48057222,200865245,42.689888499999995,-84.4887346,290.1300048828125,5.101735591888428,6.791735649108887
1680042567.58060002,200965273,42.6898881,-84.4887342,290.1199951171875,5.098067760467529,6.788067817687988
1680042567.68061519,201065288,42.6898877,-84.48873379999999,290.1199951171875,5.092422008514404,6.782422065734863
1680042567.78061914,201165292,42.689887299999995,-84.4887334,290.1099853515625,5.0870208740234375,6.7770209312438965
1680042567.88090014,201265573,42.689887,-84.488733,290.1099853515625,5.084290027618408,6.774290084838867
1680042567.98090100,201365574,42.6898866,-84.48873259999999,290.1099853515625,5.0831298828125,6.773129940032959
1680042568.08084917,201465522,42.6898863,-84.4887322,290.1099853515625,5.083545684814453,6.773545742034912
1680042568.18081808,201565491,42.689886,-84.4887317,290.1099853515625,5.0848588943481445,6.7748589515686035
1680042568.28088808,201665561,42.6898857,-84.4887313,290.1099853515625,5.085185527801514,6.775185585021973
1680042568.38089609,201765569,42.6898853,-84.4887308,290.1099853515625,5.084446907043457,6.774446964263916
1680042568.48075914,201865432,42.689885,-84.4887303,290.1099853515625,5.081749439239502,6.771749496459961
1680042568.58077717,201965450,42.6898847,-84.4887298,290.1000061035156,5.077577590942383,6.767577648162842
1680042568.68079019,202065463,42.689884299999996,-84.4887293,290.1000061035156,5.073078632354736,6.763078689575195
1680042568.78059506,202165268,42.689884,-84.48872879999999,290.0899963378906,5.06770658493042,6.757706642150879
1680042568.88065314,202265326,42.689883699999996,-84.4887282,290.0899963378906,5.060469627380371,6.75046968460083
1680042568.98070002,202365373,42.6898834,-84.4887277,290.0799865722656,5.052250862121582,6.742250919342041
