timestamp,TimeUS,C,Roll,Pitch,Yaw,VN,VE,VD,dPD,PN,PE,PD,GX,GY,GZ,OH
1680042508.37974811,141764421,2,-0.63,0.47000000000000003,332.95,0.0029446440748870373,-0.046436335891485214,0.0550822950899601,0.041698943823575974,0.9765077233314514,2.913912773132324,-1.5303574800491333,-0.23,0.09,0.01,286.83
1680042508.47974706,141864420,2,-0.63,0.47000000000000003,332.96,0.00425180746242404,-0.04529738053679466,0.05460714176297188,0.010764839127659798,0.9823726415634155,2.9081058502197266,-1.5297306776046753,-0.23,0.09,0.01,286.83
1680042508.57977509,141964448,2,-0.63,0.47000000000000003,332.96,0.002716973191127181,-0.04509987309575081,0.054986197501420975,-0.011907925829291344,0.986804723739624,2.9027020931243896,-1.530199646949768,-0.23,0.09,0.01,286.83
1680042508.67982411,142064497,2,-0.63,0.47000000000000003,332.96,0.004045100416988134,-0.04515065997838974,0.055772166699171066,0.001919663161970675,0.9920576810836792,2.896641969680786,-1.5284174680709839,-0.23,0.09,0.01,286.83
1680042508.77976608,142164439,2,-0.63,0.48,332.96,0.0036062179133296013,-0.04584808647632599,0.056435808539390564,0.023454459384083748,0.9960092306137085,2.8909499645233154,-1.525728464126587,-0.23,0.09,0.01,286.83
1680042508.87983322,142264506,2,-0.63,0.47000000000000003,332.96,0.003921943716704845,-0.04628955200314522,0.05655061453580856,0.0395844466984272,1.0003700256347656,2.8848819732666016,-1.5218528509140015,-0.23,0.09,0.01,286.83
1680042508.97980523,142364478,2,-0.64,0.47000000000000003,332.96,0.0018767956644296646,-0.047016169875860214,0.05723664164543152,0.03415050730109215,1.0034321546554565,2.879100799560547,-1.519335389137268,-0.23,0.09,0.01,286.83
1680042509.07980204,142464475,2,-0.63,0.47000000000000003,332.96,0.0016312485095113516,-0.04718966409564018,0.057859793305397034,0.010288531892001629,1.0072205066680908,2.872607469558716,-1.5187708139419556,-0.23,0.09,0.01,286.83
1680042509.17978311,142564456,2,-0.64,0.47000000000000003,332.96,0.0011573517695069313,-0.04745861887931824,0.05703039839863777,-0.004483578260987997,1.0098965167999268,2.8665103912353516,-1.5186890363693237,-0.23,0.09,0.01,286.83
1680042509.27975202,142664425,2,-0.65,0.48,332.96,-0.00044676504330709577,-0.04736834019422531,0.05534756928682327,-0.010936080478131771,1.0132396221160889,2.8601574897766113,-1.5190973281860352,-0.23,0.09,0.01,286.83
1680042509.37974715,142764420,2,-0.65,0.48,332.97,-0.0014374710153788328,-0.04867618903517723,0.05567897856235504,-0.0074903774075210094,1.015432357788086,2.854188919067383,-1.519248366355896,-0.23,0.09,0.01,286.83
1680042509.47977614,142864449,2,-0.65,0.48,332.97,-0.0034986098762601614,-0.04865694046020508,0.052786119282245636,-0.025238392874598503,1.018207311630249,2.848147392272949,-1.5219029188156128,-0.23,0.09,0.01,286.83
1680042509.57982612,142964499,2,-0.65,0.49,332.97,-0.004760480485856533,-0.04879865422844887,0.051345184445381165,-0.02832997962832451,1.0198698043823242,2.842494249343872,-1.5237101316452026,-0.23,0.09,0.01,286.83
1680042509.67976308,143064436,2,-0.65,0.49,332.98,-0.006019162945449352,-0.04950974881649017,0.05066094174981117,-0.01483812928199768,1.0221076011657715,2.8359251022338867,-1.524874210357666,-0.23,0.08,0.01,286.83
1680042509.77983117,143164504,2,-0.65,0.49,332.99,-0.006201472133398056,-0.0501483678817749,0.049381379038095474,-0.016073763370513916,1.0233843326568604,2.829737424850464,-1.5266517400741577,-0.23,0.09,0.01,286.83
1680042509.87976623,143264439,2,-0.66,0.5,332.99,-0.0067030456848442554,-0.05134976655244827,0.048292867839336395,-0.024379584938287735,1.0259966850280762,2.8230321407318115,-1.529133677482605,-0.23,0.09,0.01,286.83
1680042509.97982717,143364500,2,-0.65,0.51,332.99,-0.008125318214297295,-0.0516517348587513,0.047234125435352325,-0.02330327220261097,1.0276148319244385,2.8166892528533936,-1.5309792757034302,-0.23,0.09,0.01,286.83
1680042510.07984424,143464517,2,-0.65,0.5,332.99,-0.007599126547574997,-0.05257529020309448,0.046350590884685516,-0.008169584907591343,1.0304617881774902,2.810312271118164,-1.5311822891235352,-0.23,0.09,0.01,286.83
1680042510.17975402,143564427,2,-0.66,0.5,333.0,-0.008398093283176422,-0.052561525255441666,0.045140769332647324,-6.696397758787498e-05,1.033182144165039,2.8041396141052246,-1.5317628383636475,-0.23,0.09,0.01,286.83
1680042510.27977324,143664446,2,-0.66,0.5,332.99,-0.00800072867423296,-0.052984319627285004,0.045308224856853485,-0.011924848891794682,1.0379515886306763,2.797178268432617,-1.5335942506790161,-0.23,0.09,0.01,286.83
1680042510.37977815,143764451,2,-0.66,0.51,332.99,-0.008324576541781425,-0.05418771505355835,0.04493459314107895,-0.02360251359641552,1.041445016860962,2.7905678749084473,-1.535933256149292,-0.23,0.09,0.01,286.83
1680042510.47981310,143864486,2,-0.66,0.51,332.99,-0.007466035895049572,-0.055144116282463074,0.043556395918130875,-0.016993412747979164,1.0455405712127686,2.7826626300811768,-1.5367785692214966,-0.23,0.09,0.01,286.83
1680042510.57981920,143964492,2,-0.66,0.51,332.99,-0.008509284816682339,-0.056421998888254166,0.04279037564992905,-0.005527025554329157,1.0483736991882324,2.775176763534546,-1.53739595413208,-0.23,0.09,0.01,286.83
1680042510.67983508,144064508,2,-0.66,0.51,333.0,-0.00836902018636465,-0.0576007142663002,0.04186965525150299,-0.004339559935033321,1.053017258644104,2.7672345638275146,-1.5380423069000244,-0.23,0.09,0.01,286.83
1680042510.77976918,144164442,2,-0.67,0.51,333.0,-0.009410501457750797,-0.05860387161374092,0.04089121147990227,-0.011212911456823349,1.056291937828064,2.759754180908203,-1.5395176410675049,-0.23,0.09,0.01,286.83
1680042510.87981009,144264483,2,-0.67,0.51,333.0,-0.008399582467973232,-0.05901384726166725,0.04081691801548004,-0.014501870609819889,1.061455249786377,2.7523906230926514,-1.5407788753509521,-0.23,0.09,0.01,286.83
1680042510.97978115,144364454,2,-0.67,0.51,333.0,-0.009168502874672413,-0.059781137853860855,0.04058660939335823,-0.015006601810455322,1.0652320384979248,2.7454636096954346,-1.5422574281692505,-0.23,0.09,0.01,286.83
1680042511.07974720,144464420,2,-0.67,0.51,333.0,-0.01033052522689104,-0.05960235372185707,0.040292903780937195,-0.010745084844529629,1.0686347484588623,2.738656520843506,-1.5429267883300781,-0.23,0.09,0.01,286.83
1680042511.17975116,144564424,2,-0.67,0.51,332.99,-0.01114160381257534,-0.059495724737644196,0.04060938209295273,-0.001332866377197206,1.0711172819137573,2.7321770191192627,-1.543107032775879,-0.23,0.09,0.01,286.83
1680042511.27977204,144664445,2,-0.67,0.51,332.99,-0.011936964467167854,-0.05809013545513153,0.03995436429977417,0.005408499389886856,1.0746105909347534,2.7264342308044434,-1.5422481298446655,-0.23,0.09,0.01,286.83
1680042511.37982321,144764496,2,-0.66,0.52,332.99,-0.012927780859172344,-0.056899964809417725,0.04064439237117767,0.0042145163752138615,1.0775673389434814,2.7211477756500244,-1.5423036813735962,-0.23,0.09,0.01,286.83
1680042511.47975802,144864431,2,-0.67,0.52,333.0,-0.01379893347620964,-0.055830396711826324,0.041303373873233795,0.014338274486362934,1.0811214447021484,2.715834856033325,-1.5406469106674194,-0.23,0.09,0.01,286.83
1680042511.57983923,144964512,2,-0.66,0.53,333.0,-0.014849619008600712,-0.0553925447165966,0.04225659742951393,0.02464292198419571,1.0836001634597778,2.7107064723968506,-1.5386134386062622,-0.23,0.09,0.01,286.83
1680042511.67976522,145064438,2,-0.66,0.53,333.01,-0.01689588651061058,-0.054376114159822464,0.04373810440301895,0.025889098644256592,1.0868819952011108,2.704977512359619,-1.536479115486145,-0.23,0.09,0.01,286.83
1680042511.77982116,145164494,2,-0.66,0.54,333.01,-0.017829470336437225,-0.05381384864449501,0.044190533459186554,0.008695616386830807,1.0891386270523071,2.6993722915649414,-1.5360785722732544,-0.23,0.09,0.01,286.83
1680042511.87978601,145264459,2,-0.65,0.53,333.02,-0.0199812613427639,-0.05292006954550743,0.04441853240132332,-0.01472022756934166,1.0919405221939087,2.6932859420776367,-1.5373412370681763,-0.23,0.09,0.01,286.83
1680042511.97975206,145364425,2,-0.65,0.52,333.02,-0.02013350836932659,-0.052189089357852936,0.044077541679143906,-0.02960692159831524,1.0936609506607056,2.687429904937744,-1.5396029949188232,-0.23,0.09,0.01,286.83
1680042512.07975411,145464427,2,-0.65,0.52,333.02,-0.0202742088586092,-0.05104120075702667,0.04264748468995094,-0.03046720288693905,1.0975346565246582,2.6822314262390137,-1.5417076349258423,-0.23,0.09,0.01,286.83
1680042512.17977810,145564451,2,-0.65,0.52,333.02,-0.020754138007760048,-0.049815583974123,0.041570089757442474,-0.01874619349837303,1.1005432605743408,2.677398204803467,-1.5429424047470093,-0.23,0.09,0.01,286.83
1680042512.27982020,145664493,2,-0.65,0.51,333.03000000000003,-0.01985364779829979,-0.04834175109863281,0.040817853063344955,-0.018432917073369026,1.1047008037567139,2.672529935836792,-1.5448634624481201,-0.23,0.09,0.01,286.83
1680042512.37975907,145764432,2,-0.65,0.51,333.03000000000003,-0.0200310368090868,-0.04722167178988457,0.04056385159492493,-0.025324687361717224,1.1078256368637085,2.667850971221924,-1.5473328828811646,-0.23,0.09,0.01,286.83
1680042512.47983003,145864503,2,-0.65,0.52,333.04,-0.019087310880422592,-0.046299614012241364,0.04063788056373596,-0.020403219386935234,1.112479567527771,2.662796974182129,-1.5491056442260742,-0.23,0.09,0.01,286.83
1680042512.57976818,145964441,2,-0.64,0.52,333.04,-0.01887992024421692,-0.04614962264895439,0.039516545832157135,-0.009201201610267162,1.116104006767273,2.6578049659729004,-1.549607753753662,-0.23,0.09,0.01,286.83
1680042512.67980909,146064482,2,-0.64,0.52,333.05,-0.017111867666244507,-0.045514125376939774,0.03947540000081062,0.011301258578896523,1.1211903095245361,2.652622938156128,-1.5484609603881836,-0.23,0.09,0.01,286.83
1680042512.77978301,146164456,2,-0.64,0.52,333.04,-0.017897967249155045,-0.04521773383021355,0.03925144299864769,0.021555058658123016,1.1251126527786255,2.647665023803711,-1.547021746635437,-0.23,0.09,0.01,286.83
1680042512.87976718,146264440,2,-0.64,0.52,333.05,-0.016750071197748184,-0.043416786938905716,0.03899940103292465,0.011635825969278812,1.1308029890060425,2.6427621841430664,-1.54667329788208,-0.24,0.09,0.01,286.83
1680042512.97975707,146364430,2,-0.64,0.53,333.05,-0.016855131834745407,-0.04390404000878334,0.03819042816758156,-0.00677722692489624,1.1353504657745361,2.638112783432007,-1.5474896430969238,-0.24,0.09,0.01,286.83
1680042513.07978201,146464455,2,-0.63,0.53,333.05,-0.01658114418387413,-0.04276558384299278,0.03840705007314682,-0.018058449029922485,1.1401206254959106,2.6332790851593018,-1.5489816665649414,-0.24,0.09,0.01,286.83
1680042513.17982721,146564500,2,-0.63,0.53,333.06,-0.016585271805524826,-0.04183948040008545,0.03684419021010399,-0.023154880851507187,1.1434963941574097,2.628711700439453,-1.5506144762039185,-0.24,0.09,0.01,286.83
1680042513.27977324,146664446,2,-0.63,0.53,333.06,-0.015569459646940231,-0.04179152101278305,0.03492773324251175,-0.040195662528276443,1.1486127376556396,2.6234829425811768,-1.5548971891403198,-0.24,0.09,0.01,286.83
1680042513.37983823,146764511,2,-0.62,0.53,333.06,-0.014751428738236427,-0.04207950457930565,0.032794926315546036,-0.06351181864738464,1.152680516242981,2.6184260845184326,-1.5605621337890625,-0.24,0.09,0.01,286.83
1680042513.47977018,146864443,2,-0.62,0.53,333.06,-0.014660116285085678,-0.04141773656010628,0.03112017922103405,-0.06841414421796799,1.1592463254928589,2.6136460304260254,-1.5661323070526123,-0.24,0.09,0.01,286.83
1680042513.57980704,146964480,2,-0.62,0.54,333.06,-0.01308448426425457,-0.040605101734399796,0.029842156916856766,-0.061137132346630096,1.1640311479568481,2.609241485595703,-1.5715581178665161,-0.24,0.09,0.01,286.83
1680042513.67978215,147064455,2,-0.62,0.54,333.06,-0.012640615925192833,-0.038925763219594955,0.02834695391356945,-0.03308939188718796,1.1703890562057495,2.604163885116577,-1.573689579963684,-0.24,0.09,0.01,286.83
1680042513.77974606,147164419,2,-0.62,0.54,333.07,-0.012945807538926601,-0.03834378346800804,0.028118586167693138,-0.013482481241226196,1.174856424331665,2.599487543106079,-1.5756762027740479,-0.24,0.09,0.01,286.83
1680042513.87975121,147264424,2,-0.62,0.54,333.07,-0.013916394673287868,-0.03714151307940483,0.027587765827775,-0.023692697286605835,1.1807209253311157,2.5945205688476562,-1.5790088176727295,-0.24,0.09,0.01,286.83
1680042513.97977805,147364451,2,-0.62,0.53,333.06,-0.01364200934767723,-0.03692874684929848,0.027235912159085274,-0.02695065550506115,1.1846991777420044,2.5899429321289062,-1.581480860710144,-0.24,0.09,0.01,286.83
1680042514.07982016,147464493,2,-0.62,0.54,333.06,-0.013978206552565098,-0.035363662987947464,0.02651221491396427,-0.0172378271818161,1.1896711587905884,2.5850670337677,-1.5832798480987549,-0.24,0.09,0.01,286.83
1680042514.17976618,147564439,2,-0.62,0.55,333.07,-0.014672857709228992,-0.034226156771183014,0.02634558081626892,-0.011916049756109715,1.1939646005630493,2.580425977706909,-1.5846943855285645,-0.24,0.09,0.01,286.83
1680042514.27984023,147664513,2,-0.63,0.54,333.07,-0.01418029423803091,-0.033826567232608795,0.026331452652812004,-0.006554387975484133,1.2002123594284058,2.575519561767578,-1.5855461359024048,-0.24,0.09,0.01,286.83
1680042514.37976122,147764434,2,-0.63,0.54,333.07,-0.015099030919373035,-0.03287126123905182,0.02658325619995594,-0.012349104508757591,1.2045224905014038,2.5710370540618896,-1.5873080492019653,-0.24,0.09,0.01,286.83
1680042514.47981215,147864485,2,-0.62,0.55,333.08,-0.012567853555083275,-0.03229665011167526,0.0281494352966547,-0.012650164775550365,1.2116706371307373,2.5667715072631836,-1.5884681940078735,-0.24,0.09,0.01,286.83
1680042514.57978606,147964459,2,-0.63,0.55,333.09000000000003,-0.012840398587286472,-0.031484950333833694,0.028730863705277443,-0.011981147341430187,1.2168798446655273,2.562929153442383,-1.5896836519241333,-0.24,0.09,0.01,286.83
1680042514.67974901,148064422,2,-0.63,0.54,333.09000000000003,-0.012008669786155224,-0.03070574253797531,0.03064119443297386,0.018479906022548676,1.2227215766906738,2.5578315258026123,-1.586917757987976,-0.24,0.09,0.01,286.83
1680042514.77974701,148164420,2,-0.62,0.55,333.09000000000003,-0.013395172543823719,-0.03043346479535103,0.03235495835542679,0.03654937818646431,1.2276935577392578,2.552882194519043,-1.5842148065567017,-0.24,0.09,0.01,286.83
1680042514.87978101,148264454,2,-0.62,0.55,333.1,-0.012232049368321896,-0.030196527019143105,0.034234583377838135,0.035119082778692245,1.2344496250152588,2.5479495525360107,-1.5815268754959106,-0.24,0.09,0.01,286.83
1680042514.97982621,148364499,2,-0.62,0.55,333.1,-0.012859099544584751,-0.028833264485001564,0.03550158441066742,0.020383352413773537,1.2397993803024292,2.5435361862182617,-1.58010995388031,-0.24,0.09,0.01,286.83
1680042515.07976007,148464433,2,-0.62,0.55,333.1,-0.01231764443218708,-0.028415491804480553,0.0354280024766922,0.0019168659346178174,1.2456324100494385,2.5391101837158203,-1.5798695087432861,-0.24,0.09,0.01,286.83
1680042515.17984223,148564515,2,-0.62,0.55,333.09000000000003,-0.012806874699890614,-0.02826211415231228,0.035641539841890335,-0.0044443304650485516,1.2514865398406982,2.5347583293914795,-1.57973313331604,-0.24,0.09,0.01,286.83
1680042515.27976108,148664434,2,-0.61,0.55,333.09000000000003,-0.011841786094009876,-0.027763672173023224,0.03584161773324013,0.002922656014561653,1.2582327127456665,2.530461311340332,-1.578930139541626,-0.24,0.09,0.01,286.83
1680042515.37981415,148764487,2,-0.62,0.56,333.1,-0.009726842865347862,-0.027447009459137917,0.035666827112436295,0.004489544779062271,1.2654447555541992,2.526397705078125,-1.5784884691238403,-0.24,0.09,0.01,286.83
1680042515.47978806,148864461,2,-0.62,0.56,333.11,-0.009273177944123745,-0.026411062106490135,0.03488796576857567,-0.008416748605668545,1.2731621265411377,2.5222809314727783,-1.5793418884277344,-0.24,0.09,0.01,286.83
1680042515.57975101,148964424,2,-0.62,0.55,333.11,-0.009076058864593506,-0.026027409359812737,0.03408997133374214,-0.025251558050513268,1.2791193723678589,2.518587112426758,-1.5815035104751587,-0.24,0.09,0.01,286.83
1680042515.67975020,149064423,2,-0.62,0.56,333.11,-0.009565356187522411,-0.0246795192360878,0.033845242112874985,-0.030611928552389145,1.2860591411590576,2.514464855194092,-1.5838912725448608,-0.24,0.09,0.01,286.83
1680042515.77977419,149164447,2,-0.62,0.56,333.11,-0.00911423284560442,-0.02372422069311142,0.034065160900354385,-0.038050439208745956,1.2914174795150757,2.510728597640991,-1.587345004081726,-0.24,0.09,0.01,286.83
1680042515.87981820,149264491,2,-0.62,0.55,333.1,-0.009024906903505325,-0.022649288177490234,0.033697690814733505,-0.05882219970226288,1.2987213134765625,2.506981372833252,-1.592895269393921,-0.24,0.09,0.01,286.83
1680042515.97976422,149364437,2,-0.62,0.55,333.1,-0.008563918061554432,-0.021857846528291702,0.033392589539289474,-0.051031965762376785,1.3046386241912842,2.503657579421997,-1.5967180728912354,-0.24,0.09,0.01,286.83
1680042516.07983112,149464504,2,-0.62,0.55,333.1,-0.009078609757125378,-0.021976184099912643,0.03306230157613754,-0.03300727531313896,1.310450792312622,2.4997215270996094,-1.5997498035430908,-0.24,0.09,0.01,286.83
1680042516.17976403,149564437,2,-0.63,0.55,333.1,-0.008917974308133125,-0.022247454151511192,0.03192160651087761,-0.033684439957141876,1.3158464431762695,2.4954166412353516,-1.6032475233078003,-0.24,0.09,0.01,286.83
1680042516.27981114,149664484,2,-0.63,0.55,333.09000000000003,-0.008760889992117882,-0.02213742770254612,0.029695836827158928,-0.05226478725671768,1.3213351964950562,2.4910008907318115,-1.6087907552719116,-0.24,0.09,0.01,286.83
1680042516.37978005,149764453,2,-0.63,0.55,333.09000000000003,-0.00912568625062704,-0.022135155275464058,0.02714025415480137,-0.08081216365098953,1.3265736103057861,2.4866580963134766,-1.6163078546524048,-0.24,0.09,0.01,286.83
1680042516.47975111,149864424,2,-0.63,0.56,333.1,-0.007774805650115013,-0.021316802129149437,0.02642434649169445,-0.0632939487695694,1.3334310054779053,2.481895923614502,-1.621173620223999,-0.24,0.09,0.01,286.83
1680042516.57975411,149964427,2,-0.64,0.56,333.1,-0.00821771752089262,-0.021776670590043068,0.025478286668658257,-0.03515506163239479,1.3389569520950317,2.477644920349121,-1.6244838237762451,-0.24,0.09,0.01,286.83
1680042516.67977118,150064444,2,-0.64,0.56,333.11,-0.006897990591824055,-0.021692810580134392,0.02549527958035469,-0.018154680728912354,1.346023678779602,2.4733810424804688,-1.6267608404159546,-0.24,0.09,0.01,286.83
1680042516.77981520,150164488,2,-0.64,0.56,333.11,-0.006957275792956352,-0.020844552665948868,0.025542190298438072,-0.006185455247759819,1.3517500162124634,2.4696691036224365,-1.6279481649398804,-0.24,0.09,0.01,286.83
1680042516.87977409,150264447,2,-0.64,0.56,333.11,-0.006988286040723324,-0.021828733384609222,0.025996733456850052,0.0037321429699659348,1.3581699132919312,2.464789390563965,-1.6282687187194824,-0.24,0.09,0.01,286.83
1680042516.97983503,150364508,2,-0.64,0.56,333.1,-0.007970847189426422,-0.02220091037452221,0.026080897077918053,-0.0009042954188771546,1.3630783557891846,2.4602034091949463,-1.6291372776031494,-0.24,0.09,0.01,286.83
1680042517.07975912,150464432,2,-0.64,0.56,333.11,-0.00861489586532116,-0.02347761020064354,0.026738235726952553,-0.0018036689143627882,1.3680206537246704,2.455293893814087,-1.6294182538986206,-0.24,0.09,0.01,286.83
1680042517.17983007,150564503,2,-0.65,0.56,333.11,-0.010728699155151844,-0.02316475100815296,0.02779446542263031,0.004329297225922346,1.3714407682418823,2.4508557319641113,-1.6291002035140991,-0.24,0.09,0.01,286.83
1680042517.27978015,150664453,2,-0.65,0.56,333.11,-0.012152186594903469,-0.023664940148591995,0.02828243002295494,0.024106379598379135,1.3758294582366943,2.4458351135253906,-1.626612663269043,-0.24,0.09,0.01,286.83
1680042517.37974811,150764421,2,-0.64,0.56,333.12,-0.01284665334969759,-0.021670522168278694,0.03005352057516575,0.024128135293722153,1.3790034055709839,2.441352128982544,-1.6251565217971802,-0.24,0.09,0.01,286.83
1680042517.47974706,150864420,2,-0.64,0.56,333.12,-0.013766586780548096,-0.022092871367931366,0.031461797654628754,0.017117081210017204,1.3832483291625977,2.436117172241211,-1.6236556768417358,-0.24,0.09,0.01,286.83
1680042517.57977319,150964446,2,-0.65,0.56,333.12,-0.01409857627004385,-0.022925542667508125,0.03285224363207817,0.010354729369282722,1.3863502740859985,2.4312856197357178,-1.6228125095367432,-0.24,0.09,0.01,286.83
1680042517.67982101,151064494,2,-0.65,0.5700000000000001,333.13,-0.016389042139053345,-0.02338307909667492,0.033647701144218445,-0.006017726846039295,1.3896186351776123,2.42608904838562,-1.6234322786331177,-0.24,0.09,0.01,286.83
1680042517.77976203,151164435,2,-0.66,0.58,333.14,-0.017118865624070168,-0.02363775484263897,0.03306407481431961,-0.020127566531300545,1.3915671110153198,2.421407699584961,-1.6247975826263428,-0.24,0.09,0.01,286.83
1680042517.87983608,151264509,2,-0.66,0.58,333.14,-0.01856839284300804,-0.023215649649500847,0.03386618196964264,-0.00248164520598948,1.3948067426681519,2.416292428970337,-1.6241402626037598,-0.24,0.09,0.01,286.83
1680042517.97977018,151364443,2,-0.67,0.58,333.15000000000003,-0.019903184846043587,-0.023234166204929352,0.03436160460114479,0.012586615048348904,1.3969905376434326,2.411700963973999,-1.6229915618896484,-0.24,0.09,0.01,286.83
1680042518.07980514,151464478,2,-0.66,0.59,333.15000000000003,-0.02178574912250042,-0.023137135431170464,0.03590951859951019,0.028165379539132118,1.400266408920288,2.4067068099975586,-1.6202473640441895,-0.24,0.09,0.01,286.83
1680042518.17978907,151564462,2,-0.66,0.59,333.16,-0.02381136082112789,-0.023274827748537064,0.03704182803630829,0.018871672451496124,1.402369737625122,2.4022459983825684,-1.6194595098495483,-0.24,0.09,0.01,286.83
1680042518.27975512,151664428,2,-0.65,0.59,333.17,-0.023952666670084,-0.02391722984611988,0.037955883890390396,0.006730095017701387,1.4057365655899048,2.398157835006714,-1.6186010837554932,-0.24,0.09,0.01,286.83
1680042518.37975311,151764426,2,-0.65,0.59,333.17,-0.025806229561567307,-0.023087620735168457,0.03867638111114502,0.003356445115059614,1.407978892326355,2.3946566581726074,-1.618164300918579,-0.24,0.09,0.01,286.83
1680042518.47977018,151864443,2,-0.65,0.59,333.17,-0.025578971952199936,-0.02391408570110798,0.03735760599374771,-0.013347476720809937,1.4119049310684204,2.3905882835388184,-1.6194541454315186,-0.24,0.09,0.01,286.83
1680042518.57982802,151964501,2,-0.65,0.59,333.18,-0.026262372732162476,-0.024102114140987396,0.03717348352074623,-0.03084610402584076,1.4147907495498657,2.386791229248047,-1.6220314502716064,-0.24,0.09,0.01,286.83
1680042518.67976522,152064438,2,-0.65,0.59,333.18,-0.025324445217847824,-0.024601111188530922,0.036718424409627914,-0.025412343442440033,1.4186756610870361,2.3825137615203857,-1.6233693361282349,-0.24,0.09,0.01,286.83
1680042518.77983403,152164507,2,-0.66,0.59,333.18,-0.026968205347657204,-0.025400744751095772,0.03512319177389145,-0.019259825348854065,1.4213192462921143,2.378537178039551,-1.6252230405807495,-0.24,0.09,0.01,286.83
1680042518.87976718,152264440,2,-0.66,0.59,333.18,-0.026355836540460587,-0.02656753920018673,0.03384197875857353,-0.022369742393493652,1.4254112243652344,2.3737282752990723,-1.6271573305130005,-0.24,0.09,0.01,286.83
1680042518.97982717,152364500,2,-0.66,0.58,333.18,-0.02718617208302021,-0.027956979349255562,0.03311645984649658,-0.019252467900514603,1.4283348321914673,2.3691623210906982,-1.62886643409729,-0.24,0.09,0.01,286.83
1680042519.07978702,152464460,2,-0.66,0.59,333.18,-0.02654910460114479,-0.029713112860918045,0.03272336721420288,-0.008352348580956459,1.432437777519226,2.3633816242218018,-1.6294194459915161,-0.24,0.09,0.01,286.83
1680042519.17975211,152564425,2,-0.67,0.59,333.19,-0.02694076858460903,-0.03148936107754707,0.03190917894244194,-0.0023944913409650326,1.4353537559509277,2.3577823638916016,-1.6299042701721191,-0.24,0.09,0.01,286.83
1680042519.27976704,152664440,2,-0.68,0.58,333.18,-0.027612833306193352,-0.031320538371801376,0.03205302730202675,0.008390667848289013,1.4386868476867676,2.353057384490967,-1.6289746761322021,-0.24,0.09,0.01,286.83
1680042519.37979412,152764467,2,-0.6900000000000001,0.59,333.18,-0.028030838817358017,-0.031043339520692825,0.032610706984996796,0.02265927940607071,1.4407439231872559,2.3489625453948975,-1.627126932144165,-0.24,0.09,0.01,286.83
1680042519.47982407,152864497,2,-0.6900000000000001,0.59,333.17,-0.030913418158888817,-0.031352169811725616,0.03288387507200241,0.022907426580786705,1.4424433708190918,2.3450138568878174,-1.6255418062210083,-0.24,0.09,0.01,286.83
1680042519.57976103,152964434,2,-0.6900000000000001,0.58,333.17,-0.03236738592386246,-0.030967963859438896,0.03236361965537071,0.014688005670905113,1.442755103111267,2.3414316177368164,-1.6243969202041626,-0.24,0.09,0.02,286.83
1680042519.67983723,153064510,2,-0.68,0.59,333.16,-0.034271690994501114,-0.03153345733880997,0.03282766044139862,0.004180992022156715,1.444631814956665,2.337223529815674,-1.624334692955017,-0.24,0.09,0.02,286.83
1680042519.77976203,153164435,2,-0.68,0.59,333.16,-0.03460891917347908,-0.03133675083518028,0.03269781172275543,-0.0019411013927310705,1.4455370903015137,2.333160877227783,-1.6240736246109009,-0.24,0.09,0.02,286.83
1680042519.87980819,153264481,2,-0.68,0.59,333.16,-0.036919016391038895,-0.02934340387582779,0.031971339136362076,-0.02140345796942711,1.446669101715088,2.3301708698272705,-1.6268439292907715,-0.24,0.09,0.02,286.83
1680042519.97978401,153364457,2,-0.68,0.59,333.16,-0.03723648563027382,-0.02889229543507099,0.030124962329864502,-0.048018213361501694,1.4466357231140137,2.327670097351074,-1.6307432651519775,-0.24,0.09,0.02,286.83
1680042520.07975101,153464424,2,-0.68,0.59,333.16,-0.03929993882775307,-0.028602125123143196,0.029175937175750732,-0.052120473235845566,1.4470877647399902,2.32500958442688,-1.6348206996917725,-0.24,0.09,0.02,286.83
1680042520.17975307,153564426,2,-0.68,0.59,333.16,-0.04179282486438751,-0.027390265837311745,0.027128595858812332,-0.05541599169373512,1.44610595703125,2.3225274085998535,-1.6397582292556763,-0.24,0.09,0.02,286.83
1680042520.27978206,153664455,2,-0.68,0.6,333.16,-0.04354685917496681,-0.026342008262872696,0.024463368579745293,-0.06312466412782669,1.4461077451705933,2.3199567794799805,-1.645399570465088,-0.24,0.09,0.02,286.83
1680042520.37981701,153764490,2,-0.6900000000000001,0.6,333.17,-0.04627947136759758,-0.02695981226861477,0.02353619411587715,-0.05577798932790756,1.4447516202926636,2.3175339698791504,-1.6502116918563843,-0.24,0.09,0.02,286.83
1680042520.47975707,153864430,2,-0.68,0.6,333.18,-0.04604773223400116,-0.02527635544538498,0.021472161635756493,-0.059776440262794495,1.4456599950790405,2.3156089782714844,-1.6561858654022217,-0.24,0.09,0.02,286.83
1680042520.57983923,153964512,2,-0.6900000000000001,0.6,333.17,-0.047796089202165604,-0.024764761328697205,0.01858159899711609,-0.060010842978954315,1.445326805114746,2.3138821125030518,-1.6617460250854492,-0.24,0.09,0.02,286.83
1680042520.67977023,154064443,2,-0.68,0.6,333.17,-0.04623173177242279,-0.024027831852436066,0.019053708761930466,-0.03979837894439697,1.4477977752685547,2.312453031539917,-1.6653579473495483,-0.24,0.09,0.02,286.83
1680042520.77984023,154164513,2,-0.67,0.6,333.17,-0.046143367886543274,-0.02348289266228676,0.017752014100551605,-0.024063417688012123,1.448844313621521,2.3110439777374268,-1.667880654335022,-0.24,0.09,0.02,286.83
1680042520.87978506,154264458,2,-0.68,0.6,333.17,-0.04583370313048363,-0.022526463493704796,0.016553042456507683,-0.020950421690940857,1.449776291847229,2.3099539279937744,-1.6706973314285278,-0.24,0.09,0.02,286.83
1680042520.97975922,154364432,2,-0.68,0.6,333.17,-0.04747140780091286,-0.021358521655201912,0.016509845852851868,-0.017890565097332,1.4491764307022095,2.3088905811309814,-1.6726616621017456,-0.24,0.09,0.02,286.83
1680042521.07975817,154464431,2,-0.67,0.6,333.17,-0.04866025596857071,-0.01974429190158844,0.01644076593220234,0.0003239471698179841,1.447817087173462,2.3087546825408936,-1.672451376914978,-0.24,0.09,0.02,286.83
1680042521.17977309,154564446,2,-0.67,0.6,333.17,-0.050331976264715195,-0.0178583525121212,0.016097554937005043,0.005742229986935854,1.4457370042800903,2.308893918991089,-1.6725822687149048,-0.24,0.09,0.02,286.83
1680042521.27982402,154664497,2,-0.66,0.61,333.18,-0.050790056586265564,-0.01833008974790573,0.01774473302066326,0.025058066472411156,1.4460688829421997,2.306380033493042,-1.6701215505599976,-0.24,0.1,0.02,286.83
1680042521.37977719,154764450,2,-0.66,0.61,333.18,-0.05263117328286171,-0.016623590141534805,0.01740715280175209,0.03407103195786476,1.445754885673523,2.303466320037842,-1.6677031517028809,-0.24,0.1,0.02,286.83
1680042521.47983003,154864503,2,-0.67,0.62,333.18,-0.052918486297130585,-0.01739589311182499,0.019446387887001038,0.052039723843336105,1.4478694200515747,2.299762725830078,-1.662689447402954,-0.24,0.1,0.02,286.83
1680042521.57976317,154964436,2,-0.67,0.62,333.17,-0.04514944553375244,-0.02148894965648651,0.02135128155350685,0.05747281014919281,1.4495254755020142,2.2958779335021973,-1.6581963300704956,-0.25,0.1,0.02,286.83
1680042521.67981505,155064488,2,-0.67,0.6,333.18,-0.04758936166763306,-0.01946474239230156,0.023153899237513542,0.05515678599476814,1.45246422290802,2.2931325435638428,-1.6530810594558716,-0.24,0.1,0.02,286.83
1680042521.77978706,155164460,2,-0.66,0.6,333.19,-0.05034015700221062,-0.017870647832751274,0.024504225701093674,0.0398147851228714,1.4536566734313965,2.2910776138305664,-1.6500645875930786,-0.24,0.1,0.02,286.83
1680042521.87975001,155264423,2,-0.66,0.6,333.19,-0.044993333518505096,-0.01983785815536976,0.026818249374628067,0.03306896612048149,1.4561636447906494,2.2893452644348145,-1.6462448835372925,-0.25,0.1,0.02,286.83
1680042521.97975516,155364428,2,-0.66,0.59,333.19,-0.04433216527104378,-0.019882265478372574,0.027247894555330276,0.028571508824825287,1.4578100442886353,2.2875442504882812,-1.6435315608978271,-0.25,0.1,0.02,286.83
1680042522.07976913,155464442,2,-0.66,0.59,333.19,-0.046301309019327164,-0.017830297350883484,0.02715529501438141,0.017891665920615196,1.46027672290802,2.286381244659424,-1.641308307647705,-0.25,0.1,0.02,286.83
1680042522.17981911,155564492,2,-0.66,0.6,333.19,-0.04219723865389824,-0.020036455243825912,0.027035227045416832,0.016905324533581734,1.4622998237609863,2.285348415374756,-1.6392607688903809,-0.25,0.1,0.02,286.83
1680042522.27976418,155664437,2,-0.65,0.59,333.18,-0.03990120813250542,-0.02001938596367836,0.02736533433198929,0.01679324172437191,1.465981364250183,2.2841920852661133,-1.6373662948608398,-0.25,0.1,0.02,286.83
1680042522.37983418,155764507,2,-0.65,0.59,333.18,-0.04200141131877899,-0.01889992691576481,0.027644872665405273,0.013748187571763992,1.4683167934417725,2.2830090522766113,-1.6358197927474976,-0.25,0.1,0.02,286.83
1680042529.47976613,162864439,2,-0.67,0.48,333.21,-0.04688313230872154,0.0013134509790688753,0.012416621670126915,-0.013811424374580383,1.45210862159729,2.533353567123413,-1.7171685695648193,-0.25,0.11,0.02,286.83
1680042529.57983708,162964510,2,-0.67,0.48,333.21,-0.04744812846183777,0.00021055748220533133,0.013227608054876328,0.004979673307389021,1.4469588994979858,2.535597801208496,-1.716977834701538,-0.25,0.11,0.02,286.83
1680042529.67980909,163064482,2,-0.67,0.48,333.21,-0.0487266480922699,-1.5973444533301517e-05,0.01464798767119646,0.024221934378147125,1.4415558576583862,2.5383355617523193,-1.7147955894470215,-0.25,0.1,0.02,286.83
1680042529.77982020,163164493,2,-0.67,0.49,333.21,-0.049250662326812744,-0.0013223015703260899,0.015321213752031326,0.030298709869384766,1.4362468719482422,2.5402348041534424,-1.7127379179000854,-0.25,0.1,0.02,286.83
1680042529.87978911,163264462,2,-0.67,0.49,333.2,-0.04984409734606743,-0.0018796375952661037,0.015809517353773117,0.017011156305670738,1.430643916130066,2.5431742668151855,-1.7120187282562256,-0.25,0.11,0.02,286.83
1680042529.97976923,163364442,2,-0.67,0.48,333.21,-0.050689514726400375,-0.00288563990034163,0.015215963125228882,0.00979776680469513,1.4252263307571411,2.545257329940796,-1.7108862400054932,-0.25,0.11,0.02,286.83
1680042530.07976007,163464433,2,-0.67,0.48,333.21,-0.04881000146269798,-0.002789429621770978,0.01534360833466053,0.016530562192201614,1.4197551012039185,2.5481057167053223,-1.709006428718567,-0.25,0.11,0.02,286.83
1680042530.17978501,163564458,2,-0.67,0.48,333.21,-0.04753486067056656,-0.0034442399628460407,0.015440360642969608,0.01593547873198986,1.4147381782531738,2.5500872135162354,-1.707706093788147,-0.25,0.11,0.02,286.83
1680042530.27982306,163664496,2,-0.67,0.49,333.22,-0.04575046896934509,-0.004055711440742016,0.01568322256207466,0.002442289376631379,1.409981608390808,2.5526123046875,-1.7076966762542725,-0.25,0.11,0.02,286.83
1680042530.37976313,163764436,2,-0.67,0.49,333.22,-0.04279676452279091,-0.003441822249442339,0.015574285760521889,-0.005858010146766901,1.4058111906051636,2.5547831058502197,-1.7079253196716309,-0.25,0.11,0.02,286.83
1680042530.47983408,163864507,2,-0.67,0.49,333.22,-0.040613822638988495,-0.002987304935231805,0.01581428200006485,-0.005588853266090155,1.4010018110275269,2.5581657886505127,-1.7080978155136108,-0.25,0.11,0.02,286.83
1680042530.57977605,163964449,2,-0.67,0.48,333.21,-0.038539011031389236,-0.0025583007372915745,0.014950559474527836,-0.0049722809344530106,1.3964626789093018,2.561047077178955,-1.708356499671936,-0.25,0.11,0.02,286.83
1680042530.67981720,164064490,2,-0.67,0.48,333.21,-0.03207848593592644,-0.002336823381483555,0.015774037688970566,0.014874099753797054,1.393572211265564,2.5649099349975586,-1.7063498497009277,-0.25,0.1,0.02,286.83
1680042530.77979112,164164464,2,-0.67,0.47000000000000003,333.22,-0.025537671521306038,-0.0018231363501399755,0.016942905262112617,0.02675779163837433,1.391920566558838,2.568146228790283,-1.7043392658233643,-0.25,0.1,0.02,286.83
1680042530.87976503,164264438,2,-0.67,0.48,333.22,-0.018307305872440338,-9.428057819604874e-05,0.017734352499246597,0.030973127111792564,1.3908491134643555,2.5727765560150146,-1.7015149593353271,-0.25,0.1,0.02,286.83
1680042530.97976303,164364436,2,-0.67,0.48,333.21,-0.013149312697350979,0.0016637406079098582,0.01882200315594673,0.03232169523835182,1.3905773162841797,2.5769386291503906,-1.6988105773925781,-0.25,0.1,0.02,286.83
1680042531.07977223,164464445,2,-0.67,0.49,333.21,-0.009176214225590229,0.0038953092880547047,0.018374795094132423,0.0017224322073161602,1.3891584873199463,2.5818705558776855,-1.6995632648468018,-0.25,0.1,0.02,286.83
1680042531.17982817,164564501,2,-0.67,0.49,333.21,-0.006582813803106546,0.004826229996979237,0.018576443195343018,-0.020419972017407417,1.3878819942474365,2.5861151218414307,-1.7007936239242554,-0.25,0.11,0.02,286.83
1680042531.27976608,164664439,2,-0.68,0.49,333.21,-0.003759293584153056,0.003599373623728752,0.01943385601043701,-0.0058960639871656895,1.3860840797424316,2.590142011642456,-1.7001702785491943,-0.25,0.1,0.02,286.83
1680042531.37984705,164764520,2,-0.68,0.49,333.21,-0.0007708498742431402,0.0021717725321650505,0.019964618608355522,0.008582334965467453,1.384463906288147,2.5932199954986572,-1.6993634700775146,-0.25,0.11,0.02,286.83
1680042531.47976804,164864441,2,-0.68,0.5,333.21,0.00019802231690846384,0.0010704927844926715,0.018989427015185356,0.00473266514018178,1.3813388347625732,2.5969808101654053,-1.6990870237350464,-0.25,0.1,0.02,286.83
1680042531.57981110,164964484,2,-0.68,0.5,333.21,0.00100361043587327,-0.0006401022546924651,0.01789235696196556,0.0009455396211706102,1.378452181816101,2.599832773208618,-1.6989383697509766,-0.25,0.1,0.02,286.83
1680042531.67979217,165064465,2,-0.6900000000000001,0.5,333.21,0.0025223158299922943,-0.0022117653861641884,0.018345190212130547,0.012748412787914276,1.3750840425491333,2.603116512298584,-1.6972565650939941,-0.25,0.1,0.02,286.83
1680042531.77975202,165164425,2,-0.6900000000000001,0.5,333.21,0.0039140284061431885,-0.004425425548106432,0.018572792410850525,0.016182566061615944,1.3725932836532593,2.6052005290985107,-1.6960934400558472,-0.25,0.1,0.02,286.83
1680042531.87975621,165264429,2,-0.7000000000000001,0.5,333.21,0.0033062526490539312,-0.0054223984479904175,0.01990251988172531,0.02116953395307064,1.368349313735962,2.6083250045776367,-1.6939924955368042,-0.25,0.1,0.02,286.83
1680042531.97978401,165364457,2,-0.7000000000000001,0.51,333.22,0.0024718292988836765,-0.006681948434561491,0.0213649682700634,0.023628126829862595,1.364836573600769,2.6103920936584473,-1.6920603513717651,-0.25,0.1,0.02,286.83
1680042532.07983208,165464505,2,-0.71,0.51,333.21,0.0006895244587212801,-0.007330136839300394,0.02302015759050846,0.018395347520709038,1.3601939678192139,2.6130733489990234,-1.6906071901321411,-0.25,0.1,0.02,286.83
1680042532.17977309,165564446,2,-0.71,0.51,333.21,-0.0011015478521585464,-0.007945947349071503,0.02238348498940468,0.00859700608998537,1.355503797531128,2.6154465675354004,-1.6897339820861816,-0.25,0.1,0.02,286.83
1680042532.27984905,165664522,2,-0.72,0.51,333.22,-0.001998564461246133,-0.00570629071444273,0.023174209520220757,0.0023749179672449827,1.3500491380691528,2.6203274726867676,-1.6894029378890991,-0.25,0.1,0.02,286.83
1680042532.37978220,165764455,2,-0.72,0.51,333.22,-0.0036969517823308706,-0.007464641705155373,0.02309129759669304,-0.002589097246527672,1.345577359199524,2.62412691116333,-1.6893590688705444,-0.25,0.1,0.02,286.83
1680042532.47981215,165864485,2,-0.73,0.52,333.25,-0.004103146027773619,-0.00438604224473238,0.023664480075240135,-0.009468769654631615,1.341026782989502,2.6283059120178223,-1.6899302005767822,-0.25,0.1,0.02,286.83
1680042532.57978916,165964462,2,-0.72,0.52,333.21,-0.0017994497902691364,-0.005120160989463329,0.022938618436455727,-0.011917591094970703,1.3367754220962524,2.6320931911468506,-1.6905770301818848,-0.25,0.1,0.02,286.83
1680042532.67976213,166064435,2,-0.72,0.53,333.2,-0.0073371813632547855,-0.010510729625821114,0.022753151133656502,0.004189909435808659,1.334442138671875,2.6347243785858154,-1.6895527839660645,-0.25,0.1,0.02,286.83
1680042532.77976823,166164441,2,-0.71,0.53,333.21,-0.0013039440382272005,-0.019895609468221664,0.023428987711668015,0.011611455120146275,1.3335336446762085,2.6363697052001953,-1.6887208223342896,-0.25,0.1,0.02,286.83
1680042532.87980509,166264478,2,-0.63,0.53,333.18,-0.009104753844439983,-0.02434731274843216,0.020572014153003693,0.013227383606135845,1.3314627408981323,2.6386916637420654,-1.687252163887024,-0.25,0.1,0.02,286.83
1680042532.97983718,166364510,2,-0.63,0.53,333.22,-0.002649769652634859,-0.006504181306809187,0.0257561132311821,0.016879083588719368,1.3300930261611938,2.640869617462158,-1.686145305633545,-0.25,0.1,0.02,286.83
1680042533.07976508,166464438,2,-0.61,0.53,333.22,-0.010328395292162895,-0.015378829091787338,0.030001407489180565,0.029007824137806892,1.3290951251983643,2.643277406692505,-1.6834166049957275,-0.25,0.1,0.02,286.83
1680042533.17984319,166564516,2,-0.64,0.53,333.2,-0.015121318399906158,0.0072920420207083225,0.02844339795410633,0.02916332334280014,1.3281440734863281,2.644402265548706,-1.681230902671814,-0.25,0.1,0.02,286.83
1680042533.27982211,166664495,2,-0.66,0.54,333.23,-0.026563351973891258,0.0038761368487030268,0.022099796682596207,0.025376468896865845,1.3265395164489746,2.6469225883483887,-1.6781988143920898,-0.25,0.1,0.02,286.83
1680042533.37982011,166764493,2,-0.63,0.54,333.23,-0.023593725636601448,0.016677845269441605,0.021413065493106842,0.020681198686361313,1.3249400854110718,2.6480865478515625,-1.676037311553955,-0.25,0.1,0.02,286.83
1680042533.47978616,166864459,2,-0.67,0.55,333.23,-0.021663567051291466,0.0032748724333941936,0.018033495172858238,-0.009905742481350899,1.323027491569519,2.6504147052764893,-1.6767866611480713,-0.25,0.1,0.02,286.83
1680042533.57976413,166964437,2,-0.62,0.55,333.22,-0.011506637558341026,-0.0072635142132639885,0.024042926728725433,-0.026710400357842445,1.3213508129119873,2.651380777359009,-1.6784393787384033,-0.25,0.1,0.02,286.83
1680042533.67976713,167064440,2,-0.65,0.53,333.2,0.008779204450547695,-0.00837618950754404,0.02971574291586876,-0.04006476327776909,1.319113850593567,2.654355525970459,-1.6826014518737793,-0.25,0.1,0.02,286.83
1680042533.77977920,167164452,2,-0.6,0.56,333.24,-0.009118764661252499,-0.02594662271440029,0.024383708834648132,-0.040477681905031204,1.3169599771499634,2.655775785446167,-1.6857906579971313,-0.25,0.1,0.02,286.83
1680042533.87983918,167264512,2,-0.53,0.53,333.16,0.025229133665561676,-0.0018423775909468532,-0.009868406690657139,-0.05286887660622597,1.3124632835388184,2.660149335861206,-1.688330054283142,-0.25,0.1,0.02,286.83
1680042533.97977424,167364447,2,-0.2,0.38,333.02,0.037067290395498276,0.015503013506531715,-0.1760936826467514,-0.21050278842449188,1.3106275796890259,2.665590763092041,-1.699691891670227,-0.25,0.1,0.02,286.83
1680042534.07985115,167464524,2,0.46,0.29,332.83,0.0454317145049572,0.013295488432049751,-0.49066978693008423,-0.5354330539703369,1.3094054460525513,2.6723668575286865,-1.7377668619155884,-0.25,0.1,0.02,286.83
1680042534.17982101,167564494,2,0.88,0.13,332.61,0.05756981670856476,0.01273637916892767,-0.6515878438949585,-0.7122398614883423,1.310141921043396,2.679178476333618,-1.8010685443878174,-0.25,0.1,0.02,286.83
1680042534.27983713,167664510,2,1.28,-0.18,332.35,0.08158828318119049,0.03837697207927704,-0.6988831758499146,-0.8539683222770691,1.311665415763855,2.691723585128784,-1.886315941810608,-0.25,0.1,0.02,286.83
1680042534.37979507,167764468,2,1.44,-0.08,332.08,0.09198921173810959,0.05306670069694519,-0.6678226590156555,-0.8533678650856018,1.3160958290100098,2.7042267322540283,-1.970248818397522,-0.26,0.1,0.02,286.83
1680042534.47975707,167864430,2,1.0,0.24,331.77,0.11205773055553436,0.06094001606106758,-0.6024030447006226,-0.690517008304596,1.327966570854187,2.7142341136932373,-2.0377237796783447,-0.25,0.1,0.02,286.83
1680042534.57977223,167964445,2,0.61,0.34,331.48,0.1374931037425995,0.06898238509893417,-0.4996200501918793,-0.5186213850975037,1.3427790403366089,2.724130630493164,-2.0958189964294434,-0.25,0.1,0.02,286.83
1680042534.67979121,168064464,2,0.76,0.4,331.24,0.1443682163953781,0.07288229465484619,-0.43287375569343567,-0.4083375632762909,1.3518683910369873,2.7364964485168457,-2.1416523456573486,-0.25,0.1,0.02,286.83
1680042534.77983618,168164509,2,0.43,0.42,331.04,0.14867334067821503,0.06965035200119019,-0.3404186964035034,-0.31434398889541626,1.3610237836837769,2.748474359512329,-2.180077314376831,-0.25,0.1,0.02,286.83
1680042534.87977123,168264444,2,-0.02,0.3,331.05,0.14696022868156433,0.07154396921396255,-0.25927576422691345,-0.20683789253234863,1.3625283241271973,2.759681224822998,-2.204930543899536,-0.25,0.1,0.02,286.83
1680042534.97984719,168364520,2,-0.33,0.23,331.35,0.13671910762786865,0.07192696630954742,-0.19248858094215393,-0.17827893793582916,1.3641830682754517,2.769500732421875,-2.228990077972412,-0.25,0.1,0.02,286.83
1680042535.07982111,168464494,2,-0.71,0.6900000000000001,331.96,0.14172519743442535,0.08483191579580307,-0.1477169543504715,-0.24530106782913208,1.3698184490203857,2.7841763496398926,-2.2565701007843018,-0.25,0.1,0.02,286.83
1680042535.17982602,168564499,2,-0.41000000000000003,0.97,332.94,0.1430068463087082,0.07187598198652267,-0.10237567126750946,-0.280629962682724,1.3779661655426025,2.7985053062438965,-2.2839698791503906,-0.25,0.1,0.02,286.83
1680042535.27979016,168664463,2,-0.05,0.8300000000000001,334.38,0.12833701074123383,0.06946168839931488,-0.040279269218444824,-0.18181243538856506,1.3823587894439697,2.812690258026123,-2.3010094165802,-0.26,0.1,0.02,286.83
1680042535.37976217,168764435,2,-0.19,0.8200000000000001,336.17,0.11698135733604431,0.06058286502957344,0.00582268089056015,-0.05871155485510826,1.385444164276123,2.8256452083587646,-2.3079655170440674,-0.26,0.1,0.02,286.83
1680042535.47977519,168864448,2,-0.14,0.88,338.07,0.11674820631742477,0.06789657473564148,0.05393567681312561,0.04479636996984482,1.389716386795044,2.8403191566467285,-2.3055431842803955,-0.25,0.1,0.02,286.83
1680042535.57979512,168964468,2,-0.04,0.9400000000000001,339.96,0.10230545699596405,0.06936150044202805,0.1056569442152977,0.10786085575819016,1.3951857089996338,2.853874683380127,-2.2991607189178467,-0.25,0.1,0.02,286.83
1680042535.67983723,169064510,2,-0.15,0.87,341.77,0.10653077065944672,0.07492583245038986,0.12658269703388214,0.1061042845249176,1.4005656242370605,2.868527889251709,-2.2910728454589844,-0.26,0.1,0.02,286.83
1680042535.77977109,169164444,2,-0.19,0.84,343.46,0.10424474626779556,0.07784463465213776,0.15678729116916656,0.0913601666688919,1.4068641662597656,2.882495403289795,-2.2842068672180176,-0.26,0.1,0.02,286.83
1680042535.87984419,169264517,2,-0.05,0.67,344.91,0.10688845068216324,0.07704468071460724,0.1759292036294937,0.05625727400183678,1.4120237827301025,2.8969411849975586,-2.279127836227417,-0.26,0.1,0.02,286.83
1680042535.97977805,169364451,2,0.1,0.42,346.25,0.10667089372873306,0.08613655716180801,0.17102211713790894,0.0393575057387352,1.4184277057647705,2.9101104736328125,-2.2719860076904297,-0.26,0.1,0.02,286.83
1680042536.07981110,169464484,2,0.08,0.36,347.52,0.11403676867485046,0.07390802353620529,0.14683198928833008,0.033283475786447525,1.4251686334609985,2.9251906871795654,-2.265659809112549,-0.26,0.1,0.02,286.83
1680042536.17979407,169564467,2,0.2,0.25,348.62,0.1224440336227417,0.08099287748336792,0.12332650274038315,0.011710288934409618,1.4338042736053467,2.9394078254699707,-2.2624154090881348,-0.26,0.1,0.02,286.83
1680042536.27976823,169664441,2,0.2,0.3,349.55,0.12953747808933258,0.08016562461853027,0.09268362075090408,-0.030269185081124306,1.444492220878601,2.954576253890991,-2.26377534866333,-0.26,0.1,0.02,286.83
1680042536.37975717,169764430,2,-0.09,0.35000000000000003,350.33,0.13837462663650513,0.08624113351106644,0.04748619720339775,-0.061143867671489716,1.4568030834197998,2.96807861328125,-2.2666022777557373,-0.26,0.1,0.02,286.83
1680042536.47977805,169864451,2,-0.06,0.15,350.97,0.14437277615070343,0.07732322067022324,-0.012504818849265575,-0.10588038712739944,1.4700342416763306,2.983466863632202,-2.2732462882995605,-0.26,0.1,0.02,286.83
1680042536.57983708,169964510,2,0.12,0.13,351.46,0.15921203792095184,0.08292500674724579,-0.1042461171746254,-0.19706836342811584,1.4848840236663818,2.9973087310791016,-2.2886552810668945,-0.26,0.1,0.03,286.83
1680042536.67976904,170064442,2,-0.01,0.12,351.77,0.1749485284090042,0.08093595504760742,-0.1866961270570755,-0.28904736042022705,1.5020575523376465,3.013334035873413,-2.3140227794647217,-0.26,0.1,0.03,286.83
1680042536.77985501,170164528,2,-0.15,0.03,351.94,0.19126981496810913,0.08546862006187439,-0.2534371614456177,-0.352713406085968,1.5209535360336304,3.027491807937622,-2.344817638397217,-0.26,0.1,0.03,286.83
1680042536.87982512,170264498,2,-0.22,0.15,352.0,0.20142896473407745,0.08899614214897156,-0.37006044387817383,-0.47194933891296387,1.5414063930511475,3.044994354248047,-2.386302947998047,-0.26,0.1,0.03,286.83
1680042536.97986412,170364537,2,-0.25,0.39,351.92,0.21106265485286713,0.08407825231552124,-0.4335785210132599,-0.5454341173171997,1.563075304031372,3.0605063438415527,-2.437603235244751,-0.26,0.1,0.03,286.83
1680042537.07979512,170464468,2,-0.24,0.5,351.73,0.22163206338882446,0.0765661969780922,-0.4977220296859741,-0.6303920745849609,1.582749605178833,3.075829267501831,-2.4960546493530273,-0.26,0.1,0.03,286.83
1680042537.17976213,170564435,2,-0.14,0.6,351.47,0.22041776776313782,0.078349269926548,-0.5680714845657349,-0.703230619430542,1.6028867959976196,3.0902388095855713,-2.561748743057251,-0.26,0.1,0.03,286.83
1680042537.27977324,170664446,2,0.29,0.75,351.12,0.22349995374679565,0.08978115767240524,-0.6288534998893738,-0.717308521270752,1.6233357191085815,3.107590675354004,-2.629453182220459,-0.26,0.1,0.03,286.83
1680042537.37978601,170764459,2,0.98,0.56,350.81,0.22959737479686737,0.10633534938097,-0.6399756073951721,-0.6782733201980591,1.6447365283966064,3.1248748302459717,-2.6975667476654053,-0.26,0.1,0.03,286.83
1680042537.47982502,170864498,2,1.61,0.31,350.68,0.23996007442474365,0.1318366676568985,-0.643538773059845,-0.6631842851638794,1.665634036064148,3.1453914642333984,-2.765491485595703,-0.26,0.1,0.03,286.83
1680042537.57977104,170964444,2,3.0500000000000003,0.04,350.90000000000003,0.25714898109436035,0.1817329227924347,-0.6335192322731018,-0.6542661786079407,1.6881332397460938,3.1682538986206055,-2.832669496536255,-0.26,0.1,0.03,286.83
1680042537.67985010,171064523,2,3.98,0.23,351.40000000000003,0.2665891647338867,0.2442028969526291,-0.6172714233398438,-0.6607544422149658,1.7083253860473633,3.2000741958618164,-2.8995776176452637,-0.26,0.1,0.03,286.83
1680042537.77978015,171164453,2,3.8200000000000003,0.8200000000000001,352.16,0.2748020589351654,0.31177154183387756,-0.5919457674026489,-0.6456894278526306,1.7300267219543457,3.2367067337036133,-2.964576482772827,-0.26,0.1,0.03,286.83
1680042537.87983704,171264510,2,3.68,1.17,353.27,0.2777770459651947,0.38030633330345154,-0.5819839239120483,-0.6429245471954346,1.7513009309768677,3.2816905975341797,-3.028829574584961,-0.26,0.1,0.03,286.83
1680042537.97979903,171364472,2,3.49,1.32,354.86,0.275127112865448,0.43209895491600037,-0.5532411336898804,-0.6266348361968994,1.7734436988830566,3.3314666748046875,-3.092358112335205,-0.26,0.1,0.03,286.83
1680042538.07976222,171464435,2,2.94,1.51,356.98,0.26506170630455017,0.4964745044708252,-0.5052523612976074,-0.5741055607795715,1.7923153638839722,3.3884406089782715,-3.1513192653656006,-0.26,0.1,0.03,286.83
1680042538.17977214,171564445,2,2.9,1.68,359.46,0.254783034324646,0.5542836785316467,-0.45757636427879333,-0.5082555413246155,1.8082420825958252,3.4515132904052734,-3.2046475410461426,-0.26,0.1,0.03,286.83
1680042538.27978516,171664458,2,3.21,1.78,2.09,0.23225049674510956,0.60721355676651,-0.40895789861679077,-0.42517614364624023,1.8190950155258179,3.520233154296875,-3.2490108013153076,-0.26,0.1,0.03,286.83
1680042538.37983012,171764503,2,3.35,1.8,4.73,0.20834822952747345,0.6569547057151794,-0.33004969358444214,-0.3225105106830597,1.8292219638824463,3.5918867588043213,-3.28670334815979,-0.26,0.1,0.03,286.83
1680042538.47976613,171864439,2,3.43,1.71,7.32,0.17234046757221222,0.7122089862823486,-0.28962478041648865,-0.2437540888786316,1.8306081295013428,3.670375108718872,-3.3142685890197754,-0.26,0.09,0.03,286.83
1680042538.57984900,171964522,2,3.3000000000000003,1.45,9.77,0.1478217989206314,0.7617409229278564,-0.25400495529174805,-0.1937188357114792,1.8305206298828125,3.7517173290252686,-3.337118625640869,-0.26,0.09,0.03,286.83
1680042538.67977905,172064452,2,2.86,1.1300000000000001,12.07,0.11226332187652588,0.8176067471504211,-0.19822724163532257,-0.15514889359474182,1.8190709352493286,3.8381848335266113,-3.356255292892456,-0.25,0.09,0.03,286.83
1680042538.77990317,172164576,2,2.8000000000000003,0.8200000000000001,14.11,0.08906485885381699,0.8568629622459412,-0.15278884768486023,-0.1250077337026596,1.806781530380249,3.927774429321289,-3.3722453117370605,-0.25,0.09,0.03,286.83
1680042538.87979603,172264469,2,2.88,0.59,15.9,0.055682580918073654,0.9054884314537048,-0.14653219282627106,-0.13274334371089935,1.7857306003570557,4.0199103355407715,-3.3858091831207275,-0.25,0.09,0.02,286.83
1680042538.97977018,172364443,2,3.19,0.46,17.54,0.034600723534822464,0.9497235417366028,-0.0856732428073883,-0.10424267500638962,1.7654672861099243,4.114864826202393,-3.3998756408691406,-0.25,0.09,0.02,286.83
1680042539.07977104,172464444,2,3.8200000000000003,0.45,19.13,-0.0038494274485856295,1.0097733736038208,-0.06254574656486511,-0.07670269161462784,1.7395262718200684,4.216722011566162,-3.4075276851654053,-0.25,0.09,0.02,286.83
1680042539.17978001,172564453,2,4.91,0.43,20.56,-0.03694732114672661,1.081595540046692,-0.035476695746183395,-0.04513121023774147,1.7146649360656738,4.324096202850342,-3.4128177165985107,-0.25,0.09,0.02,286.83
1680042539.27983403,172664507,2,5.54,0.3,21.77,-0.07264865934848785,1.151289463043213,0.004868272691965103,-0.0037570015992969275,1.6773467063903809,4.435290336608887,-3.4143354892730713,-0.25,0.09,0.02,286.83
1680042539.37977505,172764448,2,4.24,0.16,22.72,-0.10648404061794281,1.2192100286483765,0.002163900528103113,0.003230141242966056,1.6399904489517212,4.55177640914917,-3.4140591621398926,-0.25,0.09,0.02,286.83
1680042539.47984219,172864515,2,3.0500000000000003,0.09,23.45,-0.1445123851299286,1.2787033319473267,0.0006783315911889076,0.018820416182279587,1.5955311059951782,4.675004482269287,-3.4114837646484375,-0.24,0.08,0.02,286.83
1680042539.57981300,172964486,2,1.3,0.13,23.98,-0.15333038568496704,1.2962534427642822,0.020347580313682556,0.043806273490190506,1.5533745288848877,4.803093433380127,-3.4086058139801025,-0.24,0.08,0.02,286.83
1680042539.67987919,173064552,2,-0.6,0.33,24.37,-0.18082576990127563,1.3070518970489502,-0.009264742024242878,-0.020572347566485405,1.4983043670654297,4.927116394042969,-3.4089303016662598,-0.24,0.08,0.02,286.83
1680042539.77979803,173164471,2,-0.86,0.49,24.72,-0.19298672676086426,1.2952581644058228,0.0238033477216959,-0.01857403665781021,1.4488246440887451,5.050959587097168,-3.411137104034424,-0.24,0.08,0.02,286.83
1680042539.87975907,173264432,2,-0.63,0.48,25.01,-0.20605094730854034,1.2595949172973633,0.0245636235922575,-0.07272269576787949,1.3884408473968506,5.16178560256958,-3.418534278869629,-0.23,0.08,0.01,286.83
1680042539.97976804,173364441,2,-0.85,0.45,25.27,-0.21746306121349335,1.2345460653305054,0.009412096813321114,-0.1007196456193924,1.3348329067230225,5.271126747131348,-3.4249746799468994,-0.23,0.08,0.01,286.83
1680042540.07978702,173464460,2,-0.8200000000000001,0.44,25.560000000000002,-0.2307712286710739,1.2186875343322754,-0.01705036126077175,-0.08202160894870758,1.2742276191711426,5.376960754394531,-3.4297420978546143,-0.23,0.08,0.01,286.83
1680042540.17983818,173564511,2,-0.62,0.41000000000000003,25.830000000000002,-0.2387741059064865,1.1849591732025146,-0.061371129006147385,-0.07523494958877563,1.2146389484405518,5.481437683105469,-3.4356496334075928,-0.23,0.08,0.01,286.83
1680042540.27982521,173664498,2,-0.58,0.33,26.2,-0.25825127959251404,1.1796318292617798,-0.135801762342453,-0.12104498594999313,1.1535238027572632,5.58701753616333,-3.4450387954711914,-0.23,0.08,0.01,286.83
1680042540.37984514,173764518,2,-0.41000000000000003,0.19,26.84,-0.2634489834308624,1.1644824743270874,-0.20773719251155853,-0.20163050293922424,1.103253960609436,5.693826675415039,-3.4623069763183594,-0.23,0.08,0.01,286.83
1680042540.47977805,173864451,2,-0.25,0.13,27.91,-0.2563663423061371,1.1536719799041748,-0.2581486403942108,-0.26624011993408203,1.0524855852127075,5.798689842224121,-3.486257791519165,-0.23,0.08,0.01,286.83
1680042540.57981420,173964487,2,-0.11,0.12,29.400000000000002,-0.25508183240890503,1.1467386484146118,-0.2830454409122467,-0.29394620656967163,1.0081418752670288,5.904511451721191,-3.5144548416137695,-0.23,0.08,0.01,286.83
1680042540.67979002,174064463,2,-0.01,0.19,31.29,-0.2474180907011032,1.1461106538772583,-0.29130515456199646,-0.32523736357688904,0.9667137265205383,6.014224529266357,-3.5469748973846436,-0.23,0.08,0.01,286.83
1680042540.77976203,174164435,2,0.05,0.29,33.660000000000004,-0.24930942058563232,1.1404842138290405,-0.3012726306915283,-0.35021308064460754,0.9301050901412964,6.125657081604004,-3.580605983734131,-0.23,0.08,0.01,286.83
1680042540.87977314,174264446,2,0.09,0.4,36.38,-0.24596363306045532,1.1558072566986084,-0.28611811995506287,-0.3245457112789154,0.8952499032020569,6.244056224822998,-3.6127982139587402,-0.23,0.08,0.0,286.83
1680042540.97979403,174364467,2,0.08,0.43,39.26,-0.23228006064891815,1.1603314876556396,-0.2463618367910385,-0.2740771174430847,0.8639646768569946,6.364213466644287,-3.642674684524536,-0.23,0.08,0.0,286.83
1680042541.07983518,174464508,2,0.06,0.45,42.12,-0.23987528681755066,1.1619484424591064,-0.2762361466884613,-0.32390260696411133,0.8343907594680786,6.486129283905029,-3.6748013496398926,-0.23,0.08,0.0,286.83
1680042541.17977118,174564444,2,-0.01,0.46,44.93,-0.23066379129886627,1.1740096807479858,-0.28419533371925354,-0.3434836268424988,0.8075942993164062,6.608046054840088,-3.708340883255005,-0.23,0.08,0.0,286.83
1680042541.27984905,174664522,2,-0.04,0.5,47.61,-0.22569546103477478,1.1782828569412231,-0.3151181936264038,-0.3638237416744232,0.785948634147644,6.735893726348877,-3.742659568786621,-0.23,0.08,0.0,286.83
1680042541.37980914,174764482,2,-0.1,0.53,50.14,-0.21931667625904083,1.1868236064910889,-0.34790003299713135,-0.3834401071071625,0.7670082449913025,6.865284442901611,-3.779014825820923,-0.23,0.08,0.0,286.83
1680042541.47983623,174864509,2,-0.13,0.56,52.370000000000005,-0.20422302186489105,1.1978750228881836,-0.36672788858413696,-0.37927454710006714,0.7500868439674377,7.0011796951293945,-3.8166422843933105,-0.23,0.08,0.0,286.83
1680042541.57979321,174964466,2,-0.2,0.61,54.35,-0.19457268714904785,1.206527829170227,-0.41649359464645386,-0.4292643368244171,0.7347130179405212,7.136820316314697,-3.858261823654175,-0.23,0.08,0.0,286.83
1680042541.67976713,175064440,2,-0.29,0.65,56.09,-0.1852949559688568,1.2110990285873413,-0.4194270372390747,-0.4774583578109741,0.7233494520187378,7.278249263763428,-3.9068756103515625,-0.24,0.08,0.0,286.83
1680042541.77975607,175164429,2,-0.28,0.66,57.620000000000005,-0.16720841825008392,1.2244387865066528,-0.42862167954444885,-0.5117043256759644,0.7134196758270264,7.418504238128662,-3.9575421810150146,-0.24,0.08,0.0,286.83
1680042541.87978721,175264460,2,-0.28,0.73,58.9,-0.162633016705513,1.2317025661468506,-0.46167072653770447,-0.5420768857002258,0.7029459476470947,7.560710906982422,-4.009558200836182,-0.24,0.08,0.0,286.83
1680042541.97983718,175364510,2,-0.29,0.78,59.92,-0.15880435705184937,1.2322155237197876,-0.4472733736038208,-0.5182090401649475,0.6927480101585388,7.70053243637085,-4.0608062744140625,-0.24,0.08,-0.01,286.83
1680042542.07977223,175464445,2,-0.28,0.88,60.71,-0.1441531479358673,1.2392786741256714,-0.42665159702301025,-0.48107975721359253,0.6782607436180115,7.841170310974121,-4.108882904052734,-0.24,0.08,-0.01,286.83
1680042542.17985010,175564523,2,-0.27,0.96,61.27,-0.14707419276237488,1.2408133745193481,-0.4054451286792755,-0.4380996823310852,0.6633985042572021,7.978087425231934,-4.153241157531738,-0.24,0.08,-0.01,286.83
1680042542.27983212,175664505,2,-0.27,1.02,61.63,-0.14610646665096283,1.240456223487854,-0.39778172969818115,-0.4199753701686859,0.6459752321243286,8.118684768676758,-4.197076797485352,-0.24,0.08,-0.01,286.83
1680042542.37983418,175764507,2,-0.28,1.05,61.83,-0.15182608366012573,1.238769292831421,-0.3932464122772217,-0.422010600566864,0.6288323402404785,8.256875038146973,-4.240495204925537,-0.24,0.08,-0.01,286.83
1680042542.47979212,175864465,2,-0.25,1.01,61.85,-0.14830218255519867,1.2446085214614868,-0.3444380462169647,-0.38199689984321594,0.6115500926971436,8.400477409362793,-4.28166389465332,-0.24,0.07,-0.02,286.83
1680042542.57976604,175964439,2,-0.21,0.99,103.46000000000001,-0.1396767795085907,1.247122883796692,-0.30769744515419006,-0.3622297942638397,0.5951758623123169,8.542256355285645,-4.320007801055908,-0.24,0.08,-0.02,286.83
1680042542.67976403,176064437,2,-0.22,0.97,103.28,-0.13500389456748962,1.2606706619262695,-0.25990158319473267,-0.29458266496658325,0.5802103877067566,8.688063621520996,-4.3503007888793945,-0.24,0.07,-0.02,286.83
1680042542.77979302,176164466,2,-0.18,0.9,103.17,-0.1285787969827652,1.2677903175354004,-0.22475124895572662,-0.23102353513240814,0.5673957467079163,8.832175254821777,-4.3761091232299805,-0.24,0.07,-0.02,286.83
1680042542.87984419,176264517,2,0.19,0.8,103.06,-0.11791194975376129,1.2750722169876099,-0.17978955805301666,-0.18674947321414948,0.5578668713569641,8.977867126464844,-4.397864818572998,-0.24,0.07,-0.02,286.83
1680042542.97977710,176364450,2,0.84,0.75,103.06,-0.11051648110151291,1.285674810409546,-0.14063307642936707,-0.15078666806221008,0.5497165322303772,9.12109661102295,-4.416032791137695,-0.24,0.07,-0.02,286.83
1680042543.07984614,176464519,2,0.44,0.74,103.32000000000001,-0.11090453714132309,1.2967336177825928,-0.13239353895187378,-0.13399143517017365,0.5412665009498596,9.264314651489258,-4.430136680603027,-0.24,0.07,-0.02,286.83
