timestamp,TimeUS,C,Q1,Q2,Q3,Q4
1680042508.37974811,141764421,2,0.9722634553909302,-0.004444984253495932,0.005326210055500269,-0.23378539085388184
1680042508.47974706,141864420,2,0.9722768068313599,-0.004433869384229183,0.005336119327694178,-0.2337300032377243
1680042508.57977509,141964448,2,0.9722799062728882,-0.004440952092409134,0.005348758306354284,-0.233716681599617
1680042508.67982411,142064497,2,0.9722803831100464,-0.004412136971950531,0.005365325603634119,-0.23371478915214539
1680042508.77976608,142164439,2,0.9722832441329956,-0.004384206607937813,0.005367869511246681,-0.2337033450603485
1680042508.87983322,142264506,2,0.9722901582717896,-0.0044502923265099525,0.005341777112334967,-0.23367398977279663
1680042508.97980523,142364478,2,0.9722877740859985,-0.004470750689506531,0.005302021745592356,-0.2336842566728592
1680042509.07980204,142464475,2,0.9722902178764343,-0.004459219053387642,0.005343475379049778,-0.23367348313331604
1680042509.17978311,142564456,2,0.9722875952720642,-0.004511580336838961,0.005358987953513861,-0.23368309438228607
1680042509.27975202,142664425,2,0.9722887277603149,-0.004549694247543812,0.005405517760664225,-0.23367658257484436
1680042509.37974715,142764420,2,0.9722958207130432,-0.00458579882979393,0.005459910724312067,-0.2336450070142746
1680042509.47977614,142864449,2,0.9723016023635864,-0.004562150686979294,0.00545554468408227,-0.23362158238887787
1680042509.57982612,142964499,2,0.9723087549209595,-0.004520183429121971,0.005505772307515144,-0.23359134793281555
1680042509.67976308,143064436,2,0.9723161458969116,-0.004534916486591101,0.005525838118046522,-0.23355986177921295
1680042509.77983117,143164504,2,0.9723322987556458,-0.004558112006634474,0.005534572061151266,-0.23349185287952423
1680042509.87976623,143264439,2,0.9723392128944397,-0.004582615569233894,0.005641268100589514,-0.23346008360385895
1680042509.97982717,143364500,2,0.972342848777771,-0.004537911619991064,0.005699201487004757,-0.23344433307647705
1680042510.07984424,143464517,2,0.9723447561264038,-0.004544910974800587,0.005668184719979763,-0.23343707621097565
1680042510.17975402,143564427,2,0.9723504781723022,-0.0045745475217700005,0.0056338622234761715,-0.2334134429693222
1680042510.27977324,143664446,2,0.9723424911499023,-0.004616080783307552,0.005633131600916386,-0.23344600200653076
1680042510.37977815,143764451,2,0.9723458290100098,-0.004601914901286364,0.005686865653842688,-0.23343120515346527
1680042510.47981310,143864486,2,0.9723415970802307,-0.004584463778883219,0.005698846653103828,-0.23344874382019043
1680042510.57981920,143964492,2,0.972341775894165,-0.0045946622267365456,0.0057283793576061726,-0.23344705998897552
1680042510.67983508,144064508,2,0.9723535180091858,-0.004631114192306995,0.0057242251932621,-0.2333974987268448
1680042510.77976918,144164442,2,0.9723682403564453,-0.004673722665756941,0.005778024904429913,-0.23333413898944855
1680042510.87981009,144264483,2,0.9723631143569946,-0.004684275481849909,0.005764275323599577,-0.2333555370569229
1680042510.97978115,144364454,2,0.9723543524742126,-0.004701580852270126,0.005759906489402056,-0.23339177668094635
1680042511.07974720,144464420,2,0.9723503589630127,-0.00468052551150322,0.00575305987149477,-0.23340892791748047
1680042511.17975116,144564424,2,0.972346305847168,-0.004700485151261091,0.00575347850099206,-0.23342560231685638
1680042511.27977204,144664445,2,0.9723365902900696,-0.004636035300791264,0.005742119625210762,-0.2334674447774887
1680042511.37982321,144764496,2,0.9723443984985352,-0.004614957608282566,0.005792515352368355,-0.23343423008918762
1680042511.47975802,144864431,2,0.9723571538925171,-0.004630087409168482,0.005830001551657915,-0.2333798110485077
1680042511.57983923,144964512,2,0.97236168384552,-0.004572525154799223,0.00586303323507309,-0.23336119949817657
1680042511.67976522,145064438,2,0.9723833203315735,-0.004552511498332024,0.0058509125374257565,-0.23327180743217468
1680042511.77982116,145164494,2,0.9723888039588928,-0.004514019005000591,0.005935782566666603,-0.23324742913246155
1680042511.87978601,145264459,2,0.9723974466323853,-0.004512595944106579,0.005858935881406069,-0.23321352899074554
1680042511.97975206,145364425,2,0.9724035263061523,-0.00449775718152523,0.005808474030345678,-0.23318974673748016
1680042512.07975411,145464427,2,0.9724027514457703,-0.004486493766307831,0.005759309511631727,-0.2331942766904831
1680042512.17977810,145564451,2,0.9724065661430359,-0.004522358998656273,0.0057688383385539055,-0.23317748308181763
1680042512.27982020,145664493,2,0.972419023513794,-0.004520009271800518,0.005747392773628235,-0.23312611877918243
1680042512.37975907,145764432,2,0.9724299311637878,-0.004511092323809862,0.0057447608560323715,-0.2330809086561203
1680042512.47983003,145864503,2,0.9724341034889221,-0.004486443009227514,0.005750025622546673,-0.23306377232074738
1680042512.57976818,145964441,2,0.9724352955818176,-0.004452831111848354,0.005743555258959532,-0.2330596148967743
1680042512.67980909,146064482,2,0.9724539518356323,-0.0044256639666855335,0.00577605189755559,-0.2329815775156021
1680042512.77978301,146164456,2,0.9724476933479309,-0.0043770261108875275,0.005771302618086338,-0.2330087274312973
1680042512.87976718,146264440,2,0.9724689722061157,-0.004363444168120623,0.005777833983302116,-0.23291978240013123
1680042512.97975707,146364430,2,0.9724661111831665,-0.004356870893388987,0.005826551932841539,-0.23293061554431915
1680042513.07978201,146464455,2,0.9724713563919067,-0.004296192899346352,0.005817173980176449,-0.23291026055812836
1680042513.17982721,146564500,2,0.9724807739257812,-0.004302669782191515,0.005865283776074648,-0.232869490981102
1680042513.27977324,146664446,2,0.9724928736686707,-0.004267336800694466,0.005819990299642086,-0.23282088339328766
1680042513.37983823,146764511,2,0.9724915027618408,-0.004246583208441734,0.005833483301103115,-0.23282666504383087
1680042513.47977018,146864443,2,0.9724891185760498,-0.004226347431540489,0.00584389129653573,-0.23283660411834717
1680042513.57980704,146964480,2,0.9724884033203125,-0.004209099803119898,0.005864339414983988,-0.2328394204378128
1680042513.67978215,147064455,2,0.972482442855835,-0.004201631527394056,0.005866559222340584,-0.2328643947839737
1680042513.77974606,147164419,2,0.9724971055984497,-0.0042144847102463245,0.005864100530743599,-0.2328028678894043
1680042513.87975121,147264424,2,0.9724979996681213,-0.00422122236341238,0.005887532141059637,-0.23279854655265808
1680042513.97977805,147364451,2,0.9724831581115723,-0.0042248559184372425,0.005843727383762598,-0.2328614443540573
1680042514.07982016,147464493,2,0.9724889993667603,-0.0042249890975654125,0.005889868829399347,-0.23283593356609344
1680042514.17976618,147564439,2,0.9724963903427124,-0.004210120998322964,0.005948822945356369,-0.2328038364648819
1680042514.27984023,147664513,2,0.9725015163421631,-0.004262428730726242,0.005913927219808102,-0.23278242349624634
1680042514.37976122,147764434,2,0.9725028276443481,-0.004266335163265467,0.005929195787757635,-0.23277641832828522
1680042514.47981215,147864485,2,0.9725187420845032,-0.004211127758026123,0.005991220939904451,-0.23270946741104126
1680042514.57978606,147964459,2,0.972540557384491,-0.004221702925860882,0.005991934332996607,-0.23261798918247223
1680042514.67974901,148064422,2,0.9725431799888611,-0.00424772035330534,0.0059503247030079365,-0.23260760307312012
1680042514.77974701,148164420,2,0.9725526571273804,-0.004198665264993906,0.00599448848515749,-0.23256784677505493
1680042514.87978101,148264454,2,0.9725558757781982,-0.004209363833069801,0.006008904427289963,-0.2325536161661148
1680042514.97982621,148364499,2,0.9725605845451355,-0.004174464847892523,0.005969088990241289,-0.2325357347726822
1680042515.07976007,148464433,2,0.9725558757781982,-0.004159954842180014,0.005953439977020025,-0.23255595564842224
1680042515.17984223,148564515,2,0.9725462198257446,-0.004168230574578047,0.005971499253064394,-0.23259581625461578
1680042515.27976108,148664434,2,0.9725533127784729,-0.004116891883313656,0.006008376833051443,-0.23256607353687286
1680042515.37981415,148764487,2,0.9725589156150818,-0.004156053066253662,0.006045148242264986,-0.23254096508026123
1680042515.47978806,148864461,2,0.9725756645202637,-0.004151364788413048,0.006034879945218563,-0.2324712723493576
1680042515.57975101,148964424,2,0.9725815057754517,-0.00414795707911253,0.006009991280734539,-0.2324475795030594
1680042515.67975020,149064423,2,0.9725830554962158,-0.004125421401113272,0.006055212114006281,-0.23244035243988037
1680042515.77977419,149164447,2,0.9725795984268188,-0.004145541228353977,0.006024867296218872,-0.232455313205719
1680042515.87981820,149264491,2,0.9725658893585205,-0.004160292446613312,0.005998620763421059,-0.232512965798378
1680042515.97976422,149364437,2,0.9725613594055176,-0.004161979537457228,0.006006727926433086,-0.23253177106380463
1680042516.07983112,149464504,2,0.9725578427314758,-0.004168048035353422,0.0059788902290165424,-0.2325470745563507
1680042516.17976403,149564437,2,0.9725542664527893,-0.004233728628605604,0.005981015041470528,-0.23256085813045502
1680042516.27981114,149664484,2,0.9725456833839417,-0.004264281131327152,0.005987614393234253,-0.2325960248708725
1680042516.37978005,149764453,2,0.9725444912910461,-0.0042532398365437984,0.006010852288454771,-0.23260052502155304
1680042516.47975111,149864424,2,0.9725582599639893,-0.004282093141227961,0.006073675584048033,-0.2325408011674881
1680042516.57975411,149964427,2,0.9725711345672607,-0.004327567759901285,0.006068982649594545,-0.2324862778186798
1680042516.67977118,150064444,2,0.9725794196128845,-0.004296296741813421,0.006079330574721098,-0.23245187103748322
1680042516.77981520,150164488,2,0.9725782871246338,-0.004297088831663132,0.006112072616815567,-0.23245568573474884
1680042516.87977409,150264447,2,0.9725740551948547,-0.004333291668444872,0.0060710120014846325,-0.23247377574443817
1680042516.97983503,150364508,2,0.9725592136383057,-0.00437274482101202,0.006095418706536293,-0.23253454267978668
1680042517.07975912,150464432,2,0.9725737571716309,-0.004363563843071461,0.006111436523497105,-0.2324734330177307
1680042517.17983007,150564503,2,0.972576379776001,-0.0043913559056818485,0.006142280995845795,-0.23246115446090698
1680042517.27978015,150664453,2,0.9725854396820068,-0.004382265731692314,0.006091754417866468,-0.2324247807264328
1680042517.37974811,150764421,2,0.9726027250289917,-0.004324660636484623,0.0060618421994149685,-0.23235413432121277
1680042517.47974706,150864420,2,0.9726053476333618,-0.004337570164352655,0.006092545110732317,-0.23234210908412933
1680042517.57977319,150964446,2,0.9726127982139587,-0.004368852358311415,0.00615127757191658,-0.23230881989002228
1680042517.67982101,151064494,2,0.972626268863678,-0.00443786708638072,0.0062042237259447575,-0.23224973678588867
1680042517.77976203,151164435,2,0.9726357460021973,-0.004427175037562847,0.006286301650106907,-0.23220814764499664
1680042517.87983608,151264509,2,0.9726452827453613,-0.0044648307375609875,0.006272442638874054,-0.23216769099235535
1680042517.97977018,151364443,2,0.9726532101631165,-0.004501678049564362,0.006358361337333918,-0.2321314960718155
1680042518.07980514,151464478,2,0.9726664423942566,-0.004441601689904928,0.0063618761487305164,-0.2320771962404251
1680042518.17978907,151564462,2,0.9726771712303162,-0.0044503347016870975,0.006375384051352739,-0.23203149437904358
1680042518.27975512,151664428,2,0.9726950526237488,-0.004383294843137264,0.006378128658980131,-0.2319578379392624
1680042518.37975311,151764426,2,0.9727003574371338,-0.004378070123493671,0.006374061573296785,-0.23193569481372833
1680042518.47977018,151864443,2,0.9727087020874023,-0.004390880931168795,0.006367125548422337,-0.23190082609653473
1680042518.57982802,151964501,2,0.9727185964584351,-0.004381413105875254,0.0063604009337723255,-0.2318596988916397
1680042518.67976522,152064438,2,0.9727164506912231,-0.004397406708449125,0.0063883340917527676,-0.2318674921989441
1680042518.77983403,152164507,2,0.9727146625518799,-0.004400663077831268,0.006386134773492813,-0.23187507688999176
1680042518.87976718,152264440,2,0.9727170467376709,-0.004423659294843674,0.006374991964548826,-0.23186486959457397
1680042518.97982717,152364500,2,0.9727316498756409,-0.004456123802810907,0.006351748015731573,-0.2318035364151001
1680042519.07978702,152464460,2,0.9727291464805603,-0.0044703977182507515,0.00636082049459219,-0.23181365430355072
1680042519.17975211,152564425,2,0.9727357029914856,-0.004540010821074247,0.0063814930617809296,-0.23178429901599884
1680042519.27976704,152664440,2,0.972723662853241,-0.004608565475791693,0.006377820856869221,-0.2318335771560669
1680042519.37979412,152764467,2,0.9727250933647156,-0.004684907849878073,0.006427534390240908,-0.23182465136051178
1680042519.47982407,152864497,2,0.9727064371109009,-0.0046815425157547,0.006440507713705301,-0.23190243542194366
1680042519.57976103,152964434,2,0.9727007150650024,-0.004683616105467081,0.006406414322555065,-0.23192739486694336
1680042519.67983723,153064510,2,0.972686767578125,-0.004650334361940622,0.006406195927411318,-0.23198670148849487
1680042519.77976203,153164435,2,0.9726818203926086,-0.004601909779012203,0.006398355588316917,-0.23200862109661102
1680042519.87980819,153264481,2,0.972684919834137,-0.004584804642945528,0.0064295134507119656,-0.23199495673179626
1680042519.97978401,153364457,2,0.9726777076721191,-0.004588000476360321,0.0064097619615495205,-0.23202574253082275
1680042520.07975101,153464424,2,0.9726833701133728,-0.004616193473339081,0.006443784572184086,-0.23200057446956635
1680042520.17975307,153564426,2,0.9726839661598206,-0.004584531299769878,0.006462528835982084,-0.23199819028377533
1680042520.27978206,153664455,2,0.9726892709732056,-0.004625985864549875,0.00653174938634038,-0.23197297751903534
1680042520.37981701,153764490,2,0.9727003574371338,-0.004649649374186993,0.006579861510545015,-0.23192478716373444
1680042520.47975707,153864430,2,0.9727126955986023,-0.0046255020424723625,0.0065237111411988735,-0.23187515139579773
1680042520.57983923,153964512,2,0.9727032780647278,-0.004655829630792141,0.006528248079121113,-0.23191390931606293
1680042520.67977023,154064443,2,0.9727036952972412,-0.004588856361806393,0.006509857717901468,-0.23191392421722412
1680042520.77984023,154164513,2,0.9727000594139099,-0.004545398987829685,0.006491508800536394,-0.2319306880235672
1680042520.87978506,154264458,2,0.9727033376693726,-0.004564752336591482,0.006504100281745195,-0.2319161742925644
1680042520.97975922,154364432,2,0.972703754901886,-0.004567503929138184,0.006556675769388676,-0.2319127768278122
1680042521.07975817,154464431,2,0.9727093577384949,-0.004530363250523806,0.006491693668067455,-0.23189175128936768
1680042521.17977309,154564446,2,0.972710371017456,-0.004484710283577442,0.006529954727739096,-0.23188738524913788
1680042521.27982402,154664497,2,0.9727141857147217,-0.0044255442917346954,0.006557193119078875,-0.2318718135356903
1680042521.37977719,154764450,2,0.97271728515625,-0.004432853311300278,0.006550726480782032,-0.23185886442661285
1680042521.47983003,154864503,2,0.97271329164505,-0.004439156968146563,0.0066898842342197895,-0.23187147080898285
1680042521.57976317,154964436,2,0.9727088809013367,-0.0044326866045594215,0.006641175132244825,-0.23189160227775574
1680042521.67981505,155064488,2,0.9727206230163574,-0.00452039297670126,0.006475422997027636,-0.23184514045715332
1680042521.77978706,155164460,2,0.9727426171302795,-0.004458060022443533,0.00647415267303586,-0.23175427317619324
1680042521.87975001,155264423,2,0.9727399349212646,-0.004416196141391993,0.0064741941168904305,-0.23176634311676025
1680042521.97975516,155364428,2,0.9727504253387451,-0.004446459002792835,0.0063629914075136185,-0.23172467947006226
1680042522.07976913,155464442,2,0.9727513790130615,-0.004397187847644091,0.006405380088835955,-0.231720432639122
1680042522.17981911,155564492,2,0.9727344512939453,-0.004389601293951273,0.006468515843153,-0.23179000616073608
1680042522.27976418,155664437,2,0.9727222323417664,-0.004329566843807697,0.006390910129994154,-0.2318444401025772
1680042522.37983418,155764507,2,0.9727263450622559,-0.004354712553322315,0.006377086509019136,-0.23182719945907593
1680042529.47976613,162864439,2,0.9727823138237,-0.004753191489726305,0.00552700599655509,-0.23160624504089355
1680042529.57983708,162964510,2,0.9727838635444641,-0.004743385128676891,0.005478327628225088,-0.2316010594367981
1680042529.67980909,163064482,2,0.9727790951728821,-0.004735094495117664,0.005486092530190945,-0.23162096738815308
1680042529.77982020,163164493,2,0.9727774858474731,-0.0047249943017959595,0.005548355635255575,-0.23162664473056793
1680042529.87978911,163264462,2,0.9727736115455627,-0.004752462729811668,0.0055437469854950905,-0.23164233565330505
1680042529.97976923,163364442,2,0.9727763533592224,-0.004735039081424475,0.0054981824941933155,-0.23163221776485443
1680042530.07976007,163464433,2,0.9727826714515686,-0.004748388659209013,0.005491390824317932,-0.23160552978515625
1680042530.17978501,163564458,2,0.9727951884269714,-0.004741744138300419,0.005508925300091505,-0.23155266046524048
1680042530.27982306,163664496,2,0.9728018045425415,-0.0047600106336176395,0.0055389017798006535,-0.23152391612529755
1680042530.37976313,163764436,2,0.9727998375892639,-0.004761280491948128,0.0055311294272542,-0.2315322756767273
1680042530.47983408,163864507,2,0.9728030562400818,-0.0047625391744077206,0.005538062658160925,-0.23151864111423492
1680042530.57977605,163964449,2,0.9727934002876282,-0.004755426198244095,0.005492982920259237,-0.23156030476093292
1680042530.67981720,164064490,2,0.9727963209152222,-0.004761026240885258,0.005446724593639374,-0.2315492182970047
1680042530.77979112,164164464,2,0.9727975130081177,-0.004774062894284725,0.005428751930594444,-0.2315441370010376
1680042530.87976503,164264438,2,0.9727967977523804,-0.004767924547195435,0.005449738819152117,-0.23154692351818085
1680042530.97976303,164364436,2,0.9727928638458252,-0.004727321211248636,0.005487286020070314,-0.23156332969665527
1680042531.07977223,164464445,2,0.9727921485900879,-0.0047599240206182,0.00554291857406497,-0.231564462184906
1680042531.17982817,164564501,2,0.9727913737297058,-0.0047454736195504665,0.005578421056270599,-0.2315671443939209
1680042531.27976608,164664439,2,0.9727855920791626,-0.0047810436226427555,0.005602892022579908,-0.23159009218215942
1680042531.37984705,164764520,2,0.9727823138237,-0.004770721774548292,0.005599876865744591,-0.23160406947135925
1680042531.47976804,164864441,2,0.9727776050567627,-0.0048142955638468266,0.00566675653681159,-0.23162122070789337
1680042531.57981110,164964484,2,0.972777247428894,-0.004832674749195576,0.0056640650145709515,-0.23162244260311127
1680042531.67979217,165064465,2,0.9727844595909119,-0.004889264237135649,0.005654922686517239,-0.23159119486808777
1680042531.77975202,165164425,2,0.9727873206138611,-0.00489932531490922,0.00566428666934371,-0.23157872259616852
1680042531.87975621,165264429,2,0.9727914929389954,-0.004921880085021257,0.005727746523916721,-0.23155935108661652
1680042531.97978401,165364457,2,0.9727952480316162,-0.004934198223054409,0.005802939645946026,-0.2315414398908615
1680042532.07983208,165464505,2,0.9727871417999268,-0.005004200153052807,0.005836648866534233,-0.23157300055027008
1680042532.17977309,165564446,2,0.972793698310852,-0.005049070809036493,0.0058335973881185055,-0.23154450953006744
1680042532.27984905,165664522,2,0.9728072881698608,-0.005079516209661961,0.005819576792418957,-0.2314872145652771
1680042532.37978220,165764455,2,0.9727976322174072,-0.005135940853506327,0.005862570833414793,-0.2315254807472229
1680042532.47981215,165864485,2,0.9728565812110901,-0.00514674698933959,0.005911370273679495,-0.23127621412277222
1680042532.57978916,165964462,2,0.9727886319160461,-0.005103468429297209,0.00595865910872817,-0.23156140744686127
1680042532.67976213,166064435,2,0.9727587103843689,-0.005067955702543259,0.005961870774626732,-0.23168793320655823
1680042532.77976823,166164441,2,0.9727815985679626,-0.0050193192437291145,0.005978906527161598,-0.2315922975540161
1680042532.87980509,166264478,2,0.9727297425270081,-0.004300938919186592,0.005842092912644148,-0.23182809352874756
1680042532.97983718,166364510,2,0.9728000164031982,-0.004335304722189903,0.0058571468107402325,-0.23153185844421387
1680042533.07976508,166464438,2,0.9728052616119385,-0.004145720507949591,0.00574481999501586,-0.2315162867307663
1680042533.17984319,166564516,2,0.9727713465690613,-0.004429928492754698,0.005831876304000616,-0.23165126144886017
1680042533.27982211,166664495,2,0.9728311896324158,-0.004514006897807121,0.006000543013215065,-0.2313936948776245
1680042533.37982011,166764493,2,0.9728254079818726,-0.0042672716081142426,0.005939361173659563,-0.231424480676651
1680042533.47978616,166864459,2,0.9728209972381592,-0.004594526719301939,0.006037295330315828,-0.23143410682678223
1680042533.57976413,166964437,2,0.9728087782859802,-0.004199622664600611,0.005973560269922018,-0.23149460554122925
1680042533.67976713,167064440,2,0.9727701544761658,-0.0044458783231675625,0.0058862376026809216,-0.2316545695066452
1680042533.77977920,167164452,2,0.9728485345840454,-0.00401452649384737,0.0060284193605184555,-0.23132938146591187
1680042533.87983918,167264512,2,0.9726792573928833,-0.0034255131613463163,0.005640339106321335,-0.23205924034118652
1680042533.97977424,167364447,2,0.9724196195602417,-0.0009935140842571855,0.0036655452568084,-0.2332073301076889
1680042534.07985115,167464524,2,0.9720188975334167,0.004568919073790312,0.0015575910219922662,-0.23485301434993744
1680042534.17982101,167564494,2,0.9715383052825928,0.007818610407412052,-0.0006993931019678712,-0.23675239086151123
1680042534.27983713,167664510,2,0.9709748029708862,0.010530208237469196,-0.004214687272906303,-0.23891279101371765
1680042534.37979507,167764468,2,0.9703978896141052,0.01205146312713623,-0.003749572206288576,-0.24118176102638245
1680042534.47975707,167864430,2,0.969784677028656,0.009060184471309185,-0.0001076155822374858,-0.24379421770572662
1680042534.57977223,167964445,2,0.969183087348938,0.00593170989304781,0.001590512227267027,-0.24626506865024567
1680042534.67979121,168064464,2,0.9686421155929565,0.007369023747742176,0.0017220474546775222,-0.24834486842155457
1680042534.77983618,168164509,2,0.9682295918464661,0.004613748751580715,0.0026611988432705402,-0.25000622868537903
1680042534.87977123,168264444,2,0.9682706594467163,0.0004655645461753011,0.0026611594948917627,-0.24988923966884613
1680042534.97984719,168364520,2,0.9689193964004517,-0.0023660450242459774,0.0027074399404227734,-0.24735060334205627
1680042535.07982111,168464494,2,0.970199465751648,-0.004543066490441561,0.007388039026409388,-0.2421523928642273
1680042535.17982602,168564499,2,0.9722295999526978,-0.001503122504800558,0.009102949872612953,-0.23384720087051392
1680042535.27979016,168664463,2,0.975102961063385,0.0011227834038436413,0.007243261206895113,-0.2216315120458603
1680042535.37976217,168764435,2,0.9784319400787354,-0.00019789404177572578,0.007371644023805857,-0.2064378261566162
1680042535.47977519,168864448,2,0.9817164540290833,0.00026723212795332074,0.007822409272193909,-0.19018810987472534
1680042535.57979512,168964468,2,0.9847248196601868,0.0010777486022561789,0.008141427300870419,-0.17392398416996002
1680042535.67983723,169064510,2,0.987354040145874,-9.106859215535223e-05,0.0077247172594070435,-0.15834224224090576
1680042535.77977109,169164444,2,0.9895747900009155,-0.0006171425338834524,0.007541061844676733,-0.14382097125053406
1680042535.87984419,169264517,2,0.9913365840911865,0.0003263081016484648,0.005858376156538725,-0.13121503591537476
1680042535.97977805,169364451,2,0.9928115010261536,0.0013489621924236417,0.003542114980518818,-0.11962845921516418
1680042536.07981110,169464484,2,0.9940733909606934,0.0010781103046610951,0.00310951704159379,-0.1086612194776535
1680042536.17979407,169564467,2,0.995075523853302,0.0020301900804042816,0.0020553856156766415,-0.0990772619843483
1680042536.27976823,169664441,2,0.9958422183990479,0.0020346655510365963,0.0024516857229173183,-0.09103940427303314
1680042536.37975717,169764430,2,0.9964399933815002,-0.0005375565961003304,0.0031266261357814074,-0.08424510061740875
1680042536.47977805,169864451,2,0.9969003200531006,-0.0004260899731889367,0.001423572306521237,-0.07866095751523972
1680042536.57983708,169964510,2,0.9972274899482727,0.0011926632141694427,0.0011144740274176002,-0.07439564168453217
1680042536.67976904,170064442,2,0.9974256157875061,-5.819482248625718e-05,0.0010937264887616038,-0.07170026749372482
1680042536.77985501,170164528,2,0.9975301623344421,-0.0012998186284676194,0.00043399492278695107,-0.07022633403539658
1680042536.87982512,170264498,2,0.9975650906562805,-0.001874624751508236,0.0015064417384564877,-0.06970015913248062
1680042536.97986412,170364537,2,0.9975110292434692,-0.0019672811031341553,0.003616970730945468,-0.07039017230272293
1680042537.07979512,170464468,2,0.997390627861023,-0.0018447252223268151,0.004508272744715214,-0.07202905416488647
1680042537.17976213,170564435,2,0.9972214102745056,-0.0008805376128293574,0.005396442487835884,-0.07429337501525879
1680042537.27977324,170664446,2,0.996974766254425,0.0031001160386949778,0.006371523719280958,-0.07740247994661331
1680042537.37978601,170764459,2,0.9967352151870728,0.008959787897765636,0.004205701407045126,-0.08013054728507996
1680042537.47982502,170864498,2,0.9965919256210327,0.01428733766078949,0.00157160556409508,-0.08122748136520386
1680042537.57977104,170964444,2,0.9964945316314697,0.026648681610822678,-0.001689344528131187,-0.07928185909986496
1680042537.67985010,171064523,2,0.996575653553009,0.034856442362070084,-0.0005450581666082144,-0.0749783143401146
1680042537.77978015,171164453,2,0.9970629811286926,0.03378657251596451,0.004911736119538546,-0.0685543641448021
1680042537.87983704,171264510,2,0.9976892471313477,0.03272528946399689,0.008363877423107624,-0.05895101651549339
1680042537.97979903,171364472,2,0.9984481334686279,0.03101058304309845,0.010138838551938534,-0.045132070779800415
1680042538.07976222,171464435,2,0.9992280006408691,0.026038724929094315,0.012570646591484547,-0.02659534476697445
1680042538.17977214,171564445,2,0.9995580911636353,0.02539636567234993,0.014611589722335339,-0.005019983742386103
1680042538.27978516,171664458,2,0.9993268847465515,0.027759762480854988,0.016036897897720337,0.01783304661512375
1680042538.37983012,171764503,2,0.9986149668693542,0.028595568612217903,0.016916505992412567,0.04079587385058403
1680042538.47976613,171864439,2,0.9974295496940613,0.02893965318799019,0.01680395007133484,0.0633591040968895
1680042538.57984900,171964522,2,0.9958967566490173,0.02766689471900463,0.01514688041061163,0.08482175320386887
1680042538.67977905,172064452,2,0.994121253490448,0.02380233071744442,0.01246898528188467,0.10488546639680862
1680042538.77990317,172164576,2,0.9921178817749023,0.02339467778801918,0.010127716697752476,0.12268765270709991
1680042538.87979603,172264469,2,0.9900779128074646,0.024239448830485344,0.00862403679639101,0.1381443291902542
1680042538.97977018,172364443,2,0.9879218935966492,0.026936817914247513,0.008275948464870453,0.15236888825893402
1680042539.07977104,172464444,2,0.9855601787567139,0.03229573369026184,0.009429886005818844,0.16594931483268738
1680042539.17978001,172564453,2,0.9830542802810669,0.041536085307598114,0.011374113149940968,0.17818425595760345
1680042539.27983403,172664507,2,0.9808657169342041,0.047027286142110825,0.011758937500417233,0.18855386972427368
1680042539.37977505,172764448,2,0.9797366261482239,0.036021195352077484,0.0086786774918437,0.1968330442905426
1680042539.47984219,172864515,2,0.9787870049476624,0.02593108080327511,0.006225718185305595,0.20313741266727448
1680042539.57981300,172964486,2,0.9781138896942139,0.010872342623770237,0.0035383524373173714,0.2077559232711792
1680042539.67987919,173064552,2,0.9774361848831177,-0.005747830495238304,0.0017232976388186216,0.21114559471607208
1680042539.77979803,173164471,2,0.9767628908157349,-0.008286507800221443,0.002585963811725378,0.21414704620838165
1680042539.87975907,173264432,2,0.9762309193611145,-0.006289001554250717,0.002937033073976636,0.21662180125713348
1680042539.97976804,173364441,2,0.9757277965545654,-0.00810850877314806,0.002225418807938695,0.2188253253698349
1680042540.07978702,173464460,2,0.975180983543396,-0.007909717038273811,0.0021967622451484203,0.22125709056854248
1680042540.17983818,173564511,2,0.9746608138084412,-0.0060886237770318985,0.0023105901200324297,0.22359302639961243
1680042540.27982521,173664498,2,0.973943293094635,-0.005636466201394796,0.0016702143475413322,0.22671547532081604
1680042540.37984514,173764518,2,0.9726722836494446,-0.003946744371205568,0.0007851970731280744,0.23214733600616455
1680042540.47977805,173864451,2,0.9704621434211731,-0.002450066851451993,0.0006303619593381882,0.24124017357826233
1680042540.57981420,173964487,2,0.9672602415084839,-0.0012592863058671355,0.0007867755484767258,0.25378215312957764
1680042540.67979002,174064463,2,0.9629267454147339,-0.0006065728375688195,0.0016306904144585133,0.26975739002227783
1680042540.77976203,174164435,2,0.9571549296379089,-0.00027328741271048784,0.0025982277002185583,0.28956449031829834
1680042540.87977314,174264446,2,0.9500011205673218,-0.00033840612741187215,0.003572643268853426,0.3122258484363556
1680042540.97979403,174364467,2,0.9418549537658691,-0.0005927530582994223,0.0038054652977734804,0.3359975814819336
1680042541.07983518,174464508,2,0.933173656463623,-0.0009057092247530818,0.003859854768961668,0.3594040274620056
1680042541.17977118,174564444,2,0.9240765571594238,-0.0016680450644344091,0.00368462223559618,0.38218608498573303
1680042541.27984905,174664522,2,0.9148973226547241,-0.0021712747402489185,0.003898916533216834,0.40366190671920776
1680042541.37980914,174764482,2,0.9057719111442566,-0.0028396565467119217,0.0038713461253792048,0.4237383008003235
1680042541.47983623,174864509,2,0.8973225355148315,-0.0032287684734910727,0.0038760239258408546,0.44134655594825745
1680042541.57979321,174964466,2,0.8895942568778992,-0.0040410528890788555,0.003982051741331816,0.4567164480686188
1680042541.67976713,175064440,2,0.8825479745864868,-0.0049363248981535435,0.0038482449017465115,0.4701806902885437
1680042541.77975607,175164429,2,0.8761799335479736,-0.004998338874429464,0.0039064278826117516,0.48194238543510437
1680042541.87978721,175264460,2,0.8707370758056641,-0.005327296908944845,0.004334233235567808,0.4917009472846985
1680042541.97983718,175364510,2,0.8662996292114258,-0.005649668164551258,0.00467283371835947,0.49947094917297363
1680042542.07977223,175464445,2,0.8628619313240051,-0.006017680279910564,0.005418187007308006,0.5053748488426208
1680042542.17985010,175564523,2,0.8603752255439758,-0.006340541411191225,0.006035943049937487,0.509585976600647
1680042542.27983212,175664505,2,0.8587440252304077,-0.006669820751994848,0.006464352365583181,0.5123205780982971
1680042542.37983418,175764507,2,0.8578721284866333,-0.006830396130681038,0.006617385894060135,0.5137752294540405
1680042542.47979212,175864465,2,0.8577868938446045,-0.006487723905593157,0.0064249541610479355,0.5139244198799133
1680042542.57976604,175964439,2,0.6192620992660522,-0.007989838719367981,0.0038571662735193968,0.7851341962814331
1680042542.67976403,176064437,2,0.6205620765686035,-0.00788926426321268,0.0037940379697829485,0.7841084599494934
1680042542.77979302,176164466,2,0.6212809681892395,-0.007188537158071995,0.003687316784635186,0.7835462093353271
1680042542.87984419,176264517,2,0.6220328211784363,-0.004451328422874212,0.005740107968449593,0.7829574346542358
1680042542.97977710,176364450,2,0.6220579743385315,-0.0005506370216608047,0.009910807013511658,0.7829082608222961
1680042543.07984614,176464519,2,0.6202932000160217,-0.002668011700734496,0.007091007195413113,0.7843334078788757
1680042543.17983103,176564504,2,0.6165606379508972,-0.005820510908961296,0.0039407904259860516,0.7872760891914368
1680042543.27982211,176664495,2,0.6120945811271667,-0.005141820292919874,0.004019414074718952,0.7907576560974121
1680042543.37979817,176764471,2,0.6076726913452148,-0.005558039993047714,0.003291565924882889,0.794161319732666
1680042543.47976208,176864435,2,0.6025084853172302,-0.006449068896472454,0.002100571058690548,0.7980836629867554
1680042543.57976317,176964436,2,0.5952749252319336,-0.006715300027281046,0.002202412113547325,0.8034909963607788
1680042543.67978716,177064460,2,0.5865824818611145,-0.005787592381238937,0.004456996917724609,0.8098565340042114
1680042543.77982211,177164495,2,0.5777867436408997,-0.004414711147546768,0.007366635370999575,0.8161426186561584
1680042543.87982202,177264495,2,0.5704295039176941,-0.004028485622256994,0.00872346106916666,0.8212903738021851
1680042543.97985601,177364529,2,0.5638126730918884,-0.0029148508328944445,0.010041093453764915,0.8258365392684937
1680042544.07977104,177464444,2,0.5571874976158142,-0.0017259885789826512,0.010312180034816265,0.8303208947181702
1680042544.17982006,177564493,2,0.5509296655654907,-0.0015732261817902327,0.00922419037669897,0.834499180316925
1680042544.27979517,177664468,2,0.5455291867256165,0.0025749970227479935,0.014248169027268887,0.8379667401313782
1680042544.37975812,177764431,2,0.5410153269767761,0.005896804854273796,0.01734030805528164,0.8408132791519165
1680042544.47977710,177864450,2,0.5371166467666626,0.0053417575545609,0.014881167560815811,0.8433597683906555
1680042544.57978201,177964455,2,0.5337551832199097,0.0032585384324193,0.016604263335466385,0.8454697132110596
1680042544.67983913,178064512,2,0.5317271947860718,0.000658350414596498,0.01675708405673504,0.8467496633529663
1680042544.77977610,178164449,2,0.5305510759353638,-0.0004881139611825347,0.015233385376632214,0.8475159406661987
1680042544.87984610,178264519,2,0.5298931002616882,-0.0039561837911605835,0.017990609630942345,0.8478643894195557
1680042544.97976923,178364442,2,0.5292301774024963,-0.008069380186498165,0.02062848210334778,0.848189115524292
1680042545.07981515,178464488,2,0.5292438268661499,-0.014328769408166409,0.013663546182215214,0.8482387661933899
1680042545.17978716,178564460,2,0.5295204520225525,-0.019445935264229774,0.010008114390075207,0.8480151891708374
1680042545.27976012,178664433,2,0.5297501087188721,-0.021297570317983627,0.012404793873429298,0.8477956056594849
1680042545.37977123,178764444,2,0.5294665098190308,-0.020612776279449463,0.011445693671703339,0.8480031490325928
1680042545.47978616,178864459,2,0.5279689431190491,-0.020179564133286476,0.00945754162967205,0.8489712476730347
1680042545.57983422,178964507,2,0.5254141688346863,-0.01814742013812065,0.008630595169961452,0.8506092429161072
1680042545.67982316,179064496,2,0.5222264528274536,-0.015485000796616077,0.0069560278207063675,0.8526378870010376
1680042545.77984524,179164518,2,0.519356906414032,-0.010586154647171497,0.0038753370754420757,0.8544830679893494
1680042545.87977600,179264449,2,0.5170671343803406,-0.00642387242987752,0.001954665407538414,0.8559185266494751
1680042545.97984219,179364515,2,0.5151240825653076,-0.005653497762978077,0.0032034434843808413,0.8570910096168518
1680042546.07980609,179464479,2,0.5131120681762695,-0.004231210332363844,0.010204974561929703,0.8582504987716675
1680042546.17976308,179564436,2,0.510844349861145,-0.008806140162050724,0.008851702325046062,0.8595825433731079
1680042546.27977514,179664448,2,0.508163571357727,-0.012643583118915558,0.00347399665042758,0.8611607551574707
1680042546.37978816,179764461,2,0.5045137405395508,-0.011413639411330223,0.0031953530851751566,0.8633223176002502
1680042546.47982407,179864497,2,0.500089168548584,-0.00793984904885292,0.003576986724510789,0.8659301400184631
1680042546.57977819,179964451,2,0.49505892395973206,-0.0025097110774368048,0.005853165406733751,0.8688360452651978
1680042546.67984700,180064520,2,0.48878931999206543,0.004802169278264046,0.01554493885487318,0.8722501397132874
1680042546.77976823,180164441,2,0.480964720249176,0.007247671019285917,0.021935351192951202,0.8764355182647705
1680042546.87984419,180264517,2,0.4729589521884918,0.0009139739559032023,0.01629951037466526,0.8809332251548767
1680042546.97980404,180364477,2,0.46586430072784424,-0.006471163127571344,0.009159835055470467,0.8847851157188416
1680042547.07975721,180464430,2,0.4593484103679657,-0.009488008916378021,0.00750499265268445,0.8881738185882568
1680042547.17976308,180564436,2,0.4527588486671448,-0.011327172629535198,0.0049070497043430805,0.8915475606918335
1680042547.27978921,180664462,2,0.44621387124061584,-0.011335678398609161,0.006737394258379936,0.8948292136192322
1680042547.37984705,180764520,2,0.4399746060371399,-0.012432058341801167,0.009529907256364822,0.89787358045578
1680042547.47979403,180864467,2,0.4346805512905121,-0.013517026789486408,0.009947096928954124,0.900428295135498
1680042547.57985115,180964524,2,0.4304736852645874,-0.012630882672965527,0.012330001220107079,0.902430534362793
1680042547.67982817,181064501,2,0.427013635635376,-0.011318370699882507,0.012933136895298958,0.9040818214416504
1680042547.77983022,181164503,2,0.4241976737976074,-0.01186465471982956,0.012063976377248764,0.9054115414619446
1680042547.87979007,181264463,2,0.42186543345451355,-0.011473427526652813,0.013292515650391579,0.9064884185791016
1680042547.97977304,181364446,2,0.4203013479709625,-0.009192418307065964,0.020034892484545708,0.9071167707443237
1680042548.07975912,181464432,2,0.41889309883117676,-0.00547090033069253,0.02500392496585846,0.9076747298240662
1680042548.17978215,181564455,2,0.41750651597976685,-0.0021553649567067623,0.02621706947684288,0.9082930684089661
1680042548.27984023,181664513,2,0.4164702296257019,0.0012816525995731354,0.026865903288125992,0.9087514281272888
1680042548.37982607,181764499,2,0.41530922055244446,0.0029530490282922983,0.025804884731769562,0.909309446811676
1680042548.47985005,181864523,2,0.4131835699081421,0.0019148405408486724,0.024274006485939026,0.9103221893310547
1680042548.57978702,181964460,2,0.4087539315223694,-0.002165835816413164,0.02007993310689926,0.9124211668968201
1680042548.67983818,182064511,2,0.40229809284210205,-0.0038091358728706837,0.02013562060892582,0.9152793288230896
1680042548.77978516,182164458,2,0.3935074508190155,-0.0017961147241294384,0.024822020903229713,0.9189845323562622
1680042548.87976503,182264438,2,0.3827943503856659,0.0003983268397860229,0.025648657232522964,0.9234773516654968
1680042548.97980213,182364475,2,0.3712892234325409,-0.0018068120116367936,0.019474543631076813,0.9283112287521362
1680042549.07978320,182464456,2,0.3607136905193329,-0.002981896512210369,0.019072696566581726,0.932476818561554
1680042549.17982602,182564499,2,0.35141777992248535,-0.004013744182884693,0.021768618375062943,0.9359570145606995
1680042549.27979016,182664463,2,0.34453094005584717,-0.007652087137103081,0.01720256730914116,0.9385861158370972
1680042549.37985611,182764529,2,0.33856651186943054,-0.008169189095497131,0.01670973189175129,0.9407585859298706
1680042549.47978020,182864453,2,0.3325597643852234,-0.0053632669150829315,0.024407582357525826,0.9427510499954224
1680042549.57982516,182964498,2,0.3263687789440155,-0.00350168882869184,0.02961849793791771,0.9447718858718872
1680042549.67980003,183064473,2,0.3223836421966553,-0.0038056985940784216,0.031341612339019775,0.9460824728012085
1680042549.77975702,183164430,2,0.3194321393966675,-0.002882700879126787,0.029183678328990936,0.9471552968025208
1680042549.87976623,183264439,2,0.31760919094085693,-0.0008680660976096988,0.021556323394179344,0.9479762315750122
1680042549.97979212,183364465,2,0.31608402729034424,0.00045421806862577796,0.017235372215509415,0.9485745429992676
1680042550.07984614,183464519,2,0.315583199262619,0.001080577727407217,0.017906853929162025,0.9487283229827881
1680042550.17980409,183564477,2,0.31558045744895935,0.0023822332732379436,0.019636673852801323,0.9486926198005676
1680042550.27985716,183664530,2,0.31598222255706787,0.0003747083537746221,0.01555605512112379,0.9486374855041504
1680042550.37982202,183764495,2,0.3157788813114166,-0.003011175198480487,0.012136196717619896,0.9487504363059998
1680042550.47988105,183864554,2,0.31542959809303284,-0.007404163479804993,0.009564896114170551,0.948871910572052
1680042550.57979822,183964471,2,0.31476151943206787,-0.013045009225606918,0.005895830225199461,0.9490628242492676
1680042550.67976618,184064439,2,0.3149213492870331,-0.014894234947860241,0.006082185544073582,0.9489814043045044
1680042550.77977514,184164448,2,0.31529611349105835,-0.014596686698496342,0.0032363582868129015,0.9488755464553833
1680042550.87979007,184264463,2,0.3156939148902893,-0.01432837639003992,0.0009198478073813021,0.9487524628639221
1680042550.97982502,184364498,2,0.31616461277008057,-0.012701221741735935,0.0010719134006649256,0.9486187100410461
1680042551.07981706,184464490,2,0.31657177209854126,-0.012069323100149632,0.00044998840894550085,0.9484916925430298
1680042551.17985010,184564523,2,0.3162910044193268,-0.012597672641277313,0.0007781651802361012,0.9485782384872437
1680042551.27978015,184664453,2,0.31555861234664917,-0.012644113972783089,0.000854890386108309,0.948821485042572
1680042551.37986302,184764536,2,0.3150131106376648,-0.009090443141758442,-0.0005109214689582586,0.9490436315536499
1680042551.47978616,184864459,2,0.31338751316070557,-0.005761829670518637,-0.0010794511763378978,0.949607253074646
1680042551.57977104,184964444,2,0.30955806374549866,-0.007208772469311953,-0.00036556730628944933,0.950853168964386
1680042551.67977214,185064445,2,0.30372512340545654,-0.01302402839064598,0.0012717201607301831,0.9526698589324951
1680042551.77978301,185164456,2,0.2959645688533783,-0.019195368513464928,0.003164558671414852,0.9550007581710815
1680042551.87981915,185264492,2,0.28596973419189453,-0.02343420498073101,0.0029833586886525154,0.9579474329948425
1680042551.97982311,185364496,2,0.27404919266700745,-0.024294747039675713,0.0031230261083692312,0.9614036679267883
1680042552.07984424,185464517,2,0.26029208302497864,-0.023663969710469246,0.0025509893894195557,0.9652365446090698
1680042552.17981911,185564492,2,0.24577398598194122,-0.02222093753516674,0.0028429352678358555,0.9690682888031006
1680042552.27984810,185664521,2,0.23227857053279877,-0.02040650136768818,0.006319599226117134,0.9724146723747253
1680042552.37978721,185764460,2,0.22007393836975098,-0.018024388700723648,0.012127015739679337,0.9752412438392639
1680042552.47975802,185864431,2,0.20875486731529236,-0.01618519425392151,0.014068881049752235,0.9777328372001648
1680042552.57975912,185964432,2,0.1981252282857895,-0.014933851547539234,0.013799238950014114,0.9799658060073853
1680042552.67978120,186064454,2,0.18816250562667847,-0.014378990046679974,0.012107626534998417,0.9819580316543579
1680042552.77982807,186164501,2,0.17860092222690582,-0.01571638137102127,0.009286326356232166,0.9837522506713867
1680042552.87977314,186264446,2,0.16940422356128693,-0.016199305653572083,0.010744207538664341,0.9853549599647522
1680042552.97985411,186364527,2,0.16091947257518768,-0.014055448584258556,0.012099532410502434,0.9867932796478271
1680042553.07984018,186464513,2,0.15435510873794556,-0.012517068535089493,0.01243523694574833,0.9878578782081604
1680042553.17983222,186564505,2,0.1496303677558899,-0.013269767165184021,0.01397623959928751,0.9885541796684265
1680042553.27979708,186664470,2,0.14601033926010132,-0.014712472446262836,0.016580037772655487,0.9890347123146057
1680042553.37976217,186764435,2,0.14318056404590607,-0.017696479335427284,0.01325176376849413,0.9894496202468872
1680042553.47977018,186864443,2,0.14161227643489838,-0.01847761683166027,0.013206630945205688,0.9896616339683533
1680042553.57979608,186964469,2,0.14133258163928986,-0.0162227563560009,0.01765671744942665,0.9896717667579651
1680042553.67986202,187064535,2,0.14206349849700928,-0.013865451328456402,0.017931317910552025,0.9895979762077332
1680042553.77982616,187164499,2,0.14354979991912842,-0.01104744803160429,0.018123090267181396,0.9894154667854309
1680042553.87985110,187264524,2,0.14555753767490387,-0.00893810112029314,0.019862718880176544,0.989109992980957
1680042553.97978520,187364458,2,0.14725780487060547,-0.009836332872509956,0.016023850068449974,0.9889194369316101
1680042554.07985020,187464523,2,0.1477680206298828,-0.0117642255499959,0.011843380518257618,0.9888811707496643
1680042554.17978907,187564462,2,0.1470693200826645,-0.01202222891151905,0.012493603862822056,0.9889742136001587
1680042554.27976418,187664437,2,0.145648792386055,-0.010495935566723347,0.01329750195145607,0.9891912937164307
1680042554.37976813,187764441,2,0.14362958073616028,-0.009909900836646557,0.01311903540045023,0.9894949197769165
1680042554.47979021,187864463,2,0.1409245729446411,-0.010643390007317066,0.012954668141901493,0.9898783564567566
1680042554.57983422,187964507,2,0.13722749054431915,-0.011452605947852135,0.010396532714366913,0.9904187917709351
1680042554.67977405,188064447,2,0.1332707703113556,-0.011185168288648129,0.010708509013056755,0.9909586906433105
1680042554.77984524,188164518,2,0.1287907063961029,-0.010426396504044533,0.01693315990269184,0.9914724230766296
1680042554.87978315,188264456,2,0.12332326173782349,-0.010244161821901798,0.017403513193130493,0.9921610355377197
1680042554.97982311,188364496,2,0.11722294241189957,-0.01128784753382206,0.014654195867478848,0.9929333329200745
1680042555.07979012,188464463,2,0.11059600114822388,-0.01250018086284399,0.015119888819754124,0.9936718344688416
1680042555.17976403,188564437,2,0.10386260598897934,-0.013369630090892315,0.015295751392841339,0.9943841695785522
1680042555.27976704,188664440,2,0.0981699675321579,-0.014114470221102238,0.011904291808605194,0.9949983358383179
1680042555.37978411,188764457,2,0.09319806098937988,-0.01516523864120245,0.012035570107400417,0.9954593181610107
1680042555.47982311,188864496,2,0.0887676551938057,-0.01505171786993742,0.013112747110426426,0.9958522915840149
1680042555.57977104,188964444,2,0.08497358113527298,-0.01440802589058876,0.01159572508186102,0.9962115287780762
1680042555.67985916,189064532,2,0.08200539648532867,-0.015037166886031628,0.012353716418147087,0.9964418411254883
1680042555.77981806,189164491,2,0.07971349358558655,-0.013165204785764217,0.012156526558101177,0.9966567158699036
1680042555.87983203,189264505,2,0.07824728637933731,-0.007396671921014786,0.004477168899029493,0.996896505355835
1680042555.97979617,189364469,2,0.07718607038259506,-0.0034602037630975246,-0.00352337583899498,0.9970044493675232
1680042556.07975817,189464431,2,0.07611513882875443,-0.0018628655234351754,-0.004238629713654518,0.9970883131027222
1680042556.17977309,189564446,2,0.07580508291721344,-0.0018570360261946917,-0.003460015868768096,0.997114896774292
1680042556.27978921,189664462,2,0.07591142505407333,-0.0023528835736215115,-0.00425733020529151,0.997102677822113
1680042556.37983823,189764511,2,0.07648897171020508,-0.0029247915372252464,-0.00306998030282557,0.9970614314079285
1680042556.47978115,189864454,2,0.07741139829158783,-0.0035593369975686073,-0.003328834194689989,0.9969873428344727
1680042556.57985306,189964526,2,0.07873154431581497,-0.002803113544359803,-0.0026649239007383585,0.9968883395195007
1680042556.67982316,190064496,2,0.08024901151657104,0.0023859550710767508,-0.0029139213729649782,0.9967677593231201
1680042556.77982306,190164496,2,0.08180428296327591,0.006412012502551079,-0.002682034159079194,0.9966241717338562
1680042556.87979817,190264471,2,0.08324270695447922,0.007814992219209671,-0.002590649528428912,0.9964953064918518
1680042556.97976422,190364437,2,0.08446238189935684,0.010725959204137325,-0.002659056568518281,0.9963653683662415
1680042557.07977104,190464444,2,0.08540888875722885,0.015406946651637554,-0.0031937898602336645,0.9962217211723328
1680042557.17978120,190564454,2,0.08624257147312164,0.017678024247288704,-0.0023881157394498587,0.9961144328117371
1680042557.27983212,190664505,2,0.08625899255275726,0.013303536921739578,-0.00184217921923846,0.9961822032928467
1680042557.37977123,190764444,2,0.0853753462433815,0.007656408939510584,-0.0014959292020648718,0.9963183403015137
1680042557.47984123,190864514,2,0.08331814408302307,0.0029852441512048244,-0.0008692217525094748,0.9965181350708008
1680042557.57977605,190964449,2,0.08039354532957077,-0.0018735231133177876,-0.0009003306622616947,0.9967610239982605
1680042557.67982006,191064493,2,0.07631852477788925,-0.005889983382076025,-0.0007032242137938738,0.9970658421516418
1680042557.77978706,191164460,2,0.06990882009267807,-0.003763551590964198,-0.0008141378639265895,0.9975459575653076
1680042557.87976503,191264438,2,0.061457742005586624,0.002139878226444125,-0.00047372339759022,0.9981072545051575
1680042557.97976923,191364442,2,0.052579887211322784,0.006344143766909838,-6.444814789574593e-05,0.9985965490341187
1680042558.07977819,191464451,2,0.044478949159383774,0.005855463445186615,-0.00010523143282625824,0.9989931583404541
1680042558.17982721,191564500,2,0.03677649050951004,0.0009514793637208641,-0.0004102613020222634,0.9993229508399963
1680042558.27981210,191664485,2,0.029101302847266197,-0.0036177095025777817,-0.0004350282542873174,0.999569833278656
1680042558.37984514,191764518,2,0.021628567948937416,-0.004368537571281195,-0.0005821152590215206,0.9997563362121582
1680042558.47977614,191864449,2,0.014585636556148529,-0.0015593216521665454,-0.0006614847225137055,0.9998921751976013
1680042558.57983708,191964510,2,0.008344288915395737,0.0014878145884722471,-0.000772434810642153,0.9999637603759766
1680042558.67978811,192064461,2,0.0027313237078487873,0.003778427606448531,-0.0009221590589731932,0.9999887347221375
1680042558.77975702,192164430,2,-0.0019954305607825518,0.007910317741334438,0.006568910554051399,0.9999451637268066
1680042558.87976503,192264438,2,-0.00648530712351203,0.011480786837637424,0.024632267653942108,0.9996095895767212
1680042558.97978115,192364454,2,-0.009884356521070004,0.011344198137521744,0.03399869054555893,0.9993085861206055
1680042559.07983208,192464505,2,-0.01272758562117815,0.011515017598867416,0.034785106778144836,0.9992474317550659
1680042559.17977619,192564449,2,-0.0146794393658638,0.015565510839223862,0.03456469252705574,0.9991734027862549
1680042559.27985001,192664523,2,-0.015918973833322525,0.025554275140166283,0.031206145882606506,0.9990594387054443
1680042559.37982321,192764496,2,-0.016534706577658653,0.035196635872125626,0.025200702250003815,0.9989258050918579
1680042559.47986603,192864539,2,-0.017010534182190895,0.03737927973270416,0.02421211265027523,0.9988629817962646
1680042559.57979703,192964470,2,-0.016967300325632095,0.033466365188360214,0.024538205936551094,0.9989944696426392
1680042559.67976809,193064441,2,-0.016670485958456993,0.024017121642827988,0.024608362466096878,0.9992696046829224
1680042559.77976704,193164440,2,-0.015899231657385826,0.012014596723020077,0.02522803097963333,0.999483048915863
1680042559.87979507,193264468,2,-0.014790854416787624,0.0033078889828175306,0.02411157824099064,0.9995943903923035
1680042559.97984123,193364514,2,-0.013075867667794228,-0.0007251107599586248,0.019132426008582115,0.999731183052063
1680042560.07977509,193464448,2,-0.010679989121854305,-0.0011270471150055528,0.015159695409238338,0.9998273849487305
1680042560.17986321,193564536,2,-0.007975148037075996,0.0016547846607863903,0.015138674527406693,0.9998522400856018
1680042560.27979112,193664464,2,-0.004919000435620546,0.00621236115694046,0.01191999576985836,0.9998975396156311
1680042560.37981701,193764490,2,-0.0020462218672037125,0.009516666643321514,0.0013718430418521166,0.9999516606330872
1680042560.47979212,193864465,2,0.0007212911732494831,0.006931337993592024,-0.0060012321919202805,0.9999576807022095
1680042560.57976413,193964437,2,0.003427201183512807,0.0018374222563579679,-0.005548972170799971,0.9999770522117615
1680042560.67977715,194064450,2,0.005693670362234116,-0.003409869037568569,-0.005769057665020227,0.9999613165855408
1680042560.77979302,194164466,2,0.0074423388577997684,-0.006146753206849098,-0.005579445045441389,0.9999378323554993
1680042560.87983108,194264504,2,0.009318459779024124,-0.007509155664592981,-0.005074022337794304,0.9999155402183533
1680042560.97977519,194364448,2,0.010474136099219322,-0.009407630190253258,-0.005030191037803888,0.9998882412910461
1680042561.07984614,194464519,2,0.011645952239632607,-0.01032086368650198,-0.005348864942789078,0.9998646378517151
1680042561.17977023,194564443,2,0.01192057877779007,-0.009796756319701672,-0.004823789466172457,0.9998693466186523
1680042561.27982211,194664495,2,0.012168269604444504,-0.009894877672195435,-0.0048978012055158615,0.9998649954795837
1680042561.37980008,194764473,2,0.011738366447389126,-0.009209644980728626,-0.0043863896280527115,0.9998790621757507
1680042561.47975802,194864431,2,0.011194925755262375,-0.008736422285437584,-0.003984227776527405,0.9998912215232849
1680042561.57976913,194964442,2,0.010122343897819519,-0.007936106994748116,-0.003848788095638156,0.9999098777770996
1680042561.67980123,195064474,2,0.008867425844073296,-0.008017624728381634,-0.003258602460846305,0.9999232292175293
1680042561.77983618,195164509,2,0.007496760226786137,-0.0075345272198319435,-0.0030809356831014156,0.9999387860298157
1680042561.87982011,195264493,2,0.0059351492673158646,-0.007691605947911739,-0.0028692178893834352,0.9999486804008484
1680042561.97985315,195364526,2,0.00440184585750103,-0.0076155574060976505,-0.0029814965091645718,0.9999568462371826
1680042562.07977509,195464448,2,0.0029280392918735743,-0.007671130355447531,-0.002918503014370799,0.9999620318412781
1680042562.17983007,195564503,2,0.001283076824620366,-0.008050947450101376,-0.0025302383583039045,0.9999635815620422
1680042562.27979016,195664463,2,-0.00016639352543279529,-0.007424558512866497,-0.002463388256728649,0.9999693632125854
1680042562.37976909,195764442,2,-0.0013084769016131759,-0.007746642455458641,-0.0022564269602298737,0.9999666213989258
1680042562.47977805,195864451,2,-0.002632451942190528,-0.006541356910020113,-0.002866805298253894,0.9999710321426392
1680042562.57978106,195964454,2,-0.0036838334053754807,-0.0059867058880627155,-0.0028436097782105207,0.9999712705612183
1680042562.67983913,196064512,2,-0.004454315174371004,-0.005422387272119522,-0.0027306864503771067,0.9999716281890869
1680042562.77982521,196164498,2,-0.00513770105317235,-0.005180487874895334,-0.002582285087555647,0.9999700784683228
1680042562.87984204,196264515,2,-0.005505482666194439,-0.00542531767860055,-0.002741134027019143,0.9999663829803467
1680042562.97981715,196364490,2,-0.005678778514266014,-0.006034142337739468,-0.0024166826624423265,0.9999627470970154
1680042563.07985806,196464531,2,-0.0056541962549090385,-0.006589716766029596,-0.002648807829245925,0.9999588131904602
1680042563.17978811,196564461,2,-0.0055183833464980125,-0.006940299179404974,-0.0023497676011174917,0.9999579191207886
1680042563.27975917,196664432,2,-0.005050713196396828,-0.007940119132399559,-0.001947078388184309,0.9999538064002991
1680042563.37976313,196764436,2,-0.004801496397703886,-0.008052488788962364,-0.0024280280340462923,0.9999530911445618
1680042563.47978020,196864453,2,-0.004264533519744873,-0.008505570702254772,-0.0023373679723590612,0.9999520182609558
1680042563.57982302,196964496,2,-0.0039679124020040035,-0.008243737742304802,-0.0021763539407402277,0.9999557733535767
1680042563.67982817,197064501,2,-0.003502022009342909,-0.007786519359797239,-0.0020991575438529253,0.9999613761901855
1680042563.77984524,197164518,2,-0.0032678355928510427,-0.007265037391334772,-0.002224875148385763,0.9999657869338989
1680042563.87982416,197264497,2,-0.002781720133498311,-0.006740358658134937,-0.0018755261553451419,0.9999716281890869
1680042563.97982621,197364499,2,-0.0023236803244799376,-0.007004004903137684,-0.0021265530958771706,0.9999704957008362
1680042564.07978606,197464459,2,-0.0015732675092294812,-0.0072695245034992695,0.007070584688335657,0.9999473690986633
1680042564.17976522,197564438,2,-0.0007998867658898234,-0.007564387749880552,0.02847403474152088,0.999565601348877
1680042564.27977109,197664444,2,0.0001896922622108832,-0.00739540858194232,0.032788220793008804,0.9994349479675293
1680042564.37978315,197764456,2,0.0010305428877472878,-0.007416228298097849,0.02078261785209179,0.9997559785842896
1680042564.47982621,197864499,2,0.0018953634425997734,-0.007306593935936689,0.006150276865810156,0.9999526143074036
1680042564.57982421,197964497,2,0.002996983705088496,-0.0069899228401482105,-0.003004901111125946,0.999966561794281
1680042564.67985916,198064532,2,0.0037543626967817545,-0.006461134180426598,-0.004338040016591549,0.9999626874923706
1680042564.77982211,198164495,2,0.004383774474263191,-0.008485627360641956,-0.004341132938861847,0.9999449849128723
1680042564.87982917,198264502,2,0.00487988255918026,-0.011422429233789444,-0.004134175833314657,0.999914288520813
1680042564.97978806,198364461,2,0.005489329807460308,-0.012666777707636356,-0.002462630160152912,0.9999016523361206
1680042565.07976222,198464435,2,0.005994886625558138,-0.012471686117351055,0.0010308530181646347,0.9999037384986877
1680042565.17976618,198564439,2,0.006649318616837263,-0.013472388498485088,0.003924443386495113,0.9998794198036194
1680042565.27979207,198664465,2,0.007148455828428268,-0.013624768704175949,0.008294478058815002,0.9998472332954407
1680042565.37983704,198764510,2,0.007934794761240482,-0.01148757804185152,0.013373204506933689,0.9998130798339844
1680042565.47977424,198864447,2,0.008319765329360962,-0.009994180873036385,0.017151307314634323,0.9997683167457581
1680042565.57984710,198964520,2,0.008974558673799038,-0.011370984837412834,0.018494321033358574,0.9997240304946899
1680042565.67978406,199064457,2,0.009188550524413586,-0.01222063135355711,0.01730087772011757,0.9997333884239197
1680042565.77983403,199164507,2,0.009759010747075081,-0.009635424241423607,0.013246318325400352,0.9998182058334351
1680042565.87979317,199264466,2,0.010089697316288948,-0.0070475004613399506,0.008971314877271652,0.9998840093612671
1680042565.97976804,199364441,2,0.010533290915191174,-0.005102381110191345,0.004052918870002031,0.9999232888221741
1680042566.07975602,199464429,2,0.010638818144798279,-0.0045700157061219215,0.0011043507838621736,0.9999323487281799
1680042566.17977905,199564452,2,0.010934880934655666,-0.004547104239463806,-0.0020856172777712345,0.9999276995658875
1680042566.27984214,199664515,2,0.01127364207059145,-0.005191337317228317,-0.0037133691366761923,0.9999160766601562
1680042566.37977600,199764449,2,0.0116566838696599,-0.005632809828966856,-0.003502095118165016,0.9999100565910339
1680042566.47984910,199864522,2,0.011855974793434143,-0.006200277246534824,-0.0036601563915610313,0.9999037981033325
1680042566.57977104,199964444,2,0.012422829866409302,-0.00673613091930747,-0.0034355162642896175,0.9998942613601685
1680042566.67981815,200064491,2,0.012673575431108475,-0.0067201280035078526,-0.0029581638518720865,0.9998927116394043
1680042566.77979112,200164464,2,0.013029655441641808,-0.006608111318200827,-0.0030474625527858734,0.9998886585235596
1680042566.87976122,200264434,2,0.013276022858917713,-0.006398569326847792,-0.0024646129459142685,0.9998883605003357
1680042566.97976804,200364441,2,0.013333464041352272,-0.007045319769531488,-0.002103192964568734,0.9998840689659119
1680042567.07978106,200464454,2,0.013459524139761925,-0.007228528149425983,-0.001917574554681778,0.9998814463615417
1680042567.17983413,200564507,2,0.013528373092412949,-0.007607543841004372,-0.002276176819577813,0.9998769760131836
1680042567.27982116,200664494,2,0.013485685922205448,-0.007451035548001528,-0.0018165223300457,0.9998796582221985
1680042567.37985420,200764527,2,0.013494816608726978,-0.007426962722092867,-0.0015539212618023157,0.9998801350593567
1680042567.47978806,200864461,2,0.013322005048394203,-0.007624362595379353,-0.0014496244257315993,0.9998811483383179
1680042567.57985711,200964530,2,0.013191396370530128,-0.007582422345876694,-0.001793162664398551,0.9998826384544373
