timestamp,TimeUS,DesRoll,Roll,DesPitch,Pitch,DesYaw,Yaw,ErrRP,ErrYaw,AEKF
1680043265.62004685,59672348,0.0,0.13,0.0,0.26,320.38,320.39,0.0,0.0,3
1680043265.72000885,59772310,0.0,0.13,0.0,0.26,320.38,320.39,0.0,0.0,3
1680043265.82029891,59872600,0.0,0.13,0.0,0.26,320.38,320.39,0.0,0.0,3
1680043265.92016172,59972463,0.0,0.13,0.0,0.26,320.38,320.38,0.0,0.0,3
1680043266.02019191,60072493,0.0,0.13,0.0,0.26,320.38,320.37,0.0,0.0,3
1680043266.12027383,60172575,0.0,0.13,0.0,0.26,320.38,320.37,0.0,0.0,3
1680043266.22001791,60272319,0.0,0.13,0.0,0.26,320.38,320.37,0.0,0.01,3
1680043266.32032394,60372625,0.0,0.13,0.0,0.26,320.38,320.37,0.0,0.0,3
1680043266.42028689,60472588,0.0,0.14,0.0,0.26,320.38,320.37,0.0,0.0,3
1680043266.52025485,60572556,0.0,0.14,0.0,0.25,320.38,320.36,0.0,0.0,3
1680043266.62028790,60672589,0.0,0.14,0.0,0.25,320.38,320.36,0.0,0.0,3
1680043266.72028089,60772582,0.0,0.15,0.0,0.25,320.38,320.36,0.0,0.01,3
1680043266.82015991,60872461,0.0,0.15,0.0,0.25,320.38,320.35,0.01,0.0,3
1680043266.92056894,60972870,0.0,0.15,0.0,0.25,320.38,320.35,0.01,0.0,3
1680043267.02068281,61072984,0.0,0.16,0.0,0.25,320.38,320.35,0.01,0.01,3
1680043267.12027574,61172577,0.0,0.16,0.0,0.25,320.38,320.35,0.01,0.01,3
1680043267.22028494,61272586,0.0,0.17,0.0,0.25,320.38,320.35,0.01,0.01,3
1680043267.32033873,61372640,0.0,0.17,0.0,0.25,320.38,320.35,0.0,0.01,3
1680043267.42028975,61472591,0.0,0.17,0.0,0.25,320.38,320.35,0.0,0.01,3
1680043267.52028179,61572583,0.0,0.17,0.0,0.25,320.38,320.35,0.01,0.01,3
1680043267.62028885,61672590,0.0,0.18,0.0,0.25,320.33,320.34000000000003,0.01,0.01,3
1680043267.72021580,61772517,0.0,0.18,0.0,0.25,320.33,320.34000000000003,0.0,0.01,3
1680043267.82025194,61872553,0.0,0.19,0.0,0.26,320.33,320.34000000000003,0.0,0.01,3
1680043267.92028475,61972586,0.0,0.19,0.0,0.25,320.32,320.33,0.01,0.01,3
1680043268.02061677,62072918,0.0,0.2,0.0,0.25,320.32,320.33,0.01,0.01,3
1680043268.12001777,62172319,0.0,0.2,0.0,0.25,320.32,320.33,0.01,0.01,3
1680043268.22006774,62272369,0.0,0.2,0.0,0.26,320.32,320.33,0.01,0.01,3
1680043268.32013988,62372441,0.0,0.21,0.0,0.26,320.32,320.33,0.01,0.01,3
1680043268.42010689,62472408,0.0,0.21,0.0,0.25,320.32,320.32,0.01,0.01,3
1680043268.51994085,62572242,0.0,0.22,0.0,0.25,320.32,320.32,0.01,0.0,3
1680043268.61986089,62672162,0.0,0.22,0.0,0.25,320.32,320.34000000000003,0.01,0.01,3
1680043268.71992993,62772231,0.0,0.23,0.0,0.24,320.32,320.31,0.01,0.01,3
1680043268.82000089,62872302,0.0,0.23,0.0,0.24,320.32,320.33,0.01,0.01,3
1680043268.92027974,62972581,0.0,0.22,0.0,0.23,320.32,320.34000000000003,0.01,0.01,3
1680043269.02030087,63072602,0.0,0.23,0.0,0.22,320.32,320.31,0.01,0.01,3
1680043269.12012172,63172423,0.0,0.25,0.0,0.22,320.32,320.32,0.01,0.01,3
1680043269.22006083,63272362,0.0,0.24,0.0,0.21,320.32,320.32,0.01,0.01,3
1680043269.32014084,63372442,0.0,0.24,0.0,0.21,320.32,320.3,0.01,0.01,3
1680043269.41996193,63472263,0.0,0.24,0.0,0.22,320.32,320.31,0.01,0.0,3
1680043269.51985979,63572161,0.0,0.25,0.0,0.22,320.32,320.31,0.01,0.0,3
1680043269.62020779,63672509,0.0,0.24,0.0,0.22,320.32,320.29,0.01,0.0,3
1680043269.71998286,63772284,0.0,0.25,0.0,0.19,320.32,320.27,0.01,0.0,3
1680043269.82000089,63872302,0.0,0.29,0.0,0.23,320.32,320.3,0.01,0.0,3
1680043269.92020392,63972505,0.0,0.35000000000000003,0.0,0.24,320.32,320.21,0.01,0.01,3
1680043270.02025795,64072559,0.0,0.34,0.0,0.09,320.32,320.12,0.01,0.02,3
1680043270.12025595,64172557,0.0,0.4,0.0,-0.05,320.32,320.01,0.01,0.04,3
1680043270.22026372,64272565,0.0,0.32,0.0,-0.17,320.32,319.83,0.01,0.04,3
1680043270.32048583,64372787,0.0,0.36,0.0,-0.18,320.32,319.64,0.01,0.04,3
1680043270.41988087,64472182,0.0,0.46,0.0,-0.27,320.32,319.45,0.01,0.04,3
1680043270.52022290,64572524,0.0,0.36,0.0,-0.35000000000000003,320.32,319.24,0.01,0.04,3
1680043270.62029290,64672594,0.0,0.34,0.0,-0.37,320.32,319.06,0.01,0.04,3
1680043270.72027779,64772579,0.0,0.49,0.0,-0.52,320.52,318.89,0.01,0.04,3
1680043270.82029176,64872593,0.0,0.43,0.0,-0.46,320.52,318.78000000000003,0.01,0.04,3
1680043270.92030072,64972602,0.0,0.42,0.0,-0.36,320.52,318.69,0.01,0.04,3
1680043271.02029681,65072598,-0.14,0.27,0.11,-0.38,320.52,318.61,0.01,0.04,3
1680043271.12030792,65172609,-0.58,-0.29,0.65,0.1,320.52,318.58,0.01,0.04,3
1680043271.22060394,65272905,-0.37,-0.88,1.25,0.99,320.52,318.58,0.01,0.04,3
1680043271.32033372,65372635,-0.23,-0.78,1.73,1.8,320.57,318.63,0.01,0.04,3
1680043271.42020774,65472509,-0.12,-0.28,1.5,2.23,320.85,318.71,0.01,0.04,3
1680043271.52027988,65572581,-0.06,0.05,0.76,1.59,320.86,318.88,0.01,0.04,3
1680043271.62001872,65672320,-0.03,0.34,0.39,0.74,321.05,319.02,0.01,0.04,3
1680043271.72001672,65772318,-0.01,0.61,0.2,0.18,322.03000000000003,319.22,0.01,0.04,3
1680043271.82011294,65872414,0.0,0.5,0.1,-0.24,323.0,319.57,0.01,0.04,3
1680043271.92003489,65972336,0.0,0.49,0.13,-0.4,323.66,320.07,0.01,0.04,3
1680043272.02005792,66072359,0.0,0.29,0.44,-0.09,324.13,320.62,0.01,0.04,3
1680043272.11997771,66172279,0.2,0.26,0.75,0.53,324.91,321.2,0.01,0.04,3
1680043272.21989489,66272196,0.89,0.49,1.19,1.02,325.11,321.87,0.01,0.04,3
1680043272.32034588,66372647,1.81,1.55,1.62,1.6500000000000001,325.11,322.54,0.01,0.04,3
1680043272.42028689,66472588,3.16,2.74,1.81,1.99,325.11,323.12,0.01,0.03,3
1680043272.51999283,66572294,4.17,4.26,2.16,2.1,325.11,323.68,0.02,0.03,3
1680043272.62002683,66672328,4.94,5.3100000000000005,2.97,2.72,325.11,324.21,0.02,0.03,3
1680043272.72006488,66772366,5.37,5.7700000000000005,3.42,3.79,325.11,324.7,0.02,0.03,3
1680043272.82005692,66872358,5.61,5.97,3.74,4.07,325.11,325.04,0.02,0.03,3
1680043272.92005277,66972354,5.74,6.140000000000001,4.19,3.98,325.17,325.24,0.02,0.04,3
1680043273.01999879,67072300,5.65,6.07,4.12,4.46,325.96,325.44,0.02,0.04,3
1680043273.11987686,67172178,5.26,5.67,3.72,4.28,327.62,325.69,0.04,0.04,3
1680043273.21994972,67272251,4.8500000000000005,4.67,3.6,3.49,329.69,326.14,0.04,0.05,3
1680043273.32011175,67372413,4.3,4.03,3.81,3.62,332.29,327.01,0.05,0.06,3
1680043273.42027974,67472581,3.7600000000000002,3.21,3.91,4.28,335.72,328.2,0.05,0.06,3
1680043273.52028084,67572582,3.27,2.31,3.93,4.36,339.21,329.84000000000003,0.05,0.07,3
1680043273.62012076,67672422,3.13,1.75,3.85,4.25,342.05,331.78000000000003,0.05,0.07,3
1680043273.72022986,67772531,3.54,1.92,3.42,4.09,344.01,333.93,0.06,0.07,3
1680043273.82024288,67872544,5.01,3.0500000000000003,3.09,3.5100000000000002,345.09000000000003,336.03000000000003,0.06,0.07,3
1680043273.92023587,67972537,6.41,5.5600000000000005,3.0100000000000002,3.43,345.32,338.11,0.07,0.07,3
1680043274.02015591,68072457,6.95,7.09,3.0300000000000002,3.61,345.32,340.02,0.07,0.06,3
1680043274.12019873,68172500,6.59,7.0,3.19,3.36,345.32,341.8,0.08,0.06,3
1680043274.22024989,68272551,5.92,5.89,3.34,3.27,345.32,343.5,0.08,0.07,3
1680043274.32060289,68372904,4.83,4.78,3.33,3.2800000000000002,345.32,345.11,0.07,0.09,3
1680043274.42054176,68472843,4.01,3.44,3.38,3.0,345.32,346.54,0.07,0.1,3
1680043274.52029371,68572595,3.5100000000000002,2.43,3.46,3.0700000000000003,345.32,347.83,0.06,0.11,3
1680043274.62029576,68672597,2.86,2.38,3.64,3.33,345.32,348.90000000000003,0.05,0.12,3
1680043274.72004890,68772350,2.56,1.92,3.63,3.52,345.32,349.73,0.05,0.12,3
1680043274.81997490,68872276,2.35,1.9100000000000001,3.5300000000000002,3.45,345.32,350.31,0.05,0.12,3
1680043274.91987991,68972181,1.95,1.83,3.4,3.21,345.37,350.75,0.05,0.12,3
1680043275.01997972,69072281,1.08,1.1500000000000001,3.08,2.95,345.56,350.96,0.05,0.11,3
1680043275.12000275,69172304,0.55,0.03,2.89,2.49,345.83,351.07,0.05,0.11,3
1680043275.22003078,69272332,0.28,-0.25,2.82,2.25,346.96,351.07,0.05,0.11,3
1680043275.32011676,69372418,0.14,-0.4,2.71,2.35,348.97,351.15000000000003,0.05,0.1,3
1680043275.42040586,69472707,0.07,-0.45,2.65,2.32,351.54,351.40000000000003,0.05,0.09,3
1680043275.52029490,69572596,0.03,-0.46,2.65,2.29,354.05,351.93,0.04,0.09,3
1680043275.62008786,69672389,0.01,-0.61,2.69,2.47,356.05,352.72,0.04,0.08,3
1680043275.72031379,69772615,0.0,-0.59,2.67,2.68,358.03000000000003,353.72,0.04,0.08,3
1680043275.82024980,69872551,0.0,-0.49,2.71,2.66,0.2,354.88,0.04,0.08,3
1680043275.92022491,69972526,0.0,-0.56,2.6,2.63,1.6600000000000001,356.22,0.05,0.07,3
1680043276.02030087,70072602,0.0,-0.68,2.5500000000000003,2.44,3.11,357.64,0.05,0.07,3
1680043276.12029386,70172595,0.0,-0.53,2.33,2.44,4.29,359.09000000000003,0.05,0.07,3
1680043276.22030783,70272609,0.0,-0.37,2.07,2.1,5.44,0.58,0.05,0.07,3
1680043276.32034087,70372642,0.0,-0.38,1.81,1.57,6.59,2.15,0.05,0.08,3
1680043276.42029095,70472592,0.0,-0.52,1.56,1.46,7.79,3.73,0.05,0.08,3
1680043276.52028084,70572582,0.0,-0.43,1.27,1.22,9.0,5.32,0.05,0.08,3
1680043276.62050891,70672810,0.0,-0.44,1.2,0.98,10.13,6.9,0.05,0.07,3
1680043276.72020793,70772509,0.0,-0.32,1.1400000000000001,1.09,11.14,8.5,0.09,0.07,3
1680043276.82025981,70872561,0.0,-0.5,1.1,1.17,12.24,10.08,0.09,0.06,3
1680043276.92028475,70972586,0.0,-0.29,1.1,1.18,13.35,11.65,0.08,0.06,3
1680043277.02029777,71072599,0.0,-0.33,1.17,1.29,14.81,13.15,0.08,0.05,3
1680043277.12028384,71172585,0.0,-0.27,1.21,1.43,16.94,14.72,0.07,0.04,3
1680043277.22031188,71272613,0.0,-0.63,1.23,1.42,19.25,16.43,0.07,0.04,3
1680043277.32032990,71372631,0.0,-0.49,1.28,1.45,21.53,18.32,0.06,0.04,3
1680043277.42030287,71472604,0.0,-0.36,1.44,1.43,23.75,20.330000000000002,0.06,0.03,3
1680043277.52058578,71572887,0.0,-0.44,1.55,1.6,25.830000000000002,22.42,0.05,0.03,3
1680043277.62023473,71672536,0.22,-0.3,1.5,1.76,27.16,24.57,0.05,0.03,3
1680043277.72021985,71772521,0.45,0.0,1.54,1.47,27.82,26.72,0.06,0.04,3
1680043277.82028985,71872591,0.56,0.21,1.6500000000000001,1.54,28.62,28.66,0.05,0.05,3
1680043277.92002583,71972327,0.54,0.24,1.72,1.8900000000000001,29.57,30.39,0.05,0.07,3
1680043278.02004576,72072347,0.5,0.34,1.74,1.96,30.55,32.05,0.05,0.08,3
1680043278.12006783,72172369,0.47000000000000003,0.45,1.75,1.92,31.48,33.54,0.05,0.11,3
1680043278.22005486,72272356,0.46,0.27,1.7,1.82,32.35,34.88,0.05,0.13,3
1680043278.32013273,72372434,0.33,0.2,1.73,1.76,33.4,36.08,0.04,0.17,3
1680043278.41996384,72472265,0.2,0.25,1.83,1.8800000000000001,35.1,37.15,0.04,0.19,3
1680043278.52023172,72572533,0.11,0.08,1.9000000000000001,2.04,37.050000000000004,38.28,0.04,0.19,3
1680043278.62022185,72672523,0.06,0.22,1.94,2.09,39.34,39.46,0.04,0.21,3
1680043278.72028494,72772586,0.03,-0.05,1.93,2.09,41.660000000000004,40.800000000000004,0.05,0.23,3
1680043278.82003093,72872332,0.01,-0.13,1.92,2.07,43.97,42.24,0.05,0.25,3
1680043278.92021680,72972518,0.0,-0.15,1.94,1.97,46.33,43.910000000000004,0.05,0.26,3
1680043279.02027488,73072576,0.0,-0.1,2.02,2.06,48.6,45.67,0.05,0.28,3
1680043279.12023187,73172533,0.0,-0.19,1.98,2.18,50.22,47.57,0.05,0.3,3
1680043279.22025394,73272555,0.0,0.12,1.94,2.24,50.95,49.45,0.05,0.34,3
1680043279.32028484,73372586,0.0,0.13,1.61,2.06,51.0,51.15,0.04,0.36,3
1680043279.42015481,73472456,0.0,0.2,1.48,1.54,51.0,52.6,0.04,0.38,3
1680043279.52017784,73572479,0.0,0.03,1.43,1.3,51.0,53.800000000000004,0.04,0.4,3
1680043279.62063384,73672935,0.0,-0.02,1.41,1.43,51.0,54.79,0.04,0.43,3
1680043279.72021079,73772512,0.0,-0.04,1.5,1.42,51.0,55.59,0.05,0.45,3
1680043279.82022095,73872522,0.0,0.16,1.67,1.58,51.0,56.22,0.05,0.47000000000000003,3
1680043279.92025685,73972558,0.0,0.19,1.79,1.83,51.0,56.68,0.04,0.5,3
1680043280.02025175,74072553,-0.08,0.23,1.8,1.8800000000000001,51.24,56.980000000000004,0.04,0.51,3
1680043280.12024474,74172546,-0.2,0.1,1.81,1.84,52.33,57.15,0.05,0.52,3
1680043280.22025490,74272556,-0.27,-0.03,1.72,1.81,54.300000000000004,57.42,0.05,0.53,3
1680043280.32017088,74372472,-0.66,-0.14,1.32,1.6300000000000001,56.69,57.84,0.05,0.54,3
1680043280.42014384,74472445,-1.18,-0.75,0.75,0.86,59.36,58.480000000000004,0.05,0.55,3
1680043280.52023888,74572540,-1.42,-1.52,0.38,0.04,62.31,59.42,0.05,0.5700000000000001,3
1680043280.62052488,74672826,-1.54,-1.26,0.19,-0.2,65.23,60.64,0.05,0.5700000000000001,3
1680043280.72028780,74772589,-1.48,-1.3900000000000001,0.1,-0.31,67.75,62.18,0.05,0.5700000000000001,3
1680043280.82034492,74872646,-0.9400000000000001,-1.1,-0.04,-0.38,101.72,95.53,0.05,0.5700000000000001,3
1680043280.92029786,74972599,-0.48,0.13,-0.02,-0.06,103.3,97.39,0.05,0.5700000000000001,3
1680043281.02006292,75072364,-0.24,0.27,-0.01,0.11,103.99000000000001,99.3,0.05,0.5700000000000001,3
1680043281.11995888,75172260,-0.12,0.11,0.0,0.14,104.03,101.24000000000001,0.06,0.59,3
1680043281.21988082,75272182,-0.06,0.25,0.0,0.19,104.03,103.04,0.06,0.6,3
1680043281.31999087,75372292,-0.03,0.25,0.0,0.19,104.03,104.67,0.06,0.6,3
1680043281.42005587,75472357,-0.01,-0.03,0.0,0.19,104.03,106.02,0.06,0.6,3
1680043281.52001476,75572316,0.0,0.02,0.0,0.21,104.03,107.07000000000001,0.05,0.61,3
1680043281.62002993,75672331,0.0,0.02,0.0,0.14,104.03,107.85000000000001,0.05,0.63,3
1680043281.72040272,75772704,0.0,0.09,0.0,0.14,104.03,108.43,0.05,0.64,3
1680043281.82031584,75872617,0.0,0.0,0.0,0.09,104.03,108.83,0.05,0.65,3
1680043281.92006493,75972366,0.0,0.14,0.0,0.13,104.03,109.07000000000001,0.05,0.66,3
1680043282.01997495,76072276,0.0,0.04,0.0,0.13,104.03,109.2,0.05,0.66,3
1680043282.11987472,76172176,0.0,-0.01,0.0,0.13,104.03,109.19,0.04,0.66,3
1680043282.21994877,76272250,0.0,0.06,0.0,0.19,104.03,109.08,0.04,0.66,3
1680043282.32006693,76372368,0.0,-0.02,0.0,0.2,104.03,108.81,0.04,0.67,3
1680043282.42001891,76472320,0.0,-0.02,0.0,0.2,104.03,108.49000000000001,0.04,0.67,3
1680043282.52001977,76572321,0.0,0.0,-0.13,0.15,104.03,108.15,0.04,0.67,3
1680043282.62013388,76672435,0.0,-0.02,-0.06,0.0,104.03,107.78,0.04,0.67,3
1680043282.72013593,76772437,0.0,-0.03,-0.03,0.05,104.03,107.41,0.04,0.67,3
1680043282.82012892,76872430,0.0,0.05,-0.01,0.14,104.52,107.0,0.04,0.67,3
1680043282.92033172,76972633,-0.11,0.19,0.0,0.03,105.9,106.68,0.04,0.66,3
1680043283.02024174,77072543,-0.15,-0.11,0.0,-0.05,107.85000000000001,106.55,0.04,0.65,3
1680043283.12019873,77172500,-0.13,0.02,0.0,-0.01,109.07000000000001,106.72,0.04,0.64,3
1680043283.22026587,77272567,-0.24,0.25,0.0,0.0,109.79,107.05,0.04,0.63,3
1680043283.32031274,77372614,-0.29,-0.1,0.0,-0.04,110.84,107.45,0.04,0.63,3
1680043283.42029190,77472593,-0.55,-0.21,0.0,-0.01,111.98,107.98,0.04,0.62,3
1680043283.52029586,77572597,-0.99,-0.46,0.0,-0.05,113.4,108.68,0.03,0.6,3
1680043283.62031078,77672612,-0.91,-1.12,0.0,-0.08,114.09,109.54,0.03,0.61,3
1680043283.72029877,77772600,-1.42,-0.92,0.0,0.03,114.37,110.43,0.03,0.6,3
1680043283.82039380,77872695,-2.57,-1.6600000000000001,0.0,0.0,114.37,111.33,0.03,0.61,3
1680043283.92022681,77972528,-3.04,-3.2800000000000002,0.0,-0.01,114.37,112.15,0.03,0.62,3
1680043284.02021480,78072516,-3.11,-3.46,0.0,0.07,114.37,112.95,0.03,0.62,3
1680043284.12026787,78172569,-2.44,-2.73,0.0,0.15,114.37,113.64,0.03,0.62,3
1680043284.22019577,78272497,-1.24,-1.68,0.0,0.16,114.37,114.22,0.03,0.61,3
1680043284.32027984,78372581,-0.63,-0.1,0.0,0.15,114.37,114.78,0.05,0.59,3
1680043284.42026281,78472564,-0.32,0.42,0.0,0.15,114.37,115.29,0.05,0.59,3
1680043284.52025390,78572555,-0.19,0.19,0.0,0.13,114.37,115.47,0.05,0.59,3
1680043284.62024474,78672546,-0.16,0.24,0.0,0.08,114.37,115.61,0.05,0.6,3
1680043284.72019386,78772495,-0.11,0.05,0.0,0.08,114.37,115.68,0.05,0.6,3
1680043284.82014894,78872450,-0.06,0.11,0.0,0.0,114.37,115.76,0.05,0.61,3
1680043284.92020679,78972508,-0.06,0.2,0.0,-0.01,114.37,115.78,0.04,0.61,3
1680043285.02028584,79072587,-0.1,0.02,0.0,-0.02,114.37,115.82000000000001,0.04,0.61,3
1680043285.12000275,79172304,-0.12,0.04,0.0,0.03,114.37,115.91,0.04,0.61,3
1680043285.22002292,79272324,-0.18,-0.03,0.0,0.05,114.37,116.01,0.04,0.6,3
1680043285.32016087,79372462,-0.23,-0.16,-0.21,0.08,114.37,116.08,0.05,0.6,3
1680043285.42011595,79472417,-0.29,-0.25,-0.89,-0.34,114.37,116.13,0.05,0.6,3
1680043285.52005482,79572356,-0.6,-0.4,-0.98,-1.3800000000000001,114.37,116.18,0.04,0.6,3
1680043285.61998582,79672287,-0.75,-0.85,-0.81,-1.08,114.37,116.17,0.04,0.61,3
1680043285.71987891,79772180,-0.73,-0.89,-0.92,-0.41000000000000003,114.37,116.11,0.04,0.61,3
1680043285.81995082,79872252,-0.41000000000000003,-0.6,-0.48,-0.74,114.37,116.08,0.04,0.61,3
1680043285.92007995,79972381,-0.21,-0.12,-0.24,-0.28,114.37,116.11,0.04,0.6,3
1680043286.02028584,80072587,-0.1,0.08,-0.12,0.12,114.37,116.12,0.04,0.59,3
1680043286.12028575,80172587,-0.05,0.08,-0.06,-0.04,114.37,116.12,0.03,0.58,3
1680043286.22011876,80272420,-0.02,0.14,-0.03,0.0,114.37,116.02,0.03,0.58,3
1680043286.32014775,80372449,-0.01,0.15,0.09,0.07,114.37,115.96000000000001,0.03,0.58,3
1680043286.42012787,80472429,0.0,0.06,0.53,0.25,114.37,115.84,0.03,0.5700000000000001,3
1680043286.51998186,80572283,0.0,0.11,0.9,0.92,114.75,115.67,0.03,0.55,3
1680043286.61988091,80672182,0.0,0.14,1.1300000000000001,1.33,115.53,115.5,0.03,0.55,3
1680043286.71993780,80772239,0.0,0.09,1.25,1.35,115.62,115.39,0.03,0.55,3
1680043286.81999993,80872301,0.0,0.1,1.28,1.3800000000000001,115.62,115.29,0.03,0.54,3
1680043286.92029095,80972592,0.0,0.15,1.53,1.45,115.82000000000001,115.24000000000001,0.04,0.53,3
1680043287.02030873,81072610,0.0,0.21,1.6400000000000001,1.77,116.83,115.24000000000001,0.04,0.52,3
1680043287.12031579,81172617,0.0,0.12,1.6300000000000001,1.83,118.26,115.4,0.04,0.51,3
1680043287.22029972,81272601,0.0,0.08,1.61,1.7,120.18,115.84,0.04,0.51,3
1680043287.32011175,81372413,0.03,0.08,1.7,1.68,121.44,116.54,0.04,0.51,3
1680043287.42030883,81472610,0.01,0.12,1.81,1.82,121.81,117.38,0.04,0.51,3
1680043287.52024293,81572544,0.0,0.13,1.73,1.8900000000000001,121.81,118.25,0.03,0.51,3
1680043287.62022471,81672526,0.0,0.04,1.6300000000000001,1.6400000000000001,121.81,119.06,0.03,0.51,3
1680043287.72026992,81772571,0.0,-0.03,1.25,1.43,121.81,119.87,0.03,0.5,3
1680043287.82028294,81872584,0.0,0.03,0.68,0.89,121.81,120.60000000000001,0.03,0.5,3
1680043287.92028785,81972589,0.0,-0.01,0.8300000000000001,0.09,121.81,121.23,0.03,0.5,3
1680043288.02042174,82072723,0.0,0.09,2.7,0.84,121.81,121.75,0.03,0.5,3
1680043288.12029481,82172596,0.09,-0.03,4.3,3.88,121.81,122.13,0.03,0.49,3
1680043288.22014189,82272443,0.6,0.35000000000000003,5.1000000000000005,6.0600000000000005,121.81,122.39,0.03,0.48,3
1680043288.32031274,82372614,0.98,1.1300000000000001,5.7700000000000005,5.93,121.81,122.71000000000001,0.04,0.47000000000000003,3
1680043288.42015672,82472458,1.47,1.67,5.58,6.0200000000000005,121.81,122.97,0.04,0.47000000000000003,3
1680043288.52016473,82572466,2.16,2.05,4.7700000000000005,5.42,121.81,123.03,0.05,0.47000000000000003,3
1680043288.62021875,82672520,2.5300000000000002,2.95,4.28,3.7800000000000002,121.81,122.93,0.05,0.47000000000000003,3
1680043288.72019291,82772494,2.87,3.17,4.3,3.25,121.81,122.31,0.05,0.47000000000000003,3
1680043288.82022095,82872522,3.22,3.37,4.16,3.9,121.81,121.68,0.05,0.48,3
1680043288.92047286,82972774,3.2800000000000002,3.61,4.09,3.93,121.81,120.69,0.04,0.48,3
1680043289.02030492,83072606,3.17,3.3000000000000003,3.59,3.5700000000000003,121.81,119.84,0.04,0.48,3
1680043289.12006092,83172362,2.98,3.12,3.0,3.0,121.81,118.74000000000001,0.04,0.48,3
1680043289.22000480,83272306,1.9000000000000001,2.71,2.12,2.07,121.81,117.89,0.04,0.48,3
1680043289.32001781,83372319,0.97,1.29,1.53,1.01,121.81,116.97,0.03,0.49,3
1680043289.41994095,83472242,0.49,-0.03,1.12,0.47000000000000003,121.81,116.38,0.03,0.49,3
1680043289.51997781,83572279,0.25,-0.12,0.87,0.44,121.81,116.01,0.03,0.49,3
1680043289.62028790,83672589,0.12,0.07,0.55,0.4,121.81,115.96000000000001,0.03,0.48,3
1680043289.72028875,83772590,0.06,-0.2,0.33,0.13,121.81,116.02,0.03,0.48,3
1680043289.82011294,83872414,0.03,0.05,0.2,-0.02,121.81,116.3,0.03,0.47000000000000003,3
1680043289.92005372,83972355,0.01,-0.05,0.13,0.0,121.81,116.68,0.02,0.46,3
1680043290.02005887,84072360,0.0,-0.14,0.07,0.0,121.81,117.17,0.02,0.46,3
1680043290.12010193,84172403,0.0,0.0,0.03,-0.01,121.81,117.75,0.02,0.46,3
1680043290.21988177,84272183,0.0,0.08,0.01,0.05,121.81,118.39,0.02,0.46,3
1680043290.32028794,84372589,0.0,-0.04,0.0,-0.03,121.81,119.12,0.02,0.46,3
1680043290.42027783,84472579,0.0,0.02,0.0,-0.02,121.81,119.89,0.02,0.45,3
1680043290.52027774,84572579,0.0,-0.14,0.0,-0.02,121.81,120.64,0.01,0.44,3
1680043290.62030387,84672605,0.0,0.08,0.0,0.02,121.81,121.35000000000001,0.01,0.43,3
1680043290.72030377,84772605,0.01,-0.02,0.0,0.02,121.81,121.99000000000001,0.01,0.43,3
1680043290.82028675,84872588,0.61,0.09,0.0,0.0,121.7,122.52,0.01,0.43,3
1680043290.92029381,84972595,0.96,1.03,0.0,-0.04,121.25,122.94,0.01,0.42,3
1680043291.02050471,85072806,1.06,1.56,0.0,-0.05,120.55,123.2,0.01,0.42,3
1680043291.12023973,85172541,1.01,1.22,0.0,-0.07,119.91,123.25,0.01,0.42,3
1680043291.22027493,85272576,0.81,1.03,0.0,-0.1,119.71000000000001,123.14,0.01,0.42,3
1680043291.32032585,85372627,0.79,0.74,0.02,-0.04,119.26,122.94,0.01,0.41000000000000003,3
1680043291.42017579,85472477,0.88,0.79,0.16,0.02,118.03,122.66,0.01,0.41000000000000003,3
1680043291.52020288,85572504,0.9400000000000001,1.0,0.13,0.14,117.12,122.11,0.01,0.4,3
1680043291.62026072,85672562,0.96,0.96,0.06,0.0,116.99000000000001,121.42,0.01,0.4,3
1680043291.72023487,85772536,0.97,0.99,0.03,-0.12,116.99000000000001,120.73,0.01,0.4,3
1680043291.82023287,85872534,0.88,1.02,0.01,-0.09,116.99000000000001,120.08,0.01,0.4,3
1680043291.92022181,85972523,0.63,0.72,0.0,-0.14,116.99000000000001,119.4,0.01,0.4,3
1680043292.02045894,86072760,0.33,0.4,0.0,-0.08,116.99000000000001,118.79,0.01,0.4,3
1680043292.12021494,86172516,0.17,0.03,0.0,-0.12,116.99000000000001,118.18,0.01,0.39,3
1680043292.22052383,86272825,0.21,0.06,0.0,-0.11,116.99000000000001,117.62,0.01,0.4,3
1680043292.32007074,86372372,0.8,0.34,0.0,-0.08,116.99000000000001,117.07000000000001,0.01,0.39,3
1680043292.42004275,86472344,0.42,1.09,0.0,-0.03,116.99000000000001,116.58,0.01,0.38,3
1680043292.52013874,86572440,0.21,0.44,0.0,-0.06,116.99000000000001,116.15,0.01,0.38,3
1680043292.62005281,86672354,0.11,-0.18,0.0,-0.03,116.99000000000001,115.84,0.01,0.38,3
1680043292.72004676,86772348,0.05,-0.07,0.0,0.03,116.99000000000001,115.58,0.01,0.37,3
1680043292.81997085,86872272,0.02,0.06,0.0,0.03,116.99000000000001,115.43,0.01,0.36,3
1680043292.91987371,86972175,0.01,0.01,0.0,0.0,116.99000000000001,115.32000000000001,0.01,0.35000000000000003,3
1680043293.01993394,87072235,0.0,0.17,0.0,0.06,116.99000000000001,115.28,0.01,0.34,3
1680043293.11997390,87172275,0.0,0.01,0.0,-0.02,116.99000000000001,115.26,0.01,0.34,3
1680043293.22028875,87272590,0.0,0.03,0.0,-0.06,116.99000000000001,115.3,0.01,0.34,3
1680043293.32033587,87372637,0.0,0.05,0.0,0.01,116.99000000000001,115.32000000000001,0.01,0.33,3
1680043293.42011786,87472419,0.05,0.02,0.0,-0.03,116.99000000000001,115.41,0.01,0.34,3
1680043293.52006578,87572367,1.51,0.35000000000000003,0.0,-0.02,116.99000000000001,115.49000000000001,0.02,0.33,3
1680043293.62011695,87672418,2.85,2.5100000000000002,0.0,0.01,116.99000000000001,115.64,0.02,0.32,3
1680043293.71995783,87772259,3.59,4.47,0.0,0.1,116.99000000000001,115.81,0.02,0.31,3
1680043293.81987977,87872181,3.9,4.32,0.0,0.08,116.99000000000001,115.98,0.02,0.3,3
1680043293.91994190,87972243,3.95,4.22,0.0,0.02,116.99000000000001,116.23,0.03,0.3,3
1680043294.01998281,88072284,3.96,4.03,0.0,-0.03,116.99000000000001,116.51,0.03,0.31,3
1680043294.12029195,88172593,3.96,3.84,0.0,-0.03,116.99000000000001,116.77,0.03,0.3,3
1680043294.22002077,88272322,3.97,3.8200000000000003,0.0,-0.07,116.99000000000001,117.03,0.03,0.31,3
1680043294.32043290,88372734,3.97,3.8000000000000003,0.0,-0.08,116.99000000000001,117.2,0.02,0.3,3
1680043294.42030072,88472602,3.97,3.62,0.0,-0.1,116.99000000000001,117.34,0.02,0.3,3
1680043294.52028275,88572584,3.84,3.62,0.0,-0.1,116.99000000000001,117.42,0.02,0.3,3
1680043294.62030888,88672610,3.71,3.58,0.0,-0.06,116.99000000000001,117.52,0.02,0.3,3
1680043294.72023988,88772541,2.9,3.3000000000000003,0.0,-0.09,116.99000000000001,117.58,0.02,0.29,3
1680043294.82057691,88872878,1.6400000000000001,2.0300000000000002,0.0,-0.04,116.99000000000001,117.60000000000001,0.02,0.3,3
1680043294.92028284,88972584,1.69,0.37,0.0,-0.06,116.99000000000001,117.61,0.01,0.31,3
1680043295.02019691,89072498,2.2,0.91,0.0,-0.04,116.99000000000001,117.59,0.01,0.32,3
1680043295.12019277,89172494,2.5300000000000002,2.59,0.0,-0.04,116.99000000000001,117.55,0.02,0.31,3
1680043295.22025776,89272559,2.84,2.7800000000000002,0.0,-0.06,116.99000000000001,117.52,0.02,0.3,3
1680043295.32027578,89372577,3.11,2.92,0.0,-0.02,116.99000000000001,117.49000000000001,0.02,0.29,3
1680043295.42022371,89472525,2.73,3.25,0.01,-0.04,116.99000000000001,117.47,0.02,0.28,3
1680043295.52023077,89572532,2.09,2.31,0.04,0.02,116.99000000000001,117.43,0.02,0.28,3
1680043295.61989689,89672198,1.74,1.16,0.02,0.08,116.99000000000001,117.41,0.02,0.29,3
1680043295.71994591,89772247,1.56,1.18,0.01,0.07,116.99000000000001,117.36,0.03,0.29,3
1680043295.82000685,89872308,1.46,1.19,0.0,0.04,116.99000000000001,117.31,0.03,0.28,3
1680043295.92001581,89972317,1.49,0.9500000000000001,0.0,0.08,116.99000000000001,117.25,0.03,0.28,3
1680043296.02002883,90072330,1.52,1.26,0.02,0.11,116.99000000000001,117.19,0.03,0.27,3
1680043296.12028980,90172591,1.37,1.44,0.14,0.19,116.99000000000001,117.14,0.02,0.27,3
1680043296.22028780,90272589,0.93,1.09,0.34,0.47000000000000003,116.99000000000001,117.07000000000001,0.02,0.27,3
1680043296.32014275,90372444,0.49,0.59,0.54,0.7000000000000001,116.99000000000001,117.03,0.02,0.27,3
1680043296.42011380,90472415,0.25,-0.09,0.5700000000000001,0.8300000000000001,116.99000000000001,117.02,0.02,0.27,3
1680043296.51987076,90572172,0.12,-0.14,0.32,0.71,116.99000000000001,116.95,0.02,0.27,3
1680043296.61994076,90672242,0.06,-0.04,0.16,0.29,116.99000000000001,116.97,0.02,0.27,3
1680043296.72000480,90772306,0.03,-0.05,0.08,0.11,116.99000000000001,116.97,0.02,0.27,3
1680043296.82002473,90872326,0.32,-0.02,0.04,0.11,116.99000000000001,117.0,0.03,0.27,3
1680043296.92001891,90972320,1.01,0.61,0.02,0.09,116.99000000000001,116.99000000000001,0.03,0.26,3
1680043297.02013588,91072437,1.61,1.59,0.01,0.13,116.99000000000001,116.99000000000001,0.03,0.25,3
1680043297.12005091,91172352,1.97,2.14,0.0,0.15,116.99000000000001,116.98,0.04,0.25,3
1680043297.22005582,91272357,2.02,2.27,0.0,0.13,116.99000000000001,116.98,0.04,0.23,3
1680043297.32034993,91372651,2.0,2.2,0.0,0.15,116.69,116.97,0.04,0.23,3
1680043297.41987872,91472180,1.85,2.02,0.0,0.14,115.84,116.89,0.04,0.24,3
1680043297.52022672,91572528,1.51,1.73,0.0,0.07,114.97,116.65,0.04,0.24,3
1680043297.62029672,91672598,1.09,1.23,0.0,0.05,114.84,116.29,0.04,0.23,3
1680043297.72029686,91772598,0.86,0.64,0.0,0.04,114.84,115.96000000000001,0.04,0.23,3
1680043297.82030582,91872607,0.76,0.58,0.0,0.05,114.84,115.69,0.04,0.23,3
1680043297.92031479,91972616,0.51,0.49,0.0,0.02,114.84,115.46000000000001,0.03,0.23,3
1680043298.02032089,92072622,0.26,0.19,0.0,0.07,114.84,115.23,0.03,0.23,3
1680043298.12030172,92172603,0.13,-0.03,0.0,0.07,114.84,115.02,0.03,0.22,3
1680043298.22052789,92272829,0.06,0.1,0.0,0.03,114.84,114.85000000000001,0.03,0.22,3
1680043298.32035089,92372652,0.03,0.07,0.0,0.01,114.84,114.68,0.03,0.21,3
1680043298.42023087,92472532,0.01,0.0,0.0,0.01,114.84,114.53,0.03,0.21,3
1680043298.52041483,92572716,0.0,0.25,0.0,0.02,114.84,114.43,0.03,0.2,3
1680043298.62021995,92672521,0.0,0.17,0.0,-0.01,114.84,114.34,0.03,0.19,3
1680043298.72021389,92772515,0.0,0.15,0.0,0.05,114.84,114.26,0.04,0.19,3
1680043298.82025981,92872561,0.0,0.21,0.0,0.02,114.84,114.18,0.04,0.2,3
1680043298.92023873,92972540,0.0,0.17,0.0,0.02,114.84,114.14,0.05,0.19,3
1680043299.02025390,93072555,0.0,0.0,0.0,0.0,114.84,114.09,0.05,0.2,3
1680043299.12042189,93172723,0.0,0.14,0.0,0.01,114.84,114.08,0.04,0.2,3
1680043299.22022486,93272526,0.0,0.08,0.0,0.04,114.84,114.11,0.04,0.2,3
1680043299.31998086,93372282,0.0,-0.08,0.0,-0.01,114.84,114.14,0.04,0.19,3
1680043299.41999888,93472300,0.0,0.07,0.0,0.05,114.84,114.19,0.04,0.19,3
1680043299.52001381,93572315,0.0,0.0,0.0,0.07,114.84,114.23,0.03,0.19,3
1680043299.62003779,93672339,0.49,0.17,0.03,0.04,114.84,114.28,0.03,0.19,3
1680043299.72006392,93772365,1.0,0.78,0.01,0.1,114.84,114.31,0.04,0.18,3
1680043299.82029676,93872598,1.25,1.56,0.0,0.1,114.84,114.35000000000001,0.04,0.18,3
1680043299.92006278,93972364,1.3800000000000001,1.51,0.0,0.05,114.84,114.35000000000001,0.03,0.17,3
1680043300.01997590,94072277,1.3800000000000001,1.58,0.0,0.1,114.84,114.37,0.03,0.17,3
1680043300.11987090,94172172,1.2,1.48,0.0,0.07,114.84,114.39,0.04,0.17,3
1680043300.21995783,94272259,1.1400000000000001,1.01,0.0,0.03,114.84,114.4,0.04,0.17,3
1680043300.32001781,94372319,1.52,1.19,0.0,0.08,114.84,114.39,0.04,0.16,3
1680043300.42003489,94472336,1.8900000000000001,1.82,0.05,0.08,114.82000000000001,114.44,0.04,0.16,3
1680043300.52001786,94572319,2.09,2.23,0.18,0.18,114.41,114.46000000000001,0.04,0.16,3
1680043300.62013483,94672436,2.15,2.25,0.19,0.32,113.98,114.41,0.04,0.16,3
1680043300.72029281,94772594,1.95,2.08,0.13,0.24,113.86,114.26,0.04,0.16,3
1680043300.82030082,94872602,1.71,1.9000000000000001,0.06,0.1,113.86,114.13,0.05,0.16,3
1680043300.92031074,94972612,1.29,1.37,0.03,0.05,113.86,114.02,0.05,0.16,3
1680043301.01987195,95072173,0.6900000000000001,0.86,0.17,0.04,113.86,113.92,0.05,0.16,3
1680043301.12022090,95172522,0.35000000000000003,0.11,0.86,0.34,113.86,113.83,0.04,0.17,3
1680043301.22030473,95272606,0.18,-0.11,0.52,1.19,113.86,113.75,0.04,0.17,3
1680043301.32035685,95372658,0.09,0.01,0.26,0.61,113.86,113.67,0.04,0.15,3
1680043301.42030692,95472608,0.04,-0.16,0.13,-0.21,113.86,113.58,0.04,0.15,3
1680043301.52029586,95572597,0.02,-0.05,0.06,-0.09,113.86,113.51,0.03,0.15,3
1680043301.62029386,95672595,0.01,-0.11,0.03,0.01,113.86,113.46000000000001,0.03,0.14,3
1680043301.72030687,95772608,0.0,-0.19,0.01,-0.09,113.86,113.41,0.03,0.14,3
1680043301.82048678,95872788,0.0,-0.07,0.0,-0.05,113.86,113.38,0.03,0.14,3
1680043301.91987371,95972175,0.0,0.06,0.0,-0.01,113.86,113.34,0.03,0.14,3
1680043302.02016592,96072467,0.0,0.01,0.0,-0.03,113.86,113.36,0.03,0.13,3
1680043302.12024093,96172542,0.0,0.01,0.0,0.0,113.86,113.37,0.03,0.14,3
1680043302.22020984,96272511,0.0,0.07,0.0,0.0,113.86,113.41,0.04,0.13,3
1680043302.32029891,96372600,0.0,-0.01,0.0,0.0,113.86,113.43,0.04,0.13,3
1680043302.42026877,96472570,0.0,-0.03,0.0,0.0,113.86,113.5,0.04,0.13,3
1680043302.52029276,96572594,0.0,0.03,0.0,0.02,113.86,113.53,0.03,0.12,3
1680043302.62005281,96672354,0.0,0.15,0.0,0.0,113.86,113.57000000000001,0.03,0.12,3
1680043302.72009683,96772398,0.0,0.0,0.0,0.0,113.86,113.63,0.02,0.12,3
1680043302.81988072,96872182,0.0,0.09,0.0,0.0,113.86,113.7,0.02,0.12,3
1680043302.92025971,96972561,0.0,-0.01,0.0,0.01,113.86,113.75,0.02,0.11,3
1680043303.02030492,97072606,0.0,0.11,0.0,0.04,113.86,113.83,0.02,0.11,3
1680043303.12000990,97172311,0.0,0.16,0.0,0.04,113.86,113.91,0.02,0.1,3
1680043303.22004080,97272342,0.0,0.1,0.0,0.03,113.86,113.97,0.03,0.1,3
1680043303.32015681,97372458,0.0,0.08,0.0,0.03,113.86,114.02,0.03,0.1,3
1680043303.42006588,97472367,0.0,0.1,0.0,0.06,113.86,114.03,0.03,0.09,3
1680043303.52005672,97572358,0.04,0.09,1.22,0.23,113.86,114.09,0.03,0.09,3
1680043303.61995673,97672258,0.41000000000000003,0.27,2.2800000000000002,2.02,113.86,114.14,0.02,0.09,3
1680043303.71987486,97772176,0.59,0.86,2.4,3.52,113.86,114.22,0.02,0.09,3
1680043303.82023573,97872537,0.49,0.84,2.27,2.7,113.86,114.26,0.03,0.08,3
1680043303.92027879,97972580,0.25,0.45,1.33,1.82,113.86,114.29,0.03,0.09,3
1680043304.02021480,98072516,0.12,0.18,0.68,0.68,113.86,114.31,0.03,0.1,3
1680043304.12020373,98172505,0.06,0.11,0.34,-0.13,113.86,114.35000000000001,0.03,0.09,3
1680043304.22025180,98272553,0.03,0.19,0.17,-0.05,113.86,114.36,0.03,0.09,3
1680043304.32028484,98372586,0.01,0.0,0.09,-0.03,113.86,114.38,0.03,0.09,3
1680043304.42023277,98472534,0.0,0.03,0.04,-0.03,113.86,114.41,0.03,0.09,3
1680043304.52022886,98572530,0.0,0.12,0.02,0.01,113.86,114.43,0.03,0.09,3
1680043304.62009788,98672399,0.0,0.1,0.01,0.0,113.86,114.45,0.02,0.08,3
1680043304.72050476,98772806,0.01,0.15,0.01,-0.01,113.86,114.47,0.02,0.07,3
1680043304.82010889,98872410,0.3,0.21,0.3,0.08,113.86,114.49000000000001,0.02,0.07,3
1680043304.92029786,98972599,0.84,0.61,0.85,0.59,113.86,114.48,0.03,0.06,3
1680043305.02029777,99072599,1.51,1.44,1.51,1.3900000000000001,113.86,114.51,0.02,0.06,3
1680043305.12029576,99172597,2.25,2.25,2.25,2.16,113.86,114.53,0.02,0.05,3
1680043305.22028375,99272585,3.0100000000000002,3.08,3.0100000000000002,2.94,113.86,114.55,0.02,0.04,3
1680043305.32031989,99372621,3.77,3.85,3.67,3.74,113.86,114.57000000000001,0.02,0.04,3
1680043305.42048883,99472790,4.09,4.42,3.79,4.22,113.86,114.56,0.02,0.04,3
1680043305.51987576,99572177,3.98,4.37,3.5300000000000002,3.86,113.86,114.49000000000001,0.02,0.04,3
1680043305.61995673,99672258,3.63,3.9,3.04,3.22,113.86,114.39,0.02,0.05,3
1680043305.72000074,99772302,3.14,3.31,2.45,2.54,113.87,114.29,0.03,0.07,3
1680043305.82003093,99872332,2.59,2.75,1.86,1.78,113.87,114.19,0.03,0.08,3
1680043305.92010880,99972410,2.06,1.98,1.35,1.19,113.87,114.09,0.03,0.09,3
1680043306.02012587,100072427,1.62,1.42,0.98,0.79,113.87,114.03,0.03,0.09,3
1680043306.12004972,100172351,1.3,1.07,0.76,0.51,113.87,114.0,0.03,0.1,3
1680043306.22010875,100272410,1.1,0.8200000000000001,0.66,0.38,113.87,113.94,0.03,0.09,3
1680043306.32036376,100372665,1.05,0.6900000000000001,0.6900000000000001,0.42,113.87,113.91,0.02,0.09,3
1680043306.41989493,100472196,1.07,0.7000000000000001,0.78,0.59,113.87,113.88,0.02,0.08,3
1680043306.51996493,100572266,1.17,0.74,0.9,0.73,113.87,113.86,0.02,0.08,3
1680043306.62006593,100672367,1.3,1.1,1.01,0.93,113.87,113.83,0.02,0.08,3
1680043306.72004580,100772347,1.45,1.34,1.1,1.07,113.87,113.82000000000001,0.01,0.07,3
1680043306.82006288,100872364,1.57,1.34,1.16,1.12,113.86,113.79,0.01,0.06,3
1680043306.92016077,100972462,1.7,1.71,1.2,1.23,113.87,113.76,0.02,0.06,3
1680043307.02006292,101072364,1.79,1.6500000000000001,1.23,1.28,113.87,113.72,0.01,0.06,3
1680043307.12012482,101172426,1.87,1.69,1.25,1.26,113.87,113.69,0.01,0.06,3
1680043307.22030377,101272605,1.8800000000000001,1.94,1.25,1.31,113.87,113.61,0.01,0.05,3
1680043307.32035089,101372652,1.8800000000000001,1.78,1.27,1.28,113.87,113.54,0.01,0.05,3
1680043307.42034388,101472645,1.86,1.72,1.29,1.31,113.87,113.46000000000001,0.01,0.06,3
1680043307.52030373,101572605,1.8900000000000001,1.82,1.33,1.33,113.87,113.37,0.01,0.06,3
1680043307.62025785,101672559,1.87,1.75,1.37,1.3900000000000001,113.87,113.31,0.01,0.06,3
1680043307.72027588,101772577,1.8800000000000001,1.8900000000000001,1.3800000000000001,1.3800000000000001,113.87,113.21000000000001,0.01,0.07,3
1680043307.82027888,101872580,1.77,1.8800000000000001,1.32,1.32,113.87,113.15,0.01,0.06,3
1680043307.92025781,101972559,1.6600000000000001,1.6400000000000001,1.21,1.24,113.87,113.10000000000001,0.01,0.06,3
1680043308.02029276,102072594,1.53,1.6400000000000001,1.09,1.04,113.87,113.06,0.01,0.06,3
1680043308.12043786,102172739,1.3900000000000001,1.48,0.99,0.9400000000000001,113.87,113.06,0.01,0.06,3
1680043308.22023273,102272534,1.36,1.32,0.91,0.8,113.87,113.07000000000001,0.01,0.06,3
1680043308.32035685,102372658,1.35,1.27,0.85,0.77,113.87,113.10000000000001,0.01,0.06,3
1680043308.42028880,102472590,1.36,1.2,0.76,0.7000000000000001,113.87,113.14,0.01,0.05,3
1680043308.52029490,102572596,1.35,1.31,0.68,0.66,113.87,113.17,0.01,0.05,3
1680043308.62032890,102672630,1.26,1.16,0.6,0.58,113.87,113.23,0.01,0.05,3
1680043308.72031188,102772613,1.21,1.02,0.58,0.51,113.87,113.26,0.01,0.05,3
1680043308.82030582,102872607,1.19,1.08,0.56,0.53,113.87,113.35000000000001,0.01,0.05,3
1680043308.92029476,102972596,1.16,1.11,0.56,0.5700000000000001,113.87,113.39,0.01,0.05,3
1680043309.02039886,103072700,1.1300000000000001,1.08,0.58,0.56,113.87,113.48,0.01,0.04,3
1680043309.12023282,103172534,1.16,0.99,0.5700000000000001,0.56,113.87,113.57000000000001,0.01,0.04,3
1680043309.22025776,103272559,1.1500000000000001,1.11,0.58,0.45,113.87,113.64,0.01,0.03,3
1680043309.32039475,103372696,1.2,1.03,0.55,0.44,113.87,113.73,0.01,0.03,3
1680043309.42004776,103472349,1.24,1.22,0.53,0.43,113.87,113.8,0.01,0.04,3
1680043309.52003193,103572333,1.23,1.16,0.55,0.41000000000000003,113.87,113.85000000000001,0.01,0.04,3
1680043309.62016177,103672463,1.23,0.9500000000000001,0.5700000000000001,0.41000000000000003,113.87,113.92,0.01,0.04,3
1680043309.72006488,103772366,1.23,1.25,0.59,0.49,113.87,113.93,0.01,0.03,3
1680043309.82012892,103872430,1.34,1.1300000000000001,0.6,0.54,113.87,113.98,0.01,0.03,3
1680043309.91997385,103972275,1.34,1.18,0.6,0.58,113.87,113.99000000000001,0.01,0.03,3
1680043310.01989388,104072195,1.36,1.33,0.62,0.56,113.87,113.97,0.01,0.03,3
1680043310.12022471,104172526,1.37,1.2,0.62,0.61,113.87,113.95,0.01,0.02,3
1680043310.22030473,104272606,1.35,1.28,0.59,0.5700000000000001,113.87,113.93,0.01,0.03,3
1680043310.32011175,104372413,1.3900000000000001,1.18,0.56,0.55,113.87,113.87,0.01,0.02,3
1680043310.42003179,104472333,1.34,1.34,0.53,0.51,113.87,113.83,0.01,0.02,3
1680043310.52012086,104572422,1.37,1.21,0.52,0.53,113.87,113.79,0.01,0.02,3
1680043310.62010694,104672408,1.36,1.17,0.49,0.5700000000000001,113.87,113.74000000000001,0.01,0.02,3
1680043310.72006488,104772366,1.3900000000000001,1.28,0.49,0.53,113.87,113.72,0.01,0.02,3
1680043310.81997776,104872279,1.43,1.51,0.47000000000000003,0.49,113.87,113.67,0.01,0.02,3
1680043310.91988683,104972188,1.3800000000000001,1.58,0.49,0.53,113.87,113.60000000000001,0.01,0.02,3
1680043311.01996684,105072268,1.3800000000000001,1.27,0.5,0.46,113.87,113.54,0.01,0.02,3
1680043311.12010479,105172406,1.36,1.19,0.5,0.52,113.87,113.46000000000001,0.01,0.03,3
1680043311.22032475,105272626,1.37,1.25,0.48,0.48,113.87,113.47,0.01,0.02,3
1680043311.32033682,105372638,1.3800000000000001,1.42,0.42,0.5,113.87,113.42,0.01,0.02,3
1680043311.42027688,105472578,1.52,1.4000000000000001,0.47000000000000003,0.55,113.87,113.44,0.01,0.02,3
1680043311.52024174,105572543,1.86,1.75,0.52,0.5700000000000001,113.87,113.43,0.01,0.02,3
1680043311.62023687,105672538,2.2800000000000002,2.27,0.55,0.65,113.87,113.49000000000001,0.01,0.02,3
1680043311.72024393,105772545,2.89,2.59,0.56,0.6900000000000001,113.87,113.52,0.01,0.02,3
1680043311.82010674,105872408,3.7800000000000002,3.42,0.55,0.71,113.87,113.58,0.01,0.02,3
1680043311.92018580,105972487,4.47,4.54,0.55,0.72,113.87,113.67,0.01,0.02,3
1680043312.02025390,106072555,5.41,5.19,0.55,0.65,113.87,113.76,0.01,0.02,3
1680043312.12052393,106172825,6.15,6.11,0.52,0.6,113.87,113.85000000000001,0.01,0.01,3
1680043312.22003984,106272341,6.53,6.69,0.52,0.47000000000000003,113.86,113.98,0.01,0.02,3
1680043312.32038379,106372685,6.73,6.78,0.52,0.47000000000000003,113.86,114.08,0.01,0.03,3
1680043312.42029572,106472597,6.640000000000001,6.67,0.54,0.58,113.86,114.2,0.01,0.03,3
1680043312.52029276,106572594,6.11,6.43,0.55,0.5700000000000001,113.86,114.32000000000001,0.01,0.03,3
1680043312.62030888,106672610,5.04,5.28,0.61,0.53,113.86,114.42,0.01,0.03,3
1680043312.72023273,106772534,3.99,3.79,0.67,0.63,113.86,114.47,0.01,0.04,3
1680043312.82020783,106872509,3.06,2.71,0.71,0.78,113.86,114.5,0.01,0.05,3
1680043312.92028689,106972588,2.13,1.74,0.75,0.79,113.86,114.53,0.02,0.06,3
1680043313.02060580,107072907,1.25,1.04,0.79,0.8200000000000001,113.86,114.51,0.02,0.05,3
1680043313.12028289,107172584,0.41000000000000003,0.31,0.8300000000000001,0.8300000000000001,113.86,114.48,0.02,0.05,3
1680043313.22030878,107272610,-0.4,-0.74,0.85,0.8200000000000001,113.86,114.45,0.03,0.04,3
1680043313.32032275,107372624,-1.21,-1.69,0.88,0.87,113.86,114.43,0.03,0.05,3
1680043313.42006183,107472363,-2.02,-2.6,0.89,0.8300000000000001,113.86,114.45,0.03,0.05,3
1680043313.51995373,107572255,-2.82,-3.21,0.88,0.85,113.86,114.43,0.04,0.05,3
1680043313.61988091,107672182,-3.54,-3.86,0.85,0.8200000000000001,113.86,114.43,0.04,0.05,3
1680043313.71994376,107772245,-3.65,-4.28,0.81,0.6900000000000001,113.86,114.45,0.04,0.05,3
1680043313.81997085,107872272,-3.3200000000000003,-4.0600000000000005,0.75,0.68,113.86,114.41,0.04,0.04,3
1680043313.92001081,107972312,-2.7600000000000002,-3.16,0.6900000000000001,0.68,113.86,114.33,0.04,0.04,3
1680043314.02003288,108072334,-2.08,-1.99,0.61,0.7000000000000001,113.86,114.28,0.04,0.04,3
1680043314.12006688,108172368,-1.34,-1.37,0.54,0.64,113.86,114.16,0.04,0.03,3
1680043314.22029877,108272600,-0.5700000000000001,-0.74,0.49,0.65,113.86,113.99000000000001,0.04,0.03,3
1680043314.32013679,108372438,0.2,0.27,0.41000000000000003,0.59,113.86,113.87,0.04,0.03,3
1680043314.41997480,108472276,0.98,1.27,0.36,0.53,113.86,113.68,0.04,0.04,3
1680043314.51989388,108572195,1.62,1.97,0.31,0.47000000000000003,113.86,113.5,0.04,0.04,3
1680043314.61996579,108672267,1.9100000000000001,2.44,0.28,0.39,113.86,113.33,0.04,0.04,3
1680043314.72002578,108772327,1.97,2.35,0.25,0.38,113.86,113.13,0.03,0.03,3
1680043314.82002473,108872326,1.8800000000000001,2.15,0.22,0.35000000000000003,113.86,112.99000000000001,0.03,0.03,3
1680043314.92003179,108972333,1.7,1.97,0.18,0.26,113.86,112.84,0.03,0.03,3
1680043315.02032971,109072631,1.54,1.6600000000000001,0.15,0.23,113.86,112.75,0.03,0.02,3
1680043315.12029076,109172592,1.4000000000000001,1.46,0.13,0.25,113.86,112.67,0.02,0.02,3
1680043315.22012377,109272425,1.23,1.29,0.46,0.28,113.86,112.63,0.02,0.02,3
1680043315.32037878,109372680,1.16,1.07,1.3,0.86,113.86,112.60000000000001,0.02,0.02,3
1680043315.42009878,109472400,1.1400000000000001,1.05,2.42,2.2,113.86,112.59,0.02,0.02,3
1680043315.52019691,109572498,1.1500000000000001,1.25,3.95,3.65,113.86,112.58,0.02,0.02,3
1680043315.62024474,109672546,1.22,1.21,5.91,5.63,113.86,112.58,0.02,0.03,3
1680043315.72021389,109772515,1.29,1.18,6.53,7.75,113.86,112.58,0.02,0.04,3
1680043315.82020092,109872502,1.33,1.17,6.47,7.6000000000000005,113.86,112.52,0.02,0.05,3
1680043315.92025185,109972553,1.33,1.45,5.92,6.33,113.86,112.48,0.02,0.05,3
1680043316.02024484,110072546,1.29,1.51,5.37,5.4,113.86,112.42,0.02,0.04,3
1680043316.12023687,110172538,1.24,1.34,5.08,4.7,113.86,112.41,0.02,0.05,3
1680043316.22044992,110272751,1.18,1.3800000000000001,4.99,4.5,113.86,112.4,0.02,0.04,3
1680043316.32001185,110372313,1.12,1.32,4.7700000000000005,4.53,113.86,112.49000000000001,0.03,0.03,3
1680043316.42022777,110472529,1.06,1.24,4.42,4.2700000000000005,113.86,112.56,0.04,0.03,3
1680043316.52025986,110572561,0.96,1.18,4.03,3.84,113.86,112.65,0.04,0.02,3
1680043316.62027192,110672573,0.89,0.9400000000000001,3.27,3.38,113.86,112.71000000000001,0.03,0.02,3
1680043316.72029376,110772595,0.8200000000000001,0.97,2.47,2.43,113.86,112.78,0.03,0.02,3
1680043316.82030392,110872605,0.77,1.01,1.6400000000000001,1.51,113.86,112.83,0.03,0.02,3
1680043316.92029977,110972601,0.77,1.05,0.78,0.64,113.86,112.92,0.03,0.02,3
1680043317.02028275,111072584,0.78,0.87,-0.04,-0.32,113.86,113.04,0.02,0.02,3
1680043317.12049985,111172801,0.81,0.84,-0.86,-1.1,113.86,113.13,0.02,0.02,3
1680043317.22024393,111272545,0.84,0.96,-1.67,-1.9100000000000001,113.86,113.24000000000001,0.02,0.01,3
1680043317.32033181,111372633,0.9,1.02,-2.47,-2.67,113.86,113.33,0.02,0.01,3
1680043317.42041779,111472719,0.9500000000000001,1.19,-3.2800000000000002,-3.42,113.86,113.47,0.02,0.01,3
1680043317.52027392,111572575,0.98,1.23,-4.08,-4.15,113.86,113.55,0.02,0.01,3
1680043317.62028885,111672590,1.01,1.1500000000000001,-4.89,-4.91,113.86,113.64,0.02,0.01,3
1680043317.72029877,111772600,1.02,1.16,-5.5,-5.63,113.86,113.71000000000001,0.02,0.01,3
1680043317.82029676,111872598,1.01,1.23,-5.49,-6.0200000000000005,113.86,113.77,0.02,0.01,3
1680043317.92028975,111972591,0.98,1.01,-5.09,-5.49,113.86,113.84,0.02,0.01,3
1680043318.02032280,112072624,0.9500000000000001,1.05,-4.5,-4.64,113.86,113.92,0.02,0.02,3
1680043318.11987185,112172173,0.89,0.96,-3.8000000000000003,-3.7600000000000002,113.86,113.98,0.02,0.02,3
1680043318.21992779,112272229,0.86,0.84,-3.06,-2.87,113.86,114.04,0.03,0.02,3
1680043318.32006478,112372366,0.85,0.96,-2.29,-2.0300000000000002,113.86,114.09,0.03,0.03,3
1680043318.42001271,112472314,0.85,0.88,-1.5,-1.25,113.86,114.12,0.03,0.03,3
1680043318.52001786,112572319,0.89,0.9500000000000001,-0.71,-0.42,113.86,114.14,0.03,0.03,3
1680043318.62006378,112672365,0.91,0.98,0.07,0.36,113.86,114.16,0.04,0.03,3
1680043318.72029877,112772600,0.96,1.01,0.58,1.1300000000000001,113.86,114.16,0.04,0.03,3
1680043318.82025194,112872553,1.01,1.06,0.76,1.36,113.86,114.16,0.03,0.03,3
1680043318.92027473,112972576,1.07,1.18,0.7000000000000001,1.22,113.86,114.14,0.03,0.02,3
1680043319.02016377,113072465,1.11,1.32,0.5,0.9400000000000001,113.86,114.15,0.02,0.02,3
1680043319.12019277,113172494,1.1400000000000001,1.36,0.28,0.55,113.86,114.16,0.02,0.02,3
1680043319.22024488,113272546,1.1300000000000001,1.28,0.09,0.27,113.86,114.19,0.02,0.01,3
1680043319.32029486,113372596,1.1400000000000001,1.32,-0.03,0.12,113.99000000000001,114.22,0.02,0.01,3
1680043319.42024779,113472549,1.16,1.22,-0.09,0.0,114.0,114.3,0.02,0.01,3
1680043319.52027488,113572576,1.2,1.32,-0.08,0.0,114.0,114.4,0.02,0.01,3
1680043319.62027383,113672575,1.51,1.32,0.06,0.08,114.0,114.49000000000001,0.01,0.02,3
1680043319.72005892,113772360,2.07,1.78,0.33,0.39,114.0,114.60000000000001,0.01,0.02,3
1680043319.81997871,113872280,2.68,2.57,0.58,0.75,114.0,114.71000000000001,0.01,0.03,3
1680043319.91988182,113972183,3.3200000000000003,3.22,0.8200000000000001,0.99,114.0,114.8,0.01,0.02,3
1680043320.01992273,114072224,3.91,3.95,0.88,1.21,114.0,114.9,0.01,0.02,3
1680043320.12000895,114172310,4.72,4.66,0.54,1.1300000000000001,114.0,114.96000000000001,0.01,0.03,3
1680043320.22001672,114272318,5.26,5.42,-0.01,0.4,114.0,114.95,0.01,0.03,3
1680043320.32006288,114372364,5.63,5.84,-0.44,-0.38,114.0,114.93,0.01,0.02,3
1680043320.42007375,114472375,5.82,5.91,-0.62,-0.75,114.0,114.92,0.02,0.02,3
1680043320.52028894,114572590,5.92,5.96,-0.59,-0.73,114.0,114.91,0.02,0.02,3
1680043320.62031388,114672615,5.97,6.01,-0.41000000000000003,-0.5,114.0,114.89,0.02,0.02,3
1680043320.72033286,114772634,5.99,5.88,-0.2,-0.19,114.0,114.84,0.02,0.01,3
1680043320.82024479,114872546,6.0,5.97,0.0,0.03,114.0,114.8,0.02,0.01,3
1680043320.92021585,114972517,5.94,5.72,0.19,0.21,114.0,114.7,0.02,0.01,3
1680043321.02028894,115072590,5.86,5.78,0.32,0.39,114.0,114.59,0.02,0.01,3
1680043321.12026978,115172571,5.78,5.55,0.37,0.54,114.0,114.48,0.02,0.02,3
1680043321.22028685,115272588,5.68,5.42,0.4,0.55,114.0,114.38,0.03,0.01,3
1680043321.32033777,115372639,5.44,5.4,0.4,0.54,114.0,114.22,0.03,0.01,3
1680043321.42029190,115472593,5.12,5.01,0.36,0.51,114.0,114.08,0.04,0.01,3
1680043321.52028179,115572583,4.33,4.29,0.34,0.37,114.0,113.9,0.04,0.01,3
1680043321.62040973,115672711,3.49,3.2800000000000002,0.35000000000000003,0.33,114.0,113.72,0.04,0.02,3
1680043321.71987176,115772173,2.66,2.08,0.37,0.37,114.0,113.60000000000001,0.04,0.03,3
1680043321.81993389,115872235,1.78,1.27,0.4,0.44,114.0,113.47,0.03,0.03,3
1680043321.91998887,115972290,0.9400000000000001,0.48,0.45,0.42,114.0,113.44,0.03,0.03,3
1680043322.02001572,116072317,0.12,-0.29,0.49,0.45,114.0,113.37,0.03,0.03,3
1680043322.12001681,116172318,-0.68,-1.1300000000000001,0.5700000000000001,0.42,114.0,113.32000000000001,0.03,0.04,3
1680043322.22005582,116272357,-1.49,-2.1,0.63,0.44,114.0,113.31,0.04,0.03,3
1680043322.32014894,116372450,-2.29,-2.85,0.7000000000000001,0.47000000000000003,114.0,113.31,0.04,0.03,3
1680043322.42006993,116472371,-3.09,-3.37,0.77,0.49,114.0,113.35000000000001,0.04,0.03,3
1680043322.52032590,116572627,-3.89,-4.2700000000000005,0.8300000000000001,0.54,114.0,113.43,0.04,0.03,3
1680043322.62014794,116672449,-4.69,-5.03,0.87,0.59,114.0,113.45,0.04,0.03,3
1680043322.72016478,116772466,-5.26,-5.59,0.87,0.6,114.0,113.53,0.04,0.03,3
1680043322.82026076,116872562,-5.2,-5.88,0.87,0.6,114.0,113.60000000000001,0.04,0.03,3
1680043322.92018986,116972491,-4.78,-5.3,0.84,0.64,114.0,113.66,0.04,0.03,3
1680043323.02020574,117072507,-4.17,-4.33,0.79,0.5700000000000001,114.0,113.74000000000001,0.04,0.04,3
1680043323.12026286,117172564,-3.46,-3.5100000000000002,0.72,0.5700000000000001,114.0,113.78,0.04,0.05,3
1680043323.22024393,117272545,-2.71,-2.48,0.64,0.56,114.0,113.8,0.05,0.06,3
1680043323.32029581,117372597,-1.94,-1.6,0.53,0.55,114.0,113.79,0.05,0.06,3
1680043323.42031384,117472615,-1.1500000000000001,-0.89,0.4,0.43,114.0,113.8,0.05,0.06,3
1680043323.51987076,117572172,-0.36,-0.13,0.27,0.35000000000000003,114.0,113.76,0.05,0.06,3
1680043323.61995578,117672257,0.43,0.8200000000000001,0.16,0.21,114.0,113.76,0.04,0.05,3
1680043323.72010994,117772411,1.22,1.6400000000000001,0.08,0.16,114.0,113.74000000000001,0.04,0.05,3
1680043323.82004595,117872347,1.75,2.34,0.03,0.14,114.0,113.74000000000001,0.03,0.05,3
1680043323.92004776,117972349,1.8800000000000001,2.5300000000000002,-0.02,0.12,114.0,113.75,0.03,0.05,3
1680043324.02013779,118072439,1.8,2.32,-0.08,0.08,114.0,113.78,0.03,0.05,3
1680043324.12012672,118172428,1.6,2.05,-0.16,0.04,114.0,113.82000000000001,0.03,0.04,3
1680043324.22013474,118272436,1.37,1.71,-0.21,-0.03,114.0,113.84,0.03,0.04,3
1680043324.32038784,118372689,1.21,1.42,-0.03,-0.12,114.0,113.88,0.02,0.04,3
1680043324.42023087,118472532,0.68,1.18,0.1,0.08,114.0,113.91,0.02,0.03,3
1680043324.52024889,118572550,-0.31,0.26,0.19,0.32,114.0,113.89,0.02,0.03,3
1680043324.62029982,118672601,-1.5,-1.01,0.27,0.25,114.0,113.88,0.02,0.03,3
1680043324.72027779,118772579,-2.75,-2.43,0.31,0.23,114.0,113.84,0.02,0.03,3
1680043324.82028389,118872585,-3.66,-3.93,0.34,0.28,114.0,113.8,0.02,0.03,3
1680043324.92029881,118972600,-4.15,-4.6000000000000005,0.35000000000000003,0.26,114.0,113.77,0.02,0.02,3
1680043325.02028990,119072591,-4.3500000000000005,-4.5600000000000005,0.37,0.29,114.0,113.78,0.02,0.02,3
1680043325.12030387,119172605,-4.38,-4.37,0.37,0.29,114.0,113.81,0.02,0.03,3
1680043325.22029471,119272596,-4.3500000000000005,-4.32,0.39,0.22,114.0,113.83,0.02,0.03,3
1680043325.32032585,119372627,-4.39,-4.22,0.39,0.16,114.0,113.87,0.02,0.04,3
1680043325.42021585,119472517,-4.45,-4.0600000000000005,0.39,0.25,114.0,113.88,0.03,0.04,3
1680043325.52028584,119572587,-4.54,-4.26,0.4,0.25,114.0,113.87,0.03,0.04,3
1680043325.62000775,119672309,-4.5600000000000005,-4.25,0.39,0.24,114.0,113.87,0.03,0.05,3
1680043325.72001672,119772318,-4.54,-4.16,0.39,0.33,114.0,113.8,0.03,0.06,3
1680043325.82013083,119872432,-4.53,-3.99,0.38,0.29,114.0,113.76,0.03,0.06,3
1680043325.92005181,119972353,-4.5200000000000005,-3.88,0.37,0.31,114.0,113.67,0.03,0.06,3
1680043326.02010989,120072411,-4.33,-3.96,0.38,0.37,114.0,113.60000000000001,0.03,0.05,3
1680043326.11996984,120172271,-3.83,-3.71,0.39,0.41000000000000003,114.0,113.53,0.03,0.05,3
1680043326.21987677,120272178,-2.74,-2.79,0.39,0.37,114.0,113.51,0.03,0.05,3
1680043326.32029080,120372592,-1.62,-1.41,0.39,0.3,114.0,113.5,0.03,0.06,3
1680043326.42014074,120472442,-0.64,-0.05,0.37,0.28,114.0,113.54,0.02,0.07,3
1680043326.52019191,120572493,0.28,0.9400000000000001,0.37,0.21,114.0,113.58,0.02,0.07,3
1680043326.62020779,120672509,1.19,1.84,0.36,0.21,114.0,113.64,0.02,0.07,3
1680043326.72024488,120772546,2.04,2.69,0.34,0.27,114.0,113.68,0.02,0.07,3
1680043326.82024693,120872548,2.87,3.43,0.33,0.28,114.0,113.72,0.02,0.06,3
1680043326.92024779,120972549,3.69,4.3100000000000005,0.33,0.35000000000000003,114.0,113.75,0.02,0.07,3
1680043327.02022886,121072530,4.49,5.0,0.34,0.34,114.0,113.81,0.03,0.08,3
1680043327.12009478,121172396,5.3,5.65,0.34,0.31,114.0,113.85000000000001,0.03,0.08,3
1680043327.22022080,121272522,6.1000000000000005,6.41,0.39,0.3,114.0,113.9,0.02,0.07,3
1680043327.32038379,121372685,6.9,7.3100000000000005,0.43,0.41000000000000003,114.0,113.96000000000001,0.02,0.07,3
1680043327.42029285,121472594,7.68,8.02,0.47000000000000003,0.46,114.0,113.99000000000001,0.03,0.06,3
1680043327.52029872,121572600,7.94,8.57,0.49,0.41000000000000003,114.0,114.05,0.03,0.06,3
1680043327.62013888,121672440,7.68,8.38,0.51,0.53,114.0,114.09,0.03,0.05,3
1680043327.72012281,121772424,7.16,7.49,0.53,0.5700000000000001,114.0,114.13,0.03,0.04,3
1680043327.82012272,121872424,6.51,6.74,0.55,0.56,114.0,114.16,0.03,0.03,3
1680043327.92002273,121972324,5.78,5.65,0.58,0.47000000000000003,114.0,114.19,0.04,0.04,3
1680043328.01987886,122072180,5.0200000000000005,4.58,0.65,0.48,114.0,114.23,0.04,0.03,3
1680043328.12019682,122172498,4.24,3.7,0.72,0.59,114.0,114.28,0.04,0.03,3
1680043328.22026873,122272570,3.45,2.75,0.79,0.72,114.0,114.33,0.04,0.03,3
1680043328.32031488,122372616,2.65,1.76,0.8200000000000001,0.75,114.0,114.37,0.04,0.03,3
1680043328.42031574,122472617,1.84,1.03,0.8300000000000001,0.71,114.0,114.45,0.04,0.02,3
1680043328.52032781,122572629,1.03,0.32,0.84,0.76,114.0,114.48,0.04,0.02,3
1680043328.62031889,122672620,0.32,-0.33,0.89,0.8300000000000001,114.0,114.55,0.04,0.02,3
1680043328.72031784,122772619,0.03,-0.9500000000000001,0.92,0.8300000000000001,114.0,114.62,0.03,0.02,3
1680043328.82034874,122872650,0.11,-0.77,0.97,0.92,114.0,114.63,0.03,0.02,3
1680043328.92024374,122972545,0.39,-0.16,1.01,0.92,114.0,114.66,0.02,0.02,3
1680043329.02026081,123072562,0.76,0.15,1.06,1.03,114.0,114.7,0.02,0.02,3
1680043329.12028575,123172587,1.02,0.91,1.11,1.1500000000000001,114.0,114.69,0.03,0.01,3
1680043329.22062087,123272922,1.22,0.89,1.1300000000000001,1.1,114.0,114.68,0.03,0.01,3
1680043329.32034087,123372642,1.3,1.19,1.12,1.17,114.0,114.7,0.02,0.01,3
1680043329.42013574,123472437,1.33,1.22,1.1300000000000001,1.1400000000000001,114.0,114.71000000000001,0.02,0.01,3
1680043329.52012372,123572425,1.37,1.33,1.1500000000000001,1.1,114.0,114.69,0.02,0.01,3
1680043329.62006688,123672368,1.35,1.34,1.17,1.1,114.0,114.65,0.02,0.01,3
1680043329.71997976,123772281,1.35,1.45,1.22,1.1500000000000001,114.0,114.62,0.02,0.01,3
1680043329.81989694,123872198,1.3,1.28,1.25,1.25,114.0,114.53,0.02,0.01,3
1680043329.91993380,123972235,1.28,1.16,1.26,1.34,114.0,114.45,0.01,0.01,3
1680043330.02008986,124072391,1.25,1.36,1.24,1.4000000000000001,114.0,114.38,0.01,0.01,3
1680043330.12028885,124172590,1.17,1.21,1.1500000000000001,1.32,114.0,114.27,0.01,0.01,3
1680043330.22029972,124272601,1.09,1.25,1.07,1.1,114.0,114.16,0.01,0.01,3
1680043330.32030773,124372609,0.98,1.1,1.01,0.9,114.0,114.05,0.01,0.0,3
1680043330.42026377,124472565,0.89,0.89,0.97,0.84,114.0,113.93,0.01,0.01,3
1680043330.52025580,124572557,0.85,0.77,0.97,0.8,114.0,113.81,0.01,0.01,3
1680043330.62026691,124672568,0.78,0.79,0.96,0.81,114.0,113.72,0.01,0.01,3
1680043330.72015882,124772460,0.7000000000000001,0.93,0.97,0.8300000000000001,114.0,113.62,0.01,0.01,3
1680043330.82016873,124872470,0.59,0.71,0.98,0.84,114.0,113.51,0.01,0.01,3
1680043330.92026377,124972565,0.52,0.53,0.96,0.79,114.0,113.43,0.01,0.01,3
1680043331.02026486,125072566,0.41000000000000003,0.55,0.96,0.66,114.0,113.38,0.01,0.01,3
1680043331.12022185,125172523,0.38,0.58,0.9400000000000001,0.72,114.0,113.35000000000001,0.01,0.01,3
1680043331.22028494,125272586,0.33,0.47000000000000003,0.9400000000000001,0.77,114.0,113.3,0.01,0.02,3
1680043331.32035494,125372656,0.36,0.35000000000000003,0.9500000000000001,0.77,114.0,113.31,0.01,0.01,3
1680043331.42004991,125472351,0.38,0.49,0.9500000000000001,0.77,114.0,113.34,0.01,0.02,3
1680043331.51997972,125572281,0.43,0.63,0.96,0.76,114.0,113.31,0.01,0.02,3
1680043331.61989093,125672192,0.44,0.58,0.9400000000000001,0.84,114.0,113.33,0.01,0.02,3
1680043331.71993995,125772241,0.43,0.62,0.96,0.77,114.0,113.4,0.01,0.02,3
1680043331.82000875,125872310,0.4,0.63,0.96,0.76,114.0,113.41,0.01,0.03,3
1680043331.92002392,125972325,0.34,0.52,0.96,0.78,114.0,113.44,0.01,0.03,3
1680043332.02031183,126072613,0.33,0.52,0.97,0.78,114.0,113.52,0.01,0.03,3
1680043332.12042475,126172726,0.32,0.54,0.9500000000000001,0.8300000000000001,114.0,113.57000000000001,0.0,0.02,3
1680043332.22030878,126272610,0.38,0.55,0.96,0.85,114.0,113.62,0.0,0.02,3
1680043332.32034373,126372645,0.41000000000000003,0.73,0.97,0.89,114.0,113.66,0.0,0.01,3
1680043332.42032290,126472624,0.42,0.63,0.96,0.92,114.0,113.74000000000001,0.0,0.01,3
1680043332.52024174,126572543,0.42,0.72,0.99,0.85,114.0,113.8,0.0,0.01,3
1680043332.62021685,126672518,0.39,0.8300000000000001,1.0,0.87,114.0,113.84,0.0,0.01,3
1680043332.72030878,126772610,0.32,0.6,1.01,0.8200000000000001,114.0,113.87,0.0,0.02,3
1680043332.82030892,126872610,0.26,0.5,1.0,0.81,114.0,113.89,0.0,0.02,3
1680043332.92030191,126972603,0.19,0.39,1.0,0.85,114.0,113.87,0.0,0.02,3
1680043333.02032685,127072628,0.15,0.33,1.02,0.9,114.0,113.86,0.0,0.02,3
1680043333.12031293,127172614,0.08,0.3,1.01,1.0,114.0,113.81,0.0,0.01,3
1680043333.22011089,127272412,0.07,0.25,1.01,0.99,114.0,113.74000000000001,0.0,0.01,3
1680043333.32008672,127372388,0.05,0.33,0.97,1.07,114.0,113.67,0.0,0.01,3
1680043333.41988182,127472183,0.05,0.36,0.93,1.01,114.0,113.61,0.0,0.02,3
1680043333.51995873,127572260,0.06,0.34,0.9,0.9500000000000001,114.0,113.61,0.0,0.02,3
1680043333.62004972,127672351,0.02,0.33,0.89,0.87,114.0,113.60000000000001,0.0,0.01,3
1680043333.72030282,127772604,0.04,0.22,0.91,0.81,114.0,113.61,0.0,0.01,3
1680043333.82023573,127872537,0.01,0.36,0.91,0.79,114.0,113.63,0.0,0.01,3
1680043333.92026186,127972563,0.0,0.39,0.9500000000000001,0.77,114.0,113.66,0.0,0.01,3
1680043334.02025580,128072557,0.02,0.22,1.0,0.86,114.0,113.69,0.0,0.01,3
1680043334.12024689,128172548,-0.08,0.28,1.03,0.89,114.0,113.74000000000001,0.0,0.02,3
1680043334.22033691,128272638,-0.1,0.09,1.06,0.89,114.0,113.75,0.0,0.01,3
1680043334.32023787,128372539,-0.14,0.06,1.06,1.02,114.0,113.79,0.0,0.02,3
1680043334.42018795,128472489,-0.12,0.1,1.07,1.12,114.0,113.85000000000001,0.0,0.02,3
1680043334.52027082,128572572,-0.12,0.06,1.04,1.1400000000000001,114.0,113.94,0.0,0.02,3
1680043334.62053490,128672836,-0.07,0.11,1.01,1.11,114.0,113.99000000000001,0.0,0.02,3
1680043334.72031593,128772617,-0.04,0.03,0.98,1.04,114.0,114.04,0.0,0.02,3
1680043334.82015586,128872457,-0.05,0.16,0.9500000000000001,0.96,114.0,114.09,0.0,0.03,3
1680043334.92012978,128972431,0.0,-0.1,0.9500000000000001,0.86,114.0,114.12,0.0,0.03,3
1680043335.02012086,129072422,0.02,0.13,0.97,0.78,114.0,114.18,0.01,0.02,3
1680043335.11998391,129172285,0.02,0.23,0.96,0.93,114.0,114.18,0.01,0.02,3
1680043335.21988273,129272184,-0.01,0.36,0.96,0.9500000000000001,114.0,114.19,0.01,0.02,3
1680043335.32002187,129372323,-0.13,0.39,0.96,0.9500000000000001,114.0,114.19,0.01,0.03,3
1680043335.42031074,129472612,-0.25,0.03,0.9500000000000001,0.9400000000000001,114.0,114.21000000000001,0.01,0.03,3
1680043335.52031183,129572613,-0.38,-0.03,0.98,0.9400000000000001,114.0,114.23,0.01,0.03,3
1680043335.62031388,129672615,-0.43,-0.26,1.0,0.9500000000000001,114.0,114.25,0.0,0.03,3
1680043335.72031879,129772620,-0.39,-0.23,1.01,0.99,114.0,114.29,0.0,0.03,3
1680043335.82029772,129872599,-0.33,-0.06,1.05,1.1300000000000001,114.0,114.3,0.0,0.03,3
1680043335.92029691,129972598,-0.27,0.1,1.07,1.11,114.0,114.32000000000001,0.0,0.03,3
1680043336.02031589,130072617,-0.21,0.19,1.08,1.18,114.0,114.35000000000001,0.0,0.02,3
1680043336.11989784,130172199,-0.19,0.11,1.07,1.16,114.0,114.37,0.0,0.02,3
1680043336.21998191,130272283,-0.23,0.07,1.06,1.03,114.0,114.4,0.0,0.02,3
1680043336.32015085,130372452,-0.24,-0.02,1.06,0.89,114.0,114.48,0.0,0.02,3
1680043336.42004085,130472342,-0.24,-0.12,1.1,0.9,114.0,114.51,0.01,0.02,3
1680043336.52002382,130572325,0.01,0.09,1.1500000000000001,0.93,114.0,114.55,0.01,0.02,3
1680043336.62006688,130672368,-0.27,0.4,1.43,1.07,114.0,114.60000000000001,0.01,0.02,3
1680043336.72005677,130772358,-0.43,-0.01,1.81,1.53,114.0,114.64,0.01,0.02,3
1680043336.82006383,130872365,-0.52,-0.43,2.25,2.08,114.0,114.66,0.01,0.02,3
1680043336.91995692,130972258,-0.58,-0.51,2.79,2.61,113.9,114.63,0.01,0.01,3
1680043337.01987076,131072172,-0.55,-0.47000000000000003,3.29,3.27,113.05,114.56,0.01,0.03,3
1680043337.12022781,131172529,-0.54,-0.29,3.62,3.89,111.69,114.33,0.01,0.02,3
1680043337.22028875,131272590,-0.53,-0.1,3.5500000000000003,3.95,109.74000000000001,113.83,0.01,0.03,3
1680043337.32026792,131372569,-0.52,0.05,3.15,3.52,107.38,113.06,0.01,0.03,3
1680043337.42021489,131472516,-0.53,0.06,2.68,2.82,104.49000000000001,111.97,0.01,0.02,3
1680043337.52024889,131572550,-0.56,0.18,2.3000000000000003,2.18,101.87,110.54,0.01,0.03,3
