timestamp,TimeUS,I,Status,GMS,GWk,NSats,HDop,Lat,Lng,Alt,Spd,GCrs,VZ,Yaw,U
1680043265.59999990,59652301,0,3,254483600,2255,18,0.6,42.6900088,-84.488931,272.23,0.0022360680159181356,63.4349479675293,0.08500000089406967,0.0,1
1680043265.81995487,59872256,0,3,254483800,2255,18,0.6,42.6900088,-84.488931,272.23,0.019723083823919296,59.534454345703125,0.02800000086426735,0.0,1
1680043266.03978276,60092084,0,3,254484000,2255,18,0.6,42.6900087,-84.4889309,272.23,0.015620499849319458,39.805572509765625,0.03100000135600567,0.0,1
1680043266.21978188,60272083,0,3,254484200,2255,18,0.6,42.6900087,-84.48893079999999,272.24,0.02640075795352459,24.623565673828125,0.11500000208616257,0.0,1
1680043266.42005777,60472359,0,3,254484400,2255,18,0.6,42.6900087,-84.48893079999999,272.23,0.015132746659219265,97.59463500976562,0.010000000707805157,0.0,1
1680043266.62003875,60672340,0,3,254484600,2255,18,0.6,42.6900086,-84.4889307,272.23,0.026248810812830925,49.635459899902344,-0.00800000037997961,0.0,1
1680043266.79974985,60852051,0,3,254484800,2255,18,0.6,42.6900086,-84.48893059999999,272.24,0.024413112550973892,214.99203491210938,0.10400000214576721,0.0,1
1680043267.02046490,61072766,0,3,254485000,2255,18,0.6,42.6900085,-84.48893059999999,272.23,0.005000000353902578,180.0,0.010000000707805157,0.0,1
1680043267.22001791,61272319,0,3,254485200,2255,18,0.6,42.690008399999996,-84.4889305,272.23,0.0036055513191968203,236.3099365234375,-0.021000001579523087,0.0,1
1680043267.42005777,61472359,0,3,254485400,2255,18,0.6,42.690008399999996,-84.4889305,272.24,0.028635643422603607,12.094756126403809,0.039000000804662704,0.0,1
1680043267.61995888,61672260,0,3,254485600,2255,18,0.6,42.690008399999996,-84.4889304,272.23,0.015811389312148094,18.434947967529297,-0.01600000075995922,0.0,1
1680043267.81995177,61872253,0,3,254485800,2255,18,0.6,42.690008299999995,-84.4889304,272.23,0.024698179215192795,211.7594757080078,0.039000000804662704,0.0,1
1680043268.02029371,62072595,0,3,254486000,2255,18,0.6,42.6900082,-84.4889304,272.23,0.012041594833135605,311.633544921875,0.01600000075995922,0.0,1
1680043268.19977474,62252076,0,3,254486200,2255,18,0.6,42.6900082,-84.48893029999999,272.22,0.003000000026077032,270.0,0.015000000596046448,0.0,1
1680043268.41975379,62472055,0,3,254486400,2255,18,0.6,42.6900081,-84.48893029999999,272.22,0.0022360680159181356,153.43495178222656,0.026000000536441803,0.0,1
1680043268.61964178,62671943,0,3,254486600,2255,18,0.6,42.690008,-84.48893029999999,272.22,0.03551056236028671,189.7275848388672,0.04700000211596489,0.0,1
1680043268.81977677,62872078,0,3,254486800,2255,18,0.6,42.6900079,-84.4889302,272.22,0.019999999552965164,143.13009643554688,0.029000001028180122,0.0,1
1680043269.02003574,63072337,0,3,254487000,2255,18,0.6,42.6900078,-84.48893009999999,272.22,0.021000001579523087,0.0,0.08500000089406967,0.0,1
1680043269.21976590,63272067,0,3,254487200,2255,18,0.6,42.6900078,-84.48893009999999,272.22,0.0022360680159181356,116.5650405883789,0.16100001335144043,0.0,1
1680043269.41967583,63471977,0,3,254487400,2255,18,0.6,42.690007699999995,-84.48893,272.21,0.025079872459173203,85.42607116699219,0.03400000184774399,0.0,1
1680043269.59968185,63651983,0,3,254487600,2255,18,0.6,42.6900076,-84.48893,272.21,0.02831960655748844,317.8623962402344,0.055000003427267075,0.0,1
1680043269.81976295,63872064,0,3,254487800,2255,18,0.6,42.6900076,-84.4889299,272.2,0.011180341243743896,206.56504821777344,0.036000002175569534,0.0,1
1680043270.01998782,64072289,0,3,254488000,2255,18,0.6,42.6900075,-84.4889299,272.2,0.016401220113039017,142.431396484375,0.0430000014603138,0.0,1
1680043270.22001290,64272314,0,3,254488200,2255,18,0.6,42.6900074,-84.4889298,272.19,0.026000000536441803,22.619863510131836,0.08100000023841858,0.0,1
1680043270.41965079,64471952,0,3,254488400,2255,18,0.6,42.6900074,-84.4889297,272.2,0.04219004884362221,31.4295654296875,-0.09700000286102295,0.0,1
1680043270.61999774,64672299,0,3,254488600,2255,18,0.6,42.6900074,-84.48892959999999,272.23,0.07467261701822281,7.696051597595215,-0.07600000500679016,0.0,1
1680043270.82002473,64872326,0,3,254488800,2255,18,0.6,42.6900074,-84.48892959999999,272.25,0.00984885822981596,336.0375061035156,-0.02800000086426735,0.0,1
1680043271.00002789,65052329,0,3,254489000,2255,18,0.6,42.6900075,-84.4889295,272.28000000000003,0.06846897304058075,6.709836483001709,-0.17800000309944153,0.0,1
1680043271.22041678,65272718,0,3,254489200,2255,18,0.6,42.6900076,-84.48892939999999,272.32,0.11615507304668427,2.9609358310699463,-0.14800000190734863,0.0,1
1680043271.41992688,65472228,0,3,254489400,2255,18,0.6,42.690007699999995,-84.48892939999999,272.37,0.07632169127464294,328.3924865722656,-0.3490000069141388,0.0,1
1680043271.61978292,65672084,0,3,254489600,2255,18,0.6,42.690007699999995,-84.4889295,272.49,0.06562012434005737,262.11688232421875,-0.4280000329017639,0.0,1
1680043271.81980491,65872106,0,3,254489800,2255,18,0.6,42.6900076,-84.48892959999999,272.59000000000003,0.06216912344098091,244.25930786132812,-0.4700000286102295,0.0,1
1680043272.01979375,66072095,0,3,254490000,2255,18,0.6,42.6900075,-84.4889297,272.71,0.09617692232131958,242.10275268554688,-0.6780000329017639,0.0,1
1680043272.21966171,66271963,0,3,254490200,2255,18,0.6,42.6900074,-84.4889298,272.85,0.0487544909119606,295.51385498046875,-0.6480000019073486,0.0,1
1680043272.41999793,66472299,0,3,254490400,2255,17,0.6,42.6900073,-84.4889299,272.95,0.08670064061880112,187.28897094726562,-0.5870000123977661,0.0,1
1680043272.61980486,66672106,0,3,254490600,2255,18,0.6,42.6900072,-84.48892959999999,273.09000000000003,0.12600396573543549,89.54528045654297,-0.5060000419616699,0.0,1
1680043272.81977773,66872079,0,3,254490800,2255,18,0.6,42.6900072,-84.4889291,273.16,0.2760072648525238,90.41516876220703,-0.3840000033378601,0.0,1
1680043273.01969790,67071999,0,3,254491000,2255,18,0.6,42.690007,-84.48892819999999,273.25,0.411811888217926,121.79890441894531,-0.30400002002716064,0.0,1
1680043273.21972775,67272029,0,3,254491200,2255,18,0.6,42.6900064,-84.48892699999999,273.29,0.7289643883705139,119.41340637207031,-0.23400001227855682,0.0,1
1680043273.42000484,67472306,0,3,254491400,2255,18,0.6,42.6900056,-84.4889251,273.35,0.9400154948234558,120.49335479736328,-0.20400001108646393,0.0,1
1680043273.61981082,67672112,0,3,254491600,2255,18,0.6,42.690004699999996,-84.4889231,273.41,0.8835299015045166,118.01525115966797,-0.25,0.0,1
1680043273.81999087,67872292,0,3,254491800,2255,18,0.6,42.6900039,-84.4889209,273.36,1.09884774684906,112.52760314941406,0.3750000298023224,0.0,1
1680043274.01983285,68072134,0,3,254492000,2255,18,0.6,42.690002799999995,-84.4889184,273.32,1.2521042823791504,125.60681915283203,0.26200002431869507,0.0,1
1680043274.21995282,68272254,0,3,254492200,2255,18,0.6,42.6900014,-84.48891569999999,273.29,1.3853249549865723,125.6290283203125,0.28700000047683716,0.0,1
1680043274.42021394,68472515,0,3,254492400,2255,18,0.6,42.689999799999995,-84.4889125,273.28000000000003,1.695241093635559,124.86187744140625,0.08900000154972076,0.0,1
1680043274.59981275,68652114,0,3,254492600,2255,18,0.6,42.6899979,-84.48890899999999,273.25,1.768231987953186,124.9123764038086,0.04400000348687172,0.0,1
1680043274.81969094,68871992,0,3,254492800,2255,18,0.6,42.6899959,-84.4889053,273.25,1.9814666509628296,128.11337280273438,0.014000000432133675,0.0,1
1680043275.01974678,69072048,0,3,254493000,2255,18,0.6,42.6899936,-84.4889013,273.27,2.019545078277588,127.55648040771484,-0.0560000017285347,0.0,1
1680043275.21980691,69272108,0,3,254493200,2255,18,0.6,42.6899912,-84.4888975,273.31,2.003793478012085,130.75015258789062,-0.281000018119812,0.0,1
1680043275.42013693,69472438,0,3,254493400,2255,18,0.6,42.6899887,-84.4888938,273.32,2.0842902660369873,133.81419372558594,-0.10100000351667404,0.0,1
1680043275.61977887,69672080,0,3,254493600,2255,18,0.6,42.689986,-84.4888903,273.34000000000003,1.9999933242797852,137.81687927246094,-0.3490000069141388,0.0,1
1680043275.81988287,69872184,0,3,254493800,2255,18,0.6,42.689983399999996,-84.4888867,273.43,2.0173282623291016,132.8907928466797,-0.3050000071525574,0.0,1
1680043276.02001190,70072313,0,3,254494000,2255,18,0.6,42.689980899999995,-84.4888831,273.49,1.9820659160614014,134.61163330078125,-0.28600001335144043,0.0,1
1680043276.22004294,70272344,0,3,254494200,2255,18,0.6,42.6899783,-84.48887979999999,273.56,1.9133327007293701,138.77182006835938,-0.3100000023841858,0.0,1
1680043276.39997578,70452277,0,3,254494400,2255,18,0.6,42.689975499999996,-84.4888768,273.67,2.000976324081421,145.0947723388672,-0.5950000286102295,0.0,1
1680043276.62031794,70672619,0,3,254494600,2255,18,0.6,42.6899728,-84.4888737,273.81,1.7949318885803223,133.96165466308594,-0.4540000259876251,0.0,1
1680043276.81995273,70872254,0,3,254494800,2255,18,0.6,42.6899703,-84.48887049999999,273.87,1.9296224117279053,136.46987915039062,-0.30100002884864807,0.0,1
1680043277.02002883,71072330,0,3,254495000,2255,18,0.6,42.6899677,-84.48886739999999,273.94,1.877208948135376,138.7796173095703,-0.32200002670288086,0.0,1
1680043277.22012377,71272425,0,3,254495200,2255,18,0.6,42.689965099999995,-84.4888644,274.02,1.7812628746032715,138.9835205078125,-0.3840000033378601,0.0,1
1680043277.42010880,71472410,0,3,254495400,2255,18,0.6,42.6899625,-84.4888615,274.11,1.8327444791793823,140.49063110351562,-0.43400001525878906,0.0,1
1680043277.61987281,71672174,0,3,254495600,2255,18,0.6,42.68996,-84.48885849999999,274.22,1.7930346727371216,136.37843322753906,-0.27900001406669617,0.0,1
1680043277.79965186,71851953,0,3,254495800,2255,18,0.6,42.6899575,-84.4888556,274.28000000000003,1.7620229721069336,140.8272705078125,-0.28200000524520874,0.0,1
1680043278.01982474,72072126,0,3,254496000,2255,18,0.6,42.689955,-84.4888527,274.35,1.798989176750183,141.04672241210938,-0.1770000010728836,0.0,1
1680043278.21977472,72272076,0,3,254496200,2255,18,0.6,42.689952399999996,-84.4888498,274.41,1.8774478435516357,141.87875366210938,-0.39500001072883606,0.0,1
1680043278.41968989,72471991,0,3,254496400,2255,18,0.6,42.6899498,-84.4888471,274.45,1.8063958883285522,142.28636169433594,-0.31800001859664917,0.0,1
1680043278.61993980,72672241,0,3,254496600,2255,18,0.6,42.6899473,-84.48884439999999,274.5,1.6271355152130127,142.39060974121094,-0.09800000488758087,0.0,1
1680043278.81979489,72872096,0,3,254496800,2255,18,0.6,42.6899448,-84.4888421,274.51,1.6095606088638306,146.94180297851562,-0.08900000154972076,0.0,1
1680043279.02004075,73072342,0,3,254497000,2255,18,0.6,42.6899423,-84.4888398,274.58,1.7274456024169922,146.95387268066406,-0.14600001275539398,0.0,1
1680043279.22000694,73272308,0,3,254497200,2255,18,0.6,42.689939599999995,-84.4888375,274.61,1.6854863166809082,147.40365600585938,-0.1510000079870224,0.0,1
1680043279.41984773,73472149,0,3,254497400,2255,18,0.6,42.689937,-84.4888354,274.63,1.586790919303894,151.0120391845703,-0.026000000536441803,0.0,1
1680043279.62029672,73672598,0,3,254497600,2255,18,0.6,42.6899346,-84.48883339999999,274.64,1.5099248886108398,147.46768188476562,0.049000002443790436,0.0,1
1680043279.81998277,73872284,0,3,254497800,2255,18,0.6,42.6899322,-84.4888314,274.66,1.5137239694595337,150.38656616210938,-0.07000000029802322,0.0,1
1680043280.02001286,74072314,0,3,254498000,2255,18,0.6,42.689929899999996,-84.48882979999999,274.61,1.335952877998352,154.22134399414062,0.14600001275539398,0.0,1
1680043280.21991277,74272214,0,3,254498200,2255,18,0.6,42.6899277,-84.4888283,274.61,1.3829375505447388,154.2872772216797,0.023000001907348633,0.0,1
1680043280.40032578,74452627,0,3,254498400,2255,17,0.6,42.6899255,-84.48882669999999,274.65000000000003,1.3108612298965454,152.80941772460938,-0.02200000174343586,0.0,1
1680043280.62021494,74672516,0,3,254498600,2255,18,0.6,42.689923199999996,-84.4888253,274.72,1.3466789722442627,159.5734100341797,-0.3440000116825104,0.0,1
1680043280.82014275,74872444,0,3,254498800,2255,18,0.6,42.689921,-84.488824,274.76,1.28092360496521,155.11550903320312,-0.23500001430511475,0.0,1
1680043281.01977873,75072080,0,3,254499000,2255,18,0.6,42.6899188,-84.48882239999999,274.86,1.3717453479766846,152.61302185058594,-0.2680000066757202,0.0,1
1680043281.21965289,75271954,0,3,254499200,2255,18,0.6,42.6899167,-84.4888211,274.88,1.2350952625274658,156.42373657226562,-0.23000000417232513,0.0,1
1680043281.41979575,75472097,0,3,254499400,2255,18,0.6,42.6899146,-84.4888197,274.93,1.2417254447937012,150.52410888671875,-0.21400001645088196,0.0,1
1680043281.61980486,75672106,0,3,254499600,2255,18,0.6,42.6899126,-84.4888182,274.99,1.1844433546066284,151.50921630859375,-0.29600000381469727,0.0,1
1680043281.79997778,75852279,0,3,254499800,2255,18,0.6,42.6899108,-84.4888168,275.03000000000003,1.1531578302383423,145.20742797851562,-0.22500000894069672,0.0,1
1680043282.01967978,76071981,0,3,254500000,2255,18,0.6,42.689909,-84.48881519999999,275.05,1.1444833278656006,147.85133361816406,-0.05900000408291817,0.0,1
1680043282.21971488,76272016,0,3,254500200,2255,18,0.6,42.6899072,-84.4888137,275.04,1.103510856628418,145.18661499023438,-0.08500000089406967,0.0,1
1680043282.41979480,76472096,0,3,254500400,2255,18,0.6,42.6899054,-84.48881209999999,275.1,1.1824356317520142,148.2052001953125,-0.19200000166893005,0.0,1
1680043282.61983085,76672132,0,3,254500600,2255,18,0.6,42.689903699999995,-84.4888106,275.11,1.070529818534851,147.5123748779297,-0.05300000309944153,0.0,1
1680043282.81979775,76872099,0,3,254500800,2255,18,0.6,42.689901899999995,-84.4888091,275.14,1.154431939125061,145.5528106689453,-0.15200001001358032,0.0,1
1680043283.01988792,77072189,0,3,254501000,2255,18,0.6,42.6899002,-84.4888076,275.17,1.1110221147537231,148.47018432617188,-0.19100001454353333,0.0,1
1680043283.19965482,77251956,0,3,254501200,2255,18,0.6,42.6898985,-84.48880609999999,275.2,1.0685514211654663,144.5994415283203,-0.08700000494718552,0.0,1
1680043283.42001677,77472318,0,3,254501400,2255,18,0.6,42.6898969,-84.4888046,275.17,0.9934390187263489,143.63763427734375,0.11000000685453415,0.0,1
1680043283.62011576,77672417,0,3,254501600,2255,18,0.6,42.6898955,-84.48880319999999,275.17,0.9360769391059875,143.8646240234375,0.03400000184774399,0.0,1
1680043283.79980278,77852104,0,3,254501800,2255,18,0.6,42.6898942,-84.48880179999999,275.13,0.8772685527801514,136.84759521484375,0.16500000655651093,0.0,1
1680043284.03978086,78092082,0,3,254502000,2255,18,0.6,42.689893,-84.4888004,275.14,0.8120320439338684,138.69459533691406,0.15600000321865082,0.0,1
1680043284.21995091,78272252,0,3,254502200,2255,18,0.6,42.6898917,-84.488799,275.14,0.9373719096183777,137.85377502441406,-0.0430000014603138,0.0,1
1680043284.41999388,78472295,0,3,254502400,2255,17,0.6,42.6898908,-84.4887974,275.12,0.7527370452880859,121.47286224365234,0.05400000140070915,0.0,1
1680043284.60011673,78652418,0,3,254502600,2255,17,0.6,42.6898901,-84.48879579999999,275.11,0.7740859389305115,123.56688690185547,-0.10000000149011612,0.0,1
1680043284.81982875,78872130,0,3,254502800,2255,18,0.6,42.6898893,-84.4887943,275.09000000000003,0.7458961009979248,118.42040252685547,-0.02200000174343586,0.0,1
1680043285.01999378,79072295,0,3,254503000,2255,18,0.6,42.689888599999996,-84.48879269999999,275.08,0.7746793031692505,125.33132934570312,-0.009000000543892384,0.0,1
1680043285.21979690,79272098,0,3,254503200,2255,18,0.6,42.689887899999995,-84.4887911,275.07,0.7371329665184021,110.81986236572266,-0.013000000268220901,0.0,1
1680043285.41978192,79472083,0,3,254503400,2255,18,0.6,42.689887299999995,-84.4887893,275.08,0.8217177391052246,113.0704116821289,-0.08500000089406967,0.0,1
1680043285.61969280,79671994,0,3,254503600,2255,18,0.6,42.689886699999995,-84.4887875,275.1,0.7884795665740967,111.42357635498047,-0.18300001323223114,0.0,1
1680043285.81972480,79872026,0,3,254503800,2255,18,0.6,42.689886099999995,-84.4887857,275.14,0.8016389608383179,113.52705383300781,-0.09800000488758087,0.0,1
1680043286.02000880,80072310,0,3,254504000,2255,18,0.6,42.689885499999995,-84.4887838,275.17,0.8416086435317993,106.00149536132812,-0.05000000074505806,0.0,1
1680043286.21981382,80272115,0,3,254504200,2255,18,0.6,42.689885,-84.4887818,275.23,0.8680466413497925,108.53929901123047,-0.3100000023841858,0.0,1
1680043286.41980577,80472107,0,3,254504400,2255,18,0.6,42.6898845,-84.4887797,275.31,0.8433842658996582,99.83087921142578,-0.36500000953674316,0.0,1
1680043286.61964583,80671947,0,3,254504600,2255,18,0.6,42.6898842,-84.48877759999999,275.39,0.8436137437820435,95.30509948730469,-0.30900001525878906,0.0,1
1680043286.81977391,80872075,0,3,254504800,2255,18,0.6,42.6898839,-84.4887756,275.44,0.795871913433075,105.74761199951172,-0.33000001311302185,0.0,1
1680043287.02003574,81072337,0,3,254505000,2255,18,0.6,42.689883599999995,-84.4887736,275.52,0.8250824809074402,96.96135711669922,-0.23800000548362732,0.0,1
1680043287.19980574,81252107,0,3,254505200,2255,18,0.6,42.6898834,-84.4887717,275.57,0.7672111988067627,91.34436798095703,-0.24800001084804535,0.0,1
1680043287.41998076,81472282,0,3,254505400,2255,18,0.6,42.6898834,-84.4887699,275.59000000000003,0.6886109113693237,87.58634185791016,-0.03100000135600567,0.0,1
1680043287.61993575,81672237,0,3,254505600,2255,18,0.6,42.6898834,-84.48876829999999,275.6,0.5978202223777771,84.43244934082031,-0.10400000214576721,0.0,1
1680043287.82000589,81872307,0,3,254505800,2255,18,0.6,42.6898835,-84.4887667,275.6,0.6475685834884644,81.83235168457031,0.04200000315904617,0.0,1
1680043288.02015281,82072454,0,3,254506000,2255,18,0.6,42.689883699999996,-84.4887651,275.56,0.7119803428649902,77.8377914428711,0.125,0.0,1
1680043288.21979690,82272098,0,3,254506200,2255,18,0.6,42.689884,-84.4887636,275.54,0.5419151782989502,69.02320861816406,0.2200000137090683,0.0,1
1680043288.41982293,82472124,0,3,254506400,2255,18,0.6,42.6898842,-84.48876229999999,275.5,0.5771698355674744,72.3498764038086,0.15200001001358032,0.0,1
1680043288.61995173,82672253,0,3,254506600,2255,18,0.6,42.6898845,-84.4887613,275.48,0.30417925119400024,62.1712760925293,0.1680000126361847,0.0,1
1680043288.81998086,82872282,0,3,254506800,2255,18,0.6,42.6898847,-84.4887607,275.45,0.23780034482479095,36.96627426147461,0.16200000047683716,0.0,1
1680043289.02006984,83072371,0,3,254507000,2255,18,0.6,42.689884899999996,-84.4887605,275.42,0.08998889476060867,14.808377265930176,0.11900000274181366,0.0,1
1680043289.21968293,83271984,0,3,254507200,2255,18,0.6,42.689885,-84.4887605,275.40000000000003,0.10929319262504578,302.6722412109375,0.13100001215934753,0.0,1
1680043289.41971779,83472019,0,3,254507400,2255,18,0.6,42.689885,-84.4887608,275.39,0.15586212277412415,293.43994140625,0.15800000727176666,0.0,1
1680043289.62001991,83672321,0,3,254507600,2255,18,0.6,42.6898851,-84.48876109999999,275.37,0.160031259059906,281.16949462890625,0.07200000435113907,0.0,1
1680043289.81981373,83872115,0,3,254507800,2255,18,0.6,42.6898851,-84.4887614,275.35,0.16505151987075806,302.6309509277344,0.19600000977516174,0.0,1
1680043290.01977873,84072080,0,3,254508000,2255,18,0.6,42.6898852,-84.4887617,275.31,0.17409193515777588,317.32781982421875,0.15400001406669617,0.0,1
1680043290.21964478,84271946,0,3,254508200,2255,18,0.6,42.6898854,-84.488762,275.29,0.1956859827041626,328.5843200683594,0.0950000062584877,0.0,1
1680043290.41998291,84472284,0,3,254508400,2255,18,0.6,42.6898857,-84.4887621,275.29,0.22649063169956207,340.1249694824219,0.14000000059604645,0.0,1
1680043290.62003279,84672334,0,3,254508600,2255,18,0.6,42.689886,-84.48876229999999,275.28000000000003,0.2323617935180664,346.5617980957031,0.009000000543892384,0.0,1
1680043290.82004380,84872345,0,3,254508800,2255,18,0.6,42.6898864,-84.48876229999999,275.27,0.24103319644927979,359.04913330078125,0.07500000298023224,0.0,1
1680043291.02031088,85072612,0,3,254509000,2255,18,0.6,42.689886699999995,-84.48876229999999,275.27,0.24490204453468323,355.0809326171875,0.024000000208616257,0.0,1
1680043291.21995282,85272254,0,3,254509200,2255,18,0.6,42.6898872,-84.48876229999999,275.27,0.2691858410835266,2.128974199295044,-0.039000000804662704,0.0,1
1680043291.39969778,85451999,0,3,254509400,2255,18,0.6,42.6898875,-84.48876229999999,275.28000000000003,0.2245105803012848,6.650199890136719,-0.07900000363588333,0.0,1
1680043291.61998987,85672291,0,3,254509600,2255,18,0.6,42.689887899999995,-84.4887622,275.29,0.22931422293186188,2.99965500831604,-0.006000000052154064,0.0,1
1680043291.81998491,85872286,0,3,254509800,2255,18,0.6,42.6898882,-84.4887622,275.3,0.1961224228143692,11.768288612365723,-0.029000001028180122,0.0,1
1680043292.02010179,86072403,0,3,254510000,2255,18,0.6,42.689888499999995,-84.4887621,275.32,0.2171681523323059,15.764195442199707,-0.02800000086426735,0.0,1
1680043292.22011280,86272414,0,3,254510200,2255,18,0.6,42.6898889,-84.4887619,275.32,0.27455419301986694,14.33992862701416,-0.032999999821186066,0.0,1
1680043292.41981673,86472118,0,3,254510400,2255,17,0.6,42.689889199999996,-84.4887617,275.35,0.2416153997182846,22.638103485107422,0.026000000536441803,0.0,1
1680043292.61976886,86672070,0,3,254510600,2255,17,0.6,42.6898896,-84.4887614,275.35,0.2857726514339447,26.834041595458984,-0.04500000178813934,0.0,1
1680043292.81969190,86871993,0,3,254510800,2255,18,0.6,42.68989,-84.488761,275.37,0.3049262464046478,30.770402908325195,-0.058000002056360245,0.0,1
1680043293.01970482,87072006,0,3,254511000,2255,18,0.6,42.689890399999996,-84.48876059999999,275.39,0.3444706201553345,25.07718276977539,-0.07800000160932541,0.0,1
1680043293.22001290,87272314,0,3,254511200,2255,18,0.6,42.689890999999996,-84.4887602,275.39,0.4396294057369232,26.040483474731445,-0.02200000174343586,0.0,1
1680043293.41981673,87472118,0,3,254511400,2255,18,0.6,42.689891599999996,-84.4887596,275.39,0.4072358310222626,36.11012268066406,0.01900000125169754,0.0,1
1680043293.61978483,87672086,0,3,254511600,2255,18,0.6,42.6898923,-84.488759,275.38,0.4892647862434387,26.984025955200195,0.04400000348687172,0.0,1
1680043293.81964684,87871948,0,3,254511800,2255,18,0.6,42.689892799999996,-84.4887585,275.39,0.3304799795150757,39.22841262817383,0.03100000135600567,0.0,1
1680043293.99964285,88051944,0,3,254512000,2255,18,0.6,42.6898932,-84.4887579,275.37,0.3090064823627472,44.8688850402832,0.07100000232458115,0.0,1
1680043294.21979094,88272092,0,3,254512200,2255,18,0.6,42.6898935,-84.4887574,275.35,0.21580083668231964,53.289398193359375,0.03400000184774399,0.0,1
1680043294.42011476,88472416,0,3,254512400,2255,18,0.6,42.6898936,-84.48875699999999,275.33,0.16259460151195526,77.92985534667969,0.11100000888109207,0.0,1
1680043294.61996388,88672265,0,3,254512600,2255,18,0.6,42.6898935,-84.4887566,275.31,0.14582525193691254,117.79512786865234,0.14300000667572021,0.0,1
1680043294.82022476,88872526,0,3,254512800,2255,18,0.6,42.6898932,-84.48875629999999,275.28000000000003,0.17118704319000244,140.45155334472656,0.1420000046491623,0.0,1
1680043295.01995993,89072261,0,3,254513000,2255,18,0.6,42.6898929,-84.488756,275.26,0.17074249684810638,131.43846130371094,0.1340000033378601,0.0,1
1680043295.22001886,89272320,0,3,254513200,2255,18,0.6,42.6898926,-84.4887557,275.22,0.3104126453399658,154.425537109375,0.07400000095367432,0.0,1
1680043295.40013385,89452435,0,3,254513400,2255,18,0.6,42.689892,-84.4887554,275.19,0.28969812393188477,158.74948120117188,0.2200000137090683,0.0,1
1680043295.61965394,89671955,0,3,254513600,2255,18,0.6,42.689891499999995,-84.48875509999999,275.16,0.278179794549942,153.98760986328125,0.16300000250339508,0.0,1
1680043295.81978893,89872090,0,3,254513800,2255,18,0.6,42.689890899999995,-84.4887548,275.14,0.37568339705467224,161.8544158935547,0.08100000023841858,0.0,1
1680043296.01980686,90072108,0,3,254514000,2255,18,0.6,42.6898902,-84.4887545,275.12,0.3483676314353943,158.44290161132812,0.055000003427267075,0.0,1
1680043296.22005177,90272353,0,3,254514200,2255,18,0.6,42.6898896,-84.4887542,275.14,0.34224262833595276,162.83572387695312,0.018000001087784767,0.0,1
1680043296.41970277,90472004,0,3,254514400,2255,18,0.6,42.689889,-84.48875389999999,275.16,0.30870214104652405,156.9232635498047,-0.0430000014603138,0.0,1
1680043296.61971974,90672021,0,3,254514600,2255,18,0.6,42.6898884,-84.4887536,275.19,0.3603026568889618,164.3822479248047,-0.22600001096725464,0.0,1
1680043296.79994178,90852243,0,3,254514800,2255,18,0.6,42.6898878,-84.4887533,275.24,0.28668102622032166,139.81057739257812,-0.22700001299381256,0.0,1
1680043297.01982379,91072125,0,3,254515000,2255,18,0.6,42.689887299999995,-84.4887529,275.31,0.32209938764572144,159.6521453857422,-0.3830000162124634,0.0,1
1680043297.21977091,91272072,0,3,254515200,2255,18,0.6,42.6898868,-84.4887526,275.38,0.23461033403873444,143.66737365722656,-0.15200001001358032,0.0,1
1680043297.41965079,91471952,0,3,254515400,2255,18,0.6,42.6898863,-84.4887523,275.48,0.29254916310310364,162.49407958984375,-0.40700000524520874,0.0,1
1680043297.62001586,91672317,0,3,254515600,2255,18,0.6,42.6898857,-84.48875199999999,275.51,0.33233869075775146,154.51441955566406,-0.10600000619888306,0.0,1
1680043297.82003284,91872334,0,3,254515800,2255,18,0.6,42.6898851,-84.4887517,275.58,0.3859235644340515,157.28875732421875,-0.3620000183582306,0.0,1
1680043298.02012086,92072422,0,3,254516000,2255,18,0.6,42.6898844,-84.48875129999999,275.63,0.3691679835319519,157.8815460205078,-0.10900000482797623,0.0,1
1680043298.22032976,92272631,0,3,254516200,2255,18,0.6,42.689883699999996,-84.4887509,275.69,0.28177475929260254,148.79212951660156,-0.1510000079870224,0.0,1
1680043298.41993594,92472237,0,3,254516400,2255,18,0.6,42.689883099999996,-84.4887505,275.7,0.40929821133613586,152.18276977539062,-0.06800000369548798,0.0,1
1680043298.61997390,92672275,0,3,254516600,2255,18,0.6,42.689882499999996,-84.48875,275.75,0.25987884402275085,128.2810516357422,-0.19600000977516174,0.0,1
1680043298.82002687,92872328,0,3,254516800,2255,18,0.6,42.6898821,-84.4887495,275.77,0.3400367796421051,142.28756713867188,-0.09800000488758087,0.0,1
1680043299.02000380,93072305,0,3,254517000,2255,18,0.6,42.6898816,-84.48874889999999,275.82,0.32516151666641235,115.69818115234375,-0.15600000321865082,0.0,1
1680043299.21986675,93272168,0,3,254517200,2255,18,0.6,42.689881299999996,-84.4887483,275.85,0.3114161491394043,118.37550354003906,-0.1600000113248825,0.0,1
1680043299.41977692,93472078,0,3,254517400,2255,18,0.6,42.689881,-84.4887475,275.88,0.3690122067928314,115.52340698242188,-0.14800000190734863,0.0,1
1680043299.61980581,93672107,0,3,254517600,2255,18,0.6,42.689880699999996,-84.4887468,275.93,0.28160256147384644,106.50435638427734,-0.1469999998807907,0.0,1
1680043299.82005882,93872360,0,3,254517800,2255,18,0.6,42.6898804,-84.48874599999999,275.97,0.3753665089607239,101.36979675292969,-0.23100000619888306,0.0,1
1680043300.01969576,94071997,0,3,254518000,2255,18,0.6,42.6898802,-84.4887452,276.05,0.3036593496799469,116.39627838134766,-0.48100003600120544,0.0,1
1680043300.21972489,94272026,0,3,254518200,2255,18,0.6,42.689879999999995,-84.4887444,276.11,0.3941788971424103,103.04908752441406,-0.25300002098083496,0.0,1
1680043300.41979980,94472101,0,3,254518400,2255,18,0.6,42.6898797,-84.4887435,276.14,0.36494386196136475,116.00334167480469,-0.16900001466274261,0.0,1
1680043300.61981678,94672118,0,3,254518600,2255,18,0.6,42.689879399999995,-84.4887427,276.22,0.3735465407371521,104.89188385009766,-0.35600000619888306,0.0,1
1680043300.79984093,94852142,0,3,254518800,2255,18,0.6,42.6898791,-84.4887418,276.26,0.4569661319255829,122.12499237060547,-0.14100000262260437,0.0,1
1680043301.01964378,95071945,0,3,254519000,2255,18,0.6,42.6898786,-84.4887409,276.28000000000003,0.4339550733566284,125.33814239501953,-0.06599999964237213,0.0,1
1680043301.22000289,95272304,0,3,254519200,2255,18,0.6,42.6898781,-84.4887401,276.3,0.3836352527141571,126.09324645996094,-0.125,0.0,1
1680043301.42003179,95472333,0,3,254519400,2255,18,0.6,42.6898777,-84.4887392,276.34000000000003,0.3870568573474884,110.72929382324219,-0.20100000500679016,0.0,1
1680043301.62005973,95672361,0,3,254519600,2255,18,0.6,42.6898775,-84.4887383,276.35,0.36626768112182617,104.8709487915039,-0.004000000189989805,0.0,1
1680043301.82029176,95872593,0,3,254519800,2255,18,0.6,42.6898772,-84.48873739999999,276.34000000000003,0.41362425684928894,110.66952514648438,0.06100000441074371,0.0,1
1680043302.04002976,96092331,0,3,254520000,2255,18,0.6,42.6898768,-84.4887364,276.36,0.4646913409233093,105.86071014404297,0.0690000057220459,0.0,1
1680043302.19995284,96252254,0,3,254520200,2255,18,0.6,42.6898766,-84.4887354,276.35,0.37793388962745667,97.14381408691406,0.04200000315904617,0.0,1
1680043302.42003489,96472336,0,3,254520400,2255,18,0.6,42.6898765,-84.4887344,276.34000000000003,0.4621092975139618,93.97077178955078,0.21400001645088196,0.0,1
1680043302.61977172,96672073,0,3,254520600,2255,18,0.6,42.689876399999996,-84.4887332,276.3,0.5230468511581421,89.2331771850586,0.18400001525878906,0.0,1
1680043302.81964993,96871951,0,3,254520800,2255,18,0.6,42.689876299999995,-84.488732,276.29,0.5080984234809875,88.87226867675781,0.21300001442432404,0.0,1
1680043303.02000380,97072305,0,3,254521000,2255,18,0.6,42.689876299999995,-84.48873069999999,276.22,0.5150582790374756,93.67346954345703,0.22800001502037048,0.0,1
1680043303.19998574,97252287,0,3,254521200,2255,18,0.6,42.689876299999995,-84.48872949999999,276.18,0.5220507383346558,77.16167449951172,0.242000013589859,0.0,1
1680043303.40002990,97452331,0,3,254521400,2255,18,0.6,42.689876399999996,-84.4887281,276.17,0.5957399010658264,82.76761627197266,0.07600000500679016,0.0,1
1680043303.59977794,97652079,0,3,254521600,2255,18,0.6,42.6898765,-84.48872659999999,276.16,0.6745495200157166,77.67387390136719,0.00800000037997961,0.0,1
1680043303.79968786,97851989,0,3,254521800,2255,18,0.6,42.6898767,-84.4887251,276.13,0.5460375547409058,82.21119689941406,0.10300000756978989,0.0,1
1680043303.99972892,98052030,0,3,254522000,2255,18,0.6,42.6898769,-84.4887238,276.1,0.5446632504463196,70.36740112304688,0.08700000494718552,0.0,1
1680043304.19981289,98252114,0,3,254522200,2255,18,0.6,42.6898772,-84.4887226,276.09000000000003,0.4852319359779358,63.17091369628906,0.12000000476837158,0.0,1
1680043304.39981484,98452116,0,3,254522400,2255,18,0.6,42.689877599999996,-84.4887215,276.06,0.5358292460441589,64.34356689453125,0.13100001215934753,0.0,1
1680043304.59977484,98652076,0,3,254522600,2255,18,0.6,42.6898779,-84.4887202,276.07,0.6055782437324524,71.41545104980469,0.039000000804662704,0.0,1
1680043304.81979585,98872097,0,3,254522800,2255,18,0.6,42.689878199999995,-84.4887188,276.06,0.5914051532745361,66.9031753540039,0.027000000700354576,0.0,1
1680043304.99978971,99052091,0,3,254523000,2255,18,0.6,42.6898786,-84.4887174,276.04,0.6394779086112976,66.40140533447266,0.05100000277161598,0.0,1
1680043305.22004580,99272347,0,3,254523200,2255,18,0.6,42.6898791,-84.488716,276.03000000000003,0.6236987113952637,65.16069793701172,0.004000000189989805,0.0,1
1680043305.42029572,99472597,0,3,254523400,2255,18,0.6,42.689879499999996,-84.4887148,276.04,0.48609673976898193,60.00657653808594,-0.020000001415610313,0.0,1
1680043305.61972690,99672028,0,3,254523600,2255,18,0.6,42.6898798,-84.4887139,276.03000000000003,0.30695441365242004,68.1985855102539,-0.10100000351667404,0.0,1
1680043305.81980777,99872109,0,3,254523800,2255,18,0.6,42.689879999999995,-84.4887133,276.05,0.2338995635509491,63.873146057128906,-0.14800000190734863,0.0,1
1680043306.01981878,100072120,0,3,254524000,2255,18,0.6,42.689880099999996,-84.4887128,276.07,0.13851353526115417,77.06739044189453,-0.09600000083446503,0.0,1
1680043306.21978879,100272090,0,3,254524200,2255,18,0.6,42.689880099999996,-84.48871249999999,276.09000000000003,0.1289496123790741,66.21797180175781,-0.06100000441074371,0.0,1
1680043306.41966176,100471963,0,3,254524400,2255,18,0.6,42.689880099999996,-84.4887122,276.1,0.12500399351119995,66.9217758178711,-0.05400000140070915,0.0,1
1680043306.61981487,100672116,0,3,254524600,2255,18,0.6,42.6898802,-84.4887119,276.12,0.15678010880947113,60.16445541381836,-0.02800000086426735,0.0,1
1680043306.81984091,100872142,0,3,254524800,2255,18,0.6,42.6898803,-84.4887116,276.13,0.13903237879276276,54.36650848388672,-0.027000000700354576,0.0,1
1680043307.00008893,101052390,0,3,254525000,2255,18,0.6,42.6898804,-84.48871129999999,276.12,0.10791200399398804,57.48807907104492,-0.01600000075995922,0.0,1
1680043307.22000790,101272309,0,3,254525200,2255,18,0.6,42.6898805,-84.48871109999999,276.11,0.0856037437915802,52.594642639160156,-0.017000000923871994,0.0,1
1680043307.41995978,101472261,0,3,254525400,2255,18,0.6,42.689880599999995,-84.4887109,276.1,0.06747592240571976,50.411865234375,0.007000000216066837,0.0,1
1680043307.59973979,101652041,0,3,254525600,2255,18,0.6,42.689880599999995,-84.48871079999999,276.11,0.05478138476610184,21.412967681884766,0.12300000339746475,0.0,1
1680043307.82004380,101872345,0,3,254525800,2255,18,0.6,42.689880599999995,-84.48871079999999,276.1,0.03671512007713318,330.6422424316406,0.05900000408291817,0.0,1
1680043308.03965783,102091959,0,3,254526000,2255,18,0.6,42.689880699999996,-84.4887109,276.1,0.046043459326028824,304.3803405761719,0.07600000500679016,0.0,1
1680043308.19980574,102252107,0,3,254526200,2255,18,0.6,42.689880699999996,-84.488711,276.1,0.07940403372049332,301.0874938964844,0.10100000351667404,0.0,1
1680043308.39966989,102451971,0,3,254526400,2255,18,0.6,42.689880699999996,-84.48871109999999,276.09000000000003,0.06576474010944366,278.74615478515625,0.04400000348687172,0.0,1
1680043308.62003994,102672341,0,3,254526600,2255,18,0.6,42.689880599999995,-84.48871129999999,276.1,0.06800735741853714,252.89727783203125,0.08700000494718552,0.0,1
1680043308.82010794,102872409,0,3,254526800,2255,18,0.6,42.6898805,-84.4887115,276.1,0.04716990888118744,274.864501953125,0.08400000631809235,0.0,1
1680043309.00006795,103052369,0,3,254527000,2255,18,0.6,42.6898805,-84.4887116,276.08,0.04022437334060669,304.8753356933594,0.013000000268220901,0.0,1
1680043309.19992781,103252229,0,3,254527200,2255,18,0.6,42.6898805,-84.4887117,276.09000000000003,0.07851751893758774,316.54815673828125,0.13900001347064972,0.0,1
1680043309.41982174,103472123,0,3,254527400,2255,18,0.6,42.6898805,-84.48871179999999,276.09000000000003,0.05580322816967964,323.74615478515625,0.07000000029802322,0.0,1
1680043309.61982894,103672130,0,3,254527600,2255,18,0.6,42.6898805,-84.4887119,276.09000000000003,0.06997142732143402,329.0362548828125,0.11700000613927841,0.0,1
1680043309.81980181,103872103,0,3,254527800,2255,18,0.6,42.6898805,-84.48871199999999,276.09000000000003,0.03606937825679779,316.123291015625,0.09100000560283661,0.0,1
1680043310.01967287,104071974,0,3,254528000,2255,18,0.6,42.6898805,-84.4887121,276.08,0.06888396292924881,320.3009338378906,0.0860000029206276,0.0,1
1680043310.22000194,104272303,0,3,254528200,2255,18,0.6,42.689880599999995,-84.4887122,276.07,0.04609772190451622,319.3987121582031,0.09800000488758087,0.0,1
1680043310.40002489,104452326,0,3,254528400,2255,18,0.6,42.689880599999995,-84.4887123,276.07,0.05905929580330849,331.6992492675781,0.039000000804662704,0.0,1
1680043310.61979294,104672094,0,3,254528600,2255,18,0.6,42.689880599999995,-84.4887123,276.08,0.044102154672145844,327.0306091308594,0.06100000441074371,0.0,1
1680043310.81969595,104871997,0,3,254528800,2255,18,0.6,42.689880699999996,-84.4887123,276.09000000000003,0.0573061965405941,330.75115966796875,0.015000000596046448,0.0,1
1680043311.01973891,105072040,0,3,254529000,2255,18,0.6,42.6898808,-84.4887124,276.09000000000003,0.06351377815008163,326.56011962890625,0.03100000135600567,0.0,1
1680043311.22005081,105272352,0,3,254529200,2255,18,0.6,42.6898809,-84.4887124,276.09000000000003,0.0785493552684784,338.33404541015625,0.10200000554323196,0.0,1
1680043311.42004180,105472343,0,3,254529400,2255,18,0.6,42.6898809,-84.4887124,276.09000000000003,0.05423098802566528,337.21759033203125,0.09000000357627869,0.0,1
1680043311.59982872,105652130,0,3,254529600,2255,18,0.6,42.689881,-84.4887124,276.09000000000003,0.03080584481358528,305.75390625,0.03500000014901161,0.0,1
1680043311.79977179,105852073,0,3,254529800,2255,18,0.6,42.689881,-84.4887124,276.09000000000003,0.02523886039853096,303.6900634765625,0.027000000700354576,0.0,1
1680043312.01995182,106072253,0,3,254530000,2255,18,0.6,42.689881,-84.48871249999999,276.09000000000003,0.09308598935604095,219.33273315429688,-0.005000000353902578,0.0,1
1680043312.21980572,106272107,0,3,254530200,2255,18,0.6,42.689880699999996,-84.4887127,276.09000000000003,0.20303694903850555,206.31265258789062,-0.03700000047683716,0.0,1
1680043312.42006087,106472362,0,3,254530400,2255,18,0.6,42.6898803,-84.4887129,276.1,0.3179890215396881,205.92041015625,0.08700000494718552,0.0,1
1680043312.61995673,106672258,0,3,254530600,2255,18,0.6,42.6898796,-84.4887133,276.09000000000003,0.5068649053573608,203.73294067382812,-0.05400000140070915,0.0,1
1680043312.81992078,106872222,0,3,254530800,2255,18,0.6,42.6898787,-84.48871369999999,276.11,0.6302508115768433,196.5947723388672,0.0430000014603138,0.0,1
1680043313.02027178,107072573,0,3,254531000,2255,18,0.6,42.689877599999996,-84.48871419999999,276.1,0.6381504535675049,198.2646026611328,-0.004000000189989805,0.0,1
1680043313.19996190,107252263,0,3,254531200,2255,18,0.6,42.689876399999996,-84.4887147,276.09000000000003,0.7751806378364563,200.9366912841797,0.006000000052154064,0.0,1
1680043313.41978073,107472082,0,3,254531400,2255,18,0.6,42.689875199999996,-84.4887153,276.1,0.573415219783783,203.2117156982422,0.029000001028180122,0.0,1
1680043313.61965394,107671955,0,3,254531600,2255,18,0.6,42.6898744,-84.4887159,276.12,0.42966267466545105,212.83938598632812,0.012000000104308128,0.0,1
1680043313.81975174,107872053,0,3,254531800,2255,18,0.6,42.6898738,-84.4887164,276.1,0.29747775197029114,215.56007385253906,0.1600000113248825,0.0,1
1680043314.01980686,108072108,0,3,254532000,2255,18,0.6,42.6898735,-84.4887167,276.08,0.15275143086910248,219.42137145996094,0.018000001087784767,0.0,1
1680043314.22006273,108272364,0,3,254532200,2255,18,0.6,42.689873299999995,-84.4887169,276.09000000000003,0.08575547486543655,301.6512756347656,0.07300000637769699,0.0,1
1680043314.40006590,108452367,0,3,254532400,2255,18,0.6,42.689873399999996,-84.488717,276.09000000000003,0.12233152240514755,327.3492126464844,0.01900000125169754,0.0,1
1680043314.61974287,108672044,0,3,254532600,2255,18,0.6,42.6898736,-84.4887172,276.1,0.14988330006599426,335.144775390625,0.03200000151991844,0.0,1
1680043314.79994273,108852244,0,3,254532800,2255,18,0.6,42.6898737,-84.48871729999999,276.12,0.11820744723081589,330.6158447265625,-0.024000000208616257,0.0,1
1680043315.02013183,109072433,0,3,254533000,2255,18,0.6,42.689873899999995,-84.48871749999999,276.12,0.09193476289510727,315.88140869140625,-0.03200000151991844,0.0,1
1680043315.21978188,109272083,0,3,254533200,2255,18,0.6,42.689873999999996,-84.4887176,276.13,0.09102197736501694,324.38916015625,0.09400000423192978,0.0,1
1680043315.39977694,109452078,0,3,254533400,2255,18,0.6,42.6898741,-84.4887177,276.11,0.1028250977396965,319.3382568359375,-0.004000000189989805,0.0,1
1680043315.59965372,109651955,0,3,254533600,2255,18,0.6,42.6898742,-84.48871799999999,276.11,0.18228000402450562,305.1722717285156,0.06599999964237213,0.0,1
1680043315.79999185,109852293,0,3,254533800,2255,18,0.6,42.6898744,-84.48871849999999,276.09000000000003,0.3099193572998047,296.6477355957031,0.0990000069141388,0.0,1
1680043315.99978971,110052091,0,3,254534000,2255,18,0.6,42.6898747,-84.4887194,276.1,0.5135133862495422,295.3674011230469,-0.05300000309944153,0.0,1
1680043316.22025275,110272554,0,3,254534200,2255,18,0.6,42.689875199999996,-84.4887207,276.09000000000003,0.616447925567627,295.15167236328125,0.02500000037252903,0.0,1
1680043316.39968085,110451982,0,3,254534400,2255,18,0.6,42.6898756,-84.4887222,276.08,0.7572014927864075,287.28631591796875,0.03100000135600567,0.0,1
1680043316.59994078,110652242,0,3,254534600,2255,18,0.6,42.6898761,-84.4887241,276.06,0.8989934325218201,290.51129150390625,0.05000000074505806,0.0,1
1680043316.82006979,110872371,0,3,254534800,2255,18,0.6,42.6898767,-84.4887263,276.07,0.9916391372680664,294.5491638183594,0.030000001192092896,0.0,1
1680043316.99997973,111052281,0,3,254535000,2255,18,0.6,42.6898774,-84.4887285,276.08,1.023195505142212,292.10296630859375,0.12600000202655792,0.0,1
1680043317.20000291,111252304,0,3,254535200,2255,18,0.6,42.6898781,-84.48873069999999,276.08,0.9574910402297974,296.3509521484375,0.02500000037252903,0.0,1
1680043317.39983177,111452133,0,3,254535400,2255,18,0.6,42.6898787,-84.4887328,276.08,0.9228115081787109,295.3432312011719,0.023000001907348633,0.0,1
1680043317.62002182,111672323,0,3,254535600,2255,18,0.6,42.6898793,-84.4887346,276.08,0.7161766290664673,290.6871337890625,0.04000000283122063,0.0,1
1680043317.82005787,111872359,0,3,254535800,2255,18,0.6,42.6898797,-84.488736,276.08,0.5239943265914917,290.44085693359375,0.07800000160932541,0.0,1
1680043317.99978685,112052088,0,3,254536000,2255,18,0.6,42.6898799,-84.488737,276.07,0.3872905969619751,290.40020751953125,0.15400001406669617,0.0,1
1680043318.19969082,112251992,0,3,254536200,2255,18,0.6,42.6898802,-84.4887377,276.03000000000003,0.21693317592144012,304.8622131347656,0.009000000543892384,0.0,1
1680043318.39972472,112452026,0,3,254536400,2255,18,0.6,42.6898804,-84.48873789999999,276.01,0.10124228149652481,343.3549499511719,0.06400000303983688,0.0,1
1680043318.60003972,112652341,0,3,254536600,2255,18,0.6,42.6898805,-84.488738,275.99,0.10600000619888306,0.0,0.12400000542402267,0.0,1
1680043318.80013990,112852441,0,3,254536800,2255,18,0.6,42.689880699999996,-84.48873789999999,275.96,0.09464143216609955,6.674468517303467,0.0820000022649765,0.0,1
1680043319.00015593,113052457,0,3,254537000,2255,18,0.6,42.6898809,-84.48873789999999,275.94,0.08956003189086914,353.58917236328125,0.04400000348687172,0.0,1
1680043319.19965887,113251960,0,3,254537200,2255,18,0.6,42.6898811,-84.488738,275.91,0.09861542284488678,337.33544921875,0.02200000174343586,0.0,1
1680043319.39979076,113452092,0,3,254537400,2255,18,0.6,42.689881299999996,-84.48873809999999,275.89,0.09679876267910004,340.0674743652344,0.023000001907348633,0.0,1
1680043319.59979773,113652099,0,3,254537600,2255,18,0.6,42.6898814,-84.4887382,275.87,0.08044874668121338,325.1246643066406,0.05400000140070915,0.0,1
1680043319.81967974,113871981,0,3,254537800,2255,18,0.6,42.6898815,-84.4887383,275.86,0.0771556943655014,312.37359619140625,0.1550000011920929,0.0,1
1680043320.04001188,114092313,0,3,254538000,2255,18,0.6,42.6898815,-84.4887384,275.82,0.08956003189086914,276.41082763671875,0.058000002056360245,0.0,1
1680043320.19994378,114252245,0,3,254538200,2255,18,0.6,42.6898814,-84.4887387,275.81,0.16740968823432922,233.7461700439453,0.10100000351667404,0.0,1
1680043320.39995980,114452261,0,3,254538400,2255,18,0.6,42.6898811,-84.488739,275.79,0.279078871011734,205.92234802246094,-0.00800000037997961,0.0,1
1680043320.59998178,114652283,0,3,254538600,2255,18,0.6,42.689880599999995,-84.4887394,275.75,0.43741628527641296,212.96347045898438,0.08000000566244125,0.0,1
1680043320.79999185,114852293,0,3,254538800,2255,18,0.6,42.6898798,-84.48873999999999,275.75,0.5591288208961487,201.8394775390625,-0.05100000277161598,0.0,1
1680043320.99983191,115052133,0,3,254539000,2255,18,0.6,42.6898786,-84.4887406,275.76,0.7600855231285095,202.34735107421875,0.07300000637769699,0.0,1
1680043321.19979382,115252095,0,3,254539200,2255,18,0.6,42.6898773,-84.4887413,275.72,0.8186159729957581,201.04757690429688,0.05100000277161598,0.0,1
1680043321.39978790,115452089,0,3,254539400,2255,18,0.6,42.689875699999995,-84.488742,275.73,1.0661566257476807,196.73529052734375,-0.026000000536441803,0.0,1
1680043321.62011290,115672414,0,3,254539600,2255,18,0.6,42.6898738,-84.48874289999999,275.72,1.1150556802749634,204.08250427246094,0.029000001028180122,0.0,1
1680043321.79968786,115851989,0,3,254539800,2255,18,0.6,42.6898719,-84.488744,275.71,1.1811134815216064,201.08975219726562,-0.04700000211596489,0.0,1
1680043322.01978874,116072090,0,3,254540000,2255,18,0.6,42.6898698,-84.488745,275.74,1.212694525718689,199.66018676757812,-0.049000002443790436,0.0,1
1680043322.20001793,116252319,0,3,254540200,2255,17,0.6,42.689868,-84.48874599999999,275.73,1.0717359781265259,203.47940063476562,-0.09100000560283661,0.0,1
1680043322.41978884,116472090,0,3,254540400,2255,17,0.6,42.6898663,-84.4887469,275.75,0.9208610653877258,202.94532775878906,-0.1380000114440918,0.0,1
1680043322.60012174,116652423,0,3,254540600,2255,17,0.6,42.689865,-84.48874769999999,275.76,0.7676594853401184,205.12962341308594,-0.024000000208616257,0.0,1
1680043322.81996179,116872263,0,3,254540800,2255,18,0.6,42.6898639,-84.4887485,275.75,0.5715121030807495,208.7624969482422,-0.09300000220537186,0.0,1
1680043323.00000191,117052303,0,3,254541000,2255,18,0.6,42.6898631,-84.48874909999999,275.76,0.3968942165374756,214.0103759765625,0.021000001579523087,0.0,1
1680043323.20005083,117252352,0,3,254541200,2255,18,0.6,42.6898626,-84.48874959999999,275.77,0.20924626290798187,238.28488159179688,0.06000000238418579,0.0,1
1680043323.39979386,117452095,0,3,254541400,2255,18,0.6,42.6898625,-84.4887499,275.76,0.14500346779823303,269.6048583984375,0.0860000029206276,0.0,1
1680043323.59968376,117651985,0,3,254541600,2255,18,0.6,42.6898625,-84.4887502,275.76,0.11950314044952393,314.6609802246094,0.04200000315904617,0.0,1
1680043323.79973078,117852032,0,3,254541800,2255,18,0.6,42.6898627,-84.4887504,275.77,0.15417523682117462,316.0511779785156,-0.009000000543892384,0.0,1
1680043324.00003481,118052336,0,3,254542000,2255,18,0.6,42.6898628,-84.4887506,275.78000000000003,0.1131591871380806,303.83050537109375,0.052000001072883606,0.0,1
1680043324.21979976,118272101,0,3,254542200,2255,18,0.6,42.6898629,-84.4887509,275.77,0.10285913199186325,296.5650634765625,-0.0650000050663948,0.0,1
1680043324.40000987,118452311,0,3,254542400,2255,18,0.6,42.6898629,-84.4887511,275.78000000000003,0.10056839138269424,289.1556091308594,-0.023000001907348633,0.0,1
1680043324.62000084,118672302,0,3,254542600,2255,18,0.6,42.6898629,-84.48875129999999,275.8,0.10095544159412384,303.6900634765625,0.03700000047683716,0.0,1
1680043324.79992676,118852228,0,3,254542800,2255,18,0.6,42.6898631,-84.48875149999999,275.81,0.12775759398937225,341.2814025878906,-0.0010000000474974513,0.0,1
1680043325.00000787,119052309,0,3,254543000,2255,18,0.6,42.6898633,-84.48875149999999,275.81,0.24616459012031555,2.095252513885498,0.05300000309944153,0.0,1
1680043325.19977283,119252074,0,3,254543200,2255,18,0.6,42.6898638,-84.4887514,275.83,0.39050865173339844,10.475446701049805,0.11800000816583633,0.0,1
1680043325.39969277,119451994,0,3,254543400,2255,18,0.6,42.6898647,-84.4887512,275.81,0.6100131273269653,12.304677963256836,0.04100000113248825,0.0,1
1680043325.59971189,119652013,0,3,254543600,2255,18,0.6,42.6898658,-84.4887507,275.81,0.725562572479248,16.411821365356445,0.06300000101327896,0.0,1
1680043325.79977179,119852073,0,3,254543800,2255,18,0.6,42.6898671,-84.4887502,275.83,0.9008585214614868,17.107402801513672,0.015000000596046448,0.0,1
1680043326.01979876,120072100,0,3,254544000,2255,18,0.6,42.6898687,-84.4887494,275.82,1.0797083377838135,17.629436492919922,0.06200000271201134,0.0,1
1680043326.20010972,120252411,0,3,254544200,2255,18,0.6,42.6898706,-84.4887485,275.81,1.1541097164154053,19.486848831176758,0.08800000697374344,0.0,1
1680043326.39987779,120452179,0,3,254544400,2255,18,0.6,42.6898726,-84.4887475,275.78000000000003,1.2408852577209473,20.2750244140625,0.14800000190734863,0.0,1
1680043326.60000277,120652304,0,3,254544600,2255,18,0.6,42.6898747,-84.48874649999999,275.75,1.314087152481079,19.331199645996094,0.10500000417232513,0.0,1
1680043326.80004478,120852346,0,3,254544800,2255,18,0.6,42.6898768,-84.48874529999999,275.76,1.2395600080490112,22.282079696655273,0.07700000703334808,0.0,1
1680043326.99978685,121052088,0,3,254545000,2255,18,0.6,42.689878799999995,-84.48874409999999,275.78000000000003,1.149491310119629,23.643648147583008,0.07500000298023224,0.0,1
1680043327.19969392,121251995,0,3,254545200,2255,17,0.6,42.689880599999995,-84.4887431,275.75,1.0424994230270386,20.26014518737793,0.007000000216066837,0.0,1
1680043327.39971781,121452019,0,3,254545400,2255,17,0.6,42.6898821,-84.4887423,275.75,0.7896208167076111,22.40776252746582,0.0950000062584877,0.0,1
1680043327.61983776,121672139,0,3,254545600,2255,17,0.6,42.6898832,-84.48874169999999,275.76,0.5465757250785828,25.580522537231445,0.003000000026077032,0.0,1
1680043327.81978583,121872087,0,3,254545800,2255,18,0.6,42.6898839,-84.4887411,275.76,0.3274340033531189,31.894088745117188,-0.09200000762939453,0.0,1
1680043328.00001383,122052315,0,3,254546000,2255,18,0.6,42.689884299999996,-84.4887408,275.75,0.18391847610473633,34.81336975097656,0.029000001028180122,0.0,1
1680043328.21997881,122272280,0,3,254546200,2255,18,0.6,42.6898844,-84.4887406,275.74,0.044384684413671494,104.34931945800781,0.013000000268220901,0.0,1
1680043328.42004871,122472350,0,3,254546400,2255,18,0.6,42.6898844,-84.48874049999999,275.74,0.07323933392763138,145.00796508789062,-0.004000000189989805,0.0,1
1680043328.62012887,122672430,0,3,254546600,2255,18,0.6,42.6898842,-84.4887404,275.73,0.08558621257543564,149.83993530273438,-0.05400000140070915,0.0,1
1680043328.81999373,122872295,0,3,254546800,2255,18,0.6,42.6898841,-84.48874029999999,275.72,0.07905694842338562,145.30484008789062,-0.006000000052154064,0.0,1
1680043329.01995587,123072257,0,3,254547000,2255,18,0.6,42.6898841,-84.4887402,275.71,0.03832753747701645,74.87598419189453,0.02800000086426735,0.0,1
1680043329.22029281,123272594,0,3,254547200,2255,18,0.6,42.6898841,-84.4887401,275.7,0.0752396211028099,66.50142669677734,0.012000000104308128,0.0,1
1680043329.39979172,123452093,0,3,254547400,2255,18,0.6,42.6898842,-84.48873999999999,275.69,0.07500667124986649,42.83891677856445,0.06400000303983688,0.0,1
1680043329.59983873,123652140,0,3,254547600,2255,17,0.6,42.6898842,-84.48873979999999,275.68,0.06859300285577774,44.40933609008789,0.06200000271201134,0.0,1
1680043329.81967473,123871976,0,3,254547800,2255,17,0.6,42.689884299999996,-84.48873979999999,275.68,0.04512206092476845,12.804265022277832,0.03100000135600567,0.0,1
1680043330.01979280,124072094,0,3,254548000,2255,17,0.6,42.689884299999996,-84.48873979999999,275.68,0.019999999552965164,323.1300964355469,-0.009000000543892384,0.0,1
1680043330.20007277,124252374,0,3,254548200,2255,17,0.6,42.6898842,-84.48873979999999,275.7,0.03200000151991844,270.0,-0.032999999821186066,0.0,1
1680043330.40004492,124452346,0,3,254548400,2255,17,0.6,42.6898842,-84.4887399,275.71,0.027856776490807533,291.0375061035156,-0.03200000151991844,0.0,1
1680043330.60014391,124652445,0,3,254548600,2255,17,0.6,42.6898841,-84.48873999999999,275.73,0.03860051929950714,286.55706787109375,0.03400000184774399,0.0,1
1680043330.79997492,124852276,0,3,254548800,2255,17,0.62,42.6898841,-84.4887401,275.73,0.05345091596245766,252.58203125,-0.03700000047683716,0.0,1
1680043330.99972773,125052029,0,3,254549000,2255,17,0.62,42.689884,-84.48874029999999,275.76,0.04661545157432556,305.3948059082031,0.015000000596046448,0.0,1
1680043331.19979692,125252098,0,3,254549200,2255,17,0.62,42.689884,-84.48874029999999,275.78000000000003,0.029681645333766937,327.3807678222656,0.02500000037252903,0.0,1
1680043331.39983392,125452135,0,3,254549400,2255,17,0.62,42.6898839,-84.4887404,275.79,0.020518286153674126,313.02508544921875,0.027000000700354576,0.0,1
1680043331.59979272,125652094,0,3,254549600,2255,17,0.62,42.6898839,-84.4887404,275.8,0.021840332075953484,254.0546112060547,-0.024000000208616257,0.0,1
1680043331.79968190,125851983,0,3,254549800,2255,17,0.62,42.6898838,-84.48874049999999,275.84000000000003,0.022203605622053146,305.837646484375,0.0560000017285347,0.0,1
1680043332.02003574,126072337,0,3,254550000,2255,17,0.62,42.689883699999996,-84.48874049999999,275.86,0.039000000804662704,337.380126953125,0.0650000050663948,0.0,1
1680043332.19998789,126252289,0,3,254550200,2255,17,0.62,42.689883699999996,-84.48874049999999,275.87,0.037054017186164856,356.90594482421875,0.04800000041723251,0.0,1
1680043332.40002894,126452330,0,3,254550400,2255,17,0.62,42.689883699999996,-84.48874049999999,275.88,0.016763055697083473,342.6459655761719,0.06300000101327896,0.0,1
1680043332.59993672,126652238,0,3,254550600,2255,18,0.62,42.689883699999996,-84.48874049999999,275.88,0.03026549331843853,352.4053649902344,0.058000002056360245,0.0,1
1680043332.80019474,126852496,0,3,254550800,2255,18,0.62,42.689883699999996,-84.48874049999999,275.89,0.0070710680447518826,261.8699035644531,-0.01100000087171793,0.0,1
1680043333.02013779,127072439,0,3,254551000,2255,18,0.62,42.689883699999996,-84.48874049999999,275.92,0.018681542947888374,285.52410888671875,0.052000001072883606,0.0,1
1680043333.19984388,127252145,0,3,254551200,2255,18,0.62,42.689883699999996,-84.48874049999999,275.91,0.023600848391652107,323.61566162109375,-0.006000000052154064,0.0,1
1680043333.39978695,127452088,0,3,254551400,2255,18,0.62,42.689883599999995,-84.48874049999999,275.93,0.01900000125169754,0.0,0.07700000703334808,0.0,1
1680043333.59966493,127651966,0,3,254551600,2255,18,0.62,42.689883699999996,-84.48874049999999,275.93,0.03157530725002289,349.0459289550781,0.02500000037252903,0.0,1
1680043333.80013680,127852438,0,3,254551800,2255,18,0.6,42.689883699999996,-84.48874049999999,275.93,0.029698487371206284,315.0,0.0990000069141388,0.0,1
1680043334.00010991,128052411,0,3,254552000,2255,18,0.6,42.689883699999996,-84.48874049999999,275.92,0.027658633887767792,282.52880859375,0.04400000348687172,0.0,1
1680043334.21998286,128272284,0,3,254552200,2255,18,0.6,42.6898838,-84.48874049999999,275.91,0.02420743741095066,321.7098388671875,0.009000000543892384,0.0,1
1680043334.39969373,128451995,0,3,254552400,2255,18,0.6,42.6898838,-84.48874049999999,275.91,0.027658633887767792,347.47119140625,0.04400000348687172,0.0,1
1680043334.59974480,128652046,0,3,254552600,2255,18,0.6,42.6898839,-84.48874049999999,275.89,0.03298484534025192,345.9637451171875,0.020000001415610313,0.0,1
1680043334.79981685,128852118,0,3,254552800,2255,18,0.6,42.689884,-84.48874049999999,275.90000000000003,0.06576474010944366,351.25384521484375,0.06800000369548798,0.0,1
1680043335.00014687,129052448,0,3,254553000,2255,18,0.6,42.6898842,-84.48874049999999,275.89,0.05028916522860527,342.6459655761719,0.06000000238418579,0.0,1
1680043335.20001388,129252315,0,3,254553200,2255,18,0.6,42.689884299999996,-84.48874049999999,275.87,0.025495098903775215,318.1798400878906,0.0020000000949949026,0.0,1
1680043335.39984274,129452144,0,3,254553400,2255,18,0.6,42.689884299999996,-84.48874049999999,275.87,0.018601076677441597,323.74615478515625,0.049000002443790436,0.0,1
1680043335.59994984,129652251,0,3,254553600,2255,18,0.6,42.6898844,-84.48874049999999,275.86,0.016278820112347603,317.48956298828125,-0.01100000087171793,0.0,1
1680043335.80005074,129852352,0,3,254553800,2255,18,0.6,42.6898845,-84.4887406,275.85,0.025317978113889694,9.090276718139648,0.05100000277161598,0.0,1
1680043335.99977684,130052078,0,3,254554000,2255,18,0.6,42.6898845,-84.48874049999999,275.83,0.014317820779979229,77.90524291992188,0.10300000756978989,0.0,1
1680043336.19971085,130252012,0,3,254554200,2255,18,0.6,42.6898846,-84.48874049999999,275.81,0.006324555724859238,71.56504821777344,0.020000001415610313,0.0,1
1680043336.39971781,130452019,0,3,254554400,2255,18,0.6,42.6898846,-84.4887406,275.79,0.012727922759950161,225.0,0.06100000441074371,0.0,1
1680043336.61979795,130672099,0,3,254554600,2255,18,0.6,42.6898846,-84.4887406,275.78000000000003,0.017720045521855354,253.6104736328125,0.0560000017285347,0.0,1
1680043336.80011988,130852421,0,3,254554800,2255,18,0.6,42.6898847,-84.4887407,275.77,0.0430116280913353,271.33221435546875,-0.0010000000474974513,0.0,1
1680043337.00006485,131052366,0,3,254555000,2255,18,0.6,42.6898846,-84.4887409,275.78000000000003,0.06477653980255127,261.1193542480469,0.1380000114440918,0.0,1
1680043337.19987392,131252175,0,3,254555200,2255,18,0.6,42.6898847,-84.48874119999999,275.75,0.1383112519979477,277.895751953125,0.049000002443790436,0.0,1
1680043337.39999890,131452300,0,3,254555400,2255,18,0.6,42.6898847,-84.4887416,275.75,0.17824141681194305,276.76617431640625,-0.0430000014603138,0.0,1
1680043337.60004878,131652350,0,3,254555600,2255,18,0.6,42.6898847,-84.48874219999999,275.76,0.2582131028175354,275.5560302734375,0.0,0.0,1
1680043337.79975772,131852059,0,3,254555800,2255,18,0.6,42.6898848,-84.48874289999999,275.76,0.3169100880622864,274.34326171875,0.03400000184774399,0.0,1
1680043338.04002285,132092324,0,3,254556000,2255,18,0.6,42.6898848,-84.4887437,275.76,0.3561418354511261,276.2868957519531,0.14100000262260437,0.0,1
1680043338.19974184,132252043,0,3,254556200,2255,18,0.6,42.689884899999996,-84.48874459999999,275.74,0.33559650182724,282.2139892578125,0.027000000700354576,0.0,1
1680043338.39981794,132452119,0,3,254556400,2255,17,0.6,42.6898851,-84.4887454,275.72,0.4075389802455902,290.3914794921875,0.02500000037252903,0.0,1
1680043338.59982777,132652129,0,3,254556600,2255,17,0.6,42.6898854,-84.4887463,275.69,0.3192882835865021,290.5350341796875,0.021000001579523087,0.0,1
1680043338.79998279,132852284,0,3,254556800,2255,18,0.6,42.6898857,-84.48874699999999,275.7,0.36290082335472107,313.3251647949219,-0.01100000087171793,0.0,1
1680043338.99982572,133052127,0,3,254557000,2255,18,0.6,42.6898863,-84.4887475,275.69,0.39462006092071533,337.65936279296875,0.08800000697374344,0.0,1
1680043339.19994879,133252250,0,3,254557200,2255,18,0.6,42.6898869,-84.4887478,275.68,0.3179072439670563,342.9900207519531,0.12700000405311584,0.0,1
1680043339.39998484,133452286,0,3,254557400,2255,18,0.6,42.689887399999996,-84.488748,275.68,0.3904971480369568,345.4655456542969,0.10600000619888306,0.0,1
1680043339.60005283,133652354,0,3,254557600,2255,18,0.6,42.6898881,-84.4887483,275.64,0.37700003385543823,336.2226867675781,0.10300000756978989,0.0,1
1680043339.79969072,133851992,0,3,254557800,2255,18,0.6,42.689888599999996,-84.4887487,275.62,0.2759366035461426,319.5563659667969,0.10700000822544098,0.0,1
1680043339.99972272,134052024,0,3,254558000,2255,18,0.6,42.6898889,-84.4887493,275.59000000000003,0.2650056779384613,294.05029296875,0.11800000816583633,0.0,1
1680043340.19979572,134252097,0,3,254558200,2255,18,0.6,42.689889,-84.4887498,275.57,0.2000100165605545,269.42706298828125,0.17600001394748688,0.0,1
1680043340.39981675,134452118,0,3,254558400,2255,18,0.6,42.6898889,-84.48875029999999,275.54,0.19025246798992157,257.8631896972656,0.11900000274181366,0.0,1
1680043340.60007572,134652377,0,3,254558600,2255,18,0.6,42.6898888,-84.4887506,275.52,0.06236987188458443,257.96942138671875,0.15200001001358032,0.0,1
1680043340.79964876,134851950,0,3,254558800,2255,18,0.6,42.6898888,-84.4887506,275.49,0.019723083823919296,120.46554565429688,0.12000000476837158,0.0,1
1680043341.00006986,135052371,0,3,254559000,2255,18,0.6,42.6898888,-84.4887506,275.47,0.06630988419055939,23.08513069152832,0.14000000059604645,0.0,1
1680043341.20004988,135252351,0,3,254559200,2255,18,0.6,42.6898889,-84.4887506,275.46,0.07289719581604004,26.91655158996582,0.06000000238418579,0.0,1
1680043341.40013289,135452434,0,3,254559400,2255,18,0.6,42.689889,-84.4887505,275.46,0.10903669148683548,7.907162666320801,0.16300000250339508,0.0,1
1680043341.59998393,135652285,0,3,254559600,2255,18,0.6,42.689889099999995,-84.4887505,275.45,0.07100000232458115,0.0,0.1940000057220459,0.0,1
1680043341.79972172,135852023,0,3,254559800,2255,18,0.6,42.689889099999995,-84.4887506,275.43,0.07762087881565094,338.0615234375,0.07200000435113907,0.0,1
1680043341.99981189,136052113,0,3,254560000,2255,18,0.6,42.689889199999996,-84.4887507,275.43,0.059033893048763275,1.9414862394332886,0.10200000554323196,0.0,1
1680043342.21980095,136272102,0,3,254560200,2255,18,0.6,42.689889199999996,-84.4887507,275.42,0.04248529300093651,333.4349365234375,0.01600000075995922,0.0,1
1680043342.40007091,136452372,0,3,254560400,2255,18,0.6,42.689889199999996,-84.48875079999999,275.44,0.05345091596245766,342.58203125,0.15000000596046448,0.0,1
