timestamp,TimeUS,Lat,Lng,Alt,RelHomeAlt,RelOriginAlt
1680043265.62024474,59672546,42.6900105,-84.4889319,270.0799865722656,0.005036801099777222,-0.7949631810188293
1680043265.72020674,59772508,42.6900105,-84.4889319,270.0799865722656,0.00354120135307312,-0.7964587807655334
1680043265.82044792,59872749,42.6900105,-84.4889318,270.0799865722656,0.0017122924327850342,-0.7982876896858215
1680043265.92043877,59972740,42.6900104,-84.4889318,270.07000732421875,-0.0006349384784698486,-0.8006349205970764
1680043266.02050281,60072804,42.6900104,-84.4889318,270.07000732421875,-0.0031619369983673096,-0.8031619191169739
1680043266.12054086,60172842,42.6900104,-84.4889318,270.07000732421875,-0.005860120058059692,-0.8058601021766663
1680043266.22020888,60272510,42.6900104,-84.4889318,270.07000732421875,-0.008147746324539185,-0.8081477284431458
1680043266.32057381,60372875,42.6900103,-84.4889317,270.05999755859375,-0.014162808656692505,-0.8141627907752991
1680043266.42047381,60472775,42.6900103,-84.4889317,270.05999755859375,-0.019371062517166138,-0.8193710446357727
1680043266.52040076,60572702,42.6900103,-84.4889317,270.04998779296875,-0.023289471864700317,-0.8232894539833069
1680043266.62043285,60672734,42.6900103,-84.4889317,270.04998779296875,-0.0267503559589386,-0.8267503380775452
1680043266.72042990,60772731,42.6900103,-84.4889317,270.04998779296875,-0.028644591569900513,-0.8286445736885071
1680043266.82044888,60872750,42.690010199999996,-84.4889317,270.0400085449219,-0.031391412019729614,-0.8313913941383362
1680043266.92071986,60973021,42.690010199999996,-84.4889316,270.0400085449219,-0.03672388195991516,-0.8367238640785217
1680043267.02082491,61073126,42.690010199999996,-84.4889316,270.0299987792969,-0.04148438572883606,-0.8414843678474426
1680043267.12051272,61172814,42.690010099999995,-84.4889317,270.0299987792969,-0.04488900303840637,-0.8448889851570129
1680043267.22053194,61272833,42.690010099999995,-84.4889317,270.0299987792969,-0.04829338192939758,-0.8482933640480042
1680043267.32051587,61372817,42.69001,-84.4889317,270.0299987792969,-0.0493798553943634,-0.84937983751297
1680043267.42044687,61472748,42.69001,-84.4889317,270.0199890136719,-0.05124500393867493,-0.8512449860572815
1680043267.52043080,61572732,42.6900099,-84.4889317,270.0199890136719,-0.05508330464363098,-0.8550832867622375
1680043267.62044287,61672744,42.6900099,-84.4889317,270.0199890136719,-0.05907371640205383,-0.8590736985206604
1680043267.72044182,61772743,42.6900099,-84.4889317,270.0099792480469,-0.06106951832771301,-0.8610695004463196
1680043267.82053375,61872835,42.6900099,-84.4889316,270.0099792480469,-0.06372073292732239,-0.863720715045929
1680043267.92055774,61972859,42.6900098,-84.4889316,270.0099792480469,-0.06719782948493958,-0.8671978116035461
1680043268.02077079,62073072,42.6900098,-84.4889316,270.0,-0.07072904706001282,-0.8707290291786194
1680043268.12020993,62172511,42.6900098,-84.4889316,270.0,-0.07410028576850891,-0.8741002678871155
1680043268.22025776,62272559,42.6900098,-84.4889317,270.0,-0.07787564396858215,-0.8778756260871887
1680043268.32029390,62372595,42.6900097,-84.4889316,269.989990234375,-0.08060315251350403,-0.8806031346321106
1680043268.42026281,62472564,42.6900097,-84.4889316,269.989990234375,-0.08307841420173645,-0.883078396320343
1680043268.52023292,62572534,42.6900097,-84.4889316,269.989990234375,-0.08568814396858215,-0.8856881260871887
1680043268.62011075,62672412,42.690009599999996,-84.4889316,269.989990234375,-0.08794596791267395,-0.8879459500312805
1680043268.72017288,62772474,42.690009599999996,-84.4889316,269.97998046875,-0.09115532040596008,-0.8911553025245667
1680043268.82024980,62872551,42.690009499999995,-84.4889316,269.97998046875,-0.09411671757698059,-0.8941166996955872
1680043268.92052674,62972828,42.690009499999995,-84.4889316,269.97998046875,-0.09664013981819153,-0.8966401219367981
1680043269.02054691,63072848,42.6900094,-84.4889316,269.97998046875,-0.09919741749763489,-0.8991973996162415
1680043269.12027073,63172572,42.6900094,-84.48893149999999,269.9700012207031,-0.10495474934577942,-0.904954731464386
1680043269.22026181,63272563,42.6900094,-84.48893149999999,269.9700012207031,-0.10992482304573059,-0.9099248051643372
1680043269.32029390,63372595,42.6900093,-84.48893149999999,269.9499816894531,-0.12112000584602356,-0.9211199879646301
1680043269.42028379,63472585,42.6900093,-84.4889314,269.9499816894531,-0.12955692410469055,-0.9295569062232971
1680043269.52009678,63572398,42.6900092,-84.4889314,269.94000244140625,-0.13531330227851868,-0.9353132843971252
1680043269.62052584,63672827,42.6900092,-84.4889314,269.94000244140625,-0.13984301686286926,-0.9398429989814758
1680043269.72019982,63772501,42.6900092,-84.48893129999999,269.92999267578125,-0.14408472180366516,-0.9440847039222717
1680043269.82020283,63872504,42.6900092,-84.48893129999999,269.92999267578125,-0.14742568135261536,-0.9474256634712219
1680043269.92038584,63972687,42.6900091,-84.48893129999999,269.91998291015625,-0.15079644322395325,-0.9507964253425598
1680043270.02044773,64072749,42.6900091,-84.4889312,269.91998291015625,-0.15443947911262512,-0.9544394612312317
1680043270.12040091,64172702,42.6900091,-84.4889312,269.91998291015625,-0.15620234608650208,-0.9562023282051086
1680043270.22041392,64272715,42.6900091,-84.4889312,269.91998291015625,-0.15225103497505188,-0.9522510170936584
1680043270.32062984,64372931,42.6900091,-84.4889312,269.92999267578125,-0.14802268147468567,-0.9480226635932922
1680043270.42017293,64472474,42.6900091,-84.4889311,269.92999267578125,-0.1427007019519806,-0.9427006840705872
1680043270.52052784,64572829,42.6900091,-84.4889311,269.94000244140625,-0.13141396641731262,-0.9314139485359192
1680043270.62056780,64672869,42.6900091,-84.4889311,269.9599914550781,-0.11794117093086243,-0.917941153049469
1680043270.72051573,64772817,42.6900091,-84.488931,269.97998046875,-0.09977486729621887,-0.8997748494148254
1680043270.82055187,64872853,42.6900092,-84.488931,269.989990234375,-0.08095362782478333,-0.8809536099433899
1680043270.92048883,64972790,42.6900092,-84.488931,270.0099792480469,-0.06585767865180969,-0.8658576607704163
1680043271.02044272,65072744,42.6900092,-84.488931,270.0299987792969,-0.04584839940071106,-0.8458483815193176
1680043271.12045789,65172759,42.6900093,-84.488931,270.04998779296875,-0.020537883043289185,-0.8205378651618958
1680043271.22078490,65273086,42.6900093,-84.488931,270.0899963378906,0.010617464780807495,-0.7893825173377991
1680043271.32050776,65372809,42.6900094,-84.4889309,270.1199951171875,0.0461096465587616,-0.753890335559845
1680043271.42053390,65472835,42.6900094,-84.4889309,270.1600036621094,0.08677241206169128,-0.7132275700569153
1680043271.52056789,65572869,42.6900094,-84.4889309,270.2099914550781,0.13346359133720398,-0.6665363907814026
1680043271.62020874,65672510,42.6900094,-84.48893079999999,270.2599792480469,0.18105217814445496,-0.6189478039741516
1680043271.72020674,65772508,42.6900093,-84.48893079999999,270.30999755859375,0.23468443751335144,-0.5653155446052551
1680043271.82025981,65872561,42.6900093,-84.4889307,270.3699951171875,0.2915966212749481,-0.5084033608436584
1680043271.92024183,65972543,42.6900092,-84.4889307,270.42999267578125,0.350065678358078,-0.44993430376052856
1680043272.02027678,66072578,42.6900092,-84.4889307,270.47998046875,0.4091190993785858,-0.39088088274002075
1680043272.12021089,66172512,42.6900092,-84.48893079999999,270.54998779296875,0.47508880496025085,-0.3249111771583557
1680043272.22021294,66272514,42.6900092,-84.48893079999999,270.6199951171875,0.5408730506896973,-0.2591269612312317
1680043272.32057285,66372874,42.6900092,-84.48893079999999,270.67999267578125,0.6077262759208679,-0.19227369129657745
1680043272.42057180,66472873,42.6900091,-84.48893079999999,270.75,0.6743370890617371,-0.1256628781557083
1680043272.52019691,66572498,42.6900091,-84.4889307,270.80999755859375,0.7366308569908142,-0.06336911022663116
1680043272.62026072,66672562,42.6900091,-84.4889305,270.8699951171875,0.7962449193000793,-0.0037550460547208786
1680043272.72025275,66772554,42.690008999999996,-84.48893009999999,270.91998291015625,0.8492485880851746,0.04924862086772919
1680043272.82024980,66872551,42.690008999999996,-84.48892959999999,270.97998046875,0.90121990442276,0.10121993720531464
1680043272.92025375,66972555,42.690008999999996,-84.48892889999999,271.0199890136719,0.9447631239891052,0.14476315677165985
1680043273.02028084,67072582,42.690008999999996,-84.4889281,271.05999755859375,0.9846072793006897,0.18460731208324432
1680043273.12016082,67172462,42.690008899999995,-84.48892719999999,271.1000061035156,1.0200856924057007,0.22008566558361053
1680043273.22021174,67272513,42.6900088,-84.4889262,271.1300048828125,1.0535589456558228,0.2535589337348938
1680043273.32040381,67372705,42.6900086,-84.488925,271.1600036621094,1.083505392074585,0.283505380153656
1680043273.42053890,67472840,42.6900082,-84.4889238,271.19000244140625,1.1114720106124878,0.31147199869155884
1680043273.52053785,67572839,42.6900079,-84.4889226,271.2099914550781,1.1312037706375122,0.33120375871658325
1680043273.62027287,67672574,42.6900075,-84.4889212,271.2200012207031,1.1438592672348022,0.3438592553138733
1680043273.72037792,67772679,42.6900069,-84.4889199,271.22998046875,1.1546872854232788,0.35468727350234985
1680043273.82038474,67872686,42.6900064,-84.48891859999999,271.22998046875,1.1579082012176514,0.3579081892967224
1680043273.92038488,67972686,42.6900058,-84.4889171,271.2200012207031,1.1413025856018066,0.3413025736808777
1680043274.02042389,68072725,42.690005299999996,-84.48891549999999,271.1999816894531,1.1231294870376587,0.32312947511672974
1680043274.12042785,68172729,42.690004599999995,-84.4889139,271.16998291015625,1.0976537466049194,0.2976537346839905
1680043274.22051883,68272820,42.6900039,-84.4889121,271.1499938964844,1.0724669694900513,0.2724669575691223
1680043274.32075572,68373057,42.6900031,-84.4889103,271.1199951171875,1.045881986618042,0.24588195979595184
1680043274.42075086,68473052,42.6900024,-84.48890829999999,271.1000061035156,1.0226905345916748,0.22269050776958466
1680043274.52048683,68572788,42.6900014,-84.48890639999999,271.0799865722656,1.0087810754776,0.20878104865550995
1680043274.62044072,68672742,42.690000399999995,-84.4889044,271.07000732421875,0.99769526720047,0.1976952999830246
1680043274.72025394,68772555,42.6899993,-84.4889024,271.07000732421875,0.9909573197364807,0.19095735251903534
1680043274.82027483,68872576,42.6899983,-84.4889003,271.05999755859375,0.9877572655677795,0.18775729835033417
1680043274.92014289,68972444,42.689997,-84.4888983,271.07000732421875,0.9915480017662048,0.19154803454875946
1680043275.02021790,69072519,42.6899958,-84.4888963,271.07000732421875,0.998179018497467,0.19817905128002167
1680043275.12024784,69172549,42.689994399999996,-84.4888943,271.0899963378906,1.0149675607681274,0.2149675339460373
1680043275.22025681,69272558,42.689993099999995,-84.4888922,271.1099853515625,1.0323615074157715,0.23236148059368134
1680043275.32029295,69372594,42.6899916,-84.4888904,271.1300048828125,1.059975028038025,0.25997501611709595
1680043275.42065382,69472955,42.6899903,-84.4888884,271.1600036621094,1.0893621444702148,0.2893621325492859
1680043275.52044272,69572744,42.6899887,-84.4888867,271.19000244140625,1.1191071271896362,0.3191071152687073
1680043275.62027574,69672577,42.6899873,-84.4888848,271.2200012207031,1.1496466398239136,0.3496466279029846
1680043275.72045994,69772761,42.6899857,-84.48888319999999,271.2599792480469,1.1855019330978394,0.3855019211769104
1680043275.82047486,69872776,42.6899841,-84.4888816,271.29998779296875,1.2201720476150513,0.4201720356941223
1680043275.92053580,69972837,42.6899825,-84.48888,271.3299865722656,1.2571616172790527,0.4571616053581238
1680043276.02057290,70072874,42.689980999999996,-84.48887839999999,271.3699951171875,1.2937957048416138,0.4937956929206848
1680043276.12053990,70172841,42.6899795,-84.4888768,271.4100036621094,1.3317517042160034,0.5317516922950745
1680043276.22057390,70272875,42.689977999999996,-84.4888752,271.4499816894531,1.3720523118972778,0.5720522999763489
1680043276.32051277,70372814,42.6899765,-84.4888737,271.489990234375,1.4133567810058594,0.6133567690849304
1680043276.42045188,70472753,42.689975,-84.4888723,271.5299987792969,1.4599131345748901,0.6599131226539612
1680043276.52044177,70572743,42.6899734,-84.4888709,271.5899963378906,1.5138157606124878,0.7138157486915588
1680043276.62064981,70672951,42.689971899999996,-84.48886949999999,271.6399841308594,1.568092703819275,0.768092691898346
1680043276.72046781,70772769,42.6899705,-84.48886809999999,271.6999816894531,1.6213914155960083,0.8213914036750793
1680043276.82053876,70872840,42.6899691,-84.4888667,271.75,1.6738940477371216,0.8738940358161926
1680043276.92057085,70972872,42.6899677,-84.4888653,271.7900085449219,1.71583890914917,0.915838897228241
1680043277.02053380,71072835,42.689966399999996,-84.48886379999999,271.8299865722656,1.7565529346466064,0.9565529227256775
1680043277.12053585,71172837,42.689965099999995,-84.4888624,271.8699951171875,1.7946245670318604,0.9946245551109314
1680043277.22049689,71272798,42.6899637,-84.488861,271.9100036621094,1.8336762189865112,1.033676266670227
1680043277.32050085,71372802,42.6899624,-84.48885969999999,271.9499816894531,1.8716105222702026,1.0716105699539185
1680043277.42046380,71472765,42.6899611,-84.48885829999999,271.97998046875,1.9088503122329712,1.108850359916687
1680043277.52077675,71573078,42.6899598,-84.488857,272.0199890136719,1.9475878477096558,1.1475878953933716
1680043277.62046981,71672771,42.689958399999995,-84.4888557,272.05999755859375,1.9840468168258667,1.1840468645095825
1680043277.72053075,71772832,42.6899571,-84.4888543,272.0899963378906,2.01775860786438,1.2177585363388062
1680043277.82055879,71872860,42.6899558,-84.48885299999999,272.1300048828125,2.051631450653076,1.2516313791275024
1680043277.92025685,71972558,42.6899546,-84.4888517,272.1600036621094,2.085212230682373,1.2852121591567993
1680043278.02027488,72072576,42.6899533,-84.48885039999999,272.19000244140625,2.1181769371032715,1.3181769847869873
1680043278.12025476,72172556,42.689952,-84.4888491,272.2200012207031,2.1458661556243896,1.345866084098816
1680043278.22024679,72272548,42.689950599999996,-84.4888478,272.25,2.172492742538452,1.372492790222168
1680043278.32028580,72372587,42.689949299999995,-84.4888464,272.2799987792969,2.2022948265075684,1.4022948741912842
1680043278.42026377,72472565,42.6899479,-84.48884509999999,272.30999755859375,2.231675386428833,1.4316754341125488
1680043278.52047276,72572774,42.6899466,-84.4888438,272.3399963378906,2.2621700763702393,1.462170124053955
1680043278.62052774,72672829,42.6899452,-84.48884249999999,272.3699951171875,2.2908411026000977,1.4908411502838135
1680043278.72055578,72772857,42.689943899999996,-84.48884129999999,272.3899841308594,2.3138089179992676,1.5138088464736938
1680043278.82024479,72872546,42.689942699999996,-84.48884009999999,272.4100036621094,2.3340330123901367,1.5340330600738525
1680043278.92039680,72972698,42.689941399999995,-84.488839,272.42999267578125,2.351438522338867,1.5514384508132935
1680043279.02045488,73072756,42.689940199999995,-84.488838,272.44000244140625,2.366783618927002,1.5667835474014282
1680043279.12038088,73172682,42.6899389,-84.4888369,272.4499816894531,2.37951397895813,1.5795140266418457
1680043279.22039485,73272696,42.6899376,-84.4888359,272.4700012207031,2.3902909755706787,1.590290904045105
1680043279.32043076,73372732,42.6899364,-84.4888349,272.47998046875,2.4023492336273193,1.6023491621017456
1680043279.42043090,73472732,42.6899351,-84.4888339,272.489990234375,2.4149537086486816,1.6149537563323975
1680043279.52039981,73572701,42.6899339,-84.48883289999999,272.5,2.4262187480926514,1.6262186765670776
1680043279.62077594,73673077,42.6899326,-84.4888321,272.5099792480469,2.4383153915405273,1.6383153200149536
1680043279.72047377,73772775,42.6899315,-84.4888311,272.5199890136719,2.444897413253784,1.6448973417282104
1680043279.82039690,73872698,42.6899303,-84.48883029999999,272.5299987792969,2.453183174133301,1.653183102607727
1680043279.92044377,73972745,42.6899291,-84.48882929999999,272.5400085449219,2.4618659019470215,1.6618659496307373
1680043280.02039695,74072698,42.6899279,-84.4888285,272.54998779296875,2.4709081649780273,1.6709080934524536
1680043280.12038994,74172691,42.689926899999996,-84.4888277,272.54998779296875,2.4733028411865234,1.6733028888702393
1680043280.22040081,74272702,42.6899258,-84.488827,272.54998779296875,2.478510618209839,1.6785105466842651
1680043280.32044983,74372751,42.6899247,-84.4888264,272.55999755859375,2.485032081604004,1.6850320100784302
1680043280.42037272,74472674,42.6899236,-84.48882569999999,272.57000732421875,2.49580717086792,1.6958070993423462
1680043280.52049184,74572793,42.6899227,-84.48882499999999,272.5799865722656,2.508225679397583,1.7082257270812988
1680043280.62072682,74673028,42.6899217,-84.4888244,272.6000061035156,2.5243842601776123,1.7243843078613281
1680043280.72054291,74772844,42.689920699999995,-84.48882379999999,272.6199951171875,2.5492606163024902,1.7492605447769165
1680043280.82052279,74872824,42.6899198,-84.4888232,272.6499938964844,2.573747396469116,1.773747444152832
1680043280.92045283,74972754,42.6899188,-84.4888225,272.66998291015625,2.5988781452178955,1.7988780736923218
1680043281.02024794,75072549,42.6899179,-84.4888218,272.6999816894531,2.6233575344085693,1.8233574628829956
1680043281.12025094,75172552,42.6899169,-84.4888209,272.7200012207031,2.6487181186676025,1.8487180471420288
1680043281.22014880,75272450,42.689915899999995,-84.4888201,272.75,2.6728978157043457,1.872897744178772
1680043281.32022786,75372529,42.6899148,-84.4888193,272.7699890136719,2.6979687213897705,1.8979686498641968
1680043281.42027283,75472574,42.6899138,-84.4888185,272.79998779296875,2.7233567237854004,1.9233566522598267
1680043281.52022886,75572530,42.689912799999995,-84.48881759999999,272.82000732421875,2.749484062194824,1.9494839906692505
1680043281.62027383,75672575,42.689911699999996,-84.4888168,272.8500061035156,2.775312662124634,1.97531259059906
1680043281.72062874,75772930,42.6899107,-84.488816,272.8800048828125,2.8021883964538574,2.0021884441375732
1680043281.82046580,75872767,42.689909799999995,-84.48881519999999,272.8999938964844,2.826225519180298,2.0262255668640137
1680043281.92025971,75972561,42.6899088,-84.4888143,272.91998291015625,2.8477046489715576,2.0477046966552734
1680043282.02028584,76072587,42.6899079,-84.4888134,272.94000244140625,2.8674826622009277,2.0674827098846436
1680043282.12013984,76172441,42.6899071,-84.4888126,272.9599914550781,2.882657289505005,2.0826573371887207
1680043282.22018194,76272483,42.689906199999996,-84.4888117,272.9700012207031,2.8982648849487305,2.0982649326324463
1680043282.32028794,76372589,42.6899054,-84.4888108,272.97998046875,2.90995454788208,2.109954595565796
1680043282.42025971,76472561,42.6899046,-84.48881,273.0,2.921959161758423,2.1219592094421387
1680043282.52021289,76572514,42.689903699999995,-84.4888091,273.0099792480469,2.93628191947937,2.136281967163086
1680043282.62028694,76672588,42.6899029,-84.4888083,273.0199890136719,2.9491004943847656,2.1491005420684814
1680043282.72027779,76772579,42.689902,-84.4888075,273.0299987792969,2.959212303161621,2.159212350845337
1680043282.82027173,76872573,42.6899012,-84.4888067,273.0400085449219,2.9684290885925293,2.168429136276245
1680043282.92048979,76972791,42.6899004,-84.4888058,273.04998779296875,2.9763832092285156,2.1763832569122314
1680043283.02047873,77072780,42.6898996,-84.488805,273.05999755859375,2.984503746032715,2.1845037937164307
1680043283.12051177,77172813,42.689898799999995,-84.48880419999999,273.07000732421875,2.995378255844116,2.195378303527832
1680043283.22054577,77272847,42.689898,-84.4888034,273.0799865722656,3.003420352935791,2.203420400619507
1680043283.32059383,77372895,42.6898972,-84.4888026,273.0799865722656,3.0079808235168457,2.2079808712005615
1680043283.42054892,77472850,42.689896399999995,-84.48880179999999,273.0899963378906,3.011584997177124,2.21158504486084
1680043283.52047491,77572776,42.6898956,-84.488801,273.0799865722656,3.0090043544769287,2.2090044021606445
1680043283.62045979,77672761,42.6898949,-84.4888002,273.0799865722656,3.005889415740967,2.2058894634246826
1680043283.72044373,77772745,42.6898942,-84.48879939999999,273.0799865722656,3.001209259033203,2.201209306716919
1680043283.82053685,77872838,42.6898936,-84.4887986,273.07000732421875,2.9952855110168457,2.1952855587005615
1680043283.92045879,77972760,42.689893,-84.4887978,273.05999755859375,2.984642267227173,2.1846423149108887
1680043284.02052283,78072824,42.6898925,-84.4887969,273.04998779296875,2.9754350185394287,2.1754350662231445
1680043284.12052584,78172827,42.6898921,-84.4887962,273.0400085449219,2.963437080383301,2.1634371280670166
1680043284.22045183,78272753,42.6898917,-84.4887954,273.0299987792969,2.951265573501587,2.1512656211853027
1680043284.32052374,78372825,42.6898912,-84.48879459999999,273.0199890136719,2.9451704025268555,2.1451704502105713
1680043284.42045689,78472758,42.6898908,-84.4887938,273.0199890136719,2.9400737285614014,2.140073776245117
1680043284.52039981,78572701,42.689890399999996,-84.488793,273.0099792480469,2.9374308586120605,2.1374309062957764
1680043284.62038684,78672688,42.68989,-84.48879219999999,273.0099792480469,2.936256170272827,2.136256217956543
1680043284.72040176,78772703,42.6898896,-84.48879149999999,273.0099792480469,2.9393310546875,2.139331102371216
1680043284.82043386,78872735,42.689889199999996,-84.4887907,273.0199890136719,2.943819522857666,2.143819570541382
1680043284.92051888,78972820,42.6898888,-84.4887899,273.0299987792969,2.9519364833831787,2.1519365310668945
1680043285.02056694,79072868,42.689888499999995,-84.48878909999999,273.0400085449219,2.9640390872955322,2.164039134979248
1680043285.12019587,79172497,42.6898881,-84.4887883,273.04998779296875,2.979527711868286,2.179527759552002
1680043285.22021985,79272521,42.6898878,-84.4887875,273.07000732421875,2.998349666595459,2.198349714279175
1680043285.32030988,79372611,42.689887399999996,-84.4887868,273.0899963378906,3.014786720275879,2.2147867679595947
1680043285.42026973,79472571,42.6898872,-84.4887859,273.1099853515625,3.032458543777466,2.2324585914611816
1680043285.52026081,79572562,42.6898869,-84.488785,273.1199951171875,3.049715757369995,2.249715805053711
1680043285.62026477,79672566,42.6898866,-84.48878409999999,273.1499938964844,3.070586681365967,2.2705867290496826
1680043285.72014880,79772450,42.6898863,-84.48878309999999,273.16998291015625,3.092022657394409,2.292022705078125
1680043285.82018781,79872489,42.689886099999995,-84.4887821,273.19000244140625,3.114298105239868,2.314298152923584
1680043285.92029881,79972600,42.6898858,-84.4887811,273.2099914550781,3.1334595680236816,2.3334596157073975
1680043286.02052379,80072825,42.6898856,-84.4887801,273.22998046875,3.155559539794922,2.3555595874786377
1680043286.12053275,80172834,42.6898853,-84.4887791,273.25,3.1750705242156982,2.375070571899414
1680043286.22026372,80272565,42.6898851,-84.48877809999999,273.2699890136719,3.1985340118408203,2.398534059524536
1680043286.32029676,80372598,42.689884899999996,-84.4887771,273.29998779296875,3.2254512310028076,2.4254512786865234
1680043286.42027783,80472579,42.6898847,-84.4887761,273.3299865722656,3.253535270690918,2.453535318374634
1680043286.52025795,80572559,42.6898845,-84.4887751,273.3599853515625,3.286196231842041,2.486196279525757
1680043286.62015176,80672453,42.689884299999996,-84.4887741,273.3999938964844,3.3202133178710938,2.5202133655548096
1680043286.72018790,80772489,42.6898842,-84.4887731,273.42999267578125,3.355314016342163,2.555314064025879
1680043286.82025385,80872555,42.6898841,-84.48877209999999,273.4599914550781,3.386833667755127,2.5868337154388428
1680043286.92054486,80972846,42.6898839,-84.4887712,273.489990234375,3.414360284805298,2.6143603324890137
1680043287.02056074,81072862,42.6898838,-84.4887703,273.5199890136719,3.4407362937927246,2.6407363414764404
1680043287.12050295,81172804,42.689883699999996,-84.4887694,273.5400085449219,3.461894989013672,2.6618950366973877
1680043287.22044873,81272750,42.689883599999995,-84.4887686,273.55999755859375,3.481719493865967,2.6817195415496826
1680043287.32030177,81372603,42.689883599999995,-84.4887677,273.5799865722656,3.500020980834961,2.7000210285186768
1680043287.42046690,81472768,42.689883599999995,-84.4887668,273.5899963378906,3.51484751701355,2.7148475646972656
1680043287.52046990,81572771,42.689883599999995,-84.488766,273.6000061035156,3.521043300628662,2.721043348312378
1680043287.62053394,81672835,42.689883699999996,-84.4887652,273.6000061035156,3.523808717727661,2.723808765411377
1680043287.72053385,81772835,42.689883699999996,-84.4887645,273.6000061035156,3.5242745876312256,2.7242746353149414
1680043287.82053685,81872838,42.689883699999996,-84.4887638,273.6000061035156,3.5231494903564453,2.723149538040161
1680043287.92054892,81972850,42.6898838,-84.4887631,273.5899963378906,3.5187265872955322,2.718726634979248
1680043288.02065778,82072959,42.6898839,-84.4887624,273.5899963378906,3.513547658920288,2.713547706604004
1680043288.12044382,82172745,42.689884,-84.4887617,273.5799865722656,3.5037457942962646,2.7037458419799805
1680043288.22028494,82272586,42.6898841,-84.488761,273.57000732421875,3.493649959564209,2.693650007247925
1680043288.32046580,82372767,42.689884299999996,-84.4887605,273.54998779296875,3.4795658588409424,2.679565906524658
1680043288.42044282,82472744,42.6898846,-84.4887601,273.5400085449219,3.4660191535949707,2.6660192012786865
1680043288.52045679,82572758,42.689884899999996,-84.4887597,273.5199890136719,3.4495656490325928,2.6495656967163086
1680043288.62049890,82672800,42.6898851,-84.4887595,273.5099792480469,3.4339020252227783,2.633902072906494
1680043288.72045183,82772753,42.6898853,-84.48875939999999,273.489990234375,3.418447494506836,2.6184475421905518
1680043288.82043982,82872741,42.689885499999995,-84.4887593,273.47998046875,3.404189109802246,2.604189157485962
1680043288.92072773,82973029,42.6898857,-84.48875939999999,273.4599914550781,3.388920783996582,2.588920831680298
1680043289.02045083,83072752,42.6898858,-84.4887595,273.4499816894531,3.3743085861206055,2.5743086338043213
1680043289.12024879,83172550,42.6898858,-84.4887597,273.44000244140625,3.361157178878784,2.5611572265625
1680043289.22026873,83272570,42.6898859,-84.48876,273.41998291015625,3.3492372035980225,2.5492372512817383
1680043289.32023883,83372540,42.6898858,-84.4887602,273.4100036621094,3.3393428325653076,2.5393428802490234
1680043289.42019773,83472499,42.6898858,-84.48876039999999,273.4100036621094,3.3302950859069824,2.5302951335906982
1680043289.52015591,83572457,42.6898857,-84.4887607,273.3899841308594,3.319546937942505,2.5195469856262207
1680043289.62054372,83672845,42.6898857,-84.4887609,273.3800048828125,3.3092093467712402,2.509209394454956
1680043289.72053289,83772834,42.6898857,-84.488761,273.3800048828125,3.3007900714874268,2.5007901191711426
1680043289.82028079,83872582,42.6898857,-84.4887612,273.3699951171875,3.292876958847046,2.4928770065307617
1680043289.92025375,83972555,42.6898857,-84.4887613,273.3599853515625,3.280086040496826,2.480086088180542
1680043290.02024674,84072548,42.6898857,-84.4887615,273.3399963378906,3.268718719482422,2.4687187671661377
1680043290.12033582,84172637,42.6898857,-84.48876159999999,273.3299865722656,3.2567501068115234,2.4567501544952393
1680043290.22015786,84272459,42.6898858,-84.4887617,273.32000732421875,3.2479326725006104,2.447932720184326
1680043290.32055283,84372854,42.6898859,-84.4887617,273.30999755859375,3.239529848098755,2.4395298957824707
1680043290.42056680,84472868,42.689886,-84.48876179999999,273.30999755859375,3.233274459838867,2.433274507522583
1680043290.52053690,84572838,42.689886099999995,-84.48876179999999,273.29998779296875,3.2263171672821045,2.4263172149658203
1680043290.62054372,84672845,42.6898863,-84.48876179999999,273.29998779296875,3.2222464084625244,2.4222464561462402
1680043290.72048092,84772782,42.6898864,-84.48876179999999,273.29998779296875,3.2209949493408203,2.420994997024536
1680043290.82044482,84872746,42.6898866,-84.48876179999999,273.29998779296875,3.222330331802368,2.422330379486084
1680043290.92044783,84972749,42.689886699999995,-84.48876179999999,273.29998779296875,3.221970796585083,2.421970844268799
1680043291.02065086,85072952,42.6898869,-84.4887617,273.29998779296875,3.2232067584991455,2.4232068061828613
1680043291.12047577,85172777,42.6898871,-84.4887617,273.29998779296875,3.225593090057373,2.425593137741089
1680043291.22054076,85272842,42.6898872,-84.4887617,273.30999755859375,3.232106924057007,2.4321069717407227
1680043291.32060289,85372904,42.689887399999996,-84.48876159999999,273.30999755859375,3.2397594451904297,2.4397594928741455
1680043291.42045379,85472755,42.6898875,-84.48876159999999,273.32000732421875,3.2477684020996094,2.447768449783325
1680043291.52037787,85572679,42.6898877,-84.4887615,273.3299865722656,3.2563583850860596,2.4563584327697754
1680043291.62044072,85672742,42.6898878,-84.4887615,273.3399963378906,3.2655553817749023,2.465555429458618
1680043291.72038078,85772682,42.689887999999996,-84.4887614,273.3500061035156,3.272656202316284,2.47265625
1680043291.82039690,85872698,42.6898881,-84.4887614,273.3599853515625,3.2799930572509766,2.4799931049346924
1680043291.92037177,85972673,42.6898883,-84.4887614,273.3599853515625,3.283808708190918,2.483808755874634
1680043292.02060390,86072905,42.6898884,-84.4887613,273.3599853515625,3.2886877059936523,2.488687753677368
1680043292.12051392,86172815,42.689888599999996,-84.4887612,273.3699951171875,3.2947981357574463,2.494798183441162
1680043292.22066689,86272968,42.6898887,-84.488761,273.3800048828125,3.3014650344848633,2.501465082168579
1680043292.32029581,86372597,42.6898889,-84.4887609,273.3800048828125,3.306696653366089,2.5066967010498047
1680043292.42026973,86472571,42.689889099999995,-84.4887607,273.3899841308594,3.3148422241210938,2.5148422718048096
1680043292.52028084,86572582,42.6898893,-84.48876059999999,273.3999938964844,3.3212645053863525,2.5212645530700684
1680043292.62025595,86672557,42.6898895,-84.48876039999999,273.3999938964844,3.328385591506958,2.528385639190674
1680043292.72023487,86772536,42.689889699999995,-84.4887602,273.4100036621094,3.333341360092163,2.533341407775879
1680043292.82026887,86872570,42.6898899,-84.48876,273.4100036621094,3.3383796215057373,2.538379669189453
1680043292.92015195,86972453,42.6898901,-84.4887598,273.41998291015625,3.342839479446411,2.542839527130127
1680043293.02018690,87072488,42.689890399999996,-84.4887595,273.41998291015625,3.346674680709839,2.5466747283935547
1680043293.12017894,87172480,42.6898906,-84.4887593,273.42999267578125,3.351330041885376,2.551330089569092
1680043293.22053075,87272832,42.689890899999995,-84.488759,273.42999267578125,3.3558413982391357,2.5558414459228516
1680043293.32058787,87372889,42.6898912,-84.48875869999999,273.42999267578125,3.358659505844116,2.558659553527832
1680043293.42027187,87472573,42.689891499999995,-84.4887584,273.42999267578125,3.359785795211792,2.559785842895508
1680043293.52025485,87572556,42.6898918,-84.4887581,273.42999267578125,3.358921527862549,2.5589215755462646
1680043293.62026882,87672570,42.6898921,-84.4887577,273.42999267578125,3.358304262161255,2.5583043098449707
1680043293.72024894,87772550,42.6898925,-84.4887574,273.42999267578125,3.357022762298584,2.5570228099823
1680043293.82015872,87872460,42.6898927,-84.4887571,273.42999267578125,3.3555126190185547,2.5555126667022705
1680043293.92018890,87972490,42.6898929,-84.4887569,273.42999267578125,3.3510355949401855,2.5510356426239014
1680043294.02017379,88072475,42.689893,-84.4887567,273.41998291015625,3.3457207679748535,2.5457208156585693
1680043294.12053990,88172841,42.689893,-84.4887565,273.4100036621094,3.3396811485290527,2.5396811962127686
1680043294.22021675,88272518,42.689893,-84.48875629999999,273.4100036621094,3.333216905593872,2.533216953277588
1680043294.32066393,88372965,42.689893,-84.48875609999999,273.3999938964844,3.3272573947906494,2.5272574424743652
1680043294.42046380,88472765,42.689893,-84.488756,273.3999938964844,3.3211305141448975,2.5211305618286133
1680043294.52043581,88572737,42.689893,-84.4887559,273.3899841308594,3.3133373260498047,2.5133373737335205
1680043294.62045574,88672757,42.689892799999996,-84.4887557,273.3800048828125,3.305062770843506,2.5050628185272217
1680043294.72046971,88772771,42.6898926,-84.48875559999999,273.3699951171875,3.294316530227661,2.494316577911377
1680043294.82072783,88873029,42.6898924,-84.4887555,273.3599853515625,3.283423900604248,2.483423948287964
1680043294.92057276,88972874,42.689892199999996,-84.4887554,273.3500061035156,3.271392822265625,2.471392869949341
1680043295.02045393,89072755,42.689892,-84.4887552,273.3399963378906,3.2613589763641357,2.4613590240478516
1680043295.12038088,89172682,42.6898918,-84.488755,273.32000732421875,3.249901056289673,2.4499011039733887
1680043295.22043777,89272739,42.689891599999996,-84.48875489999999,273.30999755859375,3.2382285594940186,2.4382286071777344
1680043295.32041788,89372719,42.6898913,-84.4887547,273.29998779296875,3.2270212173461914,2.4270212650299072
1680043295.42038679,89472688,42.689890999999996,-84.4887546,273.2900085449219,3.215033769607544,2.4150338172912598
1680043295.52040172,89572703,42.6898907,-84.4887545,273.2699890136719,3.19974422454834,2.3997442722320557
1680043295.62016082,89672462,42.689890299999995,-84.4887543,273.2599792480469,3.1858856678009033,2.385885715484619
1680043295.72018480,89772486,42.68989,-84.4887542,273.25,3.1738295555114746,2.3738296031951904
1680043295.82025194,89872553,42.689889699999995,-84.4887541,273.239990234375,3.165489435195923,2.3654894828796387
1680043295.92021680,89972518,42.6898894,-84.48875389999999,273.239990234375,3.163239002227783,2.363239049911499
1680043296.02023292,90072534,42.689889,-84.48875369999999,273.239990234375,3.164658546447754,2.3646585941314697
1680043296.12046981,90172771,42.6898887,-84.4887535,273.25,3.172731637954712,2.3727316856384277
1680043296.22044086,90272742,42.6898884,-84.4887533,273.2599792480469,3.1867644786834717,2.3867645263671875
1680043296.32029581,90372597,42.6898881,-84.4887531,273.2799987792969,3.204498529434204,2.40449857711792
1680043296.42037392,90472675,42.6898877,-84.488753,273.29998779296875,3.226313829421997,2.426313877105713
1680043296.52014589,90572447,42.6898875,-84.4887528,273.3299865722656,3.250808000564575,2.450808048248291
1680043296.62019277,90672494,42.6898872,-84.48875269999999,273.3599853515625,3.280414581298828,2.480414628982544
1680043296.72024083,90772542,42.689887,-84.48875249999999,273.3899841308594,3.3178396224975586,2.5178396701812744
1680043296.82022882,90872530,42.6898868,-84.4887523,273.42999267578125,3.356412649154663,2.556412696838379
1680043296.92026687,90972568,42.6898866,-84.4887521,273.4700012207031,3.3973684310913086,2.5973684787750244
1680043297.02028084,91072582,42.6898863,-84.4887518,273.5199890136719,3.4404609203338623,2.640460968017578
1680043297.12023783,91172539,42.689886099999995,-84.4887516,273.55999755859375,3.4839985370635986,2.6839985847473145
1680043297.22024775,91272549,42.6898858,-84.4887514,273.6000061035156,3.5252633094787598,2.7252633571624756
1680043297.32049990,91372801,42.6898856,-84.4887512,273.6300048828125,3.555577516555786,2.755577564239502
1680043297.42015386,91472455,42.6898853,-84.4887511,273.6600036621094,3.584935188293457,2.784935235977173
1680043297.52052379,91572825,42.689885,-84.4887509,273.69000244140625,3.6163573265075684,2.816357374191284
1680043297.62056494,91672866,42.6898847,-84.48875079999999,273.7200012207031,3.6471991539001465,2.8471992015838623
1680043297.72052789,91772829,42.6898844,-84.4887506,273.739990234375,3.6697804927825928,2.8697805404663086
1680043297.82056475,91872866,42.6898841,-84.4887504,273.7699890136719,3.6921041011810303,2.892104148864746
1680043297.92050576,91972807,42.6898838,-84.4887502,273.7900085449219,3.7146823406219482,2.914682388305664
1680043298.02046895,92072770,42.6898835,-84.48875,273.80999755859375,3.7347514629364014,2.934751510620117
1680043298.12045193,92172753,42.6898832,-84.4887498,273.8299865722656,3.7504096031188965,2.9504096508026123
1680043298.22067690,92272978,42.6898829,-84.4887495,273.8399963378906,3.7662763595581055,2.9662764072418213
1680043298.32052493,92372826,42.6898827,-84.4887493,273.8599853515625,3.781320810317993,2.981320858001709
1680043298.42055273,92472854,42.689882399999995,-84.488749,273.8699951171875,3.796717643737793,2.996717691421509
1680043298.52064276,92572944,42.6898822,-84.4887487,273.8800048828125,3.809584379196167,3.009584426879883
1680043298.62048888,92672790,42.689881899999996,-84.4887485,273.8999938964844,3.8222522735595703,3.022252321243286
1680043298.72039175,92772693,42.6898817,-84.4887481,273.9100036621094,3.8365869522094727,3.0365869998931885
1680043298.82044387,92872745,42.6898815,-84.4887478,273.91998291015625,3.84993052482605,3.0499305725097656
1680043298.92039275,92972694,42.689881299999996,-84.4887475,273.94000244140625,3.8637826442718506,3.0637826919555664
1680043299.02039480,93072696,42.6898811,-84.48874719999999,273.9499816894531,3.8791239261627197,3.0791239738464355
1680043299.12056375,93172865,42.689881,-84.4887468,273.9700012207031,3.8978168964385986,3.0978169441223145
1680043299.22046375,93272765,42.6898808,-84.4887464,273.989990234375,3.91642427444458,3.116424322128296
1680043299.32022381,93372525,42.689880699999996,-84.48874599999999,274.0099792480469,3.935976982116699,3.135977029800415
1680043299.42025781,93472559,42.6898805,-84.4887456,274.0299987792969,3.9572250843048096,3.1572251319885254
1680043299.52021480,93572516,42.6898804,-84.4887452,274.05999755859375,3.9804000854492188,3.1804001331329346
1680043299.62026072,93672562,42.6898802,-84.48874479999999,274.0799865722656,4.007867336273193,3.20786714553833
1680043299.72025490,93772556,42.689880099999996,-84.4887443,274.1099853515625,4.037783622741699,3.237783432006836
1680043299.82044673,93872748,42.689879999999995,-84.4887439,274.1499938964844,4.07077693939209,3.2707769870758057
1680043299.92025971,93972561,42.6898799,-84.4887435,274.17999267578125,4.103520393371582,3.3035202026367188
1680043300.02025580,94072557,42.6898798,-84.4887431,274.2099914550781,4.1356611251831055,3.335660934448242
1680043300.12013984,94172441,42.6898796,-84.4887427,274.25,4.17161750793457,3.371617555618286
1680043300.22018981,94272491,42.689879499999996,-84.4887423,274.2799987792969,4.206547737121582,3.406547784805298
1680043300.32026792,94372569,42.6898793,-84.4887418,274.30999755859375,4.239180088043213,3.4391801357269287
1680043300.42026973,94472571,42.6898792,-84.4887414,274.3399963378906,4.269673824310303,3.4696738719940186
1680043300.52021790,94572519,42.689879,-84.48874099999999,274.3699951171875,4.294615268707275,3.494615077972412
1680043300.62028074,94672582,42.689878799999995,-84.4887406,274.3899841308594,4.318600177764893,3.5185999870300293
1680043300.72043872,94772740,42.6898787,-84.4887402,274.41998291015625,4.340656280517578,3.540656089782715
1680043300.82045484,94872756,42.6898785,-84.4887397,274.42999267578125,4.35847282409668,3.5584728717803955
1680043300.92046881,94972770,42.689878199999995,-84.48873929999999,274.4499816894531,4.372580528259277,3.572580575942993
1680043301.02015281,95072454,42.689878,-84.4887389,274.4599914550781,4.387351989746094,3.5873520374298096
1680043301.12052774,95172829,42.6898778,-84.4887384,274.4700012207031,4.396404266357422,3.5964043140411377
1680043301.22057486,95272876,42.6898775,-84.488738,274.47998046875,4.4058942794799805,3.605894088745117
1680043301.32062578,95372927,42.6898773,-84.4887376,274.489990234375,4.414273738861084,3.6142737865448
1680043301.42056584,95472867,42.6898771,-84.4887371,274.5,4.420285701751709,3.6202855110168457
1680043301.52047992,95572781,42.689876999999996,-84.48873669999999,274.5,4.425772190093994,3.62577223777771
1680043301.62044287,95672744,42.6898769,-84.48873619999999,274.5,4.4288740158081055,3.628873825073242
1680043301.72045374,95772755,42.6898768,-84.48873569999999,274.5,4.428316116333008,3.6283161640167236
1680043301.82063174,95872933,42.6898767,-84.4887352,274.5,4.425364971160889,3.6253647804260254
1680043301.92015076,95972452,42.6898766,-84.4887347,274.489990234375,4.419144153594971,3.6191439628601074
1680043302.02040386,96072705,42.6898765,-84.4887342,274.489990234375,4.411084175109863,3.611083984375
1680043302.12049580,96172797,42.689876399999996,-84.48873359999999,274.47998046875,4.401037693023682,3.6010375022888184
1680043302.22047377,96272775,42.689876299999995,-84.48873309999999,274.4599914550781,4.38939094543457,3.589390754699707
1680043302.32055283,96372854,42.689876299999995,-84.4887325,274.4499816894531,4.376998424530029,3.576998233795166
1680043302.42045784,96472759,42.6898762,-84.48873189999999,274.44000244140625,4.362868309020996,3.562868118286133
1680043302.52045083,96572752,42.6898762,-84.4887313,274.41998291015625,4.344182968139648,3.544182777404785
1680043302.62024689,96672548,42.6898762,-84.48873069999999,274.3999938964844,4.325681686401367,3.525681734085083
1680043302.72035289,96772654,42.6898762,-84.48872999999999,274.3800048828125,4.3063507080078125,3.506350517272949
1680043302.82014179,96872443,42.6898762,-84.4887294,274.3599853515625,4.287506580352783,3.487506628036499
1680043302.92052078,96972822,42.6898762,-84.4887287,274.3399963378906,4.26676082611084,3.4667606353759766
1680043303.02058172,97072883,42.689876299999995,-84.488728,274.32000732421875,4.246941089630127,3.4469411373138428
1680043303.12020183,97172503,42.689876299999995,-84.4887273,274.29998779296875,4.2265238761901855,3.4265236854553223
1680043303.22026587,97272567,42.689876299999995,-84.48872659999999,274.2799987792969,4.207509994506836,3.4075100421905518
1680043303.32030177,97372603,42.689876399999996,-84.48872589999999,274.2599792480469,4.18902063369751,3.3890204429626465
1680043303.42027593,97472577,42.689876399999996,-84.48872519999999,274.25,4.1732683181762695,3.3732683658599854
1680043303.52024579,97572547,42.689876399999996,-84.48872449999999,274.239990234375,4.161118030548096,3.3611180782318115
1680043303.62026072,97672562,42.6898765,-84.4887237,274.22998046875,4.150866985321045,3.3508667945861816
1680043303.72014093,97772442,42.6898766,-84.488723,274.2200012207031,4.144567489624023,3.34456729888916
1680043303.82054472,97872846,42.6898768,-84.48872229999999,274.2099914550781,4.139346122741699,3.339345932006836
1680043303.92058086,97972882,42.6898769,-84.4887217,274.2099914550781,4.1346635818481445,3.3346633911132812
1680043304.02046895,98072770,42.689876999999996,-84.48872109999999,274.1999816894531,4.128818511962891,3.3288183212280273
1680043304.12038589,98172687,42.6898772,-84.4887205,274.1999816894531,4.1224517822265625,3.322451591491699
1680043304.22043395,98272735,42.6898773,-84.48872,274.19000244140625,4.115187644958496,3.315187454223633
1680043304.32043195,98372733,42.6898775,-84.4887194,274.17999267578125,4.106213092803955,3.306212902069092
1680043304.42039490,98472696,42.6898777,-84.48871869999999,274.16998291015625,4.098479747772217,3.2984797954559326
1680043304.52037477,98572676,42.6898779,-84.4887181,274.16998291015625,4.092556953430176,3.2925570011138916
1680043304.62039495,98672696,42.6898781,-84.48871749999999,274.1600036621094,4.088193893432617,3.288193702697754
1680043304.72065377,98772955,42.6898783,-84.48871679999999,274.1600036621094,4.085500240325928,3.2855002880096436
1680043304.82039595,98872697,42.6898785,-84.48871609999999,274.1600036621094,4.08466100692749,3.284660816192627
1680043304.92054391,98972845,42.689878799999995,-84.48871539999999,274.1600036621094,4.0857415199279785,3.2857415676116943
1680043305.02056384,99072865,42.689879,-84.4887147,274.1600036621094,4.088751792907715,3.2887518405914307
1680043305.12047482,99172776,42.6898792,-84.4887141,274.16998291015625,4.092494487762451,3.292494535446167
1680043305.22043276,99272734,42.689879399999995,-84.4887134,274.16998291015625,4.097412586212158,3.297412633895874
1680043305.32047176,99372773,42.689879499999996,-84.4887129,274.17999267578125,4.101888656616211,3.3018887042999268
1680043305.42064285,99472944,42.6898797,-84.4887124,274.17999267578125,4.106358051300049,3.3063580989837646
1680043305.52014184,99572443,42.6898798,-84.4887121,274.19000244140625,4.1118669509887695,3.3118669986724854
1680043305.62018871,99672490,42.6898799,-84.48871179999999,274.19000244140625,4.119377136230469,3.3193771839141846
1680043305.72021985,99772521,42.689879999999995,-84.4887117,274.1999816894531,4.128490447998047,3.3284904956817627
1680043305.82025576,99872557,42.689879999999995,-84.4887116,274.2099914550781,4.138187408447266,3.3381874561309814
1680043305.92030072,99972602,42.689880099999996,-84.4887115,274.2200012207031,4.149486064910889,3.3494861125946045
1680043306.02027583,100072577,42.689880099999996,-84.4887115,274.22998046875,4.159168243408203,3.359168291091919
1680043306.12023687,100172538,42.689880099999996,-84.4887114,274.239990234375,4.167774200439453,3.36777400970459
1680043306.22026086,100272562,42.689880099999996,-84.48871129999999,274.25,4.1761555671691895,3.376155376434326
1680043306.32051277,100372814,42.689880099999996,-84.48871109999999,274.2599792480469,4.183432102203369,3.383432149887085
1680043306.42016673,100472468,42.689880099999996,-84.488711,274.2699890136719,4.192842483520508,3.3928425312042236
1680043306.52019691,100572498,42.689880099999996,-84.48871079999999,274.2799987792969,4.202268123626709,3.402268171310425
1680043306.62027979,100672581,42.689880099999996,-84.4887107,274.2900085449219,4.212512493133545,3.4125123023986816
1680043306.72027278,100772574,42.6898802,-84.48871059999999,274.2900085449219,4.219936847686768,3.4199368953704834
1680043306.82028174,100872583,42.6898802,-84.4887104,274.29998779296875,4.226613521575928,3.4266135692596436
1680043306.92030978,100972611,42.6898803,-84.4887103,274.30999755859375,4.232710361480713,3.4327104091644287
1680043307.02026081,101072562,42.6898803,-84.4887102,274.30999755859375,4.239171028137207,3.439171075820923
1680043307.12028074,101172582,42.6898804,-84.48871009999999,274.32000732421875,4.2450079917907715,3.445007801055908
1680043307.22045374,101272755,42.6898804,-84.48871009999999,274.3299865722656,4.250654697418213,3.4506547451019287
1680043307.32051086,101372812,42.6898804,-84.48871,274.3299865722656,4.253976821899414,3.453976631164551
1680043307.42057872,101472880,42.6898804,-84.48871,274.3299865722656,4.257345199584961,3.4573452472686768
1680043307.52057791,101572879,42.6898804,-84.48870989999999,274.3399963378906,4.260149002075195,3.460148811340332
1680043307.62050390,101672805,42.6898804,-84.48870989999999,274.3399963378906,4.262579917907715,3.4625799655914307
1680043307.72052574,101772827,42.6898804,-84.48870989999999,274.3399963378906,4.262383937835693,3.46238374710083
1680043307.82045889,101872760,42.6898804,-84.48871,274.3399963378906,4.2612833976745605,3.4612834453582764
1680043307.92041087,101972712,42.6898804,-84.48871,274.3299865722656,4.256476402282715,3.4564764499664307
1680043308.02043986,102072741,42.6898804,-84.48871009999999,274.3299865722656,4.253366470336914,3.453366279602051
1680043308.12058878,102172890,42.6898804,-84.4887102,274.32000732421875,4.249153137207031,3.449153184890747
1680043308.22047687,102272778,42.6898804,-84.4887103,274.32000732421875,4.244819164276123,3.4448189735412598
1680043308.32059884,102372900,42.6898804,-84.4887103,274.30999755859375,4.239425182342529,3.439424991607666
1680043308.42058587,102472887,42.6898804,-84.4887104,274.30999755859375,4.234950065612793,3.4349498748779297
1680043308.52053380,102572835,42.6898804,-84.4887105,274.30999755859375,4.2307281494140625,3.4307281970977783
1680043308.62058783,102672889,42.6898804,-84.48871059999999,274.29998779296875,4.226905345916748,3.426905393600464
1680043308.72050095,102772802,42.6898804,-84.4887107,274.29998779296875,4.221072196960449,3.421072244644165
1680043308.82045484,102872756,42.6898803,-84.4887107,274.2900085449219,4.215713977813721,3.4157137870788574
1680043308.92045379,102972755,42.6898803,-84.48871079999999,274.2799987792969,4.2089362144470215,3.408936023712158
1680043309.02054691,103072848,42.6898803,-84.48871079999999,274.2799987792969,4.203701019287109,3.403701066970825
1680043309.12046790,103172769,42.6898803,-84.4887109,274.2799987792969,4.200281143188477,3.4002811908721924
1680043309.22053289,103272834,42.6898803,-84.4887109,274.2699890136719,4.196133613586426,3.3961334228515625
1680043309.32061887,103372920,42.6898803,-84.4887109,274.2599792480469,4.1897711753845215,3.389770984649658
1680043309.42028379,103472585,42.6898803,-84.488711,274.2599792480469,4.183801651000977,3.3838014602661133
1680043309.52026892,103572570,42.6898803,-84.488711,274.25,4.176908016204834,3.37690806388855
1680043309.62030792,103672609,42.6898803,-84.488711,274.25,4.17016077041626,3.3701608180999756
1680043309.72025490,103772556,42.6898803,-84.488711,274.239990234375,4.161695957183838,3.3616957664489746
1680043309.82027173,103872573,42.6898804,-84.488711,274.22998046875,4.154225826263428,3.3542258739471436
1680043309.92027879,103972580,42.6898804,-84.488711,274.2200012207031,4.14663028717041,3.346630096435547
1680043310.02015972,104072461,42.6898804,-84.48871109999999,274.2200012207031,4.140570163726807,3.3405702114105225
1680043310.12052178,104172823,42.6898804,-84.48871109999999,274.2099914550781,4.134576320648193,3.334576368331909
1680043310.22057390,104272875,42.6898804,-84.48871109999999,274.1999816894531,4.129256725311279,3.329256534576416
1680043310.32030892,104372610,42.6898804,-84.48871109999999,274.1999816894531,4.123594760894775,3.323594808578491
1680043310.42026281,104472564,42.6898804,-84.48871109999999,274.19000244140625,4.11899471282959,3.3189947605133057
1680043310.52026772,104572569,42.6898805,-84.48871109999999,274.19000244140625,4.115628242492676,3.3156280517578125
1680043310.62026286,104672564,42.6898805,-84.4887112,274.19000244140625,4.112978458404541,3.3129782676696777
1680043310.72025275,104772554,42.6898805,-84.4887112,274.17999267578125,4.109050750732422,3.3090507984161377
1680043310.82026386,104872565,42.6898805,-84.4887112,274.17999267578125,4.105729579925537,3.305729389190674
1680043310.92015886,104972460,42.6898805,-84.4887112,274.17999267578125,4.103769779205322,3.303769588470459
1680043311.02020288,105072504,42.6898805,-84.4887112,274.17999267578125,4.101961612701416,3.301961660385132
1680043311.12031293,105172614,42.6898805,-84.4887112,274.16998291015625,4.0996294021606445,3.2996292114257812
1680043311.22061372,105272915,42.6898805,-84.4887112,274.16998291015625,4.098174571990967,3.2981743812561035
1680043311.32060075,105372902,42.6898805,-84.48871129999999,274.16998291015625,4.094759941101074,3.29475998878479
1680043311.42046380,105472765,42.6898805,-84.48871129999999,274.16998291015625,4.0928635597229,3.292863607406616
1680043311.52038884,105572690,42.689880599999995,-84.48871129999999,274.1600036621094,4.088512420654297,3.2885122299194336
1680043311.62038779,105672689,42.689880599999995,-84.48871129999999,274.1600036621094,4.085337162017822,3.285337209701538
1680043311.72040772,105772709,42.689880599999995,-84.48871129999999,274.1600036621094,4.081858158111572,3.281857967376709
1680043311.82039475,105872696,42.689880599999995,-84.48871129999999,274.1600036621094,4.081377983093262,3.2813780307769775
1680043311.92050886,105972810,42.6898805,-84.4887114,274.1600036621094,4.086936950683594,3.2869369983673096
1680043312.02052593,106072827,42.6898804,-84.4887115,274.16998291015625,4.0948662757873535,3.2948660850524902
1680043312.12073374,106173035,42.6898802,-84.4887116,274.17999267578125,4.101876735687256,3.3018767833709717
1680043312.22027493,106272576,42.689879999999995,-84.48871179999999,274.19000244140625,4.110771656036377,3.3107714653015137
1680043312.32057381,106372875,42.6898796,-84.48871199999999,274.19000244140625,4.11905574798584,3.3190555572509766
1680043312.42044973,106472751,42.6898792,-84.4887122,274.1999816894531,4.1282548904418945,3.3282549381256104
1680043312.52044678,106572748,42.6898787,-84.48871249999999,274.2099914550781,4.136336326599121,3.336336374282837
1680043312.62045574,106672757,42.689878199999995,-84.4887128,274.2200012207031,4.1442952156066895,3.344295024871826
1680043312.72046876,106772770,42.689877599999996,-84.4887131,274.22998046875,4.155747890472412,3.355747938156128
1680043312.82051873,106872820,42.689876999999996,-84.4887135,274.239990234375,4.1671037673950195,3.3671035766601562
1680043312.92058086,106972882,42.689876399999996,-84.4887138,274.25,4.173580646514893,3.3735806941986084
1680043313.02077174,107073073,42.689875799999996,-84.4887141,274.25,4.179714202880859,3.379714012145996
1680043313.12053776,107172839,42.689875199999996,-84.48871439999999,274.2599792480469,4.186356067657471,3.3863558769226074
1680043313.22053885,107272840,42.689874599999996,-84.4887146,274.2699890136719,4.192948818206787,3.392948865890503
1680043313.32048488,107372786,42.6898741,-84.48871489999999,274.2699890136719,4.198827743530273,3.39882755279541
1680043313.42025971,107472561,42.6898736,-84.4887151,274.2799987792969,4.205078125,3.4050779342651367
1680043313.52023387,107572535,42.6898732,-84.4887153,274.2799987792969,4.206725597381592,3.4067254066467285
1680043313.62015176,107672453,42.6898729,-84.48871539999999,274.2799987792969,4.206866264343262,3.4068660736083984
1680043313.72018981,107772491,42.689872699999995,-84.4887155,274.2799987792969,4.207650184631348,3.4076499938964844
1680043313.82016587,107872467,42.6898726,-84.48871559999999,274.2900085449219,4.210409641265869,3.410409450531006
1680043313.92021179,107972513,42.6898725,-84.4887157,274.2900085449219,4.210447311401367,3.410447120666504
1680043314.02024984,108072551,42.6898725,-84.4887157,274.2900085449219,4.212918281555176,3.4129180908203125
1680043314.12025881,108172560,42.6898726,-84.4887157,274.2900085449219,4.2195725440979,3.419572591781616
1680043314.22045088,108272752,42.6898726,-84.4887158,274.29998779296875,4.228206157684326,3.428206205368042
1680043314.32029486,108372596,42.689872699999995,-84.4887158,274.30999755859375,4.235841751098633,3.4358415603637695
1680043314.42028093,108472582,42.689872799999996,-84.4887158,274.32000732421875,4.2447285652160645,3.444728374481201
1680043314.52016282,108572464,42.6898729,-84.4887159,274.3299865722656,4.253002166748047,3.4530019760131836
1680043314.62021995,108672521,42.689873,-84.4887159,274.3399963378906,4.260249137878418,3.460249185562134
1680043314.72026491,108772566,42.6898731,-84.488716,274.3399963378906,4.265744209289551,3.4657442569732666
1680043314.82025790,108872559,42.6898732,-84.488716,274.3500061035156,4.271979331970215,3.4719791412353516
1680043314.92027283,108972574,42.6898732,-84.488716,274.3500061035156,4.278555870056152,3.478555679321289
1680043315.02050877,109072810,42.689873299999995,-84.488716,274.3599853515625,4.28713321685791,3.487133264541626
1680043315.12044072,109172742,42.689873299999995,-84.48871609999999,274.3699951171875,4.297555923461914,3.497555732727051
1680043315.22026682,109272568,42.689873299999995,-84.48871609999999,274.3800048828125,4.309218406677246,3.509218454360962
1680043315.32052779,109372829,42.689873399999996,-84.4887162,274.3899841308594,4.316883087158203,3.516883134841919
1680043315.42040992,109472711,42.6898735,-84.4887163,274.3999938964844,4.324365615844727,3.5243654251098633
1680043315.52049088,109572792,42.6898736,-84.4887164,274.4100036621094,4.331423759460449,3.531423568725586
1680043315.62050772,109672809,42.6898737,-84.48871659999999,274.4100036621094,4.338706970214844,3.5387070178985596
1680043315.72048473,109772786,42.6898738,-84.4887169,274.41998291015625,4.345238208770752,3.5452380180358887
1680043315.82038593,109872687,42.689873999999996,-84.4887174,274.42999267578125,4.351994037628174,3.5519940853118896
1680043315.92044973,109972751,42.6898742,-84.48871799999999,274.42999267578125,4.359541893005371,3.559541940689087
1680043316.02038693,110072688,42.689874499999995,-84.4887188,274.44000244140625,4.366283893585205,3.566283702850342
1680043316.12038779,110172689,42.6898747,-84.48871969999999,274.4499816894531,4.374096393585205,3.574096202850342
1680043316.22059679,110272898,42.689875,-84.4887206,274.4599914550781,4.381473541259766,3.5814733505249023
1680043316.32024693,110372548,42.6898753,-84.48872159999999,274.4599914550781,4.38419771194458,3.584197521209717
1680043316.42054677,110472848,42.6898756,-84.4887226,274.4599914550781,4.387399673461914,3.587399482727051
1680043316.52056193,110572863,42.6898759,-84.4887237,274.4700012207031,4.391868591308594,3.5918686389923096
1680043316.62052274,110672824,42.689876299999995,-84.4887248,274.4700012207031,4.396218299865723,3.5962181091308594
1680043316.72054172,110772843,42.6898766,-84.488726,274.4700012207031,4.399648189544678,3.5996482372283936
1680043316.82048774,110872789,42.6898769,-84.4887272,274.47998046875,4.404477119445801,3.6044771671295166
1680043316.92045784,110972759,42.6898773,-84.4887284,274.47998046875,4.408764839172363,3.608764886856079
1680043317.02042890,111072730,42.689877599999996,-84.4887296,274.489990234375,4.4111433029174805,3.611143112182617
1680043317.12064672,111172948,42.689878,-84.48873069999999,274.489990234375,4.4123454093933105,3.6123452186584473
1680043317.22046685,111272768,42.6898783,-84.4887318,274.489990234375,4.412168025970459,3.6121678352355957
1680043317.32058072,111372882,42.6898787,-84.4887328,274.47998046875,4.409737586975098,3.6097373962402344
1680043317.42065883,111472960,42.689879,-84.4887337,274.47998046875,4.4067535400390625,3.606753349304199
1680043317.52052879,111572830,42.6898793,-84.48873449999999,274.47998046875,4.403423309326172,3.6034231185913086
1680043317.62053084,111672832,42.689879499999996,-84.4887352,274.4700012207031,4.39988899230957,3.599888801574707
1680043317.72047591,111772777,42.6898797,-84.4887358,274.4700012207031,4.396053791046143,3.5960536003112793
1680043317.82045174,111872753,42.6898799,-84.4887363,274.4700012207031,4.392185688018799,3.5921857357025146
1680043317.92045093,111972752,42.689879999999995,-84.4887366,274.4599914550781,4.3870625495910645,3.5870625972747803
1680043318.02046990,112072771,42.689879999999995,-84.48873689999999,274.4599914550781,4.381963729858398,3.581963539123535
1680043318.12016892,112172470,42.689879999999995,-84.488737,274.4499816894531,4.375590801239014,3.5755908489227295
1680043318.22017980,112272481,42.689879999999995,-84.488737,274.4499816894531,4.370326042175293,3.570326089859009
1680043318.32028294,112372584,42.689879999999995,-84.488737,274.44000244140625,4.36823034286499,3.568230152130127
1680043318.42022777,112472529,42.6898799,-84.488737,274.44000244140625,4.367028713226318,3.567028522491455
1680043318.52021194,112572513,42.689879999999995,-84.48873689999999,274.44000244140625,4.367151737213135,3.5671515464782715
1680043318.62025785,112672559,42.689879999999995,-84.4887368,274.44000244140625,4.366702556610107,3.5667026042938232
1680043318.72044587,112772747,42.689879999999995,-84.4887368,274.44000244140625,4.364989757537842,3.5649898052215576
1680043318.82040691,112872708,42.689879999999995,-84.4887368,274.44000244140625,4.363856315612793,3.5638561248779297
1680043318.92042994,112972731,42.689880099999996,-84.4887368,274.44000244140625,4.363400936126709,3.5634007453918457
1680043319.02045274,113072754,42.689880099999996,-84.4887368,274.44000244140625,4.362680912017822,3.562680959701538
1680043319.12048888,113172790,42.6898802,-84.4887368,274.44000244140625,4.362772464752197,3.562772512435913
1680043319.22047973,113272781,42.6898803,-84.4887368,274.44000244140625,4.363491058349609,3.563491106033325
1680043319.32054090,113372842,42.6898804,-84.4887368,274.44000244140625,4.365368843078613,3.565368890762329
1680043319.42043471,113472736,42.6898804,-84.48873689999999,274.44000244140625,4.367528438568115,3.567528486251831
