timestamp,TimeUS,C,Roll,Pitch,Yaw,VN,VE,VD,dPD,PN,PE,PD,GX,GY,GZ,OH
1680043265.61943388,59671735,2,0.12,0.62,320.94,-0.03458928316831589,-0.0020812649745494127,0.060850296169519424,-0.0010879653273150325,1.7514827251434326,0.2511288523674011,0.8741844892501831,-0.05,0.02,0.04,272.82
1680043265.71940279,59771704,2,0.12,0.62,320.94,-0.03488932177424431,-0.001744270441122353,0.061657607555389404,0.017847126349806786,1.7479727268218994,0.25192761421203613,0.8761299848556519,-0.05,0.02,0.04,272.82
1680043265.81940293,59871704,2,0.12,0.62,320.94,-0.03523378074169159,-0.0030103728640824556,0.0611075833439827,0.03571999818086624,1.7445083856582642,0.25237345695495605,0.8793805837631226,-0.05,0.02,0.04,272.82
1680043265.91940594,59971707,2,0.12,0.62,320.93,-0.03472420945763588,-0.003253533970564604,0.06062045693397522,0.03840324655175209,1.7417789697647095,0.253840833902359,0.8824275732040405,-0.05,0.02,0.04,272.82
1680043266.01947188,60071773,2,0.12,0.62,320.93,-0.034156590700149536,-0.003967332653701305,0.06110359728336334,0.04485595226287842,1.7390321493148804,0.2547927796840668,0.8865197896957397,-0.05,0.02,0.04,272.82
1680043266.11951184,60171813,2,0.12,0.62,320.92,-0.03095000423491001,-0.0037450676318258047,0.06002079322934151,0.04242398589849472,1.7368749380111694,0.2562032639980316,0.8901795148849487,-0.05,0.02,0.04,272.82
1680043266.21948671,60271788,2,0.14,0.62,320.92,-0.028227752074599266,-0.0037003126926720142,0.060148585587739944,0.039640672504901886,1.7350592613220215,0.2574125826358795,0.8939520120620728,-0.05,0.02,0.04,272.82
1680043266.31947589,60371777,2,0.14,0.61,320.91,-0.021803390234708786,-0.0011696894653141499,0.061904605478048325,0.06286011636257172,1.734636664390564,0.2595958709716797,0.9005869626998901,-0.05,0.02,0.04,272.82
1680043266.41946578,60471767,2,0.14,0.61,320.91,-0.01662394031882286,-0.00023803756630513817,0.06309368461370468,0.07297014445066452,1.7346611022949219,0.26141321659088135,0.9072104692459106,-0.05,0.02,0.04,272.82
1680043266.51944184,60571743,2,0.13,0.61,320.91,-0.01288805902004242,0.0019193850457668304,0.06257909536361694,0.05339403823018074,1.7342288494110107,0.2641821503639221,0.9116989374160767,-0.05,0.02,0.04,272.82
1680043266.61941671,60671718,2,0.13,0.6,320.90000000000003,-0.010325540788471699,0.003779928432777524,0.06347127258777618,0.04736762493848801,1.7341362237930298,0.26653608679771423,0.9165602922439575,-0.05,0.02,0.04,272.82
1680043266.71941590,60771717,2,0.14,0.59,320.90000000000003,-0.004628781229257584,0.007318332325667143,0.06297886371612549,0.026294119656085968,1.7341444492340088,0.2701205611228943,0.9189745187759399,-0.05,0.02,0.04,272.82
1680043266.81941390,60871715,2,0.14,0.59,320.89,-0.0006784736760891974,0.00910555012524128,0.06310106068849564,0.026816850528120995,1.7343990802764893,0.2732335925102234,0.9224768877029419,-0.05,0.02,0.04,272.82
1680043266.91949677,60971798,2,0.14,0.6,320.89,0.0007002254133112729,0.008950762450695038,0.06451839953660965,0.05388852208852768,1.732906699180603,0.2753942012786865,0.9283825159072876,-0.05,0.02,0.04,272.82
1680043267.01951385,61071815,2,0.13,0.61,320.89,0.0016083893133327365,0.008702514693140984,0.06550940871238708,0.06645756214857101,1.731881022453308,0.2770395278930664,0.9345275163650513,-0.05,0.02,0.04,272.82
1680043267.11948991,61171791,2,0.12,0.61,320.90000000000003,0.0028626311104744673,0.00784430094063282,0.0652354434132576,0.047527749091386795,1.729595422744751,0.2787359952926636,0.9383867979049683,-0.05,0.02,0.04,272.82
1680043267.21947193,61271773,2,0.12,0.61,320.90000000000003,0.003560066455975175,0.007255993317812681,0.0654577761888504,0.04248074069619179,1.727970838546753,0.27991142868995667,0.9429587125778198,-0.05,0.02,0.04,272.82
1680043267.31945276,61371754,2,0.12,0.61,320.90000000000003,0.003339230315759778,0.004919823724776506,0.06493299454450607,0.01666627824306488,1.7251601219177246,0.2811216413974762,0.9442700147628784,-0.05,0.02,0.04,272.82
1680043267.41944790,61471749,2,0.11,0.62,320.90000000000003,0.0033733726013451815,0.004241141490638256,0.06543169915676117,0.019583439454436302,1.7230896949768066,0.2818368971347809,0.9472392797470093,-0.05,0.02,0.04,272.82
1680043267.51940894,61571710,2,0.11,0.61,320.90000000000003,0.0054528065957129,0.0030922042205929756,0.06497708708047867,0.03418247029185295,1.7217496633529663,0.2832276523113251,0.9511507749557495,-0.05,0.02,0.04,272.82
1680043267.61942387,61671725,2,0.11,0.62,320.90000000000003,0.007724831346422434,0.0028806556947529316,0.06616011261940002,0.052845001220703125,1.7211742401123047,0.2841494083404541,0.956339955329895,-0.05,0.02,0.04,272.82
1680043267.71941280,61771714,2,0.1,0.62,320.90000000000003,0.009530558250844479,0.003642992815002799,0.06526800245046616,0.03101801872253418,1.7201708555221558,0.2859542667865753,0.9584568738937378,-0.05,0.02,0.04,272.82
1680043267.81949282,61871794,2,0.1,0.62,320.89,0.010495930910110474,0.004039125982671976,0.06463204324245453,0.029701532796025276,1.719901204109192,0.28735578060150146,0.9619737863540649,-0.05,0.02,0.04,272.82
1680043267.91954589,61971847,2,0.1,0.63,320.89,0.009493517689406872,0.0036373997572809458,0.06524061411619186,0.03345728665590286,1.7165181636810303,0.2883436679840088,0.9652649164199829,-0.05,0.02,0.04,272.82
1680043268.01949382,62071795,2,0.1,0.63,320.88,0.008004209026694298,0.0018416931852698326,0.0654725506901741,0.04224655404686928,1.714061975479126,0.2889578640460968,0.9696835279464722,-0.05,0.02,0.04,272.82
1680043268.11950088,62171802,2,0.09,0.63,320.89,0.006396989803761244,0.00048737466568127275,0.06461131572723389,0.03644532337784767,1.7106783390045166,0.2895335257053375,0.9729305505752563,-0.05,0.02,0.04,272.82
1680043268.21945190,62271753,2,0.08,0.63,320.89,0.00603520730510354,-0.0015011753421276808,0.06401056051254272,0.041266899555921555,1.7076492309570312,0.2899392247200012,0.9769653081893921,-0.05,0.02,0.04,272.82
1680043268.31944895,62371750,2,0.07,0.63,320.89,0.004531164187937975,-0.002780870534479618,0.06292266398668289,0.028205815702676773,1.7041243314743042,0.29061052203178406,0.9796174764633179,-0.05,0.02,0.04,272.82
1680043268.41941381,62471715,2,0.07,0.63,320.89,0.005936558824032545,-0.003920441493391991,0.06183650344610214,0.02738177590072155,1.701540231704712,0.2908177077770233,0.9828492403030396,-0.05,0.02,0.04,272.82
1680043268.51940989,62571711,2,0.07,0.63,320.89,0.0002523722068872303,-0.005685938522219658,0.061178430914878845,0.02336158975958824,1.6974376440048218,0.2918952703475952,0.9851304292678833,-0.05,0.02,0.04,272.82
1680043268.61941195,62671713,2,0.07,0.64,320.90000000000003,0.002514102729037404,-0.006510044913738966,0.0615478940308094,0.025836946442723274,1.6943752765655518,0.29241761565208435,0.9879525899887085,-0.05,0.02,0.04,272.82
1680043268.71948886,62771790,2,0.07,0.63,320.88,-0.005336449947208166,-0.007055006455630064,0.06098352372646332,0.02583109587430954,1.6879149675369263,0.29328256845474243,0.9907351732254028,-0.05,0.02,0.04,272.82
1680043268.81954789,62871849,2,0.07,0.63,320.90000000000003,-0.0033833449706435204,-0.005844942294061184,0.06123490631580353,0.03271805867552757,1.6829015016555786,0.29371726512908936,0.9941123723983765,-0.05,0.02,0.04,272.82
1680043268.91949391,62971795,2,0.05,0.62,320.91,-0.0027941488660871983,-0.003029583254829049,0.06045449152588844,0.02350536547601223,1.6764039993286133,0.29578083753585815,0.9960116147994995,-0.05,0.02,0.04,272.82
1680043269.01949072,63071792,2,0.04,0.61,320.87,-0.0052205948159098625,-0.008253532461822033,0.060786228626966476,0.025578517466783524,1.6713284254074097,0.29691359400749207,0.9990123510360718,-0.05,0.02,0.04,272.82
1680043269.11945271,63171754,2,0.05,0.61,320.88,-0.008700079284608364,-0.0037173470482230186,0.06129273772239685,0.04832419753074646,1.6669158935546875,0.29928186535835266,1.0043193101882935,-0.05,0.02,0.04,272.82
1680043269.21943784,63271739,2,0.04,0.61,320.88,-0.006541610695421696,-0.007545713800936937,0.062313903123140335,0.059570763260126114,1.6634031534194946,0.300920695066452,1.0096911191940308,-0.05,0.02,0.04,272.82
1680043269.31941772,63371719,2,0.03,0.6,320.85,-0.004695489536970854,-0.0067777130752801895,0.0641341358423233,0.09866901487112045,1.659346580505371,0.3035459518432617,1.0201579332351685,-0.05,0.02,0.04,272.82
1680043269.41940784,63471709,2,0.03,0.6,320.86,-0.010676034726202488,-0.0016023276839405298,0.06648470461368561,0.10366436839103699,1.6562130451202393,0.3053470253944397,1.0286668539047241,-0.05,0.02,0.04,272.82
1680043269.51941085,63571712,2,0.02,0.61,320.86,-0.008865736424922943,0.0022648002486675978,0.06438220292329788,0.05871959403157234,1.6519572734832764,0.30950143933296204,1.0331183671951294,-0.05,0.02,0.04,272.82
1680043269.61947179,63671773,2,0.0,0.61,320.83,-0.008374371565878391,-0.0011523044668138027,0.06625284254550934,0.03549106791615486,1.648706316947937,0.31242018938064575,1.0371521711349487,-0.05,0.02,0.04,272.82
1680043269.71953988,63771841,2,0.01,0.58,320.81,-0.009032630361616611,-0.014355667866766453,0.06274348497390747,0.027018168941140175,1.645742416381836,0.3142402172088623,1.0408626794815063,-0.05,0.02,0.04,272.82
1680043269.81949782,63871799,2,0.02,0.62,320.83,-0.0134543776512146,-0.012014249339699745,0.052740246057510376,0.023948639631271362,1.6434627771377563,0.31552428007125854,1.0445693731307983,-0.05,0.02,0.04,272.82
1680043269.91948986,63971791,2,0.08,0.62,320.73,0.004476007539778948,-0.017199702560901642,0.04981911927461624,0.021000582724809647,1.6394463777542114,0.3177492320537567,1.0474025011062622,-0.05,0.02,0.04,272.82
1680043270.01950288,64071804,2,0.08,0.49,320.63,0.013585114851593971,-0.006455792114138603,0.0575912743806839,0.04114007577300072,1.6380207538604736,0.3189104199409485,1.0514036417007446,-0.05,0.02,0.04,272.82
1680043270.11944985,64171751,2,0.1,0.32,320.51,0.011212422512471676,-0.008725842460989952,0.012888760305941105,-0.008420804515480995,1.6368273496627808,0.32084304094314575,1.051381230354309,-0.05,0.02,0.04,272.82
1680043270.21940994,64271711,2,0.06,0.22,320.33,0.02087125927209854,-0.015077158808708191,-0.0034364808816462755,-0.04872119799256325,1.6369602680206299,0.3218233287334442,1.0467127561569214,-0.05,0.02,0.05,272.82
1680043270.31941295,64371714,2,0.07,0.21,320.13,0.021891936659812927,-0.012041528709232807,0.005880429875105619,-0.04955150559544563,1.636298418045044,0.3240027129650116,1.041526198387146,-0.05,0.02,0.05,272.82
1680043270.41941881,64471720,2,0.22,0.13,319.94,0.03182167932391167,-0.014263083226978779,-0.022204207256436348,-0.07311117649078369,1.6372168064117432,0.3248976767063141,1.0366002321243286,-0.05,0.02,0.05,272.82
1680043270.51947474,64571776,2,0.15,0.05,319.74,0.027564361691474915,-0.021243780851364136,-0.04930220916867256,-0.12815141677856445,1.637446641921997,0.3279629349708557,1.024863600730896,-0.05,0.02,0.05,272.82
1680043270.61953592,64671837,2,0.1,0.04,319.55,0.04244528338313103,-0.025298386812210083,-0.08433637022972107,-0.16247940063476562,1.6393405199050903,0.3294873833656311,1.0117789506912231,-0.05,0.02,0.05,272.82
1680043270.71950388,64771805,2,0.24,-0.1,319.37,0.049918465316295624,-0.0226279404014349,-0.09651415050029755,-0.18911507725715637,1.6427780389785767,0.33203065395355225,0.9944027662277222,-0.05,0.02,0.05,272.82
1680043270.81949592,64871797,2,0.16,-0.03,319.26,0.0535871684551239,-0.03507836535573006,-0.1020042672753334,-0.1944119781255722,1.6475911140441895,0.3327653110027313,0.9766067266464233,-0.05,0.02,0.05,272.82
1680043270.91945672,64971758,2,0.03,0.02,319.16,0.07853467762470245,-0.028514379635453224,-0.12659743428230286,-0.17061060667037964,1.6495686769485474,0.33374619483947754,0.9616473913192749,-0.05,0.02,0.05,272.82
1680043271.01945376,65071755,2,-0.03,0.04,319.08,0.08430223166942596,-0.03933506831526756,-0.14813286066055298,-0.18165229260921478,1.6538552045822144,0.33318230509757996,0.9427815675735474,-0.05,0.02,0.05,272.82
1680043271.11941791,65171719,2,-0.58,0.54,319.05,0.07271639257669449,-0.05025573819875717,-0.19840168952941895,-0.2774842381477356,1.6579731702804565,0.333096444606781,0.917056679725647,-0.05,0.02,0.05,272.82
1680043271.21941781,65271719,2,-1.32,1.42,319.04,0.06886211782693863,-0.034781210124492645,-0.28160032629966736,-0.3695668578147888,1.6625293493270874,0.3313021659851074,0.8861185312271118,-0.05,0.02,0.05,272.82
1680043271.31942081,65371722,2,-1.08,2.24,319.09000000000003,0.05426334589719772,-0.038120295852422714,-0.3203751742839813,-0.3886093497276306,1.6657856702804565,0.3325450122356415,0.8500713109970093,-0.05,0.02,0.05,272.82
1680043271.41946793,65471769,2,-0.66,2.67,319.19,0.00924802478402853,-0.03566400334239006,-0.36159414052963257,-0.41438058018684387,1.667201280593872,0.3327236473560333,0.8104168176651001,-0.05,0.02,0.05,272.82
1680043271.51954985,65571851,2,-0.34,2.04,319.33,-0.015000061132013798,-0.03315320238471031,-0.38720911741256714,-0.4594528079032898,1.6633867025375366,0.3341106176376343,0.7646628618240356,-0.05,0.02,0.05,272.82
1680043271.61949992,65671801,2,-0.02,1.1400000000000001,319.49,-0.027410335838794708,-0.016413550823926926,-0.4312107264995575,-0.48829385638237,1.6584330797195435,0.3351075053215027,0.7179816961288452,-0.05,0.02,0.05,272.82
1680043271.71948290,65771784,2,0.16,0.6,319.67,-0.035853661596775055,-0.01815643347799778,-0.4877445101737976,-0.5596402287483215,1.6500351428985596,0.33592015504837036,0.664075493812561,-0.05,0.02,0.06,272.82
1680043271.81946778,65871769,2,0.12,0.14,320.02,-0.03294413536787033,-0.01680726744234562,-0.5433292388916016,-0.6132213473320007,1.6430121660232544,0.335935115814209,0.6071163415908813,-0.05,0.02,0.06,272.82
1680043271.91944194,65971743,2,0.08,0.02,320.52,-0.030572559684515,-0.016000395640730858,-0.5725979208946228,-0.6175907254219055,1.636719822883606,0.33504706621170044,0.5474120378494263,-0.05,0.02,0.06,272.82
1680043272.01941490,66071716,2,-0.06,0.32,321.05,-0.02287835255265236,-0.017911063507199287,-0.5808628797531128,-0.6062091588973999,1.631874680519104,0.33343735337257385,0.4868975579738617,-0.05,0.02,0.06,272.82
1680043272.11942172,66171723,2,-0.22,0.92,321.65000000000003,-0.026800241321325302,-0.025342294946312904,-0.6046519875526428,-0.6790960431098938,1.625717043876648,0.32968640327453613,0.41822370886802673,-0.05,0.02,0.06,272.82
1680043272.21941781,66271719,2,0.08,1.44,322.33,-0.024589426815509796,-0.015178163535892963,-0.6082345843315125,-0.6896781921386719,1.6205106973648071,0.3261171877384186,0.35044774413108826,-0.05,0.02,0.06,272.82
1680043272.31946993,66371771,2,1.12,2.05,323.01,-0.03660815581679344,0.00849152635782957,-0.6105926036834717,-0.6940097212791443,1.615924596786499,0.32532358169555664,0.2810433804988861,-0.05,0.02,0.06,272.82
1680043272.41951680,66471818,2,2.33,2.44,323.59000000000003,-0.0336613766849041,0.04522986710071564,-0.5965944528579712,-0.6788802742958069,1.6118983030319214,0.32715117931365967,0.213307723402977,-0.05,0.02,0.06,272.82
1680043272.51949477,66571796,2,3.8000000000000003,2.5500000000000003,324.15000000000003,-0.021889306604862213,0.10304601490497589,-0.5500237345695496,-0.6252459287643433,1.6042242050170898,0.3371177315711975,0.14846168458461761,-0.05,0.02,0.06,272.82
1680043272.61949277,66671794,2,4.9,3.14,324.67,-0.015487405471503735,0.18968185782432556,-0.5194361805915833,-0.592150092124939,1.5986911058425903,0.3534696698188782,0.08751450479030609,-0.05,0.02,0.06,272.82
1680043272.71949887,66771800,2,5.3100000000000005,4.25,325.18,-0.01357287261635065,0.28577807545661926,-0.4680161774158478,-0.5252212285995483,1.5955125093460083,0.3853701055049896,0.03242049738764763,-0.05,0.02,0.06,272.82
1680043272.81944180,66871743,2,5.54,4.54,325.51,0.0014492543414235115,0.3946964740753174,-0.40668368339538574,-0.4913424551486969,1.594022512435913,0.4255351126194,-0.02076210454106331,-0.05,0.02,0.06,272.82
1680043272.91941476,66971716,2,5.69,4.44,325.71,0.0031838961876928806,0.5176973342895508,-0.3496464490890503,-0.4348244071006775,1.5920557975769043,0.4819375276565552,-0.06587101519107819,-0.05,0.02,0.06,272.82
1680043273.01942086,67071722,2,5.61,4.94,325.91,-0.001772146439179778,0.6277334094047546,-0.29411637783050537,-0.38632136583328247,1.590635061264038,0.5475248098373413,-0.10698939859867096,-0.05,0.02,0.06,272.82
1680043273.11941481,67171716,2,5.09,4.72,326.14,-0.013835330493748188,0.7385355234146118,-0.261796236038208,-0.36610284447669983,1.5772099494934082,0.6206496357917786,-0.1443934589624405,-0.05,0.02,0.06,272.82
1680043273.21947575,67271777,2,4.25,3.93,326.58,-0.026425426825881004,0.8277994394302368,-0.2169581800699234,-0.3315078616142273,1.5660611391067505,0.7018228769302368,-0.17786456644535065,-0.05,0.02,0.06,272.82
1680043273.31950593,67371807,2,3.54,4.0600000000000005,327.43,-0.058324676007032394,0.924664318561554,-0.1817913055419922,-0.3027970492839813,1.5361242294311523,0.7935181260108948,-0.20918752253055573,-0.05,0.01,0.06,272.82
1680043273.41949987,67471801,2,2.74,4.67,328.62,-0.09206004440784454,0.9992930889129639,-0.1295516937971115,-0.2738882601261139,1.5089915990829468,0.8916772603988647,-0.2380855232477188,-0.05,0.01,0.06,272.82
1680043273.51949382,67571795,2,1.83,4.7700000000000005,330.23,-0.14260630309581757,1.0551491975784302,-0.0734642818570137,-0.19505414366722107,1.4603612422943115,0.9954622983932495,-0.25762251019477844,-0.05,0.01,0.05,272.82
1680043273.61949992,67671801,2,1.31,4.66,332.15000000000003,-0.20184309780597687,1.1051453351974487,-0.00020125636365264654,-0.08501028269529343,1.4147285223007202,1.1045043468475342,-0.2701510488986969,-0.05,0.01,0.05,272.82
1680043273.71943879,67771740,2,1.55,4.51,334.27,-0.2702033221721649,1.1505000591278076,0.039181724190711975,-0.06413684785366058,1.3537157773971558,1.2099658250808716,-0.2805687487125397,-0.04,0.01,0.05,272.82
1680043273.81940794,67871709,2,2.69,3.93,336.35,-0.3250870406627655,1.2016395330429077,0.10411630570888519,-0.004870105069130659,1.296315312385559,1.3212761878967285,-0.28279200196266174,-0.04,0.01,0.05,272.82
1680043273.91941285,67971714,2,5.04,3.8200000000000003,338.39,-0.36520054936408997,1.2831885814666748,0.16197042167186737,0.16864965856075287,1.231137752532959,1.4392720460891724,-0.2653163969516754,-0.04,0.01,0.05,272.82
1680043274.01941681,68071718,2,6.74,4.0200000000000005,340.3,-0.38662850856781006,1.3675261735916138,0.1823008805513382,0.24260742962360382,1.1702684164047241,1.566683053970337,-0.24568535387516022,-0.04,0.01,0.05,272.82
1680043274.11948180,68171783,2,6.53,3.74,342.04,-0.4263867735862732,1.4643981456756592,0.2133648842573166,0.29641324281692505,1.093660593032837,1.6984602212905884,-0.21976782381534576,-0.04,0.01,0.04,272.82
1680043274.21953678,68271838,2,5.45,3.62,343.7,-0.4683641493320465,1.5576114654541016,0.22872160375118256,0.2965921461582184,1.0230445861816406,1.8418118953704834,-0.19383956491947174,-0.04,0.01,0.05,272.82
1680043274.31949282,68371794,2,4.4,3.65,345.3,-0.5115361213684082,1.6396782398223877,0.20930856466293335,0.27603983879089355,0.9343013167381287,1.9887375831604004,-0.16582442820072174,-0.04,0.01,0.04,272.82
1680043274.41949272,68471794,2,3.0,3.35,346.68,-0.5585266947746277,1.6922142505645752,0.19626006484031677,0.24911616742610931,0.8513779044151306,2.145049810409546,-0.14095427095890045,-0.04,0.01,0.04,272.82
1680043274.51945186,68571753,2,2.02,3.4,347.92,-0.6176263689994812,1.733360767364502,0.18417157232761383,0.17333954572677612,0.7499679923057556,2.3043172359466553,-0.12485279142856598,-0.03,0.01,0.03,272.82
1680043274.61944175,68671743,2,1.95,3.68,348.94,-0.6816084980964661,1.7598174810409546,0.15646637976169586,0.11172027885913849,0.6446290612220764,2.4671401977539062,-0.11112453043460846,-0.03,0.01,0.02,272.82
1680043274.71942091,68771722,2,1.48,3.85,349.74,-0.755357027053833,1.7652264833450317,0.12004268169403076,0.03301140293478966,0.522071897983551,2.627417802810669,-0.10418261587619781,-0.03,0.01,0.02,272.82
1680043274.81940794,68871709,2,1.3800000000000001,3.7800000000000002,350.29,-0.8297008275985718,1.7835566997528076,0.07526764273643494,-0.004717438016086817,0.40551134943962097,2.7930212020874023,-0.09980131685733795,-0.03,0.01,0.03,272.82
1680043274.91941094,68971712,2,1.42,3.52,350.67,-0.9020041823387146,1.7969392538070679,0.04047396034002304,-0.057770371437072754,0.26249030232429504,2.9584591388702393,-0.10414458811283112,-0.02,0.01,0.02,272.82
1680043275.01946783,69071769,2,0.75,3.27,350.85,-0.9659669995307922,1.7972815036773682,-0.007587534375488758,-0.09793313592672348,0.1282522976398468,3.1247663497924805,-0.11103178560733795,-0.02,0.01,0.02,272.82
1680043275.11954880,69171850,2,-0.39,2.83,350.93,-1.0374006032943726,1.7820388078689575,-0.061969127506017685,-0.1806052029132843,-0.02269858866930008,3.2863261699676514,-0.12726522982120514,-0.02,0.0,0.01,272.82
1680043275.21949172,69271793,2,-0.66,2.57,350.90000000000003,-1.0960936546325684,1.7585915327072144,-0.12770859897136688,-0.2254059761762619,-0.16700555384159088,3.451688766479492,-0.1446761041879654,-0.02,0.0,0.02,272.82
1680043275.31950188,69371803,2,-0.64,2.7,350.94,-1.15708589553833,1.7277660369873047,-0.17627617716789246,-0.2977272570133209,-0.32662874460220337,3.6045916080474854,-0.17237187922000885,-0.02,0.01,0.01,272.82
1680043275.41946483,69471766,2,-0.91,2.65,351.15000000000003,-1.2038153409957886,1.6922951936721802,-0.19680631160736084,-0.3139713704586029,-0.4791007339954376,3.758902072906494,-0.2017216831445694,-0.02,0.01,0.01,272.82
1680043275.51943874,69571740,2,-1.02,2.61,351.67,-1.2665661573410034,1.664260983467102,-0.24121946096420288,-0.3277757465839386,-0.6486705541610718,3.9032022953033447,-0.23259498178958893,-0.01,0.01,0.01,272.82
1680043275.61941886,69671720,2,-0.9400000000000001,2.8000000000000003,352.43,-1.3281739950180054,1.627650499343872,-0.2569652199745178,-0.31191229820251465,-0.8113538026809692,4.0492939949035645,-0.26412883400917053,-0.01,0.01,0.01,272.82
1680043275.71941090,69771712,2,-1.0,3.02,353.40000000000003,-1.386292576789856,1.5814077854156494,-0.2768848240375519,-0.3403262794017792,-0.9880070686340332,4.180508136749268,-0.2996796667575836,-0.01,0.01,0.01,272.82
1680043275.81941485,69871716,2,-1.01,2.98,354.56,-1.4449208974838257,1.5379478931427002,-0.2931007742881775,-0.34339234232902527,-1.1585962772369385,4.314194679260254,-0.33396175503730774,-0.01,0.01,0.01,272.82
1680043275.91947794,69971779,2,-0.9400000000000001,2.96,355.90000000000003,-1.5001637935638428,1.4963226318359375,-0.33866167068481445,-0.38685646653175354,-1.332226037979126,4.445481777191162,-0.3709844648838043,-0.01,0.01,0.01,272.82
1680043276.01956081,70071862,2,-0.92,2.84,357.28000000000003,-1.5413800477981567,1.4559413194656372,-0.3660523593425751,-0.407912015914917,-1.5006190538406372,4.576513767242432,-0.4081358015537262,-0.01,0.01,0.01,272.82
1680043276.11951780,70171819,2,-0.93,2.75,358.73,-1.5744584798812866,1.4171103239059448,-0.3737267255783081,-0.40376392006874084,-1.6707881689071655,4.704977989196777,-0.4463733732700348,-0.01,0.01,0.01,272.82
1680043276.21948576,70271787,2,-0.8,2.43,0.23,-1.5943635702133179,1.3746873140335083,-0.3849624991416931,-0.4118254780769348,-1.8383036851882935,4.833520889282227,-0.48617878556251526,-0.01,0.01,0.01,272.82
1680043276.31945682,70371758,2,-0.8300000000000001,1.97,1.77,-1.6199462413787842,1.335082769393921,-0.4081707000732422,-0.42980101704597473,-2.005492687225342,4.954350471496582,-0.5273443460464478,-0.01,0.01,0.02,272.82
1680043276.41944885,70471750,2,-0.85,1.83,3.34,-1.6355359554290771,1.3070777654647827,-0.4038315713405609,-0.4405409097671509,-2.1718151569366455,5.074151039123535,-0.572453498840332,0.0,0.01,0.02,272.82
1680043276.51941085,70571712,2,-0.85,1.62,4.92,-1.6500715017318726,1.2496440410614014,-0.4257338345050812,-0.5343762040138245,-2.3439204692840576,5.1856584548950195,-0.6252294778823853,0.0,0.01,0.02,272.82
1680043276.61942077,70671722,2,-0.85,1.35,6.49,-1.6543245315551758,1.2112374305725098,-0.43292689323425293,-0.5599802732467651,-2.5132687091827393,5.297805309295654,-0.6783820390701294,0.0,0.01,0.02,272.82
1680043276.71941280,70771714,2,-0.8200000000000001,1.45,8.08,-1.652702808380127,1.1797667741775513,-0.4128214418888092,-0.5350748896598816,-2.6663362979888916,5.411677837371826,-0.7324810028076172,-0.01,0.01,0.02,272.82
1680043276.81947184,70871773,2,-0.84,1.51,9.66,-1.6388050317764282,1.1536203622817993,-0.4197256863117218,-0.5294554829597473,-2.819629669189453,5.524648666381836,-0.7851053476333618,-0.01,0.01,0.02,272.82
1680043276.91953278,70971834,2,-0.73,1.55,11.200000000000001,-1.641510248184204,1.1219127178192139,-0.4095226228237152,-0.4653772711753845,-2.9662325382232666,5.641544818878174,-0.8296240568161011,-0.01,0.01,0.02,272.82
1680043277.01949978,71071801,2,-0.6900000000000001,1.6600000000000001,12.72,-1.6428340673446655,1.1032241582870483,-0.3767102062702179,-0.4005492627620697,-3.1154887676239014,5.756703853607178,-0.8717982769012451,-0.01,0.01,0.02,272.82
1680043277.11950183,71171803,2,-0.8,1.81,14.290000000000001,-1.634804368019104,1.0723416805267334,-0.3764299750328064,-0.3948705494403839,-3.2615370750427246,5.873680114746094,-0.9116688966751099,-0.01,0.01,0.02,272.82
1680043277.21951175,71271813,2,-0.93,1.8,16.0,-1.6377846002578735,1.0523771047592163,-0.3656626045703888,-0.4021962583065033,-3.409766435623169,5.987278938293457,-0.95207279920578,-0.01,0.01,0.02,272.82
1680043277.31946492,71371766,2,-0.92,1.8,17.88,-1.6202478408813477,1.0251715183258057,-0.33475303649902344,-0.3822341859340668,-3.5525171756744385,6.100454330444336,-0.9919403791427612,-0.01,0.01,0.02,272.82
1680043277.41942191,71471723,2,-0.84,1.8,19.88,-1.6253118515014648,0.9964328408241272,-0.30550041794776917,-0.35653769969940186,-3.69803524017334,6.209441661834717,-1.030078411102295,-0.01,0.01,0.02,272.82
1680043277.51941872,71571720,2,-0.75,1.99,21.97,-1.615198016166687,0.9651145339012146,-0.30272814631462097,-0.3786363899707794,-3.842007637023926,6.319904804229736,-1.0691063404083252,-0.02,0.01,0.02,272.82
1680043277.61941290,71671714,2,-0.66,2.08,24.13,-1.6182644367218018,0.9408139586448669,-0.2890161871910095,-0.3813692033290863,-3.9887118339538574,6.425340175628662,-1.1064658164978027,-0.02,0.01,0.02,272.82
1680043277.71949387,71771795,2,-0.33,1.85,26.25,-1.6177617311477661,0.9313649535179138,-0.2817796766757965,-0.35646605491638184,-4.12731409072876,6.54014253616333,-1.1401803493499756,-0.02,0.01,0.02,272.82
1680043277.81952381,71871825,2,-0.11,1.93,28.17,-1.6061506271362305,0.9048417806625366,-0.261658251285553,-0.3262110948562622,-4.266760349273682,6.650379657745361,-1.1733554601669312,-0.02,0.01,0.01,272.82
1680043277.91950583,71971807,2,-0.11,2.24,29.94,-1.5992116928100586,0.9006677269935608,-0.2381557673215866,-0.3162202835083008,-4.4070725440979,6.762399196624756,-1.2067526578903198,-0.02,0.01,0.01,272.82
1680043278.01949573,72071797,2,-0.03,2.35,31.580000000000002,-1.5960958003997803,0.8841556906700134,-0.2193520963191986,-0.3100426197052002,-4.550753593444824,6.868590354919434,-1.238869309425354,-0.02,0.01,0.01,272.82
1680043278.11948681,72171788,2,0.0,2.27,33.08,-1.5966366529464722,0.868790864944458,-0.21595290303230286,-0.2797721028327942,-4.692779541015625,6.981431484222412,-1.2660737037658691,-0.02,0.01,0.01,272.82
1680043278.21943784,72271739,2,0.05,2.2600000000000002,34.39,-1.589890718460083,0.840450644493103,-0.21132557094097137,-0.2608467638492584,-4.838374614715576,7.087321758270264,-1.2923027276992798,-0.02,0.01,0.01,272.82
1680043278.31941080,72371712,2,0.06,2.15,35.58,-1.5962227582931519,0.8468120694160461,-0.1806809902191162,-0.27160021662712097,-4.985471248626709,7.202277660369873,-1.3223530054092407,-0.03,0.01,0.01,272.82
1680043278.41941094,72471712,2,-0.12,2.23,36.63,-1.6002079248428345,0.825892984867096,-0.1951257884502411,-0.30998724699020386,-5.135243892669678,7.309197425842285,-1.352310299873352,-0.03,0.01,0.0,272.82
1680043278.51941872,72571720,2,-0.31,2.44,37.74,-1.5978857278823853,0.81516432762146,-0.17835402488708496,-0.32138049602508545,-5.28225564956665,7.4218974113464355,-1.3847169876098633,-0.03,0.01,0.0,272.82
1680043278.61947393,72671775,2,-0.37,2.46,38.910000000000004,-1.5901228189468384,0.7961177229881287,-0.17031165957450867,-0.30270102620124817,-5.4317827224731445,7.526103973388672,-1.4143707752227783,-0.03,0.01,0.0,272.82
1680043278.71953273,72771834,2,-0.41000000000000003,2.46,40.22,-1.5785454511642456,0.7787410020828247,-0.16842055320739746,-0.25673767924308777,-5.569275856018066,7.630052089691162,-1.4392489194869995,-0.03,0.01,0.0,272.82
1680043278.81949282,72871794,2,-0.51,2.46,41.67,-1.567753553390503,0.7444581389427185,-0.1493849903345108,-0.1984935849905014,-5.711297035217285,7.726104259490967,-1.4611047506332397,-0.03,0.01,0.0,272.82
1680043278.91949487,72971796,2,-0.54,2.44,43.29,-1.5575003623962402,0.7205148339271545,-0.16190728545188904,-0.17631679773330688,-5.847092151641846,7.819194316864014,-1.4787359237670898,-0.03,0.01,0.0,272.82
1680043279.01951075,73071812,2,-0.47000000000000003,2.54,45.04,-1.5452125072479248,0.6866984963417053,-0.1277049481868744,-0.1339668184518814,-5.985832691192627,7.904115676879883,-1.4943150281906128,-0.03,0.01,0.0,272.82
1680043279.11944485,73171746,2,-0.41000000000000003,2.66,46.910000000000004,-1.537340760231018,0.6645389795303345,-0.11130174994468689,-0.11316539347171783,-6.125235080718994,7.9941020011901855,-1.5075430870056152,-0.03,0.01,-0.01,272.82
1680043279.21940994,73271711,2,-0.33,2.65,48.77,-1.530983805656433,0.6323591470718384,-0.11267814040184021,-0.11057139188051224,-6.266719341278076,8.07563304901123,-1.5182816982269287,-0.03,0.01,-0.01,272.82
1680043279.31941986,73371721,2,-0.24,2.49,50.46,-1.5078011751174927,0.6049041152000427,-0.08819442987442017,-0.1077275350689888,-6.408074855804443,8.163858413696289,-1.530832052230835,-0.04,0.01,-0.02,272.82
1680043279.41941786,73471719,2,-0.2,1.99,51.870000000000005,-1.4959954023361206,0.591595470905304,-0.0874156653881073,-0.1275404542684555,-6.550678253173828,8.243826866149902,-1.5434118509292603,-0.04,0.01,-0.02,272.82
1680043279.51945972,73571761,2,-0.3,1.78,53.050000000000004,-1.482830286026001,0.5701313018798828,-0.07390198856592178,-0.1252557635307312,-6.690805912017822,8.325793266296387,-1.556199073791504,-0.04,0.01,-0.02,272.82
1680043279.61953783,73671839,2,-0.33,1.8900000000000001,54.01,-1.470837950706482,0.557264506816864,-0.06670112162828445,-0.13126863539218903,-6.83033561706543,8.399527549743652,-1.56895911693573,-0.04,0.01,-0.03,272.82
1680043279.71949792,73771799,2,-0.31,1.92,54.79,-1.446540355682373,0.542719841003418,-0.05844339728355408,-0.08952189981937408,-6.962182998657227,8.481192588806152,-1.5769784450531006,-0.04,0.0,-0.04,272.82
1680043279.81948376,73871785,2,-0.22,2.08,55.410000000000004,-1.434014081954956,0.5305672287940979,-0.05862407013773918,-0.08205588161945343,-7.095446586608887,8.55482292175293,-1.5862414836883545,-0.04,0.0,-0.04,272.82
1680043279.91945171,73971753,2,-0.17,2.33,55.86,-1.4208658933639526,0.5198800563812256,-0.07099414616823196,-0.10519928485155106,-7.224611282348633,8.632861137390137,-1.5961085557937622,-0.04,0.0,-0.05,272.82
1680043280.01944876,74071750,2,-0.1,2.4,56.14,-1.4080841541290283,0.49718910455703735,-0.060292236506938934,-0.09629401564598083,-7.3553900718688965,8.702751159667969,-1.6059030294418335,-0.04,0.0,-0.05,272.82
1680043280.11941385,74171715,2,-0.22,2.37,56.32,-1.3873502016067505,0.4759524166584015,-0.05971056595444679,-0.05496097356081009,-7.478392124176025,8.769076347351074,-1.6103273630142212,-0.04,0.0,-0.06,272.82
1680043280.21941686,74271718,2,-0.47000000000000003,2.37,56.57,-1.3683466911315918,0.44675981998443604,-0.07620583474636078,-0.05666657164692879,-7.6034698486328125,8.82800006866455,-1.6168982982635498,-0.04,0.0,-0.06,272.82
1680043280.31941986,74371721,2,-0.59,2.1,57.0,-1.347467064857483,0.42274633049964905,-0.10626180469989777,-0.08283137530088425,-7.723767280578613,8.887822151184082,-1.6241087913513184,-0.04,0.0,-0.06,272.82
1680043280.41946673,74471768,2,-1.1500000000000001,1.4000000000000001,57.620000000000005,-1.2984973192214966,0.4092976152896881,-0.10745204985141754,-0.09795065224170685,-7.842743873596191,8.94342041015625,-1.6353082656860352,-0.04,0.0,-0.07,272.82
1680043280.51954293,74571844,2,-1.79,0.61,58.52,-1.2666757106781006,0.39107635617256165,-0.14908772706985474,-0.14632296562194824,-7.953075885772705,8.99981689453125,-1.6476112604141235,-0.04,0.0,-0.07,272.82
1680043280.61949492,74671796,2,-1.75,0.26,59.76,-1.203087568283081,0.37705257534980774,-0.14227081835269928,-0.1546865850687027,-8.064454078674316,9.050969123840332,-1.6642024517059326,-0.04,0.0,-0.08,272.82
1680043280.71949673,74771798,2,-1.94,0.42,91.98,-1.1546285152435303,0.3809351921081543,-0.17156025767326355,-0.24697303771972656,-8.173739433288574,9.102872848510742,-1.688628911972046,-0.04,0.0,-0.08,272.82
1680043280.81952286,74871824,2,-1.6300000000000001,0.46,93.64,-1.0967762470245361,0.4230109751224518,-0.16180996596813202,-0.26324862241744995,-8.278641700744629,9.154824256896973,-1.7137857675552368,-0.04,0.0,-0.08,272.82
1680043280.91944575,74971747,2,-0.49,0.72,95.46000000000001,-1.0579237937927246,0.4419490098953247,-0.17142072319984436,-0.28523117303848267,-8.384420394897461,9.216898918151855,-1.7406957149505615,-0.04,0.0,-0.08,272.82
1680043281.01942277,75071724,2,0.02,0.9,97.31,-1.0301954746246338,0.471226304769516,-0.18918001651763916,-0.28703418374061584,-8.48781681060791,9.278385162353516,-1.7661958932876587,-0.04,0.0,-0.08,272.82
1680043281.11942387,75171725,2,-0.11,0.85,99.41,-1.0175498723983765,0.5100077390670776,-0.169402077794075,-0.25949445366859436,-8.601481437683105,9.352387428283691,-1.792991042137146,-0.04,0.0,-0.08,272.82
1680043281.21941590,75271717,2,-0.02,0.77,101.4,-1.0140657424926758,0.5276232957839966,-0.17659811675548553,-0.24973396956920624,-8.712053298950195,9.422843933105469,-1.817966103553772,-0.04,0.0,-0.08,272.82
1680043281.31949878,75371800,2,-0.02,0.75,103.25,-0.998236894607544,0.5460123419761658,-0.18144632875919342,-0.25383874773979187,-8.827081680297852,9.49233341217041,-1.843516230583191,-0.04,0.0,-0.08,272.82
1680043281.41956091,75471862,2,-0.21,0.73,104.81,-0.9960516095161438,0.5611047148704529,-0.1954260915517807,-0.2678242325782776,-8.938798904418945,9.558870315551758,-1.8689557313919067,-0.04,0.0,-0.08,272.82
1680043281.51949787,75571799,2,-0.19,0.72,106.18,-0.9873960614204407,0.5800883173942566,-0.1885475516319275,-0.2654217779636383,-9.054553985595703,9.630762100219727,-1.8961573839187622,-0.04,0.0,-0.08,272.82
1680043281.61948276,75671784,2,-0.19,0.71,107.22,-0.9725699424743652,0.5934839248657227,-0.20790213346481323,-0.2737348973751068,-9.16613483428955,9.6997709274292,-1.922054648399353,-0.04,0.0,-0.08,272.82
1680043281.71950984,75771811,2,-0.21,0.6900000000000001,108.04,-0.9686896204948425,0.6101291179656982,-0.1877719908952713,-0.25306257605552673,-9.278608322143555,9.769723892211914,-1.9488905668258667,-0.04,0.0,-0.08,272.82
1680043281.81944489,75871746,2,-0.2,0.7000000000000001,108.61,-0.960435152053833,0.6170658469200134,-0.19790054857730865,-0.24710671603679657,-9.386957168579102,9.838257789611816,-1.972244381904602,-0.04,0.0,-0.08,272.82
1680043281.91940880,75971710,2,-0.22,0.72,108.93,-0.9359973669052124,0.6395671367645264,-0.18569527566432953,-0.2020736038684845,-9.491842269897461,9.911029815673828,-1.9926539659500122,-0.04,0.0,-0.08,272.82
1680043282.01941180,76071713,2,-0.25,0.75,109.06,-0.9238166809082031,0.6507282257080078,-0.17718827724456787,-0.16848866641521454,-9.592763900756836,9.981782913208008,-2.0112547874450684,-0.04,0.0,-0.08,272.82
1680043282.11941290,76171714,2,-0.22,0.81,109.05,-0.8991347551345825,0.6607010364532471,-0.16575028002262115,-0.126756951212883,-9.693111419677734,10.053406715393066,-2.025606632232666,-0.04,0.0,-0.08,272.82
1680043282.21946788,76271769,2,-0.24,0.85,108.91,-0.8915547728538513,0.6638347506523132,-0.1529197096824646,-0.1135096549987793,-9.789340019226074,10.123346328735352,-2.0400612354278564,-0.04,0.0,-0.08,272.82
1680043282.31952286,76371824,2,-0.26,0.86,108.61,-0.8687338829040527,0.6760509610176086,-0.1552213430404663,-0.10433005541563034,-9.882925987243652,10.19363021850586,-2.0511884689331055,-0.04,0.0,-0.08,272.82
1680043282.41949773,76471799,2,-0.28,0.86,108.24000000000001,-0.852375328540802,0.6793243885040283,-0.16247500479221344,-0.11688630282878876,-9.973597526550293,10.263162612915039,-2.062803268432617,-0.04,0.0,-0.08,272.82
1680043282.51949573,76571797,2,-0.3,0.86,108.01,-0.8346220850944519,0.6866986751556396,-0.14119495451450348,-0.12312158197164536,-10.069957733154297,10.332537651062012,-2.0765204429626465,-0.04,0.0,-0.08,272.82
1680043282.61950684,76671808,2,-0.32,0.72,107.77,-0.8207210302352905,0.6920610070228577,-0.13651211559772491,-0.130413219332695,-10.162308692932129,10.401036262512207,-2.088937759399414,-0.04,0.0,-0.08,272.82
1680043282.71946979,76771771,2,-0.29,0.79,107.55,-0.8079177141189575,0.6930501461029053,-0.11432406306266785,-0.09106422960758209,-10.25478744506836,10.466323852539062,-2.0984599590301514,-0.04,0.0,-0.08,272.82
1680043282.81940889,76871710,2,-0.3,0.86,107.26,-0.7963645458221436,0.6937384009361267,-0.09542196989059448,-0.0741167813539505,-10.343331336975098,10.531266212463379,-2.1070809364318848,-0.04,0.0,-0.08,272.82
1680043282.91940880,76971710,2,-0.26,0.75,107.14,-0.7832359075546265,0.6935870051383972,-0.08607349544763565,-0.07803681492805481,-10.437033653259277,10.59848690032959,-2.115140676498413,-0.04,0.0,-0.08,272.82
1680043283.01942492,77071726,2,-0.41000000000000003,0.6900000000000001,107.2,-0.7756104469299316,0.7004274725914001,-0.09243979305028915,-0.10039638727903366,-10.526137351989746,10.66551685333252,-2.123316526412964,-0.04,0.0,-0.08,272.82
1680043283.11945176,77171753,2,-0.38,0.71,107.64,-0.7654480934143066,0.7053987979888916,-0.06996040791273117,-0.10626047849655151,-10.620558738708496,10.730060577392578,-2.1344656944274902,-0.04,0.0,-0.08,272.82
1680043283.21950889,77271810,2,-0.22,0.73,108.19,-0.7540046572685242,0.7096131443977356,-0.031120100989937782,-0.07095048576593399,-10.7114839553833,10.794321060180664,-2.142948627471924,-0.04,0.0,-0.08,272.82
1680043283.31949687,77371798,2,-0.35000000000000003,0.75,108.84,-0.7399955987930298,0.7105100154876709,0.0040924749337136745,-0.0357365682721138,-10.803507804870605,10.8594970703125,-2.148815870285034,-0.04,0.0,-0.08,272.82
1680043283.41948295,77471784,2,-0.5,0.76,109.59,-0.7337450385093689,0.7071481347084045,0.01130460761487484,-0.035464707762002945,-10.890624046325684,10.92529010772705,-2.1532833576202393,-0.04,0.0,-0.08,272.82
1680043283.51949787,77571799,2,-0.8200000000000001,0.76,110.46000000000001,-0.7110434770584106,0.7183675765991211,0.03836768493056297,0.024135878309607506,-10.97785758972168,10.988397598266602,-2.152066707611084,-0.04,0.0,-0.08,272.82
1680043283.61944294,77671744,2,-1.43,0.73,111.44,-0.6895354390144348,0.7235336303710938,0.02100435458123684,0.026634056121110916,-11.059059143066406,11.053262710571289,-2.149491786956787,-0.04,0.0,-0.08,272.82
1680043283.71941185,77771713,2,-1.17,0.8,112.44,-0.6687853336334229,0.7199752926826477,0.04416120797395706,0.059925731271505356,-11.13886547088623,11.113097190856934,-2.1439249515533447,-0.04,0.0,-0.08,272.82
1680043283.81940889,77871710,2,-1.83,0.78,113.39,-0.6160950064659119,0.730822741985321,0.06430726498365402,0.08610215038061142,-11.212066650390625,11.174848556518555,-2.1364259719848633,-0.05,0.0,-0.08,272.82
1680043283.91941571,77971717,2,-3.74,0.74,114.22,-0.5628874897956848,0.7514531016349792,0.055084824562072754,0.10506422072649002,-11.277766227722168,11.237750053405762,-2.1262481212615967,-0.05,0.0,-0.08,272.82
1680043284.01947284,78071774,2,-3.94,0.8200000000000001,115.01,-0.5019465088844299,0.7680204510688782,0.07420032471418381,0.1207890659570694,-11.335872650146484,11.30397891998291,-2.116518497467041,-0.05,0.0,-0.08,272.82
1680043284.11950684,78171808,2,-3.2,0.9,115.71000000000001,-0.4376707673072815,0.7821518182754517,0.09951355308294296,0.14706800878047943,-11.387359619140625,11.36522102355957,-2.104138135910034,-0.05,0.0,-0.08,272.82
1680043284.21949387,78271795,2,-2.12,0.91,116.32000000000001,-0.388650506734848,0.7943968176841736,0.09813705086708069,0.13948354125022888,-11.4318208694458,11.430465698242188,-2.091315984725952,-0.05,0.0,-0.08,272.82
1680043284.31948972,78371791,2,-0.45,0.96,117.0,-0.3654978275299072,0.790200412273407,0.07515569031238556,0.07076164335012436,-11.486794471740723,11.493606567382812,-2.0839505195617676,-0.05,0.0,-0.08,272.82
1680043284.41951489,78471816,2,0.0,0.91,117.64,-0.3530692458152771,0.787183403968811,0.07639947533607483,0.05111702159047127,-11.535490036010742,11.559833526611328,-2.0772244930267334,-0.05,0.0,-0.08,272.82
1680043284.51945686,78571758,2,-0.16,0.86,118.07000000000001,-0.3506530225276947,0.7794719338417053,0.0813252180814743,0.050707947462797165,-11.583579063415527,11.621257781982422,-2.072375774383545,-0.05,0.0,-0.08,272.82
1680043284.61941481,78671716,2,-0.09,0.84,118.41,-0.3492496609687805,0.7653911113739014,0.025386126711964607,0.007662334479391575,-11.629486083984375,11.684150695800781,-2.0691545009613037,-0.05,0.0,-0.08,272.82
1680043284.71942282,78771724,2,-0.26,0.8200000000000001,118.68,-0.34364092350006104,0.761247456073761,0.017450451850891113,-0.01877347007393837,-11.675702095031738,11.746325492858887,-2.0702972412109375,-0.05,0.0,-0.08,272.82
1680043284.81940889,78871710,2,-0.24,0.8,118.95,-0.3254598081111908,0.7599096298217773,-0.017333537340164185,-0.04937227815389633,-11.717870712280273,11.811159133911133,-2.073505163192749,-0.05,0.0,-0.08,272.82
1680043284.91948080,78971782,2,-0.17,0.79,119.15,-0.3178926706314087,0.7613111138343811,-0.03581215813755989,-0.0822821781039238,-11.758605003356934,11.874753952026367,-2.081425905227661,-0.05,0.0,-0.08,272.82
1680043285.01953983,79071841,2,-0.34,0.79,119.34,-0.3082049489021301,0.7538137435913086,-0.08631391078233719,-0.14648620784282684,-11.796491622924805,11.938679695129395,-2.0931735038757324,-0.05,0.0,-0.08,272.82
1680043285.11949492,79171796,2,-0.39,0.8200000000000001,119.56,-0.3033028244972229,0.7518365979194641,-0.0999365821480751,-0.16386307775974274,-11.840681076049805,12.000100135803223,-2.1084213256835938,-0.05,0.0,-0.08,272.82
1680043285.21949172,79271793,2,-0.41000000000000003,0.89,119.77,-0.2907215356826782,0.7487289905548096,-0.1352623701095581,-0.19885462522506714,-11.88031005859375,12.064598083496094,-2.126434087753296,-0.05,0.0,-0.08,272.82
1680043285.31950378,79371805,2,-0.56,0.91,119.91,-0.2776782214641571,0.7526154518127441,-0.15777650475502014,-0.1868700385093689,-11.914826393127441,12.129281997680664,-2.142893075942993,-0.05,0.0,-0.08,272.82
1680043285.41944480,79471746,2,-0.65,0.49,120.01,-0.26777562499046326,0.7633050680160522,-0.17558476328849792,-0.17277389764785767,-11.945904731750488,12.197044372558594,-2.1602227687835693,-0.05,0.0,-0.08,272.82
1680043285.51941085,79571712,2,-0.8,-0.5,120.10000000000001,-0.25392675399780273,0.7768439650535583,-0.21649542450904846,-0.18542145192623138,-11.978425979614258,12.269356727600098,-2.177746057510376,-0.05,0.0,-0.09,272.82
1680043285.61942673,79671728,2,-1.19,-0.26,120.17,-0.23694384098052979,0.7989403605461121,-0.2421838343143463,-0.2045392394065857,-12.0070161819458,12.344953536987305,-2.1984453201293945,-0.05,0.0,-0.09,272.82
1680043285.71942282,79771724,2,-1.3,0.39,120.18,-0.21850430965423584,0.8278594017028809,-0.2518170475959778,-0.2201203852891922,-12.036235809326172,12.423418045043945,-2.221174716949463,-0.05,0.0,-0.08,272.82
1680043285.81948876,79871790,2,-1.07,0.1,120.17,-0.20001474022865295,0.8484821319580078,-0.2494526356458664,-0.2174534797668457,-12.061624526977539,12.504891395568848,-2.243359327316284,-0.05,0.0,-0.09,272.82
1680043285.91950274,79971804,2,-0.61,0.53,120.21000000000001,-0.18341150879859924,0.8600572943687439,-0.2330617755651474,-0.18253830075263977,-12.089988708496094,12.584274291992188,-2.2627806663513184,-0.05,0.0,-0.09,272.82
1680043286.01949883,80071800,2,-0.44,0.9400000000000001,120.2,-0.16886764764785767,0.8656724691390991,-0.26914137601852417,-0.2352781593799591,-12.11455249786377,12.667778015136719,-2.285330057144165,-0.05,0.0,-0.09,272.82
1680043286.11948681,80171788,2,-0.44,0.79,120.16,-0.1683192253112793,0.8697862029075623,-0.2954859435558319,-0.2371433675289154,-12.140332221984863,12.75063705444336,-2.305117607116699,-0.05,0.0,-0.09,272.82
1680043286.21948791,80271789,2,-0.37,0.85,120.05,-0.15378066897392273,0.8727980852127075,-0.2998007833957672,-0.23889857530593872,-12.16234302520752,12.835016250610352,-2.3282651901245117,-0.05,0.0,-0.09,272.82
1680043286.31944990,80371751,2,-0.39,0.91,119.96000000000001,-0.14691998064517975,0.8767287135124207,-0.29236188530921936,-0.2555696368217468,-12.18850326538086,12.918375015258789,-2.354944944381714,-0.05,0.0,-0.09,272.82
1680043286.41941285,80471714,2,-0.37,1.1,119.82000000000001,-0.12741148471832275,0.8770443201065063,-0.2953353524208069,-0.2656519412994385,-12.210453033447266,13.003036499023438,-2.3821232318878174,-0.05,0.0,-0.09,272.82
1680043286.51940989,80571711,2,-0.35000000000000003,1.79,119.63,-0.10682180523872375,0.8706184029579163,-0.2935503125190735,-0.297989159822464,-12.229974746704102,13.085881233215332,-2.414064407348633,-0.05,0.0,-0.09,272.82
1680043286.61941195,80671713,2,-0.38,2.17,119.44,-0.09803903102874756,0.8508712649345398,-0.29184287786483765,-0.32552170753479004,-12.24536418914795,13.168988227844238,-2.446988105773926,-0.05,0.0,-0.09,272.82
1680043286.71946883,80771770,2,-0.39,2.22,119.32000000000001,-0.06853743642568588,0.8357403874397278,-0.2693650722503662,-0.31789785623550415,-12.256369590759277,13.249798774719238,-2.479734420776367,-0.05,0.0,-0.09,272.82
1680043286.81950974,80871811,2,-0.42,2.2600000000000002,119.2,-0.03949343040585518,0.8176121711730957,-0.25479423999786377,-0.30663084983825684,-12.263277053833008,13.328681945800781,-2.5090854167938232,-0.05,0.0,-0.09,272.82
1680043286.91950893,80971810,2,-0.4,2.33,119.11,-0.015287785790860653,0.8054272532463074,-0.2086520493030548,-0.2510544955730438,-12.275810241699219,13.403779029846191,-2.5354392528533936,-0.05,0.0,-0.09,272.82
1680043287.01948786,81071789,2,-0.43,2.65,119.10000000000001,0.003848763881251216,0.7771393656730652,-0.15984152257442474,-0.20080974698066711,-12.282991409301758,13.478293418884277,-2.559316873550415,-0.05,0.0,-0.09,272.82
1680043287.11951184,81171813,2,-0.46,2.75,119.26,0.034130919724702835,0.7577389478683472,-0.15983644127845764,-0.20537161827087402,-12.290769577026367,13.552590370178223,-2.580387592315674,-0.05,0.0,-0.09,272.82
1680043287.21944475,81271746,2,-0.46,2.62,119.68,0.049140963703393936,0.7343512177467346,-0.13506543636322021,-0.17262591421604156,-12.294069290161133,13.62559986114502,-2.5992796421051025,-0.05,0.0,-0.09,272.82
1680043287.31941676,81371718,2,-0.49,2.5300000000000002,120.37,0.08480307459831238,0.7163237929344177,-0.10734182596206665,-0.15965062379837036,-12.294775009155273,13.697021484375,-2.6169450283050537,-0.05,0.0,-0.09,272.82
1680043287.41940880,81471710,2,-0.45,2.68,121.21000000000001,0.11997616291046143,0.70330411195755,-0.06438692659139633,-0.1165597066283226,-12.290376663208008,13.766945838928223,-2.630375862121582,-0.05,0.0,-0.09,272.82
1680043287.51941490,81571716,2,-0.49,2.75,121.99000000000001,0.1407807320356369,0.6777440309524536,-0.01939055696129799,-0.04024909809231758,-12.285879135131836,13.832658767700195,-2.6358916759490967,-0.05,0.0,-0.09,272.82
1680043287.61947179,81671773,2,-0.48,2.5100000000000002,122.71000000000001,0.1651577353477478,0.6598672270774841,0.01247087586671114,0.005180868320167065,-12.275964736938477,13.897672653198242,-2.6379053592681885,-0.05,0.0,-0.09,272.82
1680043287.71950388,81771805,2,-0.5,2.32,123.33,0.17786528170108795,0.6371320486068726,0.018375037238001823,0.010578014887869358,-12.268041610717773,13.954768180847168,-2.637643337249756,-0.05,0.0,-0.09,272.82
1680043287.81950474,81871806,2,-0.52,1.76,123.91,0.2067175954580307,0.6411738991737366,0.05216320604085922,0.03856179490685463,-12.255056381225586,14.013025283813477,-2.6351234912872314,-0.05,0.0,-0.09,272.82
1680043287.91949987,81971801,2,-0.52,0.9400000000000001,124.36,0.2243245393037796,0.6288548707962036,0.06244920194149017,0.05222751945257187,-12.245328903198242,14.071707725524902,-2.6296732425689697,-0.05,0.0,-0.09,272.82
1680043288.01946783,82071769,2,-0.51,1.72,124.75,0.24420180916786194,0.6111915111541748,0.06577202677726746,0.06236710026860237,-12.230392456054688,14.1307373046875,-2.622845411300659,-0.05,0.0,-0.09,272.82
1680043288.11944294,82171744,2,-0.5700000000000001,4.7700000000000005,125.02,0.2815327048301697,0.5776137709617615,0.08585064113140106,0.10647965222597122,-12.215922355651855,14.191787719726562,-2.6116654872894287,-0.05,0.0,-0.09,272.82
1680043288.21942091,82271722,2,-0.3,6.94,125.23,0.32215431332588196,0.5270199775695801,0.0953877791762352,0.12077237665653229,-12.194007873535156,14.248754501342773,-2.5997474193573,-0.05,0.0,-0.09,272.82
1680043288.31941295,82371714,2,0.45,6.84,125.32000000000001,0.3780668079853058,0.44623324275016785,0.12573786079883575,0.15928739309310913,-12.16895580291748,14.29198169708252,-2.5842747688293457,-0.05,0.0,-0.09,272.82
1680043288.41941285,82471714,2,0.9500000000000001,6.890000000000001,125.38000000000001,0.42341241240501404,0.3498939573764801,0.1482948362827301,0.17846454679965973,-12.135173797607422,14.328107833862305,-2.5685627460479736,-0.05,0.0,-0.09,272.82
1680043288.51946878,82571770,2,1.41,6.33,125.16,0.461148202419281,0.2735374867916107,0.16092291474342346,0.18425752222537994,-12.10533332824707,14.357088088989258,-2.550926446914673,-0.06,0.0,-0.09,272.82
1680043288.61955190,82671853,2,2.19,4.69,124.82000000000001,0.4742738902568817,0.19446516036987305,0.17908017337322235,0.1936798393726349,-12.069867134094238,14.37856674194336,-2.5328943729400635,-0.06,0.0,-0.09,272.82
1680043288.71950984,82771811,2,2.52,4.16,123.96000000000001,0.47248873114585876,0.11030934005975723,0.1564435362815857,0.16289298236370087,-12.046257972717285,14.388453483581543,-2.5159215927124023,-0.06,0.0,-0.09,272.82
1680043288.81948876,82871790,2,2.65,4.82,123.11,0.45685625076293945,0.03481907770037651,0.15545669198036194,0.15242764353752136,-12.018112182617188,14.391606330871582,-2.499565839767456,-0.06,0.0,-0.09,272.82
1680043288.91949987,82971801,2,2.91,4.79,121.82000000000001,0.43484583497047424,-0.038568008691072464,0.16991986334323883,0.16341820359230042,-12.003935813903809,14.38735294342041,-2.4827611446380615,-0.06,0.0,-0.09,272.82
1680043289.01944494,83071746,2,2.7,4.46,120.7,0.4023949205875397,-0.12179539352655411,0.15877418220043182,0.15158826112747192,-11.983220100402832,14.37668514251709,-2.4657843112945557,-0.06,0.0,-0.09,272.82
1680043289.11940980,83171711,2,2.32,3.87,119.22,0.36706435680389404,-0.17943359911441803,0.17355406284332275,0.14926820993423462,-11.981727600097656,14.358245849609375,-2.4512805938720703,-0.06,0.0,-0.09,272.82
1680043289.21941280,83271714,2,2.0,2.93,118.06,0.32561567425727844,-0.2297423928976059,0.1618560254573822,0.1314060091972351,-11.976425170898438,14.335078239440918,-2.437138557434082,-0.06,0.0,-0.09,272.82
1680043289.31941485,83371716,2,0.59,1.87,116.78,0.29857683181762695,-0.25186580419540405,0.1513832062482834,0.10890301316976547,-11.98401165008545,14.311006546020508,-2.4262003898620605,-0.06,0.0,-0.09,272.82
1680043289.41948676,83471788,2,-0.7000000000000001,1.25,115.97,0.2636912167072296,-0.2720513641834259,0.1292387992143631,0.090720996260643,-11.985760688781738,14.285787582397461,-2.415679454803467,-0.06,0.0,-0.09,272.82
1680043289.51950979,83571811,2,-0.72,1.22,115.26,0.2512703239917755,-0.25359320640563965,0.14202667772769928,0.11845958232879639,-11.994523048400879,14.265955924987793,-2.4044198989868164,-0.06,0.0,-0.09,272.82
1680043289.61950183,83671803,2,-0.68,1.18,114.99000000000001,0.2754896879196167,-0.23043589293956757,0.1512347310781479,0.1363411843776703,-11.9951810836792,14.246185302734375,-2.3924379348754883,-0.06,0.0,-0.09,272.82
1680043289.71948385,83771785,2,-0.78,0.93,114.78,0.2581563889980316,-0.22825440764427185,0.1375190019607544,0.1098237931728363,-12.002459526062012,14.232196807861328,-2.3815536499023438,-0.06,0.0,-0.09,272.82
1680043289.81950092,83871802,2,-0.68,0.78,114.9,0.2504946291446686,-0.21646679937839508,0.14924278855323792,0.1199687272310257,-12.001432418823242,14.217704772949219,-2.3705055713653564,-0.06,0.0,-0.09,272.82
1680043289.91944575,83971747,2,-0.68,0.77,115.08,0.26508629322052,-0.186725914478302,0.12633943557739258,0.12281154096126556,-12.004148483276367,14.208305358886719,-2.357097864151001,-0.06,0.0,-0.09,272.82
1680043290.01941395,84071715,2,-0.74,0.77,115.48,0.25983545184135437,-0.1798183023929596,0.09722763299942017,0.10510177165269852,-11.998048782348633,14.19821834564209,-2.344487190246582,-0.07,0.0,-0.09,272.82
1680043290.11941385,84171715,2,-0.7000000000000001,0.76,115.94,0.2590242922306061,-0.16930265724658966,0.10123492032289505,0.11035750061273575,-11.996087074279785,14.192355155944824,-2.3325483798980713,-0.07,0.0,-0.09,272.82
1680043290.21940994,84271711,2,-0.73,0.78,116.55,0.2695920765399933,-0.1429082453250885,0.09712633490562439,0.10025668889284134,-11.986082077026367,14.185381889343262,-2.322425603866577,-0.07,0.0,-0.09,272.82
1680043290.31945682,84371758,2,-0.74,0.74,117.2,0.2768010199069977,-0.11891022324562073,0.09261912852525711,0.08097106218338013,-11.97812271118164,14.181631088256836,-2.3153932094573975,-0.07,0.01,-0.09,272.82
1680043290.41951489,84471816,2,-0.77,0.75,117.9,0.2883298397064209,-0.11075402796268463,0.05360306799411774,0.037599608302116394,-11.962944030761719,14.177192687988281,-2.3095579147338867,-0.07,0.01,-0.09,272.82
1680043290.51950479,84571806,2,-0.77,0.76,118.57000000000001,0.2918524742126465,-0.09530631452798843,0.036140333861112595,0.042022548615932465,-11.949605941772461,14.176148414611816,-2.3031280040740967,-0.07,0.01,-0.09,272.82
1680043290.61948395,84671785,2,-0.74,0.79,119.24000000000001,0.312327116727829,-0.06732835620641708,0.036539413034915924,0.04884229227900505,-11.92984676361084,14.174524307250977,-2.298532485961914,-0.07,0.01,-0.09,272.82
1680043290.71950078,84771802,2,-0.6900000000000001,0.8,119.82000000000001,0.3069552779197693,-0.06236855313181877,0.023392636328935623,0.014268985018134117,-11.913152694702148,14.176074981689453,-2.2977092266082764,-0.07,0.01,-0.09,272.82
1680043290.81944394,84871745,2,-0.55,0.77,120.34,0.3113228380680084,-0.04910857975482941,0.00710607785731554,-0.015742406249046326,-11.890567779541016,14.176963806152344,-2.2985446453094482,-0.07,0.01,-0.09,272.82
1680043290.91940975,84971711,2,0.33,0.73,120.76,0.3121136426925659,-0.03465733677148819,-0.028837919235229492,-0.04429922625422478,-11.87214469909668,14.181303977966309,-2.2995591163635254,-0.07,0.01,-0.09,272.82
1680043291.01941490,85071716,2,0.79,0.7000000000000001,121.05,0.30517953634262085,-0.023835474625229836,-0.033591222018003464,-0.03837218135595322,-11.849345207214355,14.184465408325195,-2.301923990249634,-0.07,0.01,-0.09,272.82
1680043291.11941981,85171721,2,0.54,0.67,121.14,0.288352906703949,-0.022520696744322777,-0.03923061490058899,-0.044058412313461304,-11.832831382751465,14.188194274902344,-2.3059535026550293,-0.07,0.01,-0.09,272.82
1680043291.21947289,85271774,2,0.31,0.66,121.06,0.2834639251232147,-0.01205939520150423,-0.025974970310926437,-0.06529678404331207,-11.81302547454834,14.190774917602539,-2.314514398574829,-0.07,0.01,-0.09,272.82
1680043291.31952882,85371830,2,0.02,0.7000000000000001,120.92,0.27450627088546753,-0.0038387940730899572,-0.041071392595767975,-0.10469887405633926,-11.795806884765625,14.195901870727539,-2.323714017868042,-0.07,0.01,-0.09,272.82
1680043291.41950679,85471808,2,0.08,0.78,120.7,0.26195433735847473,0.0007797582074999809,-0.04670259356498718,-0.10785241425037384,-11.776901245117188,14.200793266296387,-2.3337583541870117,-0.07,0.01,-0.09,272.82
1680043291.51949692,85571798,2,0.31,0.91,120.25,0.2659706175327301,0.011984053999185562,-0.05962700396776199,-0.12206514179706573,-11.759676933288574,14.206939697265625,-2.344836711883545,-0.07,0.01,-0.09,272.82
1680043291.61950374,85671805,2,0.31,0.77,119.65,0.2598106861114502,0.015898246318101883,-0.05857907608151436,-0.11464674025774002,-11.73915958404541,14.212138175964355,-2.3564600944519043,-0.07,0.01,-0.1,272.82
1680043291.71945190,85771753,2,0.28,0.63,119.07000000000001,0.25031039118766785,0.022019539028406143,-0.05306215584278107,-0.10521238297224045,-11.72252082824707,14.21817398071289,-2.367231845855713,-0.07,0.01,-0.1,272.82
1680043291.81941581,85871717,2,0.29,0.66,118.52,0.25422629714012146,0.02930697426199913,-0.06198130548000336,-0.09950800240039825,-11.702714920043945,14.223426818847656,-2.3762190341949463,-0.07,0.01,-0.1,272.82
1680043291.91941881,85971720,2,0.07,0.62,117.97,0.25300028920173645,0.04013293609023094,-0.05609382316470146,-0.059911031275987625,-11.68747615814209,14.231622695922852,-2.3820536136627197,-0.07,0.01,-0.1,272.82
1680043292.01941681,86071718,2,-0.31,0.66,117.45,0.25175216794013977,0.053910210728645325,-0.04491332173347473,-0.04564342647790909,-11.668622016906738,14.239218711853027,-2.389240026473999,-0.07,0.01,-0.1,272.82
1680043292.11947775,86171779,2,-0.58,0.66,116.97,0.24999681115150452,0.05773324519395828,-0.056615158915519714,-0.07404431700706482,-11.651867866516113,14.248967170715332,-2.396836757659912,-0.07,0.01,-0.1,272.82
1680043292.21951985,86271821,2,-0.64,0.65,116.54,0.2600201368331909,0.07256997376680374,-0.048187658190727234,-0.07172568142414093,-11.632828712463379,14.25903606414795,-2.4039688110351562,-0.07,0.01,-0.1,272.82
1680043292.31949687,86371798,2,-0.28,0.66,116.12,0.2497428059577942,0.07641993463039398,-0.054969560354948044,-0.07857563346624374,-11.612537384033203,14.27115249633789,-2.4111645221710205,-0.07,0.01,-0.1,272.82
1680043292.41948986,86471791,2,0.38,0.7000000000000001,115.77,0.267525851726532,0.09331853687763214,-0.07093741744756699,-0.10982270538806915,-11.589398384094238,14.282730102539062,-2.420335054397583,-0.07,0.01,-0.1,272.82
1680043292.51950574,86571807,2,-0.25,0.71,115.47,0.2771131694316864,0.10306337475776672,-0.06794144958257675,-0.09972930699586868,-11.56898307800293,14.29665470123291,-2.4287521839141846,-0.07,0.01,-0.1,272.82
1680043292.61944389,86671745,2,-0.8200000000000001,0.76,115.25,0.269543319940567,0.1096399575471878,-0.03201789781451225,-0.0617079883813858,-11.54524040222168,14.310002326965332,-2.437051296234131,-0.07,0.01,-0.1,272.82
1680043292.71941876,86771720,2,-0.64,0.81,115.14,0.2909013628959656,0.12135294079780579,-0.04070165380835533,-0.06574112176895142,-11.523489952087402,14.326133728027344,-2.443364143371582,-0.07,0.01,-0.1,272.82
1680043292.81942582,86871727,2,-0.65,0.78,115.10000000000001,0.3017171025276184,0.13228033483028412,-0.021370407193899155,-0.04550129547715187,-11.49775218963623,14.342137336730957,-2.4489734172821045,-0.07,0.01,-0.1,272.82
1680043292.91941476,86971716,2,-0.7000000000000001,0.79,115.12,0.30832546949386597,0.14492583274841309,0.0038195818196982145,-0.03187251091003418,-11.473299980163574,14.361477851867676,-2.454616069793701,-0.07,0.01,-0.1,272.82
1680043293.01947689,87071778,2,-0.59,0.78,115.19,0.32889384031295776,0.1669158786535263,0.008388414047658443,-0.03226973116397858,-11.445137023925781,14.380434036254883,-2.4589500427246094,-0.07,0.01,-0.1,272.82
1680043293.11950994,87171811,2,-0.62,0.74,115.32000000000001,0.3312838077545166,0.1642352193593979,0.009762411005795002,-0.048532478511333466,-11.417444229125977,14.400971412658691,-2.464463233947754,-0.07,0.01,-0.1,272.82
1680043293.21949673,87271798,2,-0.62,0.74,115.48,0.34859663248062134,0.17856204509735107,0.01525879092514515,-0.055427104234695435,-11.385917663574219,14.421355247497559,-2.469285488128662,-0.07,0.01,-0.1,272.82
1680043293.31948495,87371786,2,-0.6,0.77,115.66,0.3632931709289551,0.19422484934329987,0.02879509888589382,-0.03873733431100845,-11.352088928222656,14.444695472717285,-2.4727954864501953,-0.07,0.01,-0.1,272.82
