timestamp,TimeUS,C,Q1,Q2,Q3,Q4
1680043265.61943388,59671735,2,0.9424710869789124,0.0028423781041055918,0.004804064054042101,-0.3342410624027252
1680043265.71940279,59771704,2,0.9424633383750916,0.002822884591296315,0.004760237410664558,-0.3342636525630951
1680043265.81940293,59871704,2,0.9424623847007751,0.0028640455566346645,0.004793137777596712,-0.3342655301094055
1680043265.91940594,59971707,2,0.942448616027832,0.002844124101102352,0.004813612438738346,-0.33430421352386475
1680043266.01947188,60071773,2,0.9424278736114502,0.002851845696568489,0.004797391593456268,-0.3343628942966461
1680043266.11951184,60171813,2,0.9424182176589966,0.0028792775701731443,0.004748388659209013,-0.3343906104564667
1680043266.21948671,60271788,2,0.9423931241035461,0.002973486902192235,0.004699899349361658,-0.3344610929489136
1680043266.31947589,60371777,2,0.9423872232437134,0.0029519496019929647,0.004642792511731386,-0.33447879552841187
1680043266.41946578,60471767,2,0.9423795342445374,0.002958566416054964,0.00465058209374547,-0.3345002830028534
1680043266.51944184,60571743,2,0.9423642754554749,0.002913965843617916,0.004629672504961491,-0.3345438539981842
1680043266.61941671,60671718,2,0.9423550367355347,0.002883328590542078,0.004567910451442003,-0.33457112312316895
1680043266.71941590,60771717,2,0.9423420429229736,0.0029132296331226826,0.004500750917941332,-0.334608256816864
1680043266.81941390,60871715,2,0.9423254728317261,0.0029050749726593494,0.004520790185779333,-0.334654837846756
1680043266.91949677,60971798,2,0.9423269033432007,0.002927224151790142,0.004566786345094442,-0.3346499502658844
1680043267.01951385,61071815,2,0.9423240423202515,0.002888025250285864,0.004631004761904478,-0.3346574008464813
1680043267.11948991,61171791,2,0.9423438310623169,0.0028487176168709993,0.004685117397457361,-0.3346013128757477
1680043267.21947193,61271773,2,0.9423502683639526,0.002793158171698451,0.00472264364361763,-0.3345830738544464
1680043267.31945276,61371754,2,0.9423494338989258,0.0028183150570839643,0.004729297012090683,-0.33458518981933594
1680043267.41944790,61471749,2,0.9423552751541138,0.002758663147687912,0.004781008698046207,-0.3345685601234436
1680043267.51940894,61571710,2,0.9423519372940063,0.002729284344241023,0.004760283511132002,-0.33457836508750916
1680043267.61942387,61671725,2,0.9423520565032959,0.002721592551097274,0.0047903358936309814,-0.3345777690410614
1680043267.71941280,61771714,2,0.9423406720161438,0.0027164474595338106,0.004819180350750685,-0.3346094787120819
1680043267.81949282,61871794,2,0.9423282146453857,0.0027161308098584414,0.004853124264627695,-0.33464401960372925
1680043267.91954589,61971847,2,0.9423134922981262,0.0027523967437446117,0.0048874360509216785,-0.33468469977378845
1680043268.01949382,62071795,2,0.9423015713691711,0.002720965538173914,0.004914781078696251,-0.3347180485725403
1680043268.11950088,62171802,2,0.9423162341117859,0.002629117574542761,0.004960666876286268,-0.3346768021583557
1680043268.21945190,62271753,2,0.9423150420188904,0.0025459430180490017,0.00501222675666213,-0.33468011021614075
1680043268.31944895,62371750,2,0.9423210620880127,0.0024993952829390764,0.005025998689234257,-0.3346633315086365
1680043268.41941381,62471715,2,0.9423096179962158,0.002452477114275098,0.005052770487964153,-0.334695428609848
1680043268.51940989,62571711,2,0.9423137903213501,0.0024864659644663334,0.0050351787358522415,-0.33468371629714966
1680043268.61941195,62671713,2,0.9423602223396301,0.0024532729294151068,0.005082870367914438,-0.33455246686935425
1680043268.71948886,62771790,2,0.9422850012779236,0.0024772307369858027,0.004998818039894104,-0.33476534485816956
1680043268.81954789,62871849,2,0.9423595070838928,0.002471077488735318,0.005010793451219797,-0.33455541729927063
1680043268.91949391,62971795,2,0.9423751831054688,0.00225280225276947,0.005004142411053181,-0.33451300859451294
1680043269.01949072,63071792,2,0.9422767162322998,0.0021809812169522047,0.0049265301786363125,-0.33479177951812744
1680043269.11945271,63171754,2,0.9422946572303772,0.002209780504927039,0.004898513201624155,-0.3347415328025818
1680043269.21943784,63271739,2,0.9422846436500549,0.0021809814497828484,0.004923572298139334,-0.3347695767879486
1680043269.31941772,63371719,2,0.942198634147644,0.0020849183201789856,0.004869820550084114,-0.3350130021572113
1680043269.41940784,63471709,2,0.9422326683998108,0.002100263722240925,0.004894687794148922,-0.3349168300628662
1680043269.51941085,63571712,2,0.94222491979599,0.0020169599447399378,0.004989161621779203,-0.33493760228157043
1680043269.61947179,63671773,2,0.9421589374542236,0.0018245544051751494,0.005009931977838278,-0.33512407541275024
1680043269.71953988,63771841,2,0.9420971274375916,0.0018130827229470015,0.004796362016350031,-0.33530089259147644
1680043269.81949782,63871799,2,0.9421452879905701,0.001997489482164383,0.005077421199530363,-0.33516034483909607
1680043269.91948986,63971791,2,0.9418637752532959,0.002520098350942135,0.004922265652567148,-0.33594951033592224
1680043270.01950288,64071804,2,0.9415568709373474,0.0021258541382849216,0.0038041139487177134,-0.3368259370326996
1680043270.11944985,64171751,2,0.9412242770195007,0.001777841942384839,0.0023660301230847836,-0.3377692401409149
1680043270.21940994,64271711,2,0.940687358379364,0.0011808921117335558,0.0016471723793074489,-0.33926859498023987
1680043270.31941295,64371714,2,0.9400956034660339,0.0012376710074022412,0.0015256984625011683,-0.3409052789211273
1680043270.41941881,64471720,2,0.9395142793655396,0.0022749730851501226,0.00039627341902814806,-0.3425019085407257
1680043270.51947474,64571776,2,0.9389176964759827,0.0014132711803540587,2.1912026568315923e-05,-0.3441389203071594
1680043270.61953592,64671837,2,0.9383437633514404,0.0009564136271364987,1.9988774511148222e-05,-0.34570232033729553
1680043270.71950388,64771805,2,0.9378194212913513,0.0017129663610830903,-0.0015722682001069188,-0.34711572527885437
1680043270.81949592,64871797,2,0.9374785423278809,0.001261050347238779,-0.0008223177283070982,-0.3480398952960968
1680043270.91945672,64971758,2,0.9371727108955383,0.00031801106524653733,8.372223237529397e-05,-0.3488655984401703
1680043271.01945376,65071755,2,0.936930239200592,-0.00017096636292990297,0.00044364298810251057,-0.34951603412628174
1680043271.11941791,65171719,2,0.9368347525596619,-0.0031694096978753805,0.006216658279299736,-0.34970271587371826
1680043271.21941781,65271719,2,0.936738133430481,-0.006517588626593351,0.015694469213485718,-0.34961816668510437
1680043271.31942081,65371722,2,0.936816394329071,-0.001986450981348753,0.021687403321266174,-0.3491429388523102
1680043271.41946793,65471769,2,0.9370318651199341,0.0026641192380338907,0.023877257481217384,-0.34841644763946533
1680043271.51954985,65571851,2,0.9375575184822083,0.0033889536280184984,0.01776304468512535,-0.3473598062992096
1680043271.61949992,65671801,2,0.9381176233291626,0.0032815197482705116,0.009404473006725311,-0.34617358446121216
1680043271.71948290,65771784,2,0.9387059807777405,0.003117430955171585,0.004436281509697437,-0.3446762263774872
1680043271.81946778,65871769,2,0.9397540092468262,0.001447982736863196,0.0008336215978488326,-0.34184730052948
1680043271.91944194,65971743,2,0.9412391185760498,0.0007549090660177171,-4.5715980377281085e-05,-0.3377400040626526
1680043272.01941490,66071716,2,0.9428123831748962,0.0004206082667224109,0.0028283942956477404,-0.33331161737442017
1680043272.11942172,66171723,2,0.9445102214813232,0.0008141434518620372,0.008254727348685265,-0.32837730646133423
1680043272.21941781,66271719,2,0.9463781118392944,0.0048217326402664185,0.011717995628714561,-0.3228124976158142
1680043272.31946993,66371771,2,0.9481058120727539,0.014966580085456371,0.013895770534873009,-0.31729838252067566
1680043272.41951680,66471818,2,0.9494153261184692,0.02601376362144947,0.013868439011275768,-0.3126363456249237
1680043272.51949477,66571796,2,0.9504852890968323,0.0384603776037693,0.010981238447129726,-0.3081848621368408
1680043272.61949277,66671794,2,0.9512839317321777,0.04905867576599121,0.013185951858758926,-0.30410242080688477
1680043272.71949887,66771800,2,0.9519925117492676,0.05532771721482277,0.02149542048573494,-0.3003116250038147
1680043272.81944180,66871743,2,0.9526152014732361,0.05793198198080063,0.02352191135287285,-0.29768258333206177
1680043272.91941476,66971716,2,0.953100860118866,0.058868009597063065,0.022328779101371765,-0.29603153467178345
1680043273.01942086,67071722,2,0.9534234404563904,0.059456612914800644,0.026874791830778122,-0.2944934368133545
1680043273.11941481,67171716,2,0.9543884992599487,0.054490432143211365,0.026440849527716637,-0.2923598289489746
1680043273.21947575,67271777,2,0.9562057852745056,0.04537374526262283,0.0222075916826725,-0.28830280900001526
1680043273.31950593,67371807,2,0.958519697189331,0.039622142910957336,0.02537604793906212,-0.28111594915390015
1680043273.41949987,67471801,2,0.9614064693450928,0.03407667204737663,0.032779283821582794,-0.27103865146636963
1680043273.51949382,67571795,2,0.9653221964836121,0.02613930031657219,0.03611209988594055,-0.2572268843650818
1680043273.61949992,67671801,2,0.9696502685546875,0.020886652171611786,0.03676620498299599,-0.24081183969974518
1680043273.71943879,67771740,2,0.9739363789558411,0.021941538900136948,0.03535505756735802,-0.22297213971614838
1680043273.81940794,67871709,2,0.9777647256851196,0.030034977942705154,0.028808804228901863,-0.20553357899188995
1680043273.91941285,67971714,2,0.9804974794387817,0.049482546746730804,0.02447805367410183,-0.1886187195777893
1680043274.01941681,68071718,2,0.9826027154922485,0.06394092738628387,0.02448340505361557,-0.17263832688331604
1680043274.11948180,68171783,2,0.9853256940841675,0.061387643218040466,0.02329060807824135,-0.15755128860473633
1680043274.21953678,68271838,2,0.9880817532539368,0.05157363787293434,0.02454182505607605,-0.14294156432151794
1680043274.31949282,68371794,2,0.9903947710990906,0.04212845489382744,0.026681097224354744,-0.1289633810520172
1680043274.41949272,68471794,2,0.9923972487449646,0.029405198991298676,0.026058925315737724,-0.11663616448640823
1680043274.51945186,68571753,2,0.9938064217567444,0.02067614160478115,0.02768547646701336,-0.10561613738536835
1680043274.61944175,68671743,2,0.9946368336677551,0.02007194794714451,0.030361024662852287,-0.09681367129087448
1680043274.71942091,68771722,2,0.9953134655952454,0.015922505408525467,0.03238255903124809,-0.08971600234508514
1680043274.81940794,68871709,2,0.995764434337616,0.014844915829598904,0.03186313062906265,-0.0849560797214508
1680043274.91941094,68971712,2,0.9961148500442505,0.01488297525793314,0.029617292806506157,-0.08158724009990692
1680043275.01946783,69071769,2,0.9963734745979309,0.008855681866407394,0.027985375374555588,-0.07986421883106232
1680043275.11954880,69171850,2,0.9965658187866211,-0.0014548233011737466,0.024943985044956207,-0.0789448618888855
1680043275.21949172,69271793,2,0.9965915679931641,-0.004009522031992674,0.022850163280963898,-0.07916475832462311
1680043275.31950188,69371803,2,0.9965940713882446,-0.003717354265972972,0.023959526792168617,-0.07881851494312286
1680043275.41946483,69471766,2,0.9967378377914429,-0.006154329050332308,0.023749222978949547,-0.07688777148723602
1680043275.51943874,69571740,2,0.9970760345458984,-0.007266264408826828,0.023415960371494293,-0.07237552106380463
1680043275.61941886,69671720,2,0.9975029230117798,-0.00665180291980505,0.024977240711450577,-0.06572528183460236
1680043275.71941090,69771712,2,0.9979742169380188,-0.007213572971522808,0.026827068999409676,-0.05723421648144722
1680043275.81941485,69871716,2,0.9985086917877197,-0.00759007316082716,0.026418522000312805,-0.04716775566339493
1680043275.91947794,69971779,2,0.9990021586418152,-0.0073074474930763245,0.026119429618120193,-0.035482537001371384
1680043276.01956081,70071862,2,0.9993829131126404,-0.007519427686929703,0.025026051327586174,-0.023472830653190613
1680043276.11951780,70171819,2,0.9996188879013062,-0.007863343693315983,0.024150291457772255,-0.010816236026585102
1680043276.21948576,70271787,2,0.9997467994689941,-0.007065906655043364,0.021254800260066986,0.0021656604949384928
1680043276.31945682,70371758,2,0.9997028708457947,-0.007541249040514231,0.01714644394814968,0.01559852808713913
1680043276.41944885,70471750,2,0.9994158148765564,-0.007909354753792286,0.015745000913739204,0.02928452380001545
1680043276.51941085,70571712,2,0.9989438652992249,-0.00804050825536251,0.013815870508551598,0.043076545000076294
1680043276.61942077,70671722,2,0.9982900619506836,-0.00809183157980442,0.01137339137494564,0.05676381289958954
1680043276.71941280,70771714,2,0.9973965883255005,-0.008058416657149792,0.012167947366833687,0.07061945647001266
1680043276.81947184,70871773,2,0.9963245987892151,-0.008480710908770561,0.012520553544163704,0.0843123123049736
1680043276.91953278,70971834,2,0.9951028823852539,-0.007728979457169771,0.012894460000097752,0.09769436717033386
1680043277.01949978,71071801,2,0.9937105178833008,-0.007648053113371134,0.013737957924604416,0.11087002605199814
1680043277.11950183,71171803,2,0.9920689463615417,-0.00897878035902977,0.014805611222982407,0.1244967058300972
1680043277.21951175,71271813,2,0.9900876879692078,-0.010267345234751701,0.014444808475673199,0.13932807743549347
1680043277.31946492,71371766,2,0.987669050693512,-0.01046234555542469,0.014288811944425106,0.15555144846439362
1680043277.41942191,71471723,2,0.9848158359527588,-0.00995604321360588,0.014241294004023075,0.1727304309606552
1680043277.51941872,71571720,2,0.9814738035202026,-0.009784454479813576,0.015798423439264297,0.19069308042526245
1680043277.61941290,71671714,2,0.9777094721794128,-0.00946244690567255,0.016625549644231796,0.2090890258550644
1680043277.71949387,71771795,2,0.9737193584442139,-0.006491963751614094,0.015109535306692123,0.2271566540002823
1680043277.81952381,71871825,2,0.9697736501693726,-0.0050452216528356075,0.016098011285066605,0.24342243373394012
1680043277.91950583,71971807,2,0.9658488035202026,-0.006020879838615656,0.018692191690206528,0.2583610415458679
1680043278.01949573,72071797,2,0.9620454907417297,-0.005877349060028791,0.019674768671393394,0.2721154987812042
1680043278.11948681,72171788,2,0.9584277868270874,-0.005706712603569031,0.019059427082538605,0.2846407890319824
1680043278.21943784,72271739,2,0.9550954699516296,-0.005407767370343208,0.018974972888827324,0.29564061760902405
1680043278.31941080,72371712,2,0.9519999623298645,-0.005176248028874397,0.018045300617814064,0.30552199482917786
1680043278.41941094,72471712,2,0.949144184589386,-0.00716329226270318,0.018215682357549667,0.314232736825943
1680043278.51941872,72571720,2,0.9460101127624512,-0.009512699209153652,0.01932826265692711,0.32342037558555603
1680043278.61947393,72671775,2,0.9426404237747192,-0.010208677500486374,0.01918810047209263,0.3331016004085541
1680043278.71953273,72771834,2,0.9387558698654175,-0.010807249695062637,0.01895829848945141,0.34389132261276245
1680043278.81949282,72871794,2,0.9343191385269165,-0.011865613982081413,0.018512967973947525,0.3557587265968323
1680043278.91949487,72971796,2,0.9291985630989075,-0.012311864644289017,0.01806531846523285,0.3689337968826294
1680043279.01951075,73071812,2,0.923454761505127,-0.012301205657422543,0.01892215758562088,0.38304299116134644
1680043279.11944485,73171746,2,0.9170817732810974,-0.012577437795698643,0.01991342008113861,0.39800286293029785
1680043279.21940994,73271711,2,0.9104872941970825,-0.01221553422510624,0.01985888183116913,0.4128793179988861
1680043279.31941986,73371721,2,0.9043574929237366,-0.011234736070036888,0.018730327486991882,0.4262164235115051
1680043279.41941786,73471719,2,0.8991236686706543,-0.009270035661756992,0.014878695830702782,0.43734344840049744
1680043279.51945972,73571761,2,0.8945740461349487,-0.00931860227137804,0.012804302386939526,0.44663915038108826
1680043279.61953783,73671839,2,0.8907943964004517,-0.01011285837739706,0.013372518122196198,0.4540971517562866
1680043279.71949792,73771799,2,0.8876749277114868,-0.010166489519178867,0.013631104491651058,0.46015655994415283
1680043279.81948376,73871785,2,0.8851855397224426,-0.010220623575150967,0.015160436742007732,0.46487870812416077
1680043279.91945171,73971753,2,0.883288562297821,-0.010861021466553211,0.017310569062829018,0.4683840870857239
1680043280.01944876,74071750,2,0.8821417093276978,-0.010649003088474274,0.01810360513627529,0.47051548957824707
1680043280.11941385,74171715,2,0.8813914656639099,-0.01155560277402401,0.01734417863190174,0.47192662954330444
1680043280.21941686,74271718,2,0.8803518414497375,-0.013447794131934643,0.01628457009792328,0.473850816488266
1680043280.31941986,74371721,2,0.8785989880561829,-0.013313672505319118,0.013682338409125805,0.4771784842014313
1680043280.41946673,74471768,2,0.8760330080986023,-0.014695563353598118,0.00587376719340682,0.48199138045310974
1680043280.51954293,74571844,2,0.8722155690193176,-0.01633029244840145,-0.002981962636113167,0.48883986473083496
1680043280.61949492,74671796,2,0.8669275045394897,-0.014476404525339603,-0.005601879674941301,0.4981924593448639
1680043280.71949673,74771798,2,0.6945940256118774,-0.014487966895103455,-0.009636401198804379,0.7191914916038513
1680043280.81952286,74871824,2,0.6841709017753601,-0.012742972932755947,-0.0075866649858653545,0.7291709184646606
1680043280.91944575,74971747,2,0.6725845336914062,-0.007624690420925617,0.0010367626091465354,0.7399802803993225
1680043281.01942277,75071724,2,0.6605247855186462,-0.005783880595117807,0.005360214505344629,0.7507628202438354
1680043281.11942387,75171725,2,0.6466679573059082,-0.006318674888461828,0.00405401736497879,0.7627347111701965
1680043281.21941590,75271717,2,0.6333585977554321,-0.0053766509518027306,0.004135666415095329,0.7738287448883057
1680043281.31949878,75371800,2,0.6207665801048279,-0.005332596600055695,0.003925119526684284,0.7839674949645996
1680043281.41956091,75471862,2,0.6100185513496399,-0.006235872395336628,0.0023938282392919064,0.7923589944839478
1680043281.51949787,75571799,2,0.6004804372787476,-0.00607635173946619,0.002415706869214773,0.7996127605438232
1680043281.61948276,75671784,2,0.5932362079620361,-0.006004940252751112,0.0023375845048576593,0.8050026893615723
1680043281.71950984,75771811,2,0.587469220161438,-0.006013160105794668,0.002090706955641508,0.8092214465141296
1680043281.81944489,75871746,2,0.5833825469017029,-0.006044028326869011,0.0021250168792903423,0.8121722340583801
1680043281.91940880,75971710,2,0.5811456441879272,-0.006279526278376579,0.0021066972985863686,0.8137726187705994
1680043282.01941180,76071713,2,0.5801846385002136,-0.006641854532063007,0.002039961516857147,0.8144553303718567
1680043282.11941290,76171714,2,0.5803052186965942,-0.006916544400155544,0.002488266909494996,0.8143659234046936
1680043282.21946788,76271769,2,0.5812911987304688,-0.007263444364070892,0.002610426163300872,0.8136590123176575
1680043282.31952286,76371824,2,0.5833727717399597,-0.007538482081145048,0.00251747271977365,0.8121656179428101
1680043282.41949773,76471799,2,0.5860069394111633,-0.0075638676062226295,0.002417336916550994,0.8102670907974243
1680043282.51949573,76571797,2,0.5876519680023193,-0.007625159341841936,0.002293228404596448,0.8090746402740479
1680043282.61950684,76671808,2,0.5893208384513855,-0.0067811571061611176,0.0014482245314866304,0.8078693747520447
1680043282.71946979,76771771,2,0.5908693075180054,-0.007097179535776377,0.0019891352858394384,0.8067336082458496
1680043282.81940889,76871710,2,0.592906653881073,-0.0076735313050448895,0.0023296887520700693,0.8052312731742859
1680043282.91940880,76971710,2,0.5937454700469971,-0.006642098072916269,0.0020730416290462017,0.8046228289604187
1680043283.01942492,77071726,2,0.5933586955070496,-0.007037260569632053,0.0007009720429778099,0.8049070835113525
1680043283.11945176,77171753,2,0.5902864933013916,-0.0069846902042627335,0.0009627465042285621,0.8071630001068115
1680043283.21950889,77271810,2,0.5863749384880066,-0.006362454500049353,0.002194642322137952,0.8100118041038513
1680043283.31949687,77371798,2,0.5817467570304871,-0.007180675398558378,0.0012867554323747754,0.8133372664451599
1680043283.41948295,77471784,2,0.5764561891555786,-0.008005124516785145,0.00023552712809760123,0.817088782787323
1680043283.51949787,77571799,2,0.5701492428779602,-0.009637800045311451,-0.0021096516866236925,0.8214818835258484
1680043283.61944294,77671744,2,0.5630844235420227,-0.012341706082224846,-0.006742647383362055,0.8262796998023987
1680043283.71941185,77771713,2,0.5558416843414307,-0.011537839658558369,-0.004648837260901928,0.831195056438446
1680043283.81940889,77871710,2,0.5489040017127991,-0.014533575624227524,-0.009568771347403526,0.8357042670249939
1680043283.91941571,77971717,2,0.5425382852554321,-0.023167360574007034,-0.02392440475523472,0.8393706679344177
1680043284.01947284,78071774,2,0.5366252064704895,-0.024603182449936867,-0.025165723636746407,0.8430864214897156
1680043284.11950684,78171808,2,0.5315912961959839,-0.021603049710392952,-0.019475949928164482,0.8465014696121216
1680043284.21949387,78271795,2,0.5272974967956543,-0.01658831536769867,-0.011545614339411259,0.849440336227417
1680043284.31948972,78371791,2,0.52239990234375,-0.009276905097067356,0.000992215471342206,0.8526495695114136
1680043284.41951489,78471816,2,0.5176446437835693,-0.0068608601577579975,0.004128530155867338,0.8555582165718079
1680043284.51945686,78571758,2,0.5144459009170532,-0.007213972043246031,0.002694494090974331,0.8574882745742798
1680043284.61941481,78671716,2,0.5119165182113647,-0.006725258193910122,0.0030863103456795216,0.8590033054351807
1680043284.71942282,78771724,2,0.5098514556884766,-0.007407413795590401,0.001694124424830079,0.8602288961410522
1680043284.81940889,78871710,2,0.5078873038291931,-0.007166808471083641,0.0017436795169487596,0.8613919615745544
1680043284.91948080,78971782,2,0.5063580870628357,-0.006720342207700014,0.0021953568793833256,0.8622943162918091
1680043285.01953983,79071841,2,0.5048971176147461,-0.007528318557888269,0.0008699703030288219,0.8631462454795837
1680043285.11949492,79171796,2,0.5032792687416077,-0.00795288197696209,0.0006689880974590778,0.8640869855880737
1680043285.21949172,79271793,2,0.5016900897026062,-0.008568801917135715,0.0008076185476966202,0.8650045990943909
1680043285.31950378,79371805,2,0.5006147027015686,-0.009379825554788113,-0.00022017874289304018,0.8656193614006042
1680043285.41944480,79471746,2,0.4998241066932678,-0.0066009811125695705,-0.0027457652613520622,0.8660974502563477
1680043285.51941085,79571712,2,0.4991967976093292,0.00032870829454623163,-0.008303997106850147,0.8664487600326538
1680043285.61942673,79671728,2,0.49870583415031433,-0.003217126941308379,-0.010161174461245537,0.8667057752609253
1680043285.71942282,79771724,2,0.49856266379356384,-0.008670693263411522,-0.00813879631459713,0.8667721152305603
1680043285.81948876,79871790,2,0.4986482560634613,-0.005455162841826677,-0.0077174026519060135,0.8667529225349426
1680043285.91950274,79971804,2,0.49832767248153687,-0.0066757239401340485,-0.0023085938300937414,0.8669599890708923
1680043286.01949883,80071800,2,0.4983828365802765,-0.009039784781634808,0.0007379309390671551,0.8669096231460571
1680043286.11948681,80171788,2,0.4986824691295624,-0.00798176508396864,0.00011781268403865397,0.8667479753494263
1680043286.21948791,80271789,2,0.4995186924934387,-0.008076419122517109,0.0008953346405178308,0.8662649989128113
1680043286.31944990,80371751,2,0.5002031922340393,-0.00863417237997055,0.000958436110522598,0.8658644556999207
1680043286.41941285,80471714,2,0.5012825727462769,-0.010014362633228302,0.0020359570626169443,0.8652232885360718
1680043286.51940989,80571711,2,0.502647876739502,-0.015095415525138378,0.005225122906267643,0.8643436431884766
1680043286.61941195,80671713,2,0.5040276646614075,-0.018113479018211365,0.0066892970353364944,0.8634716272354126
1680043286.71946883,80771770,2,0.5049631595611572,-0.018502505496144295,0.006847835145890713,0.8629153966903687
1680043286.81950974,80871811,2,0.5058347582817078,-0.01894676685333252,0.0068466574884951115,0.8623951077461243
1680043286.91950893,80971810,2,0.5064902305603027,-0.019351696595549583,0.0073080831207334995,0.8619975447654724
1680043287.01948786,81071789,2,0.5065460205078125,-0.021860692650079727,0.008491961285471916,0.861893892288208
1680043287.11951184,81171813,2,0.5053288340568542,-0.022811273112893105,0.008674862794578075,0.8625816702842712
1680043287.21944475,81271746,2,0.5021364092826843,-0.021826189011335373,0.007954062893986702,0.8644763827323914
1680043287.31941676,81371718,2,0.4969726502895355,-0.02133738063275814,0.007247298955917358,0.8674735426902771
1680043287.41940880,81471710,2,0.4905632734298706,-0.0223844014108181,0.008025458082556725,0.8710810542106628
1680043287.51941490,81571716,2,0.48459646105766296,-0.02316501922905445,0.007879761047661304,0.8743955492973328
1680043287.61947179,81671773,2,0.4791480600833893,-0.02129525877535343,0.006818356923758984,0.8774492144584656
1680043287.71950388,81771805,2,0.4744005501270294,-0.019988607615232468,0.00572947645559907,0.8800634741783142
1680043287.81950474,81871806,2,0.469993531703949,-0.0157622117549181,0.0032467087730765343,0.8825231194496155
1680043287.91949987,81971801,2,0.46659573912620544,-0.009458867833018303,-0.00019847761723212898,0.8844200968742371
1680043288.01946783,82071769,2,0.46350008249282837,-0.015394412912428379,0.0029592697974294424,0.885958194732666
1680043288.11944294,82171744,2,0.4609541893005371,-0.03927914798259735,0.014821823686361313,0.8864303231239319
1680043288.21942091,82271722,2,0.45896029472351074,-0.0550069734454155,0.025547321885824203,0.8863842487335205
1680043288.31941295,82371714,2,0.4585973620414734,-0.051162950694561005,0.030936002731323242,0.8866305947303772
1680043288.41941285,82471714,2,0.45834213495254517,-0.04964061826467514,0.03501797467470169,0.8866972923278809
1680043288.51946878,82571770,2,0.4603012204170227,-0.04338089004158974,0.0363464318215847,0.8859570026397705
1680043288.61955190,82671853,2,0.4633229672908783,-0.027434606105089188,0.03595495596528053,0.8850346803665161
1680043288.71950984,82771811,2,0.47001564502716064,-0.021783458068966866,0.036484494805336,0.8816346526145935
1680043288.81948876,82871790,2,0.4766024947166443,-0.025979816913604736,0.040349461138248444,0.8778080940246582
1680043288.91949987,82971801,2,0.48647353053092957,-0.024187346920371056,0.04258396103978157,0.8723216652870178
1680043289.01944494,83071746,2,0.4949430823326111,-0.022195059806108475,0.03979675844311714,0.8677297830581665
1680043289.11940980,83171711,2,0.5060439705848694,-0.018917972221970558,0.03459540009498596,0.8616059422492981
1680043289.21941280,83271714,2,0.5147082805633545,-0.012963952496647835,0.02818603813648224,0.856803834438324
1680043289.31941485,83371716,2,0.5241122841835022,-0.011192365549504757,0.012950891628861427,0.8514771461486816
1680043289.41948676,83471788,2,0.5300203561782837,-0.012590768747031689,0.0005921427509747446,0.8478912115097046
1680043289.51950979,83571811,2,0.5352131128311157,-0.012403275817632675,0.0003481186868157238,0.8446259498596191
1680043289.61950183,83671803,2,0.5372181534767151,-0.011952981352806091,0.0005036341026425362,0.8433584570884705
1680043289.71948385,83771785,2,0.5388111472129822,-0.010538630187511444,-0.0013860989129170775,0.8423595428466797
1680043289.81950092,83871802,2,0.5379472374916077,-0.008971563540399075,-0.001382519956678152,0.8429296016693115
1680043289.91944575,83971747,2,0.5365959405899048,-0.008941304869949818,-0.0014449621085077524,0.8437907099723816
1680043290.01941395,84071715,2,0.5336676239967346,-0.009209063835442066,-0.0018761453684419394,0.84564208984375
1680043290.11941385,84171715,2,0.5302561521530151,-0.00894248578697443,-0.0017050059977918863,0.8477886319160461
1680043290.21940994,84271711,2,0.5257528424263,-0.009192867204546928,-0.0018082682508975267,0.8505857586860657
1680043290.31945682,84371758,2,0.5209353566169739,-0.008972183801233768,-0.0021906415931880474,0.853546142578125
1680043290.41951489,84471816,2,0.5157100558280945,-0.009089530445635319,-0.002391781657934189,0.8567116260528564
1680043290.51950479,84571806,2,0.5106792449951172,-0.009197399020195007,-0.002356394426897168,0.859718918800354
1680043290.61948395,84671785,2,0.5056585073471069,-0.009318429045379162,-0.002118350239470601,0.8626807928085327
1680043290.71950078,84771802,2,0.5012616515159607,-0.009115423075854778,-0.001774513628333807,0.8652459383010864
1680043290.81944394,84871745,2,0.49735498428344727,-0.008303769864141941,-0.0008208934450522065,0.8675069808959961
1680043290.91940975,84971711,2,0.4941760003566742,-0.004147406667470932,0.00576772540807724,0.8693328499794006
1680043291.01941490,85071716,2,0.4920070171356201,-0.001909622922539711,0.00905222911387682,0.8705421090126038
1680043291.11941981,85171721,2,0.49135375022888184,-0.0027743279933929443,0.007056012284010649,0.870927095413208
1680043291.21947289,85271774,2,0.4919319748878479,-0.003719908883795142,0.005263090133666992,0.8706097602844238
1680043291.31952882,85371830,2,0.492950975894928,-0.005228747613728046,0.0032552939373999834,0.8700352907180786
1680043291.41950679,85471808,2,0.49462607502937317,-0.005586538463830948,0.0040606288239359856,0.8690784573554993
1680043291.51949692,85571798,2,0.4981045424938202,-0.0055092996917665005,0.006366496905684471,0.8670760989189148
1680043291.61950374,85671805,2,0.5026360154151917,-0.004454437643289566,0.005736782681196928,0.8644676208496094
1680043291.71945190,85771753,2,0.5069980621337891,-0.003474139841273427,0.004960308782756329,0.8619258999824524
1680043291.81941581,85871717,2,0.5111020803451538,-0.003660593181848526,0.005126002244651318,0.8594969511032104
1680043291.91941881,85971720,2,0.5152117013931274,-0.004367346875369549,0.00338716059923172,0.8570451140403748
1680043292.01941681,86071718,2,0.5190735459327698,-0.006397982127964497,0.0006201814394444227,0.8547053933143616
1680043292.11947775,86171779,2,0.5226359367370605,-0.007581895682960749,-0.0013096146285533905,0.8525212407112122
1680043292.21951985,86271821,2,0.5258301496505737,-0.007793297991156578,-0.00180626823566854,0.850551962852478
1680043292.31949687,86371798,2,0.5289348363876343,-0.006259067449718714,0.001004177494905889,0.8486387729644775
1680043292.41948986,86471791,2,0.5315775275230408,-0.003399066859856248,0.006144136656075716,0.8469805121421814
1680043292.51950574,86571807,2,0.533763587474823,-0.006458273157477379,0.0014814856695011258,0.8456077575683594
1680043292.61944389,86671745,2,0.5353190898895264,-0.009471346624195576,-0.0025013245176523924,0.8445931077003479
1680043292.71941876,86771720,2,0.5361639857292175,-0.009048067964613438,-0.000944532745052129,0.8440648317337036
1680043292.81942582,86871727,2,0.5364450812339783,-0.008831971324980259,-0.0011138045229017735,0.8438882827758789
1680043292.91941476,86971716,2,0.5363449454307556,-0.009133865125477314,-0.0015164409996941686,0.8439481258392334
1680043293.01947689,87071778,2,0.5358321666717529,-0.008560576476156712,-0.0007617695373483002,0.8442807793617249
1680043293.11950994,87171811,2,0.5348549485206604,-0.008439852856099606,-0.0011596308322623372,0.844900906085968
1680043293.21949673,87271798,2,0.5336445569992065,-0.00839305855333805,-0.0011770096607506275,0.8456664085388184
1680043293.31948495,87371786,2,0.5323241353034973,-0.008511863648891449,-0.0008346785907633603,0.8464974164962769
1680043293.41946983,87471771,2,0.5306835174560547,-0.008619342930614948,-0.001248046988621354,0.8475252985954285
1680043293.51944089,87571742,2,0.5287412405014038,-0.006941267289221287,0.0014052714686840773,0.8487535119056702
1680043293.61941385,87671715,2,0.5264631509780884,0.0024801110848784447,0.017249546945095062,0.8500193357467651
1680043293.71941280,87771714,2,0.5239152312278748,0.010687807574868202,0.0318404957652092,0.8511079549789429
1680043293.81940889,87871710,2,0.5216331481933594,0.011008929461240768,0.03235254064202309,0.852485179901123
1680043293.91947675,87971778,2,0.518696665763855,0.010135269723832607,0.030130529776215553,0.8543671369552612
1680043294.01950979,88071811,2,0.5156257152557373,0.009768464602530003,0.02905307151377201,0.8562654852867126
1680043294.11950994,88171811,2,0.5126370191574097,0.009103638119995594,0.02762535773217678,0.858112633228302
1680043294.21948791,88271789,2,0.5100043416023254,0.00904354453086853,0.027049735188484192,0.8596988320350647
1680043294.31949878,88371800,2,0.5078740119934082,0.009167141281068325,0.027038298547267914,0.8609580993652344
1680043294.41945481,88471756,2,0.5061821937561035,0.008841629140079021,0.026769962161779404,0.8619656562805176
1680043294.51940989,88571711,2,0.5049144625663757,0.008652624674141407,0.026335878297686577,0.8627241253852844
1680043294.61941290,88671714,2,0.5038919448852539,0.00780820706859231,0.02493070252239704,0.8633714914321899
1680043294.71942186,88771723,2,0.5031272172927856,0.0066543640568852425,0.022964462637901306,0.8638815879821777
1680043294.81946874,88871770,2,0.5026302933692932,0.0009498612489551306,0.013611407950520515,0.8643937706947327
1680043294.91953087,88971832,2,0.5023854374885559,-0.006382881663739681,0.0013141428353264928,0.8646191954612732
1680043295.01949978,89071801,2,0.5023162961006165,-0.0032973585184663534,0.006694373674690723,0.8646517395973206
1680043295.11948490,89171786,2,0.5024091005325317,0.00360781024210155,0.01776879094541073,0.8644399046897888
1680043295.21950674,89271808,2,0.5025733709335327,0.0043946378864347935,0.01924741640686989,0.8643090724945068
1680043295.31945181,89371753,2,0.5029230117797852,0.004357693251222372,0.020204858854413033,0.864084005355835
1680043295.41941190,89471713,2,0.5030492544174194,0.00604275381192565,0.022960495203733444,0.8639315366744995
1680043295.51941872,89571720,2,0.5033402442932129,0.0020984334405511618,0.0163043774664402,0.8639318943023682
1680043295.61942172,89671723,2,0.5035676956176758,-0.003455018624663353,0.008410913869738579,0.8639079332351685
1680043295.71947193,89771773,2,0.5038142204284668,-0.0036351983435451984,0.0076880259439349174,0.8637701869010925
1680043295.81954694,89871848,2,0.5040606260299683,-0.0035565667785704136,0.007492021657526493,0.8636284470558167
1680043295.91949272,89971794,2,0.5043384432792664,-0.004207485821098089,0.007270199712365866,0.8634652495384216
1680043296.01949382,90071795,2,0.5045966506004333,-0.003382207825779915,0.009050456807017326,0.863301157951355
1680043296.11950278,90171804,2,0.5049334168434143,-0.0034086573868989944,0.009902865625917912,0.8630947470664978
1680043296.21944094,90271742,2,0.5052226781845093,-0.006677105091512203,0.00845835916697979,0.8629217147827148
1680043296.31941295,90371714,2,0.5053789019584656,-0.011270713061094284,0.0048584602773189545,0.8628102540969849
1680043296.41941285,90471714,2,0.5054023861885071,-0.01442005392163992,0.002027996117249131,0.8627609014511108
1680043296.51940894,90571710,2,0.5055884122848511,-0.013632893562316895,0.000806263939011842,0.862666666507721
1680043296.61946774,90671769,2,0.5055463314056396,-0.010372043587267399,-0.0013219041284173727,0.8627361059188843
1680043296.71954274,90771844,2,0.5054436922073364,-0.008966746740043163,-0.0016563135432079434,0.8628113865852356
1680043296.81950283,90871804,2,0.5051804184913635,-0.008703320287168026,-0.0014695535646751523,0.8629686236381531
1680043296.91948986,90971791,2,0.5051440000534058,-0.006053827237337828,0.002766598714515567,0.8630093932151794
1680043297.01948476,91071786,2,0.5049543380737305,-0.0017435400513932109,0.011061024852097034,0.8630734086036682
1680043297.11944675,91171748,2,0.5047284364700317,0.0007634458015672863,0.015831932425498962,0.863132655620575
1680043297.21940875,91271710,2,0.5045559406280518,0.0013248402392491698,0.016660332679748535,0.8632172346115112
1680043297.31941581,91371717,2,0.5043227076530457,0.0007391087710857391,0.01557616051286459,0.8633744716644287
1680043297.41940880,91471710,2,0.5046678781509399,0.00017933420895133168,0.01424306072294712,0.863196074962616
1680043297.51944280,91571744,2,0.5062780380249023,-0.0005761561333201826,0.01176732312887907,0.8622897863388062
1680043297.61954689,91671848,2,0.5086715221405029,-0.0028270266484469175,0.007142127025872469,0.8609263896942139
1680043297.71949387,91771795,2,0.5109335780143738,-0.005217577796429396,0.003176638623699546,0.8595985174179077
1680043297.81949472,91871796,2,0.512751042842865,-0.0056653330102562904,0.0027382895350456238,0.8585143089294434
1680043297.91949487,91971796,2,0.514324426651001,-0.005694427061825991,0.0024011333007365465,0.8575734496116638
1680043298.01944184,92071743,2,0.5157792568206787,-0.007390977814793587,-0.00034105675877071917,0.8566895723342896
1680043298.11941195,92171713,2,0.5171222686767578,-0.008276203647255898,-0.0018966923234984279,0.8558694124221802
1680043298.21941090,92271712,2,0.5182918906211853,-0.007725002244114876,-0.0015353233320638537,0.8551675081253052
1680043298.31941676,92371718,2,0.5192807912826538,-0.007754000369459391,-0.0020026336424052715,0.8545661568641663
1680043298.41946983,92471771,2,0.5201858282089233,-0.007723786868155003,-0.0019456250593066216,0.8540159463882446
1680043298.51952791,92571829,2,0.5207586288452148,-0.007348744198679924,-0.0013227412709966302,0.8536713123321533
1680043298.61950088,92671802,2,0.5212582945823669,-0.007244821172207594,-0.001397578394971788,0.853367030620575
1680043298.71948671,92771788,2,0.5216066241264343,-0.00723260547965765,-0.0012498333817347884,0.8531545400619507
1680043298.81946874,92871770,2,0.5219414234161377,-0.0070954300463199615,-0.0007641043048352003,0.8529514670372009
1680043298.91945577,92971757,2,0.5219706296920776,-0.007123890332877636,-0.0013208807213231921,0.8529326915740967
1680043299.01941991,93071721,2,0.5220178365707397,-0.0072701903991401196,-0.001499356352724135,0.8529022336006165
1680043299.11941791,93171719,2,0.5217577219009399,-0.007142211776226759,-0.0015770737081766129,0.8530623316764832
1680043299.21940994,93271711,2,0.5213136672973633,-0.007504262030124664,-0.0019790236838161945,0.8533298373222351
1680043299.31947780,93371779,2,0.5208768844604492,-0.007374014239758253,-0.0020240345038473606,0.8535975813865662
1680043299.41953588,93471837,2,0.5202720165252686,-0.007201253902167082,-0.001452079275622964,0.8539689779281616
1680043299.51949692,93571798,2,0.5196458697319031,-0.007514806929975748,-0.0013173556653782725,0.8543477058410645
1680043299.61948395,93671785,2,0.5190240144729614,-0.0072400616481900215,-0.0010407431982457638,0.8547284007072449
1680043299.71949887,93771800,2,0.518559992313385,-0.00420877430588007,0.00502221891656518,0.8550161123275757
1680043299.81944489,93871746,2,0.5181547999382019,-0.000780927250161767,0.009882808662950993,0.8552294373512268
1680043299.91940975,93971711,2,0.5177364945411682,-0.0007388975936919451,0.00974279548972845,0.8554843068122864
1680043300.01941276,94071714,2,0.5173490047454834,-0.0009307534783147275,0.010060739703476429,0.8557148575782776
1680043300.11941195,94171713,2,0.5169374346733093,-0.001159396953880787,0.00896335206925869,0.8559754490852356
1680043300.21947694,94271778,2,0.5167183876037598,-0.002724655903875828,0.006216868758201599,0.8561285138130188
1680043300.31950283,94371804,2,0.5164895057678223,-0.0024436269886791706,0.006865878123790026,0.8562625050544739
1680043300.41950178,94471803,2,0.5159543752670288,0.0005548050976358354,0.011823675595223904,0.8565343022346497
1680043300.51948094,94571782,2,0.515499472618103,0.001753647462464869,0.015184001065790653,0.8567535877227783
1680043300.61949682,94671798,2,0.5157245397567749,0.000616414297837764,0.01623063161969185,0.8566004633903503
1680043300.71945095,94771752,2,0.516572892665863,0.0007321308949030936,0.015239644795656204,0.8561072945594788
1680043300.81941581,94871717,2,0.5174131989479065,0.0003054594562854618,0.011609114706516266,0.8556569218635559
1680043300.91940880,94971710,2,0.518011748790741,-0.0010013759601861238,0.008481057360768318,0.8553308844566345
1680043301.01941681,95071718,2,0.5185672640800476,-0.0033721206709742546,0.004278216045349836,0.8550194501876831
1680043301.11947489,95171776,2,0.5190711617469788,-0.009194902144372463,0.00020682424656115472,0.8546815514564514
1680043301.21954679,95271848,2,0.5194331407546997,-0.016529951244592667,0.0026254968252032995,0.8543471693992615
1680043301.31950879,95371810,2,0.5200453400611877,-0.011803648434579372,0.00010471447603777051,0.8540570735931396
1680043301.41948485,95471786,2,0.5205207467079163,-0.005686081945896149,-0.0038465075194835663,0.8538213968276978
1680043301.51946974,95571771,2,0.5210210084915161,-0.006182252895087004,-0.003024697070941329,0.8535161018371582
1680043301.61944294,95671744,2,0.5213179588317871,-0.007173310965299606,-0.0024987864308059216,0.8533287048339844
1680043301.71941280,95771714,2,0.5216490626335144,-0.006481333170086145,-0.0030964373145252466,0.8531299233436584
1680043301.81941295,95871714,2,0.5217788219451904,-0.006971757393330336,-0.0025444573257118464,0.8530485033988953
1680043301.91941476,95971716,2,0.5218948125839233,-0.007042433135211468,-0.002642155857756734,0.8529766798019409
1680043302.01949382,96071795,2,0.5216514468193054,-0.007020126096904278,-0.0027170423418283463,0.8531255125999451
1680043302.11955380,96171855,2,0.5214237570762634,-0.006930830888450146,-0.0022144659887999296,0.8532668352127075
1680043302.21949673,96271798,2,0.5209320187568665,-0.0071319215930998325,-0.002440757118165493,0.8535649180412292
1680043302.31949282,96371794,2,0.5206539034843445,-0.006903885398060083,-0.0024191606789827347,0.8537364602088928
1680043302.41950583,96471807,2,0.5202538967132568,-0.0068073277361691,-0.0019434678833931684,0.8539823293685913
1680043302.51945782,96571759,2,0.5198248624801636,-0.006749381311237812,-0.0017849724972620606,0.8542442917823792
1680043302.61941385,96671715,2,0.5195053219795227,-0.006557082757353783,-0.001954177161678672,0.8544397950172424
1680043302.71943188,96771733,2,0.518936038017273,-0.006424746010452509,-0.0017172984080389142,0.8547871708869934
1680043302.81942391,96871725,2,0.518382728099823,-0.006616479717195034,-0.00169890106189996,0.8551214337348938
1680043302.91949677,96971798,2,0.5177919864654541,-0.006732779089361429,-0.0017746074590831995,0.8554782271385193
1680043303.01955485,97071856,2,0.5172137022018433,-0.006673644762486219,-0.0012089177034795284,0.8558294177055359
1680043303.11949587,97171797,2,0.5165585279464722,-0.0067322212271392345,-0.001212620409205556,0.856224536895752
1680043303.21949673,97271798,2,0.5160126686096191,-0.006342639680951834,-0.0009647216065786779,0.8565569519996643
1680043303.31949782,97371799,2,0.515548050403595,-0.006546416785567999,-0.001153195626102388,0.856834888458252
1680043303.41944194,97471743,2,0.515188455581665,-0.006624801084399223,-0.001114597893320024,0.8570505976676941
1680043303.51941085,97571712,2,0.5147165060043335,-0.007640932220965624,4.580209861160256e-06,0.8573263883590698
1680043303.61941290,97671714,2,0.514051079750061,-0.020515955984592438,0.00918472371995449,0.8574649691581726
1680043303.71941876,97771720,2,0.513347864151001,-0.029463326558470726,0.019487289711833,0.8574532866477966
1680043303.81949472,97871796,2,0.5130259394645691,-0.02327588014304638,0.016817238181829453,0.857892632484436
1680043303.91953993,97971841,2,0.5128234624862671,-0.018080051988363266,0.009972678497433662,0.8582457304000854
1680043304.01950288,98071804,2,0.5126287937164307,-0.011073077097535133,0.002423252910375595,0.8585355281829834
1680043304.11948681,98171788,2,0.512367308139801,-0.005105993710458279,-0.001725381938740611,0.858749508857727
1680043304.21949577,98271797,2,0.512176513671875,-0.005730843171477318,-0.0017057581571862102,0.8588594198226929
1680043304.31944776,98371749,2,0.5120664238929749,-0.006182944402098656,-0.0017872343305498362,0.8589217066764832
1680043304.41942072,98471722,2,0.5119692087173462,-0.0058085257187485695,-0.0016756467521190643,0.858982503414154
1680043304.51940989,98571711,2,0.511924147605896,-0.006292805541306734,-0.0013987765414640307,0.8590064644813538
1680043304.61941290,98671714,2,0.5118052959442139,-0.006219254806637764,-0.0013375793350860476,0.8590779304504395
1680043304.71947885,98771780,2,0.5117289423942566,-0.006095318589359522,-0.0011336635798215866,0.8591245412826538
1680043304.81953192,98871833,2,0.5116922855377197,-0.006210372317582369,-0.0001869216066552326,0.8591463565826416
1680043304.91950274,98971804,2,0.5116228461265564,-0.0077440510503947735,0.0057443357072770596,0.8591560125350952
1680043305.01951981,99071821,2,0.5114687085151672,-0.010300694033503532,0.01492083165794611,0.8591105937957764
1680043305.11946583,99171767,2,0.5114021897315979,-0.012806827202439308,0.024202939122915268,0.8589051365852356
1680043305.21943879,99271740,2,0.5114103555679321,-0.0152286933735013,0.03412901610136032,0.8585236072540283
1680043305.31941390,99371715,2,0.5113921165466309,-0.017690064385533333,0.043783076107501984,0.8580490946769714
1680043305.41942072,99471722,2,0.5115346908569336,-0.018450340256094933,0.050438981503248215,0.8575825095176697
1680043305.51941276,99571714,2,0.512167751789093,-0.016072537750005722,0.04859467223286629,0.857358992099762
1680043305.61948586,99671787,2,0.512860894203186,-0.01344238594174385,0.04190565273165703,0.8573429584503174
1680043305.71954679,99771848,2,0.5138404369354248,-0.010758827440440655,0.03457261621952057,0.8571213483810425
1680043305.81950092,99871802,2,0.5147638320922852,-0.007762909401208162,0.02605636976659298,0.8569008111953735
1680043305.91953778,99971839,2,0.5158358216285706,-0.006238027475774288,0.018352268263697624,0.856468141078949
1680043306.01945877,100071760,2,0.516560971736908,-0.005526118911802769,0.012120707891881466,0.8561467528343201
1680043306.11944795,100171749,2,0.517454981803894,-0.00517038581892848,0.008162792772054672,0.8556559085845947
1680043306.21941090,100271712,2,0.5183261632919312,-0.00561232166364789,0.005745250731706619,0.855145275592804
1680043306.31942391,100371725,2,0.5191997289657593,-0.00618194742128253,0.005273600574582815,0.8546143174171448
1680043306.41942072,100471722,2,0.5198686122894287,-0.007315982598811388,0.0062132286839187145,0.854192316532135
1680043306.51948094,100571782,2,0.520636260509491,-0.008074386045336723,0.0075273639522492886,0.8537071943283081
1680043306.61951995,100671821,2,0.5212961435317993,-0.008489904925227165,0.009944383054971695,0.8532756567001343
1680043306.71949887,100771800,2,0.5218295454978943,-0.008705670945346355,0.011747854761779308,0.8529244661331177
1680043306.81948781,100871789,2,0.5225447416305542,-0.008669796399772167,0.013311948627233505,0.8524638414382935
1680043306.91945291,100971754,2,0.523259162902832,-0.008438797667622566,0.014998804777860641,0.851999819278717
1680043307.01944280,101071744,2,0.5239874720573425,-0.008455322124063969,0.015992948785424232,0.851533830165863
1680043307.11941290,101171714,2,0.5247706770896912,-0.007807522546499968,0.016903916373848915,0.8510399460792542
1680043307.21941090,101271712,2,0.5255938172340393,-0.007594474591314793,0.01741703785955906,0.8505234122276306
1680043307.31941175,101371713,2,0.5264111161231995,-0.007709129713475704,0.017116729170084,0.8500228524208069
1680043307.41947889,101471780,2,0.5272982716560364,-0.008010064251720905,0.017172720283269882,0.8494689464569092
1680043307.51954293,101571844,2,0.5283282995223999,-0.008015445433557034,0.017323479056358337,0.8488255739212036
1680043307.61950588,101671807,2,0.5290687084197998,-0.008192258886992931,0.017924310639500618,0.8483501076698303
1680043307.71948385,101771785,2,0.5300456881523132,-0.008046623319387436,0.01823321543633938,0.847734808921814
1680043307.81949973,101871801,2,0.5306885838508606,-0.0076025500893592834,0.017876755446195602,0.8473442196846008
1680043307.91944480,101971746,2,0.5312867164611816,-0.007495627738535404,0.016096115112304688,0.8470059633255005
1680043308.01941872,102071720,2,0.5317855477333069,-0.0066122147254645824,0.01445579994469881,0.8467298746109009
1680043308.11941195,102171713,2,0.5320512652397156,-0.006222018506377935,0.01235500629991293,0.8465991020202637
1680043308.21941376,102271715,2,0.5323088765144348,-0.006563036236912012,0.010413645766675472,0.84646075963974
1680043308.31947088,102371772,2,0.5324211716651917,-0.006114447955042124,0.010221985168755054,0.8463957905769348
1680043308.41951180,102471813,2,0.5325037837028503,-0.005502565298229456,0.010176471434533596,0.8463485836982727
1680043308.51949787,102571799,2,0.5324914455413818,-0.004965999163687229,0.009846552275121212,0.8463635444641113
1680043308.61948681,102671788,2,0.5323435664176941,-0.004749375861138105,0.00925489328801632,0.8464645147323608
1680043308.71950674,102771808,2,0.5323607921600342,-0.004902674350887537,0.00793797243386507,0.8464661836624146
1680043308.81943989,102871741,2,0.5320128798484802,-0.005445837043225765,0.007784247864037752,0.8466829657554626
1680043308.91940975,102971711,2,0.5318558216094971,-0.005531665403395891,0.008002305403351784,0.8467790484428406
1680043309.01941681,103071718,2,0.5313606858253479,-0.005806052591651678,0.007618626579642296,0.847091555595398
1680043309.11941195,103171713,2,0.530850887298584,-0.005930098704993725,0.007890221662819386,0.8474077582359314
1680043309.21948671,103271788,2,0.5304250717163086,-0.004824261646717787,0.008241039700806141,0.847678005695343
1680043309.31953073,103371832,2,0.5298769474029541,-0.00468410225585103,0.007825902663171291,0.8480255007743835
1680043309.41950393,103471805,2,0.5294564962387085,-0.004091090988367796,0.008190467022359371,0.8482877016067505
1680043309.51950192,103571803,2,0.529112696647644,-0.004047819878906012,0.008465882390737534,0.8484996557235718
1680043309.61949992,103671801,2,0.5287259817123413,-0.004412593320012093,0.008520462550222874,0.8487383723258972
1680043309.71944880,103771750,2,0.5285916328430176,-0.004616244230419397,0.0087042897939682,0.8488190770149231
1680043309.81941485,103871716,2,0.528335452079773,-0.004888787865638733,0.008771964348852634,0.8489763140678406
1680043309.91941786,103971719,2,0.528235137462616,-0.004529186524450779,0.010115258395671844,0.8490257859230042
1680043310.01941276,104071714,2,0.5283775329589844,-0.004543326795101166,0.01016075536608696,0.8489365577697754
1680043310.11948085,104171782,2,0.5285322070121765,-0.004931976553052664,0.009951721876859665,0.848840594291687
1680043310.21954274,104271844,2,0.5287289619445801,-0.0045570689253509045,0.010376541875302792,0.84871506690979
1680043310.31950688,104371808,2,0.5290632247924805,-0.004537136759608984,0.010109586641192436,0.8485100865364075
1680043310.41950393,104471805,2,0.5292245745658875,-0.004074319265782833,0.010379859246313572,0.8484085202217102
1680043310.51945281,104571754,2,0.5294375419616699,-0.004401322454214096,0.00969224888831377,0.8482821583747864
1680043310.61944294,104671744,2,0.5296830534934998,-0.004435448907315731,0.010134344920516014,0.8481234908103943
1680043310.71941590,104771717,2,0.5298120379447937,-0.0040015047416090965,0.010249250568449497,0.8480437397956848
1680043310.81940985,104871711,2,0.5301111936569214,-0.0035708677023649216,0.010841631330549717,0.8478512763977051
1680043310.91941285,104971714,2,0.5304588675498962,-0.0033824921119958162,0.010936908423900604,0.8476333618164062
1680043311.01946878,105071770,2,0.5307581424713135,-0.0037371681537479162,0.010324085131287575,0.8474522233009338
1680043311.11950374,105171805,2,0.5310594439506531,-0.004113495349884033,0.010498829185962677,0.8472595810890198
1680043311.21950483,105271806,2,0.5310754776000977,-0.0035968096926808357,0.010118518024682999,0.8472564816474915
1680043311.31948495,105371786,2,0.5311952233314514,-0.0036018267273902893,0.01041731983423233,0.8471777439117432
1680043311.41949892,105471800,2,0.5309725999832153,-0.003513420931994915,0.01032093446701765,0.8473188281059265
1680043311.51944876,105571750,2,0.5308206081390381,-0.002642502775415778,0.012673377059400082,0.8473852872848511
1680043311.61940980,105671711,2,0.5303715467453003,-0.0011418878566473722,0.016741471365094185,0.84759920835495
1680043311.71941185,105771713,2,0.5299428701400757,0.0008392177987843752,0.020135564729571342,0.8477938771247864
1680043311.81941891,105871720,2,0.5293267965316772,0.0042524076998233795,0.026562368497252464,0.8479914665222168
1680043311.91948891,105971790,2,0.5284060835838318,0.009128761477768421,0.03477226942777634,0.848230242729187
1680043312.01951694,106071818,2,0.5276370048522949,0.012271762825548649,0.039208363741636276,0.8484758734703064
1680043312.11950493,106171806,2,0.5266095995903015,0.017209187150001526,0.04622941464185715,0.8486748933792114
1680043312.21950674,106271808,2,0.5254673957824707,0.020902127027511597,0.051048632711172104,0.8490236401557922
1680043312.31946683,106371768,2,0.5246235728263855,0.02112133987247944,0.050386495888233185,0.849579393863678
1680043312.41944385,106471745,2,0.5236614942550659,0.020406164228916168,0.051040828227996826,0.8501511812210083
1680043312.51940989,106571711,2,0.5227611064910889,0.018850451335310936,0.047976937144994736,0.8509193062782288
1680043312.61941886,106671720,2,0.5221249461174011,0.01385046448558569,0.03997006639838219,0.8518192768096924
1680043312.71941590,106771717,2,0.5219148397445679,0.006178983021527529,0.02924562804400921,0.8524736762046814
1680043312.81946492,106871766,2,0.5217308402061462,0.0008059071260504425,0.022023728117346764,0.852825403213501
1680043312.91953874,106971840,2,0.5217608213424683,-0.003358127549290657,0.01606634445488453,0.8529338836669922
1680043313.01949573,107071797,2,0.5221386551856995,-0.0077714272774755955,0.009185926988720894,0.8527757525444031
1680043313.11948586,107171787,2,0.5225427746772766,-0.011331113055348396,0.0025003396440297365,0.8525341153144836
1680043313.21950579,107271807,2,0.5228509306907654,-0.015173631720244884,-0.003618141869083047,0.852281391620636
1680043313.31944990,107371751,2,0.5231955051422119,-0.01969505101442337,-0.010175441391766071,0.8519243001937866
1680043313.41941094,107471712,2,0.5230644345283508,-0.023190099745988846,-0.01644105650484562,0.8518189191818237
1680043313.51941681,107571718,2,0.5232232809066772,-0.026685019955039024,-0.022090844810009003,0.8514912128448486
1680043313.61941195,107671713,2,0.5231584906578064,-0.029917564243078232,-0.028044747188687325,0.8512482643127441
1680043313.71949673,107771798,2,0.5232020616531372,-0.031021995469927788,-0.03135499730706215,0.8510664701461792
1680043313.81950688,107871808,2,0.5235527157783508,-0.02884814143180847,-0.02840384654700756,0.8510308861732483
1680043313.91949773,107971799,2,0.5241938829421997,-0.02515549398958683,-0.022358916699886322,0.8509336709976196
1680043314.01948786,108071789,2,0.5247859358787537,-0.020954487845301628,-0.015541202388703823,0.8508343696594238
1680043314.11945891,108171760,2,0.5255523920059204,-0.01680416241288185,-0.009124508127570152,0.8505463004112244
1680043314.21944594,108271747,2,0.5266810059547424,-0.013493794947862625,-0.0031519837211817503,0.8499500155448914
1680043314.31941175,108371713,2,0.5276543498039246,-0.009150635451078415,0.0026823219377547503,0.8494056463241577
1680043314.41942191,108471723,2,0.528847336769104,-0.004616549704223871,0.008201103657484055,0.8486648201942444
1680043314.51941490,108571716,2,0.5300886631011963,-0.0005644282791763544,0.013708255253732204,0.8478311896324158
1680043314.61946273,108671764,2,0.5312420725822449,0.0022146308328956366,0.017050595954060555,0.8470456004142761
1680043314.71954083,108771842,2,0.53256756067276,0.0024965256452560425,0.017391858622431755,0.8462051153182983
1680043314.81949878,108871800,2,0.5335079431533813,0.00176366011146456,0.016180887818336487,0.8456384539604187
1680043314.91948175,108971783,2,0.5345070362091064,0.0011932278284803033,0.01420269999653101,0.8450438380241394
1680043315.01948380,109071785,2,0.53509521484375,-4.483773227548227e-05,0.011457717977464199,0.8447140455245972
1680043315.11944175,109171743,2,0.5355522036552429,-0.0008561694412492216,0.00998237356543541,0.8444427251815796
1680043315.21940994,109271711,2,0.5357596278190613,-0.001886449521407485,0.008748302236199379,0.8443231582641602
1680043315.31941390,109371715,2,0.5358289480209351,-0.007226066663861275,0.010380538180470467,0.8442318439483643
1680043315.41941285,109471714,2,0.5355210900306702,-0.01707952283322811,0.01625419780611992,0.8441926836967468
1680043315.51949477,109571796,2,0.5353029370307922,-0.028100840747356415,0.022974951192736626,0.8438798785209656
1680043315.61952591,109671827,2,0.5348541736602783,-0.042438115924596786,0.032429151237010956,0.8432546257972717
1680043315.71949983,109771801,2,0.5341621041297913,-0.0575902983546257,0.04309721291065216,0.8423163294792175
1680043315.81949878,109871800,2,0.534572958946228,-0.05653727427124977,0.04264083504676819,0.8421502709388733
1680043315.91945291,109971754,2,0.5352818369865417,-0.04603751376271248,0.03844209387898445,0.8425414562225342
1680043316.01944995,110071751,2,0.5359411835670471,-0.038766443729400635,0.03494236618280411,0.8426406383514404
1680043316.11941290,110171714,2,0.5363305807113647,-0.034187667071819305,0.03075649030506611,0.8427542448043823
1680043316.21940875,110271710,2,0.5364251732826233,-0.03273584321141243,0.029680995270609856,0.8427902460098267
1680043316.31941891,110371720,2,0.5361289978027344,-0.033410344272851944,0.029180843383073807,0.8429697155952454
1680043316.41946387,110471765,2,0.5358270406723022,-0.031742703169584274,0.02699420042335987,0.8432989120483398
1680043316.51952982,110571831,2,0.5357020497322083,-0.028996601700782776,0.024684377014636993,0.8435479402542114
1680043316.61949372,110671795,2,0.5357204675674438,-0.026308665052056313,0.02168392948806286,0.8437068462371826
1680043316.71948886,110771790,2,0.5358638763427734,-0.019138004630804062,0.016490738838911057,0.8439263701438904
1680043316.81946993,110871771,2,0.5359203219413757,-0.012157278135418892,0.012176756747066975,0.8440932035446167
1680043316.91944480,110971746,2,0.5359020829200745,-0.006261317990720272,0.0076944842003285885,0.844221830368042
1680043317.01941276,111071714,2,0.5355823040008545,0.0009720333619043231,0.0031129750423133373,0.8444767594337463
1680043317.11941886,111171720,2,0.5355067253112793,0.007047411985695362,-0.0002871323667932302,0.8445014953613281
1680043317.21940875,111271710,2,0.5351813435554504,0.013036828488111496,-0.0036904974840581417,0.8446285128593445
1680043317.31946087,111371762,2,0.5348705053329468,0.019165242090821266,-0.0067848218604922295,0.8446894288063049
1680043317.41954184,111471843,2,0.5343875885009766,0.0250192042440176,-0.00966724008321762,0.844813883304596
1680043317.51950479,111571806,2,0.5340058207511902,0.030583437532186508,-0.01305135153234005,0.8448266386985779
1680043317.61948085,111671782,2,0.5335214734077454,0.03639218956232071,-0.016468733549118042,0.8448427319526672
1680043317.71949792,111771799,2,0.5330658555030823,0.04194755107164383,-0.019452475011348724,0.8448092937469482
1680043317.81945777,111871759,2,0.5326424837112427,0.04457428306341171,-0.021235499531030655,0.8448988795280457
1680043317.91941285,111971714,2,0.5322669148445129,0.040235329419374466,-0.018859509378671646,0.8454095721244812
1680043318.01942778,112071729,2,0.531841516494751,0.03361339494585991,-0.015536794438958168,0.8460339307785034
1680043318.11941981,112171721,2,0.5313379168510437,0.02681613713502884,-0.01226720865815878,0.8466465473175049
1680043318.21946073,112271762,2,0.5309459567070007,0.0199293103069067,-0.008414657786488533,0.8471295237541199
1680043318.31953073,112371832,2,0.5305345058441162,0.013785692863166332,-0.0047471667639911175,0.8475379347801208
1680043318.41951180,112471813,2,0.5301048755645752,0.007848357781767845,-0.0009007241460494697,0.8478952646255493
1680043318.51948786,112571789,2,0.529858410358429,0.0017087351297959685,0.0032358996104449034,0.8480782508850098
1680043318.61945271,112671754,2,0.5295889377593994,-0.003797339042648673,0.007368429098278284,0.8482139110565186
1680043318.71945190,112771753,2,0.5293195843696594,-0.009322794154286385,0.011136678978800774,0.848298192024231
1680043318.81941772,112871719,2,0.5291947722434998,-0.011150809936225414,0.012563475407660007,0.8483340740203857
