timestamp,TimeUS,C,Roll,Pitch,Yaw,VN,VE,VD,dPD,PN,PE,PD,GX,GY,GZ,OH
134.76616500,134766165,2,-0.15,0.51,82.42,0.03868382051587105,-0.01739298179745674,-0.007671755738556385,-0.07320742309093475,0.0,0.0,0.061458226293325424,-0.06,0.09,0.06,0.0
134.86620500,134866205,2,-0.18,0.52,82.35000000000001,0.03146020695567131,-0.02500799298286438,-0.008537676185369492,-0.25020289421081543,0.0,0.0,0.037943948060274124,-0.06,0.09,0.06,0.0
134.96615300,134966153,2,-0.16,0.54,82.32000000000001,0.034593671560287476,-0.016431357711553574,-0.008943292312324047,-0.21548651158809662,0.0,0.0,0.022534288465976715,-0.06,0.09,0.06,0.0
135.06618300,135066183,2,-0.12,0.51,82.37,0.038069095462560654,-0.014630360528826714,-0.009889445267617702,-0.14197739958763123,0.0,0.0,0.010304511524736881,-0.06,0.09,0.06,0.0
135.16615000,135166150,2,-0.11,0.5,82.37,0.037692584097385406,-0.022239025682210922,-0.010585534386336803,-0.1018252745270729,0.0,0.0,3.1075687729753554e-05,-0.06,0.09,0.06,0.0
135.26616000,135266160,2,-0.12,0.48,82.33,0.036974210292100906,-0.011182080954313278,-0.013151636347174644,-0.0727856308221817,0.0,0.0,-0.007898310199379921,-0.06,0.09,0.06,0.0
135.36619200,135366192,2,-0.07,0.44,82.35000000000001,0.046180810779333115,-0.022178584709763527,-0.013641852885484695,-0.053859155625104904,0.0,0.0,-0.014509768225252628,-0.06,0.09,0.06,0.0
135.46614700,135466147,2,-0.06,0.48,82.41,0.042279765009880066,-0.031116783618927002,-0.015282378531992435,-0.048550792038440704,0.0,0.0,-0.02049800008535385,-0.06,0.09,0.06,0.0
135.56618100,135566181,2,-0.07,0.51,82.45,0.04823887720704079,-0.020462116226553917,-0.015130664221942425,-0.04458921030163765,0.0,0.0,-0.0258418470621109,-0.06,0.09,0.06,0.0
135.66615700,135666157,2,-0.06,0.48,82.43,0.04072507098317146,-0.01833796314895153,-0.01598069630563259,-0.044776998460292816,0.0,0.0,-0.031087830662727356,-0.06,0.09,0.06,0.0
135.76620100,135766201,2,-0.08,0.46,82.4,0.055628612637519836,-0.02710733935236931,-0.017966831102967262,-0.04719228297472,0.0,0.0,-0.03620600327849388,-0.06,0.09,0.06,0.0
135.86615900,135866159,2,-0.04,0.48,82.4,0.05182300880551338,-0.029634971171617508,-0.018474601209163666,-0.046964265406131744,0.0,0.0,-0.04105997458100319,-0.06,0.09,0.06,0.0
135.96619700,135966197,2,-0.03,0.48,82.39,0.05358995869755745,-0.02582891657948494,-0.018010016530752182,-0.019676610827445984,0.0,0.0,-0.04241372272372246,-0.06,0.09,0.06,0.0
136.06616000,136066160,2,-0.03,0.46,82.38,0.054290663450956345,-0.024457016959786415,-0.017865676432847977,0.0051317233592271805,0.0,0.0,-0.04307085648179054,-0.06,0.09,0.06,0.0
136.16615800,136166158,2,-0.03,0.45,82.37,0.059865329414606094,-0.03333830088376999,-0.017501672729849815,0.004621925763785839,0.0,0.0,-0.04346279427409172,-0.06,0.09,0.06,0.0
136.26619900,136266199,2,-0.04,0.46,82.39,0.06082918122410774,-0.031491778790950775,-0.017503922805190086,0.014228936284780502,0.0,0.0,-0.04244159162044525,-0.06,0.09,0.06,0.0
136.36615200,136366152,2,-0.04,0.46,82.4,0.061825502663850784,-0.028869284316897392,-0.016978342086076736,0.020396100357174873,0.0,0.0,-0.0412246510386467,-0.06,0.09,0.06,0.0
136.46617700,136466177,2,-0.05,0.46,82.39,0.0659068301320076,-0.034623291343450546,-0.016273684799671173,0.03032505512237549,0.0,0.0,-0.03830360621213913,-0.06,0.09,0.06,0.0
136.56615400,136566154,2,-0.05,0.47000000000000003,82.39,0.0686548724770546,-0.03376780450344086,-0.01650783233344555,0.04926247522234917,0.0,0.0,-0.03390420973300934,-0.06,0.09,0.06,0.0
136.66620000,136666200,2,-0.05,0.47000000000000003,82.39,0.07011967152357101,-0.03281935676932335,-0.01577048748731613,0.043100304901599884,0.0,0.0,-0.030983999371528625,-0.06,0.09,0.06,0.0
136.76615600,136766156,2,-0.05,0.46,82.38,0.07358785718679428,-0.03530808910727501,-0.014863137155771255,0.03901322931051254,0.0,0.0,-0.02704368159174919,-0.06,0.09,0.06,0.0
136.86619600,136866196,2,-0.06,0.46,82.38,0.07452397048473358,-0.03774005174636841,-0.01309970486909151,0.0518028698861599,0.0,0.0,-0.02222178317606449,-0.06,0.09,0.06,0.0
136.96615100,136966151,2,-0.07,0.46,82.37,0.07686193287372589,-0.03809557855129242,-0.012373941019177437,0.04420949146151543,0.0,0.0,-0.01853789947926998,-0.06,0.09,0.06,0.0
137.06615800,137066158,2,-0.09,0.47000000000000003,82.38,0.07845889776945114,-0.03822554647922516,-0.012271596118807793,0.026503952220082283,0.0,0.0,-0.01606343314051628,-0.06,0.09,0.06,0.0
137.16619300,137166193,2,-0.12,0.47000000000000003,82.38,0.08040269464254379,-0.03897271305322647,-0.01195832435041666,0.030593492090702057,0.0,0.0,-0.01212343666702509,-0.06,0.09,0.06,0.0
137.26620100,137266201,2,-0.12,0.48,82.38,0.08296698331832886,-0.04114602506160736,-0.010064895264804363,0.04190671443939209,0.0,0.0,-0.008264478296041489,-0.06,0.09,0.06,0.0
137.36619100,137366191,2,-0.12,0.48,82.4,0.0835195928812027,-0.042561329901218414,-0.008975635282695293,0.04447084292769432,0.0,0.0,-0.0037615932524204254,-0.06,0.09,0.06,0.0
137.46615900,137466159,2,-0.13,0.49,82.41,0.08541342616081238,-0.04263345152139664,-0.008811281993985176,0.03725897893309593,0.0,0.0,-0.0007863441132940352,-0.06,0.09,0.06,0.0
137.56620200,137566202,2,-0.16,0.48,82.39,0.08579197525978088,-0.04310864210128784,-0.00866304337978363,0.012804651632905006,0.0,0.0,0.00038840959314256907,-0.06,0.09,0.06,0.0
137.66615800,137666158,2,-0.16,0.48,82.39,0.08998064696788788,-0.045950472354888916,-0.00960487686097622,0.00518394447863102,0.0,0.0,0.0017606217879801989,-0.06,0.09,0.06,0.0
137.76619200,137766192,2,-0.16,0.49,82.39,0.09096604585647583,-0.04426956549286842,-0.008524551056325436,0.021850179880857468,0.0,0.0,0.0046665542759001255,-0.06,0.09,0.06,0.0
137.86615700,137866157,2,-0.15,0.48,82.41,0.09474620968103409,-0.04542049020528793,-0.008501777425408363,0.029603496193885803,0.0,0.0,0.007186263334006071,-0.06,0.09,0.06,0.0
137.96616800,137966168,2,-0.15,0.47000000000000003,82.36,0.09223555773496628,-0.047072310000658035,-0.007708637975156307,0.01807601936161518,0.0,0.0,0.008601930923759937,-0.06,0.09,0.06,0.0
138.06619300,138066193,2,-0.15,0.48,82.4,0.09809783846139908,-0.051907677203416824,-0.007180525455623865,-0.005278588272631168,0.0,0.0,0.0075974431820213795,-0.06,0.09,0.06,0.0
138.16620000,138166200,2,-0.06,0.45,82.39,0.0983525961637497,-0.04482455924153328,-0.00786691065877676,-0.045887626707553864,0.0,0.0,0.0030378999654203653,-0.06,0.09,0.06,0.0
138.26624000,138266240,2,0.09,0.37,82.35000000000001,0.09420143067836761,-0.04261041060090065,-0.011992364190518856,-0.057565879076719284,0.0,0.0,-0.00027522878372110426,-0.06,0.09,0.06,0.0
138.36615100,138366151,2,0.34,0.27,82.32000000000001,0.09810087084770203,-0.03497936576604843,-0.016984885558485985,-0.015433363616466522,0.0,0.0,-4.891102798865177e-05,-0.06,0.09,0.06,0.0
138.46619400,138466194,2,0.34,0.19,82.34,0.0705665573477745,-0.045397087931632996,-0.024925418198108673,0.012064967304468155,0.0,0.0,0.001230295980349183,-0.06,0.09,0.06,0.0
138.56615800,138566158,2,0.49,0.13,82.39,0.0595424585044384,-0.022296525537967682,-0.03675391152501106,0.0030189405661076307,0.0,0.0,0.0006209010607562959,-0.06,0.09,0.06,0.0
138.66618900,138666189,2,0.33,-0.05,82.32000000000001,0.09415937215089798,-0.03240720555186272,-0.05705069750547409,-0.029540900141000748,0.0,0.0,-0.0017051618779078126,-0.06,0.09,0.06,0.0
138.76614900,138766149,2,-0.08,-0.21,82.26,0.11665000766515732,-0.06162005662918091,-0.09897344559431076,-0.08294801414012909,0.0,0.0,-0.008489817380905151,-0.06,0.09,0.06,0.0
138.86615400,138866154,2,-0.43,-0.03,82.31,0.14083819091320038,-0.09413742274045944,-0.1207125261425972,-0.1150914803147316,0.0,0.0,-0.01887453719973564,-0.06,0.09,0.06,0.0
138.96620000,138966200,2,-0.52,0.42,82.33,0.15715201199054718,-0.08888237923383713,-0.13343332707881927,-0.13973656296730042,0.0,0.0,-0.0323357880115509,-0.06,0.09,0.06,0.0
139.06623400,139066234,2,-0.34,0.71,82.23,0.15423093736171722,-0.07195255160331726,-0.14684060215950012,-0.16251133382320404,0.0,0.0,-0.0473829060792923,-0.06,0.09,0.06,0.0
139.16618400,139166184,2,0.04,0.68,82.05,0.1250307410955429,-0.06338398903608322,-0.1621893048286438,-0.1761552393436432,0.0,0.0,-0.06372512131929398,-0.06,0.09,0.06,0.0
139.26615500,139266155,2,0.62,0.3,82.0,0.10029139369726181,-0.07263708859682083,-0.18082918226718903,-0.18943992257118225,0.0,0.0,-0.08117165416479111,-0.06,0.09,0.06,0.0
139.36619900,139366199,2,0.84,-0.07,82.19,0.08032675087451935,-0.11271670460700989,-0.2521379590034485,-0.2616122364997864,0.0,0.0,-0.10347649455070496,-0.06,0.09,0.06,0.0
139.46615000,139466150,2,0.47000000000000003,0.04,82.53,0.08635132014751434,-0.11901230365037918,-0.3082086741924286,-0.3128621578216553,0.0,0.0,-0.13222073018550873,-0.06,0.09,0.06,0.0
139.56619000,139566190,2,0.07,0.03,82.49,0.09792576730251312,-0.09924706071615219,-0.3293890058994293,-0.32763922214508057,0.0,0.0,-0.1643342524766922,-0.06,0.09,0.06,0.0
139.66615400,139666154,2,-0.03,-0.16,82.17,0.08270895481109619,-0.07789278030395508,-0.34131550788879395,-0.3401629626750946,0.0,0.0,-0.19832956790924072,-0.06,0.09,0.06,0.0
139.76614900,139766149,2,0.01,-0.19,82.03,0.06694911420345306,-0.07006745040416718,-0.3458670973777771,-0.3394785225391388,0.0,0.0,-0.2323504537343979,-0.06,0.09,0.06,0.0
139.86619700,139866197,2,0.1,0.14,82.3,0.055118460208177567,-0.07190104573965073,-0.3537447452545166,-0.33537429571151733,0.0,0.0,-0.26516813039779663,-0.06,0.09,0.06,0.0
139.96623700,139966237,2,0.07,0.9500000000000001,82.92,0.03804854303598404,-0.08334672451019287,-0.36862248182296753,-0.35128772258758545,0.0,0.0,-0.3002593517303467,-0.06,0.09,0.06,0.0
140.06617900,140066179,2,-0.14,1.99,83.84,-0.0033049818594008684,-0.09769239276647568,-0.3830917477607727,-0.3774252235889435,0.0,0.0,-0.3376680612564087,-0.06,0.09,0.06,0.0
140.16615700,140166157,2,-0.42,2.88,84.91,-0.054457586258649826,-0.10997461527585983,-0.3585125207901001,-0.3629743754863739,0.0,0.0,-0.37556102871894836,-0.06,0.09,0.06,0.0
140.26620800,140266208,2,-0.58,3.15,85.9,-0.07167596369981766,-0.11376939713954926,-0.30168071389198303,-0.314030259847641,0.0,0.0,-0.40968969464302063,-0.06,0.09,0.06,0.0
140.36615500,140366155,2,-0.46,2.58,86.75,-0.054697658866643906,-0.11785759776830673,-0.22910304367542267,-0.24780556559562683,0.0,0.0,-0.43771690130233765,-0.06,0.09,0.06,0.0
140.46619300,140466193,2,-0.08,1.41,87.53,-0.053046829998493195,-0.12032802402973175,-0.1519959270954132,-0.16443698108196259,0.0,0.0,-0.45707976818084717,-0.06,0.09,0.06,0.0
140.56616400,140566164,2,0.13,0.3,88.35000000000001,-0.058634284883737564,-0.125285342335701,-0.08796718716621399,-0.09169084578752518,0.0,0.0,-0.469258189201355,-0.06,0.09,0.06,0.0
140.66615500,140666155,2,0.06,-0.46,89.29,-0.06568018347024918,-0.1307990550994873,-0.026907073333859444,-0.0338192917406559,0.0,0.0,-0.4758574962615967,-0.06,0.09,0.06,0.0
140.76624200,140766242,2,0.1,-0.86,90.53,-0.05575041472911835,-0.1558939814567566,0.004860946908593178,-0.0011469644960016012,0.0,0.0,-0.476874440908432,-0.06,0.09,0.06,0.0
140.86620200,140866202,2,0.48,-0.87,92.05,-0.0454024076461792,-0.18930773437023163,0.00478360103443265,0.0017586089670658112,0.0,0.0,-0.4765651226043701,-0.06,0.09,0.06,0.0
140.96619700,140966197,2,0.73,-0.5700000000000001,93.7,-0.029053332284092903,-0.20173390209674835,-0.007597464136779308,-0.015132387168705463,0.0,0.0,-0.47763049602508545,-0.06,0.09,0.06,0.0
141.06615500,141066155,2,0.76,-0.14,95.33,-0.007346568163484335,-0.19658918678760529,-0.013113250955939293,-0.03365577384829521,0.0,0.0,-0.4812347888946533,-0.06,0.09,0.06,0.0
141.16620000,141166200,2,0.8300000000000001,0.44,96.58,0.02122235856950283,-0.1932225227355957,0.007258461322635412,-0.025639912113547325,0.0,0.0,-0.48463600873947144,-0.06,0.09,0.06,0.0
141.26615900,141266159,2,1.17,1.53,97.39,0.05972229316830635,-0.1805248260498047,0.054929740726947784,0.017707375809550285,0.0,0.0,-0.48449739813804626,-0.06,0.09,0.06,0.0
141.36619100,141366191,2,1.69,2.93,98.15,0.08602181822061539,-0.14535744488239288,0.061693813651800156,0.02364799566566944,0.0,0.0,-0.4817115068435669,-0.06,0.09,0.06,0.0
141.46615300,141466153,2,1.6500000000000001,3.5500000000000003,99.02,0.10541750490665436,-0.11691030859947205,0.0626160129904747,0.025557376444339752,0.0,0.0,-0.47883445024490356,-0.06,0.09,0.06,0.0
141.56615100,141566151,2,0.76,2.79,100.2,0.09920590370893478,-0.13824492692947388,0.025552207604050636,0.007307879626750946,0.0,0.0,-0.4751788377761841,-0.06,0.09,0.05,0.0
141.66619400,141666194,2,-0.32,1.24,101.64,0.07457837462425232,-0.20573844015598297,-0.004217591602355242,0.002334714401513338,0.0,0.0,-0.47394058108329773,-0.06,0.09,0.05,0.0
141.76621500,141766215,2,-1.05,-0.56,103.4,0.0598641037940979,-0.24899594485759735,-0.013498173095285892,0.011427750810980797,0.0,0.0,-0.47308966517448425,-0.06,0.09,0.05,0.0
141.86618900,141866189,2,-1.49,-2.4,104.95,0.07893756031990051,-0.23691844940185547,-0.0038579979445785284,0.019413212314248085,0.0,0.0,-0.4733021557331085,-0.06,0.09,0.05,0.0
141.96615400,141966154,2,-1.8900000000000001,-4.11,105.83,0.12138669192790985,-0.163677379488945,0.018685974180698395,0.02309037744998932,0.0,0.0,-0.47254708409309387,-0.06,0.09,0.05,0.0
142.06619400,142066194,2,-2.21,-4.96,106.14,0.15360990166664124,-0.07045266777276993,0.03032856062054634,0.02791857346892357,0.0,0.0,-0.46994683146476746,-0.06,0.09,0.05,0.0
142.16615300,142166153,2,-2.16,-4.21,106.15,0.16258865594863892,0.03166376054286957,0.017245573922991753,0.008409756235778332,0.0,0.0,-0.46828800439834595,-0.06,0.09,0.05,0.0
142.26619400,142266194,2,-1.4000000000000001,-2.43,106.04,0.16147005558013916,0.1596755087375641,0.00849149376153946,-0.007044950965791941,0.0,0.0,-0.4683258831501007,-0.06,0.09,0.05,0.0
142.36615000,142366150,2,-0.38,-0.4,105.59,0.16475829482078552,0.2628195285797119,-0.003277635434642434,-0.019590120762586594,0.0,0.0,-0.4692949652671814,-0.06,0.09,0.05,0.0
142.46614900,142466149,2,0.67,1.72,104.68,0.17607823014259338,0.30345669388771057,-0.015422811731696129,-0.030861906707286835,0.0,0.0,-0.47178915143013,-0.06,0.09,0.05,0.0
142.56620200,142566202,2,1.54,3.79,103.47,0.18787363171577454,0.32742074131965637,-0.012168589979410172,-0.024736622348427773,0.0,0.0,-0.47412410378456116,-0.06,0.09,0.05,0.0
142.66621600,142666216,2,1.98,5.29,102.19,0.19137413799762726,0.3663407564163208,-0.008937519043684006,-0.002061549574136734,0.0,0.0,-0.4740554392337799,-0.06,0.09,0.05,0.0
142.76617800,142766178,2,2.17,5.84,101.10000000000001,0.17838765680789948,0.36299189925193787,-0.0002052138588624075,0.027468234300613403,0.0,0.0,-0.47226592898368835,-0.06,0.09,0.05,0.0
142.86615500,142866155,2,2.18,5.73,100.38,0.16604959964752197,0.2910442054271698,0.011367463506758213,0.04215530306100845,0.0,0.0,-0.4694042503833771,-0.06,0.09,0.04,0.0
142.96619700,142966197,2,1.48,4.94,100.28,0.1586066335439682,0.1733279675245285,0.010477014817297459,0.0430842824280262,0.0,0.0,-0.46559566259384155,-0.06,0.09,0.04,0.0
143.06615100,143066151,2,0.04,3.33,101.14,0.14363543689250946,0.05313379317522049,0.006534745451062918,0.0521712489426136,0.0,0.0,-0.46020111441612244,-0.06,0.09,0.04,0.0
143.16619100,143166191,2,-1.55,1.0,102.47,0.12223216891288757,-0.02816605009138584,0.008922139182686806,0.06419651210308075,0.0,0.0,-0.4547806680202484,-0.06,0.09,0.04,0.0
143.26615300,143266153,2,-3.0100000000000002,-1.61,103.73,0.11288978904485703,-0.08047853410243988,0.016559002920985222,0.06760977953672409,0.0,0.0,-0.4489916265010834,-0.06,0.09,0.04,0.0
143.36615200,143366152,2,-4.01,-3.87,104.46000000000001,0.1192360669374466,-0.1450781524181366,0.017318643629550934,0.06797163933515549,0.0,0.0,-0.44245481491088867,-0.06,0.09,0.04,0.0
143.46619400,143466194,2,-4.71,-5.11,104.23,0.11928601562976837,-0.18546488881111145,0.02536417916417122,0.0734175592660904,0.0,0.0,-0.43601617217063904,-0.06,0.09,0.04,0.0
143.56619100,143566191,2,-5.2,-5.74,103.15,0.11695066839456558,-0.17175626754760742,0.023613739758729935,0.05897394195199013,0.0,0.0,-0.4302055835723877,-0.06,0.09,0.04,0.0
143.66618400,143666184,2,-5.4,-6.09,101.72,0.10379943996667862,-0.09925001114606857,0.023642120882868767,0.04134087264537811,0.0,0.0,-0.4261588156223297,-0.06,0.09,0.04,0.0
143.76615900,143766159,2,-5.61,-6.43,100.25,0.09516686201095581,0.017852775752544403,0.020840119570493698,0.019215047359466553,0.0,0.0,-0.4237009584903717,-0.06,0.09,0.04,0.0
143.86620000,143866200,2,-5.79,-6.6000000000000005,98.75,0.09860935807228088,0.12322988361120224,0.012629283592104912,0.014455033466219902,0.0,0.0,-0.4207089841365814,-0.06,0.09,0.04,0.0
143.96615500,143966155,2,-5.58,-6.15,97.17,0.1276029646396637,0.23019425570964813,0.008503398858010769,0.015601923689246178,0.0,0.0,-0.4189896881580353,-0.06,0.09,0.04,0.0
144.06618600,144066186,2,-5.11,-5.14,95.84,0.18067403137683868,0.3473246395587921,-0.0003578389005269855,-0.008507817052304745,0.0,0.0,-0.4195287227630615,-0.06,0.09,0.04,0.0
144.16615100,144166151,2,-4.28,-3.52,94.65,0.22896136343479156,0.4124423861503601,-0.0012870619539171457,-0.021256055682897568,0.0,0.0,-0.4213811159133911,-0.06,0.09,0.04,0.0
144.26615700,144266157,2,-2.97,-1.08,93.43,0.26715153455734253,0.42622995376586914,0.008809695020318031,-0.02008812688291073,0.0,0.0,-0.4233759343624115,-0.06,0.09,0.03,0.0
144.36619400,144366194,2,-1.48,1.84,92.45,0.29277142882347107,0.4080096483230591,-0.0043146051466465,-0.04509293660521507,0.0,0.0,-0.4268413484096527,-0.06,0.09,0.03,0.0
144.46619700,144466197,2,-0.04,4.87,91.92,0.2920984923839569,0.3499353229999542,-0.029583223164081573,-0.06361900269985199,0.0,0.0,-0.4305650591850281,-0.06,0.09,0.03,0.0
144.56618700,144566187,2,1.27,7.74,91.71000000000001,0.26383599638938904,0.26402291655540466,-0.04781033843755722,-0.059730950742959976,0.0,0.0,-0.4357335865497589,-0.06,0.09,0.03,0.0
144.66615200,144666152,2,2.34,9.84,91.77,0.22910258173942566,0.1783742606639862,-0.02835317887365818,-0.03198215737938881,0.0,0.0,-0.4404360055923462,-0.06,0.09,0.03,0.0
144.76619800,144766198,2,2.95,10.63,92.13,0.17494019865989685,0.07401441782712936,0.01106844749301672,0.009932296350598335,0.0,0.0,-0.44201111793518066,-0.06,0.09,0.03,0.0
144.86615600,144866156,2,2.88,10.23,92.61,0.11498177796602249,-0.036329660564661026,0.04884389042854309,0.03389478474855423,0.0,0.0,-0.4408113360404968,-0.06,0.09,0.03,0.0
144.96618700,144966187,2,2.16,8.43,93.24,0.07180967926979065,-0.1253420114517212,0.04589669033885002,0.02803466096520424,0.0,0.0,-0.43683305382728577,-0.06,0.09,0.03,0.0
145.06615000,145066150,2,0.92,5.28,94.05,0.03302294760942459,-0.2067292034626007,0.032440271228551865,0.023911695927381516,0.0,0.0,-0.4339902997016907,-0.06,0.09,0.03,0.0
145.16615200,145166152,2,-0.75,1.44,95.22,0.015492678619921207,-0.28967568278312683,0.013045389205217361,0.012040936388075352,0.0,0.0,-0.4312637746334076,-0.06,0.09,0.03,0.0
145.26619600,145266196,2,-2.6,-2.46,96.69,0.018729692324995995,-0.3165736198425293,-0.03645951673388481,-0.024702880531549454,0.0,0.0,-0.4315154254436493,-0.06,0.09,0.03,0.0
145.36615300,145366153,2,-4.42,-6.16,98.38,0.046951957046985626,-0.2848520576953888,-0.07151907682418823,-0.052764829248189926,0.0,0.0,-0.43572762608528137,-0.06,0.09,0.03,0.0
145.46618600,145466186,2,-5.89,-9.38,99.94,0.08979647606611252,-0.20973598957061768,-0.07832931727170944,-0.060485027730464935,0.0,0.0,-0.44214484095573425,-0.06,0.09,0.03,0.0
145.56618200,145566182,2,-6.62,-11.83,101.01,0.12137602269649506,-0.12603698670864105,-0.06125457584857941,-0.05518856644630432,0.0,0.0,-0.44899964332580566,-0.06,0.09,0.03,0.0
145.66620600,145666206,2,-6.25,-12.81,101.32000000000001,0.15732136368751526,-0.04389907419681549,-0.05665607750415802,-0.057114455848932266,0.0,0.0,-0.45463940501213074,-0.06,0.09,0.03,0.0
145.76615400,145766154,2,-4.98,-11.96,100.97,0.18900145590305328,0.04697766527533531,-0.05514586716890335,-0.06356468051671982,0.0,0.0,-0.46121352910995483,-0.06,0.09,0.03,0.0
145.86619500,145866195,2,-3.08,-9.74,100.13,0.19592347741127014,0.1346212923526764,-0.058219920843839645,-0.082051120698452,0.0,0.0,-0.46906161308288574,-0.06,0.09,0.03,0.0
145.96615700,145966157,2,-0.72,-6.75,99.10000000000001,0.18882568180561066,0.1960938423871994,-0.06359623372554779,-0.09075883030891418,0.0,0.0,-0.477123498916626,-0.06,0.09,0.03,0.0
146.06615900,146066159,2,1.6600000000000001,-3.35,98.18,0.18778318166732788,0.22415044903755188,-0.05686061084270477,-0.07239503413438797,0.0,0.0,-0.4844071865081787,-0.06,0.09,0.03,0.0
146.16620000,146166200,2,3.58,0.35000000000000003,97.38,0.1905902475118637,0.2191099226474762,-0.015296935103833675,-0.023085027933120728,0.0,0.0,-0.48907315731048584,-0.06,0.09,0.03,0.0
146.26621500,146266215,2,4.79,4.08,96.65,0.19943632185459137,0.19638465344905853,0.05225721746683121,0.03546389192342758,0.0,0.0,-0.4893733263015747,-0.06,0.09,0.03,0.0
146.36618500,146366185,2,5.19,7.2,95.93,0.19835038483142853,0.1643558293581009,0.1089823767542839,0.07151184231042862,0.0,0.0,-0.4847135841846466,-0.06,0.09,0.03,0.0
146.46615000,146466150,2,5.1000000000000005,8.71,95.55,0.1641915887594223,0.13392968475818634,0.10488971322774887,0.0489472895860672,0.0,0.0,-0.47861596941947937,-0.06,0.09,0.03,0.0
146.56620200,146566202,2,4.86,8.2,95.76,0.10217583924531937,0.06380002200603485,0.0645829513669014,-0.003933663014322519,0.0,0.0,-0.47618141770362854,-0.06,0.09,0.03,0.0
146.66616300,146666163,2,4.46,6.3,96.28,0.04315483942627907,-0.03433852270245552,0.011248944327235222,-0.06301362067461014,0.0,0.0,-0.47887691855430603,-0.06,0.09,0.02,0.0
146.76618700,146766187,2,3.72,3.7600000000000002,96.92,0.022176358848810196,-0.11682434380054474,-0.03149772435426712,-0.07584303617477417,0.0,0.0,-0.4831092357635498,-0.06,0.09,0.02,0.0
146.86615400,146866154,2,2.47,0.9400000000000001,97.8,0.03331529721617699,-0.16424594819545746,-0.033869363367557526,-0.02892325259745121,0.0,0.0,-0.48624110221862793,-0.06,0.09,0.02,0.0
146.96615100,146966151,2,0.99,-1.9100000000000001,98.87,0.05396704003214836,-0.19082313776016235,-0.016489263623952866,0.002315080026164651,0.0,0.0,-0.4885006546974182,-0.06,0.09,0.02,0.0
147.06620000,147066200,2,-0.33,-4.37,99.89,0.07767162472009659,-0.1972004920244217,-0.004910936113446951,0.0023322233464568853,0.0,0.0,-0.4897289574146271,-0.06,0.09,0.02,0.0
147.16621600,147166216,2,-1.47,-6.5200000000000005,100.82000000000001,0.10854506492614746,-0.1624026894569397,0.0031928925309330225,0.016132090240716934,0.0,0.0,-0.4885691702365875,-0.06,0.09,0.02,0.0
147.26618400,147266184,2,-2.54,-8.63,101.7,0.12720943987369537,-0.11132851243019104,-0.00681264465674758,0.013944635167717934,0.0,0.0,-0.4870143234729767,-0.06,0.09,0.02,0.0
147.36615600,147366156,2,-3.4,-10.15,102.28,0.13068583607673645,-0.07048465311527252,-0.03284595534205437,-0.013346096500754356,0.0,0.0,-0.4874335527420044,-0.06,0.09,0.02,0.0
147.46619400,147466194,2,-3.48,-10.36,102.31,0.14808841049671173,-0.02295946702361107,-0.04928627982735634,-0.014746105298399925,0.0,0.0,-0.48809298872947693,-0.06,0.09,0.02,0.0
147.56615500,147566155,2,-2.35,-9.33,101.88,0.15818369388580322,0.05755162984132767,-0.06220235303044319,-0.005251923575997353,0.0,0.0,-0.4884048104286194,-0.06,0.09,0.02,0.0
147.66619400,147666194,2,-0.61,-7.21,101.18,0.1530342847108841,0.13714927434921265,-0.0465690903365612,0.010843543335795403,0.0,0.0,-0.48954716324806213,-0.06,0.09,0.02,0.0
147.76615500,147766155,2,1.29,-3.97,100.46000000000001,0.17099733650684357,0.17812350392341614,-0.03334925323724747,0.0009514583507552743,0.0,0.0,-0.49068960547447205,-0.06,0.09,0.02,0.0
147.86615800,147866158,2,3.15,0.01,99.64,0.20870697498321533,0.18966615200042725,-0.010071448050439358,0.003590935142710805,0.0,0.0,-0.49144846200942993,-0.06,0.09,0.02,0.0
147.96620400,147966204,2,4.24,4.24,98.74000000000001,0.24081242084503174,0.18588930368423462,0.04299159348011017,0.045643776655197144,0.0,0.0,-0.4890715777873993,-0.06,0.09,0.02,0.0
148.06621500,148066215,2,4.6000000000000005,7.62,97.94,0.2682282328605652,0.18354062736034393,0.061795998364686966,0.07117794454097748,0.0,0.0,-0.4816696047782898,-0.06,0.09,0.02,0.0
148.16618800,148166188,2,4.51,8.790000000000001,97.64,0.26950782537460327,0.16111233830451965,0.056315869092941284,0.08003874868154526,0.0,0.0,-0.4729672074317932,-0.06,0.09,0.02,0.0
148.26616200,148266162,2,3.9,7.82,97.85000000000001,0.2359626740217209,0.0773920863866806,0.041901640594005585,0.06156540289521217,0.0,0.0,-0.46662119030952454,-0.06,0.09,0.02,0.0
148.36620000,148366200,2,2.62,5.54,98.29,0.19772756099700928,-0.02189452201128006,0.019218632951378822,0.029364487156271935,0.0,0.0,-0.46231284737586975,-0.06,0.09,0.02,0.0
148.46615500,148466155,2,0.91,2.46,98.89,0.17274214327335358,-0.10346337407827377,-0.013870497234165668,0.004559846129268408,0.0,0.0,-0.4596948027610779,-0.06,0.09,0.02,0.0
148.56619200,148566192,2,-0.91,-0.9400000000000001,99.47,0.1607237160205841,-0.1545163244009018,-0.04927893355488777,-0.007590173278003931,0.0,0.0,-0.45865297317504883,-0.06,0.09,0.02,0.0
148.66615800,148666158,2,-2.41,-4.24,100.14,0.15580351650714874,-0.1832006275653839,-0.07232484221458435,-0.02192213572561741,0.0,0.0,-0.46080482006073,-0.06,0.09,0.01,0.0
148.76615000,148766150,2,-3.17,-6.8100000000000005,100.75,0.13767069578170776,-0.193147212266922,-0.072975292801857,-0.03461402654647827,0.0,0.0,-0.46529409289360046,-0.06,0.09,0.01,0.0
148.86619400,148866194,2,-3.15,-8.13,101.07000000000001,0.13462835550308228,-0.16517195105552673,-0.04875907301902771,-0.023510251194238663,0.0,0.0,-0.4689764380455017,-0.06,0.09,0.01,0.0
148.96620100,148966201,2,-2.5300000000000002,-8.3,101.27,0.14188449084758759,-0.09944771975278854,-0.03132776543498039,-0.009581957012414932,0.0,0.0,-0.4704279899597168,-0.06,0.09,0.01,0.0
149.06618100,149066181,2,-1.71,-7.43,101.4,0.14621515572071075,-0.029292482882738113,-0.016631269827485085,0.015597798861563206,0.0,0.0,-0.46930986642837524,-0.06,0.09,0.01,0.0
149.16615200,149166152,2,-0.8200000000000001,-5.63,101.42,0.1389133483171463,0.027804194018244743,-0.0011280409526079893,0.03319932520389557,0.0,0.0,-0.4670690894126892,-0.06,0.09,0.01,0.0
149.26619900,149266199,2,0.19,-3.3000000000000003,101.35000000000001,0.14454473555088043,0.08287427574396133,-0.0019442549673840404,0.027007082477211952,0.0,0.0,-0.4643138647079468,-0.06,0.09,0.01,0.0
149.36615300,149366153,2,1.26,-0.88,101.18,0.15776348114013672,0.11857934296131134,-0.0067823841236531734,0.012958169914782047,0.0,0.0,-0.46314623951911926,-0.06,0.09,0.01,0.0
149.46618600,149466186,2,2.24,1.43,100.79,0.1708632856607437,0.13179153203964233,-0.007028491236269474,0.004740882199257612,0.0,0.0,-0.4623348116874695,-0.06,0.09,0.01,0.0
149.56616000,149566160,2,2.96,3.41,100.38,0.18896213173866272,0.14430727064609528,0.0007045656675472856,0.01910555735230446,0.0,0.0,-0.46041467785835266,-0.06,0.09,0.01,0.0
149.66615300,149666153,2,3.38,4.64,100.22,0.20299425721168518,0.1608182042837143,0.007612221874296665,0.022955717518925667,0.0,0.0,-0.4587761163711548,-0.06,0.09,0.01,0.0
149.76619100,149766191,2,3.46,4.82,100.23,0.20604296028614044,0.1604476273059845,0.012198105454444885,0.014033880084753036,0.0,0.0,-0.45747897028923035,-0.06,0.09,0.01,0.0
149.86621600,149866216,2,2.88,4.08,100.01,0.2017832100391388,0.12279946357011795,0.006716445088386536,-0.011927925981581211,0.0,0.0,-0.4584689438343048,-0.06,0.09,0.01,0.0
149.96619000,149966190,2,1.92,2.6,99.69,0.19153539836406708,0.054217059165239334,-0.0034079363103955984,-0.04115607216954231,0.0,0.0,-0.46114498376846313,-0.06,0.09,0.01,0.0
150.06616200,150066162,2,0.9500000000000001,0.66,99.63,0.18258820474147797,-0.01986682415008545,-0.011827333830296993,-0.04647497460246086,0.0,0.0,-0.4644941985607147,-0.06,0.09,0.01,0.0
150.16620700,150166207,2,0.07,-1.18,99.9,0.17847687005996704,-0.07359692454338074,-0.01598098874092102,-0.03753712400794029,0.0,0.0,-0.4674855172634125,-0.06,0.09,0.01,0.0
150.26621100,150266211,2,-0.6900000000000001,-2.5300000000000002,100.28,0.1771133542060852,-0.08776845782995224,-0.019208509474992752,-0.02308044768869877,0.0,0.0,-0.4694926142692566,-0.06,0.09,0.01,0.0
150.36618500,150366185,2,-1.2,-3.43,100.62,0.1769927442073822,-0.07408473640680313,-0.01912013068795204,-0.0064239795319736,0.0,0.0,-0.4704570174217224,-0.06,0.09,0.01,0.0
150.46615400,150466154,2,-1.3,-3.89,100.78,0.17911624908447266,-0.06793031841516495,-0.018066784366965294,-0.008234895765781403,0.0,0.0,-0.47230130434036255,-0.06,0.09,0.01,0.0
150.56616300,150566163,2,-1.1500000000000001,-3.75,100.82000000000001,0.186678946018219,-0.05627923831343651,-0.023019319400191307,-0.025662828236818314,0.0,0.0,-0.4747389256954193,-0.06,0.09,0.01,0.0
150.66619900,150666199,2,-1.02,-3.37,100.82000000000001,0.19733552634716034,-0.0415329784154892,-0.016109958291053772,-0.01679416187107563,0.0,0.0,-0.476674884557724,-0.06,0.09,0.0,0.0
150.76621500,150766215,2,-0.9400000000000001,-3.09,100.74000000000001,0.19899199903011322,-0.03885642811655998,-0.0028682672418653965,-0.0032110426109284163,0.0,0.0,-0.4777590036392212,-0.06,0.09,0.0,0.0
150.86618900,150866189,2,-0.9,-2.7800000000000002,100.65,0.1940327286720276,-0.03884381428360939,-0.0011591344373300672,0.00045148778008297086,0.0,0.0,-0.47731074690818787,-0.06,0.09,0.0,0.0
150.96615400,150966154,2,-0.8300000000000001,-2.52,100.66,0.1934346854686737,-0.03957843407988548,-0.01286290306597948,-0.008212503045797348,0.0,0.0,-0.47786271572113037,-0.06,0.09,0.0,0.0
151.06620300,151066203,2,-0.77,-2.23,100.75,0.1964978277683258,-0.03687546029686928,-0.02097664587199688,-0.01981634832918644,0.0,0.0,-0.4795567989349365,-0.06,0.09,0.0,0.0
151.16615400,151166154,2,-0.79,-1.93,100.9,0.20132067799568176,-0.030716052278876305,-0.01260193157941103,-0.011547014117240906,0.0,0.0,-0.48119252920150757,-0.06,0.09,0.0,0.0
151.26619400,151266194,2,-0.76,-1.78,101.0,0.20587928593158722,-0.02799300104379654,-0.011684417724609375,-0.007601357996463776,0.0,0.0,-0.4816145896911621,-0.06,0.09,0.0,0.0
151.36615100,151366151,2,-0.68,-1.73,101.02,0.1998687982559204,-0.029228657484054565,-0.013663721270859241,-0.007291674613952637,0.0,0.0,-0.4824347496032715,-0.06,0.09,0.0,0.0
151.46615100,151466151,2,-0.65,-1.57,101.05,0.19648215174674988,-0.03009028173983097,-0.008255491964519024,0.00953685026615858,0.0,0.0,-0.4813888669013977,-0.06,0.09,0.0,0.0
151.56620100,151566201,2,-0.62,-1.33,101.08,0.1899183839559555,-0.02428252063691616,-0.0019535538740456104,0.031092848628759384,0.0,0.0,-0.4790726602077484,-0.06,0.09,0.0,0.0
151.66620400,151666204,2,-0.55,-1.11,101.09,0.18627190589904785,-0.018350834026932716,-0.0040364437736570835,0.018178516998887062,0.0,0.0,-0.478049635887146,-0.06,0.09,0.0,0.0
151.76618400,151766184,2,-0.43,-0.98,101.11,0.19166772067546844,-0.01843213476240635,-0.011928258463740349,-0.004636612255126238,0.0,0.0,-0.4783213436603546,-0.06,0.09,0.0,0.0
151.86616300,151866163,2,-0.4,-0.89,101.15,0.19049625098705292,-0.025321152061223984,-0.002721344819292426,-0.001371767371892929,0.0,0.0,-0.4787800908088684,-0.06,0.09,0.0,0.0
151.96621200,151966212,2,-0.41000000000000003,-0.78,101.16,0.19327625632286072,-0.031203502789139748,0.002684123581275344,-0.006223098374903202,0.0,0.0,-0.47956204414367676,-0.06,0.09,0.0,0.0
152.06615500,152066155,2,-0.4,-0.68,101.13,0.20025649666786194,-0.02854931727051735,-0.0007191504701040685,-0.011213348247110844,0.0,0.0,-0.47969862818717957,-0.06,0.09,0.0,0.0
152.16619200,152166192,2,-0.38,-0.63,101.14,0.20599712431430817,-0.021281391382217407,-0.007761354558169842,-0.00028959018527530134,0.0,0.0,-0.47888806462287903,-0.06,0.09,0.0,0.0
152.26616200,152266162,2,-0.39,-0.54,101.15,0.19634521007537842,-0.017474262043833733,0.0039733583107590675,0.03539755195379257,0.0,0.0,-0.4761771261692047,-0.06,0.09,0.0,0.0
152.36615600,152366156,2,-0.53,-0.35000000000000003,101.2,0.1919635534286499,-0.005074002780020237,0.01958352141082287,0.05192472040653229,0.0,0.0,-0.47270917892456055,-0.06,0.09,0.0,0.0
152.46619500,152466195,2,-0.61,-0.26,101.23,0.1946631222963333,-0.004247319884598255,-0.001976702595129609,0.014578078873455524,0.0,0.0,-0.47030627727508545,-0.06,0.09,0.0,0.0
152.56623100,152566231,2,-0.5700000000000001,-0.23,101.21000000000001,0.20086045563220978,-0.011628923937678337,-0.017703641206026077,-0.004665035754442215,0.0,0.0,-0.47006404399871826,-0.06,0.09,0.0,0.0
152.66618400,152666184,2,-0.5700000000000001,-0.21,101.19,0.20677173137664795,-0.02040121518075466,-0.015267758630216122,0.006736587267369032,0.0,0.0,-0.46897685527801514,-0.06,0.09,0.0,0.0
152.76615400,152766154,2,-0.63,-0.17,101.22,0.2054721713066101,-0.024282068014144897,-0.006438791286200285,0.028101501986384392,0.0,0.0,-0.46698012948036194,-0.06,0.09,0.0,0.0
152.86620800,152866208,2,-0.63,-0.15,101.23,0.19842879474163055,-0.01827973499894142,-0.011369026266038418,0.025298887863755226,0.0,0.0,-0.4646637737751007,-0.06,0.09,0.0,0.0
152.96615500,152966155,2,-0.61,-0.21,101.21000000000001,0.1930369734764099,-0.012491539120674133,-0.018212059512734413,0.022944150492548943,0.0,0.0,-0.46236783266067505,-0.06,0.09,0.0,0.0
153.06619700,153066197,2,-0.5,-0.24,101.21000000000001,0.1933334320783615,-0.017971277236938477,-0.018753111362457275,0.009752738289535046,0.0,0.0,-0.4620429277420044,-0.06,0.09,0.0,0.0
153.16616100,153166161,2,-0.34,-0.13,101.19,0.1992175579071045,-0.021434230729937553,-0.009287841618061066,-0.006166315637528896,0.0,0.0,-0.4633161127567291,-0.06,0.09,0.0,0.0
153.26615900,153266159,2,-0.25,0.06,101.10000000000001,0.20392781496047974,-0.017735306173563004,0.0010355919366702437,-0.016385851427912712,0.0,0.0,-0.4647260308265686,-0.06,0.09,0.0,0.0
153.36619900,153366199,2,-0.18,0.15,101.03,0.20524351298809052,-0.01103462278842926,-0.009024417959153652,-0.03468010202050209,0.0,0.0,-0.4668511152267456,-0.06,0.09,0.0,0.0
153.46619700,153466197,2,-0.12,0.17,101.05,0.20278874039649963,-0.013076950795948505,-0.009236006066203117,-0.032238371670246124,0.0,0.0,-0.46945491433143616,-0.06,0.09,0.0,0.0
153.56618800,153566188,2,-0.11,0.26,101.11,0.19979441165924072,-0.017420103773474693,-0.0022028558887541294,-0.018905334174633026,0.0,0.0,-0.4712357819080353,-0.06,0.09,0.0,0.0
153.66615900,153666159,2,-0.08,0.38,101.15,0.20020563900470734,-0.01957980915904045,-0.006617413833737373,-0.01947614923119545,0.0,0.0,-0.4727943539619446,-0.06,0.09,0.0,0.0
153.76619800,153766198,2,-0.08,0.38,101.21000000000001,0.20301440358161926,-0.018977703526616096,-0.004631879739463329,-0.00886862725019455,0.0,0.0,-0.47371771931648254,-0.06,0.09,0.0,0.0
153.86615700,153866157,2,-0.15,0.33,101.33,0.2047598659992218,-0.02673886902630329,-0.0017477725632488728,0.01681658625602722,0.0,0.0,-0.4720941185951233,-0.06,0.09,0.0,0.0
153.96619700,153966197,2,-0.2,0.35000000000000003,101.44,0.20683403313159943,-0.030482955276966095,-0.008655530400574207,0.015125310979783535,0.0,0.0,-0.4711708128452301,-0.06,0.09,0.0,0.0
154.06615400,154066154,2,-0.18,0.42,101.49000000000001,0.20841407775878906,-0.02703183889389038,-0.015850696712732315,-0.0034011718817055225,0.0,0.0,-0.4717026948928833,-0.06,0.09,0.0,0.0
154.16615800,154166158,2,-0.19,0.52,101.55,0.20684276521205902,-0.01731874793767929,-0.0070143528282642365,0.0040046339854598045,0.0,0.0,-0.47186505794525146,-0.06,0.09,0.0,0.0
154.26621500,154266215,2,-0.22,0.63,101.60000000000001,0.20751821994781494,-0.01090201735496521,0.001192936790175736,0.003235204378142953,0.0,0.0,-0.4721686840057373,-0.06,0.09,0.0,0.0
154.36619300,154366193,2,-0.15,0.67,101.62,0.2086246907711029,-0.011158040724694729,-0.005130090285092592,-0.015871942043304443,0.0,0.0,-0.4731488823890686,-0.06,0.09,0.0,0.0
154.46618800,154466188,2,-0.1,0.6900000000000001,101.63,0.20787616074085236,-0.015291537158191204,-0.01092311181128025,-0.028480669483542442,0.0,0.0,-0.4754762649536133,-0.06,0.09,0.0,0.0
154.56616100,154566161,2,-0.16,0.71,101.66,0.21166053414344788,-0.014717862010002136,-0.005505229812115431,-0.01331025268882513,0.0,0.0,-0.47632864117622375,-0.06,0.09,0.0,0.0
154.66620400,154666204,2,-0.22,0.65,101.71000000000001,0.21528063714504242,-0.014550471678376198,-0.0038392667192965746,-0.00636631716042757,0.0,0.0,-0.4773016571998596,-0.06,0.09,0.0,0.0
154.76615500,154766155,2,-0.23,0.5700000000000001,101.76,0.21242456138134003,-0.016047433018684387,-0.003540975507348776,-0.018506484106183052,0.0,0.0,-0.4793451428413391,-0.06,0.09,0.0,0.0
154.86618400,154866184,2,-0.25,0.55,101.77,0.21001118421554565,-0.014380138367414474,0.0014404796529561281,-0.0023933411575853825,0.0,0.0,-0.4791875183582306,-0.06,0.09,0.0,0.0
154.96619700,154966197,2,-0.28,0.56,101.79,0.21032030880451202,-0.011402267962694168,0.0011664601042866707,0.009753454476594925,0.0,0.0,-0.4785608947277069,-0.06,0.09,0.0,0.0
155.06615300,155066153,2,-0.28,0.54,101.84,0.21155956387519836,-0.010393300093710423,-0.004248035605996847,0.004286877810955048,0.0,0.0,-0.4781131148338318,-0.06,0.09,0.0,0.0
155.16619500,155166195,2,-0.31,0.56,101.87,0.21210125088691711,-0.00897200871258974,-0.004965434316545725,0.002310893265530467,0.0,0.0,-0.4784294664859772,-0.06,0.09,0.0,0.0
155.26619100,155266191,2,-0.27,0.63,101.86,0.2156379371881485,-0.01014779508113861,0.0073836203664541245,0.016120092943310738,0.0,0.0,-0.4773285686969757,-0.06,0.09,0.0,0.0
155.36618400,155366184,2,-0.25,0.74,101.95,0.21456295251846313,-0.007849613204598427,0.0001839559554355219,0.024354543536901474,0.0,0.0,-0.4743674695491791,-0.06,0.09,0.0,0.0
155.46614300,155466143,2,-0.3,0.88,102.04,0.2176523208618164,-0.010145674459636211,-0.008384105749428272,0.027688374742865562,0.0,0.0,-0.47184672951698303,-0.06,0.09,0.0,0.0
155.56619300,155566193,2,-0.29,0.93,102.10000000000001,0.20143890380859375,-0.007039075717329979,0.005050906911492348,0.00909818708896637,0.0,0.0,-0.4733191430568695,-0.06,0.09,0.0,0.0
155.66615100,155666151,2,-0.46,0.9500000000000001,102.14,0.17581307888031006,-0.00524835754185915,0.01654963195323944,-0.026705434545874596,0.0,0.0,-0.4757485091686249,-0.06,0.09,0.0,0.0
155.76618200,155766182,2,-0.51,0.8300000000000001,102.14,0.1618533432483673,-0.012638834305107594,-0.0027248989790678024,-0.04926695674657822,0.0,0.0,-0.4779733717441559,-0.06,0.09,-0.01,0.0
155.86614900,155866149,2,-0.43,0.68,102.18,0.15337832272052765,-0.01625809259712696,-0.012706524692475796,-0.04416343569755554,0.0,0.0,-0.48133111000061035,-0.06,0.09,-0.01,0.0
155.96614900,155966149,2,-0.48,0.62,102.27,0.14986760914325714,-0.012748515233397484,0.004216378089040518,-0.007511988282203674,0.0,0.0,-0.48246631026268005,-0.06,0.09,-0.01,0.0
156.06618500,156066185,2,-0.6,0.58,102.32000000000001,0.15246950089931488,-0.011292073875665665,0.005915010813623667,-0.0024520030710846186,0.0,0.0,-0.4833590090274811,-0.06,0.09,-0.01,0.0
156.16614800,156166148,2,-0.5700000000000001,0.49,102.34,0.15197502076625824,-0.011232657358050346,-0.005223019979894161,-0.02685052715241909,0.0,0.0,-0.48564794659614563,-0.06,0.09,-0.01,0.0
156.26618100,156266181,2,-0.49,0.47000000000000003,102.37,0.15016049146652222,-0.012016934342682362,-0.008618436753749847,-0.03277291730046272,0.0,0.0,-0.488615483045578,-0.06,0.09,-0.01,0.0
156.36614700,156366147,2,-0.5,0.55,102.4,0.1494958996772766,-0.009116008877754211,-0.013354742899537086,-0.046526260673999786,0.0,0.0,-0.4930919408798218,-0.06,0.09,-0.01,0.0
156.46618800,156466188,2,-0.42,0.56,102.38,0.15415355563163757,-0.008065023459494114,-0.013839115388691425,-0.050276998430490494,0.0,0.0,-0.4974914491176605,-0.06,0.09,-0.01,0.0
156.56615400,156566154,2,-0.28,0.55,102.35000000000001,0.15247060358524323,-0.007130661513656378,-0.015299982391297817,-0.03696546331048012,0.0,0.0,-0.5006336569786072,-0.07,0.09,-0.01,0.0
156.66618500,156666185,2,-0.16,0.63,102.3,0.14491450786590576,-0.01001051813364029,-0.013571799732744694,-0.0379599928855896,0.0,0.0,-0.5054706335067749,-0.07,0.09,-0.01,0.0
156.76614500,156766145,2,-0.11,0.75,102.28,0.1388547569513321,-0.00229531223885715,-0.009060953743755817,-0.056852057576179504,0.0,0.0,-0.5114114880561829,-0.07,0.09,-0.01,0.0
156.86614900,156866149,2,-0.14,0.77,102.37,0.13190840184688568,0.005451953038573265,-0.003103777766227722,-0.03559191897511482,0.0,0.0,-0.5137190222740173,-0.07,0.09,-0.01,0.0
156.96619200,156966192,2,-0.14,0.72,102.49000000000001,0.12434526532888412,0.003959096968173981,0.002642823616042733,-0.002762250602245331,0.0,0.0,-0.5146359205245972,-0.07,0.09,-0.01,0.0
157.06614600,157066146,2,-0.04,0.72,102.57000000000001,0.11752437800168991,-0.004322210792452097,-0.0033199589233845472,-0.002456910442560911,0.0,0.0,-0.5149316191673279,-0.07,0.09,-0.01,0.0
157.16617800,157166178,2,0.03,0.76,102.60000000000001,0.1117284893989563,-0.00539082707837224,-0.005648382473737001,-0.005768193397670984,0.0,0.0,-0.516203761100769,-0.07,0.09,-0.01,0.0
157.26614900,157266149,2,0.03,0.76,102.65,0.10375986248254776,-0.0017084104474633932,-0.0016259478870779276,-0.012980138882994652,0.0,0.0,-0.5182400345802307,-0.07,0.09,-0.01,0.0
157.36620500,157366205,2,0.07,0.77,102.68,0.08989716321229935,-0.003992505371570587,0.007971296086907387,0.013388700783252716,0.0,0.0,-0.5163215398788452,-0.07,0.09,-0.01,0.0
157.46614600,157466146,2,0.2,0.79,102.71000000000001,0.07665501534938812,-0.004204445984214544,0.008301573805510998,0.045017704367637634,0.0,0.0,-0.5117937922477722,-0.07,0.09,-0.01,0.0
157.56617900,157566179,2,0.31,0.81,102.7,0.06864935904741287,-0.0014340027701109648,-0.007848275825381279,0.043827835470438004,0.0,0.0,-0.5075567960739136,-0.07,0.09,-0.01,0.0
157.66615000,157666150,2,0.33,0.8,102.71000000000001,0.060515131801366806,-0.0014613354578614235,-0.006617758888751268,0.0496051050722599,0.0,0.0,-0.5037095546722412,-0.08,0.09,-0.01,0.0
157.76614600,157766146,2,0.32,0.79,102.76,0.05193500220775604,-0.002679975936189294,0.004230729769915342,0.07863973826169968,0.0,0.0,-0.4963268041610718,-0.08,0.09,-0.01,0.0
157.86618900,157866189,2,0.35000000000000003,0.75,102.84,0.042261410504579544,-0.0024640948977321386,0.0029394368175417185,0.08495452255010605,0.0,0.0,-0.4890177547931671,-0.08,0.09,-0.01,0.0
157.96620300,157966203,2,0.41000000000000003,0.68,102.88,0.03227333724498749,-0.0019392608664929867,0.001673337770625949,0.06765658408403397,0.0,0.0,-0.4832964837551117,-0.08,0.09,-0.01,0.0
158.06617600,158066176,2,0.5,0.59,102.87,0.025868717581033707,0.00031368163763545454,0.013034477829933167,0.04316223785281181,0.0,0.0,-0.48053568601608276,-0.08,0.09,-0.01,0.0
158.16614800,158166148,2,0.5,0.58,102.84,0.02257162518799305,0.0040727173909544945,0.02016388811171055,0.014045771211385727,0.0,0.0,-0.47878554463386536,-0.08,0.09,-0.01,0.0
158.26619700,158266197,2,0.45,0.61,102.81,0.01817633956670761,0.011736655607819557,0.0128816869109869,-0.00830021034926176,0.0,0.0,-0.47804537415504456,-0.08,0.09,-0.01,0.0
158.36614700,158366147,2,0.39,0.6,102.77,0.018311429768800735,0.017586978152394295,0.017048653215169907,0.0057019987143576145,0.0,0.0,-0.47612154483795166,-0.08,0.09,-0.01,0.0
158.46617500,158466175,2,0.26,0.58,102.7,0.017295122146606445,0.022399788722395897,0.03519872948527336,0.04753004014492035,0.0,0.0,-0.4718776047229767,-0.08,0.09,-0.01,0.0
158.56615800,158566158,2,-0.23,0.81,102.55,0.0009684793185442686,0.030000751838088036,0.10854978114366531,0.11482434719800949,0.0,0.0,-0.46526917815208435,-0.08,0.09,-0.01,0.0
158.66615000,158666150,2,-0.9,1.1400000000000001,102.32000000000001,0.005365891847759485,0.04235772043466568,0.09138856083154678,0.09377989172935486,0.0,0.0,-0.4533546566963196,-0.08,0.09,-0.01,0.0
158.76618900,158766189,2,-0.78,0.8300000000000001,102.08,0.01607782207429409,0.06351006031036377,0.030567890033125877,0.045867905020713806,0.0,0.0,-0.4460013508796692,-0.08,0.09,-0.02,0.0
158.86615100,158866151,2,-0.44,0.22,101.81,0.013746094889938831,0.08589229732751846,0.039398182183504105,0.059117771685123444,0.0,0.0,-0.44142860174179077,-0.08,0.09,-0.02,0.0
158.96618300,158966183,2,-0.31,-0.31,101.5,-0.014554561115801334,0.10475362837314606,0.0720568373799324,0.08673185855150223,0.0,0.0,-0.4345640242099762,-0.08,0.09,-0.02,0.0
159.06614600,159066146,2,0.24,-0.93,101.12,-0.04190336912870407,0.12003866583108902,0.10741211473941803,0.10261945426464081,0.0,0.0,-0.426754891872406,-0.08,0.09,-0.02,0.0
159.16618900,159166189,2,1.07,-1.44,100.65,-0.028842004016041756,0.11658037453889847,0.11024011671543121,0.08625297993421555,0.0,0.0,-0.4171273410320282,-0.08,0.09,-0.02,0.0
159.26615000,159266150,2,1.46,-1.48,100.24000000000001,-0.016749493777751923,0.1278214007616043,0.0824689269065857,0.039911530911922455,0.0,0.0,-0.4113403260707855,-0.08,0.09,-0.02,0.0
159.36618700,159366187,2,1.6,-1.44,99.8,-0.008720384910702705,0.13954836130142212,0.0938335433602333,0.025328753516077995,0.0,0.0,-0.408713161945343,-0.08,0.09,-0.02,0.0
159.46614700,159466147,2,1.72,-1.43,99.29,-0.006595205515623093,0.12542445957660675,0.11423450708389282,0.044443629682064056,0.0,0.0,-0.40362364053726196,-0.08,0.09,-0.02,0.0
159.56615000,159566150,2,1.74,-1.32,98.85000000000001,-0.002904469147324562,0.10032038390636444,0.1299446076154709,0.07830314338207245,0.0,0.0,-0.3956787586212158,-0.08,0.09,-0.02,0.0
159.66619400,159666194,2,1.7,-1.32,98.46000000000001,0.013445529155433178,0.06744220107793808,0.1332160234451294,0.08507277816534042,0.0,0.0,-0.38707780838012695,-0.08,0.09,-0.02,0.0
159.76614600,159766146,2,1.6300000000000001,-1.49,98.05,0.02722948230803013,0.03014475107192993,0.1269327700138092,0.08432583510875702,0.0,0.0,-0.3784571588039398,-0.08,0.09,-0.02,0.0
159.86617800,159866178,2,1.45,-1.6300000000000001,97.66,0.031194332987070084,-0.006217965390533209,0.13157126307487488,0.1085650771856308,0.0,0.0,-0.3675447106361389,-0.08,0.09,-0.02,0.0
159.96615500,159966155,2,1.23,-1.3800000000000001,97.39,0.010060139000415802,-0.051410648971796036,0.09046616405248642,0.09093877673149109,0.0,0.0,-0.3564126491546631,-0.08,0.09,-0.02,0.0
160.06618800,160066188,2,1.2,-0.89,97.24000000000001,-0.018910326063632965,-0.051722798496484756,0.05090498551726341,0.05901799723505974,0.0,0.0,-0.349871426820755,-0.08,0.09,-0.02,0.0
160.16614800,160166148,2,1.06,-0.58,97.18,-0.038191698491573334,-0.04102100431919098,0.061710458248853683,0.05244525149464607,0.0,0.0,-0.34677374362945557,-0.08,0.09,-0.02,0.0
160.26619000,160266190,2,0.78,-0.38,97.04,-0.06434653699398041,-0.03969566524028778,0.07232034206390381,0.037145551294088364,0.0,0.0,-0.34320980310440063,-0.08,0.09,-0.02,0.0
160.36614700,160366147,2,0.62,-0.45,96.77,-0.07892806828022003,-0.05650047957897186,0.04426764324307442,-0.0043443916365504265,0.0,0.0,-0.3415002226829529,-0.08,0.09,-0.02,0.0
160.46614500,160466145,2,0.67,-0.81,96.42,-0.06915710121393204,-0.08530866354703903,0.021606577560305595,-0.0034937062300741673,0.0,0.0,-0.3397977352142334,-0.08,0.09,-0.02,0.0
160.56620500,160566205,2,0.58,-1.11,96.03,-0.048969388008117676,-0.1133231669664383,0.028024977073073387,0.04047465696930885,0.0,0.0,-0.33623242378234863,-0.08,0.09,-0.02,0.0
160.66614600,160666146,2,0.48,-1.1300000000000001,95.71000000000001,-0.03995500132441521,-0.1302894800901413,0.03149596229195595,0.060827162116765976,0.0,0.0,-0.33113500475883484,-0.08,0.09,-0.02,0.0
160.76619500,160766195,2,0.52,-1.0,95.42,-0.04415705427527428,-0.12371797114610672,0.013678144663572311,0.03852389380335808,0.0,0.0,-0.32739800214767456,-0.08,0.09,-0.02,0.0
160.86615800,160866158,2,0.52,-0.84,95.24,-0.05780017748475075,-0.10742348432540894,-0.008792980574071407,0.004418269731104374,0.0,0.0,-0.3263437747955322,-0.08,0.09,-0.02,0.0
160.96619500,160966195,2,0.52,-0.65,95.09,-0.08908916264772415,-0.09547524154186249,-0.009483876638114452,-0.0042234244756400585,0.0,0.0,-0.32705044746398926,-0.08,0.09,-0.02,0.0
161.06614700,161066147,2,0.56,-0.59,94.98,-0.1031736508011818,-0.0834299847483635,-0.0031710576731711626,0.007210792042315006,0.0,0.0,-0.3261862099170685,-0.08,0.09,-0.02,0.0
161.16618300,161166183,2,0.61,-0.56,94.94,-0.10495017468929291,-0.08516066521406174,-0.007271209731698036,-0.00935696717351675,0.0,0.0,-0.32775601744651794,-0.08,0.09,-0.02,0.0
161.26614800,161266148,2,0.64,-0.48,94.95,-0.08608754724264145,-0.09270339459180832,-0.009269040077924728,-0.045684926211833954,0.0,0.0,-0.33203092217445374,-0.08,0.09,-0.02,0.0
161.36614700,161366147,2,0.68,-0.45,94.96000000000001,-0.06764648854732513,-0.10733901709318161,-0.0028750242199748755,-0.029696432873606682,0.0,0.0,-0.3335093557834625,-0.08,0.09,-0.02,0.0
161.46618600,161466186,2,0.68,-0.34,94.97,-0.05889066308736801,-0.12416548281908035,-0.011397667229175568,0.016195308417081833,0.0,0.0,-0.33030152320861816,-0.08,0.09,-0.02,0.0
161.56614800,161566148,2,0.6,-0.34,94.92,-0.056509003043174744,-0.1281607449054718,0.005275816190987825,0.06917810440063477,0.0,0.0,-0.3258458077907562,-0.08,0.09,-0.02,0.0
161.66618600,161666186,2,0.49,-0.49,94.76,-0.06597824394702911,-0.1265174150466919,0.006676565855741501,0.05750986933708191,0.0,0.0,-0.32160764932632446,-0.08,0.09,-0.02,0.0
161.76614500,161766145,2,0.39,-0.7000000000000001,94.59,-0.07860211282968521,-0.12121539562940598,0.00033079634886235,0.035729311406612396,0.0,0.0,-0.31847265362739563,-0.08,0.09,-0.02,0.0
161.86619300,161866193,2,0.4,-0.89,94.46000000000001,-0.08207254856824875,-0.1154627725481987,0.015281531028449535,0.0449029877781868,0.0,0.0,-0.31484049558639526,-0.08,0.09,-0.02,0.0
161.96614900,161966149,2,0.45,-1.04,94.35000000000001,-0.07247651368379593,-0.10928910225629807,0.009721353650093079,0.041849713772535324,0.0,0.0,-0.3099678158760071,-0.08,0.09,-0.02,0.0
162.06617400,162066174,2,0.51,-1.11,94.27,-0.058797623962163925,-0.10456161201000214,0.009673641994595528,0.053020916879177094,0.0,0.0,-0.3047703504562378,-0.08,0.09,-0.02,0.0
162.16614600,162166146,2,0.62,-1.11,94.26,-0.04670039936900139,-0.10394902527332306,0.017594294622540474,0.05433742702007294,0.0,0.0,-0.30037975311279297,-0.08,0.09,-0.02,0.0
162.26616700,162266167,2,0.68,-1.09,94.28,-0.0460730642080307,-0.1074882447719574,0.007535992190241814,0.017959212884306908,0.0,0.0,-0.29840072989463806,-0.08,0.09,-0.02,0.0
162.36619200,162366192,2,0.64,-1.09,94.31,-0.053945623338222504,-0.10674729943275452,0.00889643095433712,0.019930610433220863,0.0,0.0,-0.2954452931880951,-0.08,0.09,-0.02,0.0
162.46614500,162466145,2,0.59,-1.1300000000000001,94.23,-0.05992770567536354,-0.10745599865913391,0.0028226266149431467,0.031680356711149216,0.0,0.0,-0.29180559515953064,-0.08,0.09,-0.02,0.0
162.56618600,162566186,2,0.6,-1.1300000000000001,94.16,-0.06077795475721359,-0.11018995940685272,0.0035430151037871838,0.04248046875,0.0,0.0,-0.2876012921333313,-0.08,0.09,-0.02,0.0
162.66615700,162666157,2,0.62,-1.09,94.08,-0.055704426020383835,-0.10617955774068832,0.004621715750545263,0.04916110262274742,0.0,0.0,-0.2832445204257965,-0.08,0.09,-0.02,0.0
162.76619700,162766197,2,0.62,-1.08,93.91,-0.05730368569493294,-0.10205671191215515,0.005752981640398502,0.033407729119062424,0.0,0.0,-0.28065478801727295,-0.08,0.09,-0.02,0.0
162.86615200,162866152,2,0.65,-1.01,93.71000000000001,-0.07091537863016129,-0.1046832874417305,0.007547324988991022,0.02598397061228752,0.0,0.0,-0.27758529782295227,-0.08,0.09,-0.02,0.0
162.96619800,162966198,2,0.75,-0.91,93.58,-0.0726901963353157,-0.10341418534517288,0.008396437391638756,0.046881839632987976,0.0,0.0,-0.27236878871917725,-0.08,0.09,-0.02,0.0
163.06614600,163066146,2,0.74,-0.71,93.47,-0.05520126596093178,-0.11782284080982208,0.01163699571043253,0.06400036811828613,0.0,0.0,-0.26661837100982666,-0.08,0.09,-0.02,0.0
163.16615500,163166155,2,0.75,-0.42,93.39,-0.04210333526134491,-0.1193956509232521,0.016166331246495247,0.0588025264441967,0.0,0.0,-0.26168060302734375,-0.08,0.09,-0.02,0.0
163.26620300,163266203,2,0.74,-0.19,93.35000000000001,-0.05462350323796272,-0.09963703155517578,0.008763502351939678,0.037925489246845245,0.0,0.0,-0.2576523423194885,-0.08,0.09,-0.02,0.0
163.36614600,163366146,2,0.71,-0.11,93.27,-0.05777826905250549,-0.0767991840839386,0.008865614421665668,0.022967740893363953,0.0,0.0,-0.25570687651634216,-0.08,0.09,-0.02,0.0
163.46617600,163466176,2,0.67,0.01,93.2,-0.05055350810289383,-0.09615781903266907,0.01737399771809578,0.01906500943005085,0.0,0.0,-0.2535700798034668,-0.08,0.09,-0.02,0.0
163.56614800,163566148,2,0.56,0.19,93.17,-0.01846340484917164,-0.07862138748168945,0.015477469190955162,0.017891928553581238,0.0,0.0,-0.2516063153743744,-0.08,0.09,-0.02,0.0
163.66619700,163666197,2,0.36,0.28,93.25,-0.03911620005965233,-0.05437066778540611,0.007245034445077181,0.009922860190272331,0.0,0.0,-0.24974198639392853,-0.08,0.09,-0.02,0.0
163.76614600,163766146,2,0.25,0.31,93.34,-0.04317581653594971,-0.055442653596401215,0.00924117211252451,0.004065369255840778,0.0,0.0,-0.24953235685825348,-0.08,0.09,-0.02,0.0
163.86618400,163866184,2,0.05,0.38,93.25,-0.03421333059668541,-0.05471331998705864,0.009711746126413345,0.004253254272043705,0.0,0.0,-0.24849936366081238,-0.08,0.09,-0.02,0.0
163.96615500,163966155,2,-0.07,0.48,93.36,-0.025715813040733337,-0.05626823008060455,0.008489023894071579,0.018328526988625526,0.0,0.0,-0.24614177644252777,-0.07,0.09,-0.02,0.0
164.06615300,164066153,2,-0.07,0.5,93.42,-0.04701802134513855,-0.03068237379193306,0.01085251197218895,0.0320158377289772,0.0,0.0,-0.24347062408924103,-0.07,0.09,-0.02,0.0
164.16619200,164166192,2,-0.04,0.44,93.33,-0.023396022617816925,-0.028510846197605133,0.01214704941958189,0.03908023610711098,0.0,0.0,-0.23990938067436218,-0.07,0.1,-0.02,0.0
164.26615200,164266152,2,-0.07,0.48,93.4,-0.04013872519135475,-0.041407350450754166,0.013287239708006382,0.03251895308494568,0.0,0.0,-0.2377944439649582,-0.07,0.1,-0.02,0.0
164.36617600,164366176,2,-0.08,0.5,93.42,-0.028455408290028572,-0.01847262494266033,0.014353333972394466,0.006421552039682865,0.0,0.0,-0.23789317905902863,-0.07,0.1,-0.02,0.0
164.46615800,164466158,2,-0.12,0.43,93.34,-0.035426825284957886,-0.016607249155640602,0.012712061405181885,-0.053420789539813995,0.0,0.0,-0.2441001534461975,-0.07,0.1,-0.02,0.0
164.56620900,164566209,2,-0.07,0.45,93.37,-0.025352509692311287,-0.02464424818754196,0.010975588113069534,-0.10130999982357025,0.0,0.0,-0.2513880729675293,-0.07,0.1,-0.02,0.0
164.66614600,164666146,2,-0.1,0.46,93.38,-0.02939443476498127,-0.013261796906590462,0.00969675276428461,-0.09477541595697403,0.0,0.0,-0.2583082318305969,-0.07,0.1,-0.02,0.0
164.76618500,164766185,2,-0.06,0.42,93.28,-0.031144307926297188,-0.00887131318449974,0.009130780585110188,-0.06525883823633194,0.0,0.0,-0.26357507705688477,-0.07,0.1,-0.02,0.0
164.86617400,164866174,2,-0.05,0.44,93.34,-0.0205074455589056,-0.020830325782299042,0.008444637060165405,-0.04223437234759331,0.0,0.0,-0.26756492257118225,-0.07,0.1,-0.02,0.0
164.96615800,164966158,2,-0.07,0.48,93.47,-0.03335268795490265,-0.0057826898992061615,0.00844599213451147,-0.02899383381009102,0.0,0.0,-0.27090123295783997,-0.07,0.1,-0.02,0.0
165.06619600,165066196,2,-0.07,0.42,93.35000000000001,-0.022528626024723053,0.003541531739756465,0.00800134427845478,-0.03005395084619522,0.0,0.0,-0.27459725737571716,-0.07,0.1,-0.02,0.0
165.16614600,165166146,2,-0.08,0.43,93.35000000000001,-0.023737192153930664,-0.008818225003778934,0.006962476298213005,-0.050541698932647705,0.0,0.0,-0.28013625741004944,-0.07,0.1,-0.02,0.0
165.26618400,165266184,2,-0.06,0.46,93.47,-0.02223919704556465,0.006027161609381437,0.007138080429285765,-0.07794684916734695,0.0,0.0,-0.2878004312515259,-0.07,0.1,-0.02,0.0
165.36615700,165366157,2,-0.1,0.41000000000000003,93.37,-0.02331405133008957,0.010175967589020729,0.00622294656932354,-0.07413401454687119,0.0,0.0,-0.2936672270298004,-0.07,0.1,-0.02,0.0
165.46619900,165466199,2,-0.09,0.43,93.38,-0.015987537801265717,0.002936005126684904,0.005818290635943413,-0.04201528802514076,0.0,0.0,-0.2973331809043884,-0.07,0.1,-0.02,0.0
165.56615100,165566151,2,-0.09,0.45,93.47,-0.01736019179224968,0.01573026366531849,0.004934150725603104,-0.03294342756271362,0.0,0.0,-0.30133408308029175,-0.07,0.1,-0.02,0.0
165.66618800,165666188,2,-0.09,0.41000000000000003,93.39,-0.020899241790175438,0.015573856420814991,0.005509664304554462,-0.029114259406924248,0.0,0.0,-0.30446937680244446,-0.07,0.1,-0.02,0.0
165.76615500,165766155,2,-0.1,0.43,93.39,-0.013359233736991882,0.009557126089930534,0.007048091385513544,-0.01313143502920866,0.0,0.0,-0.3061167895793915,-0.07,0.1,-0.02,0.0
165.86616000,165866160,2,-0.09,0.44,93.47,-0.017471706494688988,0.021756190806627274,0.007057006470859051,-0.01988179236650467,0.0,0.0,-0.30910447239875793,-0.07,0.1,-0.02,0.0
165.96620300,165966203,2,-0.09,0.4,93.41,-0.012504945509135723,0.02057480439543724,0.005893446039408445,-0.035186782479286194,0.0,0.0,-0.3125323951244354,-0.07,0.1,-0.02,0.0
166.06614500,166066145,2,-0.11,0.42,93.42,-0.012751702219247818,0.01457294262945652,0.004462610464543104,-0.03531573340296745,0.0,0.0,-0.3157123923301697,-0.07,0.1,-0.02,0.0
166.16618100,166166181,2,-0.11,0.43,93.48,-0.009591354057192802,0.02755223587155342,0.0042103128507733345,-0.03693418204784393,0.0,0.0,-0.319370836019516,-0.07,0.1,-0.01,0.0
166.26616000,166266160,2,-0.11,0.41000000000000003,93.43,-0.009488905780017376,0.0255024004727602,0.004392943810671568,-0.031994301825761795,0.0,0.0,-0.32218387722969055,-0.07,0.1,-0.01,0.0
166.36619100,166366191,2,-0.11,0.42,93.43,-0.006583782844245434,0.02163039520382881,0.004253969062119722,-0.0005074227810837328,0.0,0.0,-0.32170823216438293,-0.07,0.1,-0.01,0.0
166.46614700,166466147,2,-0.12,0.43,93.48,-0.006533061154186726,0.03199874982237816,0.005877271294593811,0.026629293337464333,0.0,0.0,-0.3200542628765106,-0.07,0.1,-0.01,0.0
166.56618900,166566189,2,-0.11,0.4,93.44,-0.0023323337081819773,0.027957523241639137,0.00564813707023859,0.025245357304811478,0.0,0.0,-0.31866490840911865,-0.07,0.1,-0.01,0.0
166.66614600,166666146,2,-0.11,0.42,93.45,0.0013526083203032613,0.025749247521162033,0.00574036268517375,0.008465615101158619,0.0,0.0,-0.3186931610107422,-0.07,0.1,-0.01,0.0
166.76615500,166766155,2,-0.11,0.42,93.48,-0.0018542319303378463,0.03436931222677231,0.005422637797892094,-0.022962771356105804,0.0,0.0,-0.32127732038497925,-0.07,0.1,-0.01,0.0
166.86619600,166866196,2,-0.11,0.4,93.44,0.004139299970120192,0.029702913016080856,0.0029819041956216097,-0.060388676822185516,0.0,0.0,-0.3268900513648987,-0.07,0.1,-0.01,0.0
166.96614900,166966149,2,-0.11,0.42,93.45,0.0037785072345286608,0.027204647660255432,0.0017639787402004004,-0.09828800708055496,0.0,0.0,-0.33610379695892334,-0.07,0.1,-0.01,0.0
167.06617900,167066179,2,-0.12,0.42,93.47,0.003501347964629531,0.0358053594827652,6.62936145090498e-05,-0.12506261467933655,0.0,0.0,-0.34675389528274536,-0.07,0.1,-0.01,0.0
167.16614600,167166146,2,-0.12,0.4,93.43,0.004203763324767351,0.030146446079015732,-0.0016023466596379876,-0.09803929924964905,0.0,0.0,-0.3537968397140503,-0.07,0.1,-0.01,0.0
167.26620300,167266203,2,-0.12,0.43,93.45,0.006471734028309584,0.0304635688662529,-0.0037205128464847803,-0.052562132477760315,0.0,0.0,-0.3585479259490967,-0.07,0.1,-0.01,0.0
167.36615000,167366150,2,-0.12,0.42,93.46000000000001,0.005684312433004379,0.037139397114515305,-0.005066268146038055,-0.03761635720729828,0.0,0.0,-0.3630535900592804,-0.07,0.1,-0.01,0.0
167.46618200,167466182,2,-0.12,0.41000000000000003,93.44,0.006874971557408571,0.030353574082255363,-0.0052842507138848305,-0.026135001331567764,0.0,0.0,-0.3660898208618164,-0.07,0.1,-0.01,0.0
167.56615200,167566152,2,-0.12,0.43,93.45,0.009550759568810463,0.031944625079631805,-0.00614163838326931,-0.013126739300787449,0.0,0.0,-0.368076890707016,-0.07,0.1,-0.01,0.0
167.66615000,167666150,2,-0.12,0.42,93.45,0.008403274230659008,0.03849703446030617,-0.005700900685042143,-0.005452632438391447,0.0,0.0,-0.3693006932735443,-0.07,0.1,-0.01,0.0
167.76618800,167766188,2,-0.13,0.41000000000000003,93.43,0.011835628189146519,0.03196210414171219,-0.006703398656100035,0.0026477749925106764,0.0,0.0,-0.3694331645965576,-0.07,0.1,-0.01,0.0
167.86619700,167866197,2,-0.13,0.43,93.45,0.010851423256099224,0.032722096890211105,-0.006159498356282711,0.011734459549188614,0.0,0.0,-0.368887722492218,-0.07,0.1,-0.01,0.0
167.96618100,167966181,2,-0.13,0.42,93.44,0.011743979528546333,0.03760464861989021,-0.005578894168138504,0.025016702711582184,0.0,0.0,-0.3665942847728729,-0.07,0.1,-0.01,0.0
168.06614500,168066145,2,-0.13,0.42,93.44,0.013756092637777328,0.03151805326342583,-0.006480594165623188,0.021830344572663307,0.0,0.0,-0.36565884947776794,-0.07,0.1,-0.01,0.0
168.16619000,168166190,2,-0.13,0.43,93.45,0.011796541512012482,0.03390059247612953,-0.007282664999365807,-0.010913185775279999,0.0,0.0,-0.3675420582294464,-0.07,0.1,-0.01,0.0
