timestamp,TimeUS,C,Roll,Pitch,Yaw,VN,VE,VD,dPD,PN,PE,PD,GX,GY,GZ,OH
1674319692.49857998,154801896,1,-1.58,-0.86,268.27,0.05635303258895874,-0.050741974264383316,-0.05062011256814003,-0.07584904134273529,-0.561263382434845,-2.6893715858459473,6.811756134033203,0.29,-0.3,-0.13,283.57
1674319692.53856897,154841885,1,-1.59,-0.86,268.27,0.057405177503824234,-0.05108391493558884,-0.050479765981435776,-0.07206086069345474,-0.560835063457489,-2.6888415813446045,6.808360576629639,0.29,-0.3,-0.13,283.57
1674319692.55860996,154861926,1,-1.59,-0.86,268.27,0.05738730728626251,-0.05072564631700516,-0.05044636130332947,-0.07302356511354446,-0.5607765316963196,-2.6883506774902344,6.806556701660156,0.29,-0.3,-0.13,283.57
1674319692.57856488,154881881,1,-1.59,-0.86,268.27,0.057328980416059494,-0.05063396692276001,-0.050430454313755035,-0.0735463872551918,-0.5605897307395935,-2.6880226135253906,6.8047332763671875,0.29,-0.3,-0.13,283.57
1674319692.61859488,154921911,1,-1.59,-0.86,268.28000000000003,0.057368069887161255,-0.05135301128029823,-0.05037930607795715,-0.07604631036520004,-0.5601134896278381,-2.6877901554107666,6.801750183105469,0.29,-0.3,-0.13,283.57
1674319692.65859389,154961910,1,-1.59,-0.86,268.28000000000003,0.05669848993420601,-0.05146663263440132,-0.05015131086111069,-0.07171405106782913,-0.560408890247345,-2.686965227127075,6.799266338348389,0.29,-0.3,-0.13,283.57
1674319692.69861197,155001928,1,-1.58,-0.86,268.29,0.05627956986427307,-0.05162559077143669,-0.050134290009737015,-0.0653887391090393,-0.5604223012924194,-2.686527967453003,6.79686975479126,0.29,-0.3,-0.13,283.57
1674319692.73854780,155041864,1,-1.58,-0.86,268.29,0.05637194216251373,-0.05194222554564476,-0.0499686561524868,-0.060337211936712265,-0.5601393580436707,-2.6864659786224365,6.7944111824035645,0.29,-0.3,-0.13,283.57
1674319692.75860095,155061917,1,-1.58,-0.86,268.29,0.056702710688114166,-0.05217895656824112,-0.04968953877687454,-0.05827735364437103,-0.5601927042007446,-2.6862428188323975,6.7931742668151855,0.29,-0.3,-0.13,283.57
1674319692.77856898,155081885,1,-1.59,-0.86,268.29,0.05703826621174812,-0.05245044827461243,-0.04948385804891586,-0.056538186967372894,-0.559609591960907,-2.686704158782959,6.792077541351318,0.29,-0.3,-0.13,283.57
1674319692.81857181,155121888,1,-1.59,-0.86,268.3,0.05527212843298912,-0.052517663687467575,-0.04912854731082916,-0.05243548005819321,-0.5603687167167664,-2.685408353805542,6.790335655212402,0.29,-0.3,-0.13,283.57
1674319692.85860491,155161921,1,-1.59,-0.87,268.3,0.053786974400281906,-0.051954448223114014,-0.04854726791381836,-0.04186443239450455,-0.560872495174408,-2.684377908706665,6.788975715637207,0.29,-0.3,-0.13,283.57
1674319692.89860392,155201920,1,-1.59,-0.87,268.3,0.05269904434680939,-0.05172472819685936,-0.04833335429430008,-0.03288501873612404,-0.5610914826393127,-2.6837522983551025,6.787539958953857,0.29,-0.3,-0.13,283.57
1674319692.93861294,155241929,1,-1.59,-0.87,268.3,0.05213160812854767,-0.05151847004890442,-0.047702591866254807,-0.0283157080411911,-0.5610953569412231,-2.6834425926208496,6.786038398742676,0.29,-0.3,-0.13,283.57
1674319692.95860481,155261921,1,-1.59,-0.87,268.3,0.051897600293159485,-0.051115281879901886,-0.047398604452610016,-0.027418730780482292,-0.5613122582435608,-2.6830644607543945,6.785361289978027,0.29,-0.3,-0.13,283.57
1674319692.97853994,155281856,1,-1.59,-0.87,268.3,0.05230891332030296,-0.051235172897577286,-0.04735945910215378,-0.027217695489525795,-0.5608398914337158,-2.683453321456909,6.7845306396484375,0.29,-0.3,-0.13,283.57
1674319693.01856780,155321884,1,-1.6,-0.87,268.31,0.050992950797080994,-0.04984508827328682,-0.046927738934755325,-0.027993202209472656,-0.561556339263916,-2.6819725036621094,6.78335428237915,0.29,-0.3,-0.13,283.57
1674319693.05854583,155361862,1,-1.6,-0.87,268.31,0.049224771559238434,-0.0483991913497448,-0.04606611281633377,-0.024776672944426537,-0.5618348121643066,-2.6808524131774902,6.782272815704346,0.29,-0.3,-0.13,283.57
1674319693.09859991,155401916,1,-1.59,-0.87,268.31,0.047573838382959366,-0.04762254282832146,-0.04549666494131088,-0.022228755056858063,-0.5619274973869324,-2.6800575256347656,6.7810893058776855,0.29,-0.3,-0.13,283.57
1674319693.13863397,155441950,1,-1.59,-0.87,268.31,0.04732624068856239,-0.046580489724874496,-0.044692039489746094,-0.022806769236922264,-0.5618269443511963,-2.679551839828491,6.779749870300293,0.29,-0.3,-0.13,283.57
1674319693.15857482,155461891,1,-1.59,-0.87,268.31,0.047016650438308716,-0.04611709713935852,-0.04421175643801689,-0.02372502163052559,-0.5619603991508484,-2.679056406021118,6.779158115386963,0.29,-0.3,-0.13,283.57
1674319693.17860579,155481922,1,-1.59,-0.87,268.32,0.047467391937971115,-0.04625489562749863,-0.04413962364196777,-0.0250698272138834,-0.5615024566650391,-2.679333448410034,6.778402328491211,0.29,-0.3,-0.13,283.57
1674319693.21855879,155521875,1,-1.59,-0.87,268.32,0.04527272656559944,-0.04445779323577881,-0.043399710208177567,-0.02502494677901268,-0.5624188780784607,-2.677706241607666,6.778400421142578,0.29,-0.3,-0.13,283.57
1674319693.25856996,155561886,1,-1.6,-0.87,268.32,0.04249513894319534,-0.04288724809885025,-0.04211016371846199,-0.008334343321621418,-0.5631665587425232,-2.6764955520629883,6.778788089752197,0.29,-0.3,-0.13,283.57
1674319693.29860783,155601924,1,-1.59,-0.87,268.32,0.03974742442369461,-0.04159839078783989,-0.04073026403784752,0.006497110240161419,-0.5637678503990173,-2.675572156906128,6.778952598571777,0.29,-0.3,-0.13,283.57
1674319693.33859897,155641915,1,-1.59,-0.87,268.33,0.03824850544333458,-0.040535472333431244,-0.03998766839504242,0.01223055925220251,-0.564205527305603,-2.674928903579712,6.778846740722656,0.29,-0.3,-0.13,283.57
1674319693.35858798,155661904,1,-1.59,-0.87,268.33,0.037307802587747574,-0.04005240276455879,-0.039556439965963364,0.012494795955717564,-0.5646764039993286,-2.6743593215942383,6.778986930847168,0.29,-0.3,-0.13,283.57
1674319693.37861180,155681928,1,-1.59,-0.87,268.33,0.03693525865674019,-0.03991391509771347,-0.03935150429606438,0.011676706373691559,-0.5645333528518677,-2.674497604370117,6.778663158416748,0.29,-0.3,-0.13,283.57
1674319693.41855478,155721871,1,-1.59,-0.87,268.33,0.035144977271556854,-0.03754272311925888,-0.0384831428527832,0.008570977486670017,-0.5659082531929016,-2.6726560592651367,6.779117584228516,0.29,-0.3,-0.13,283.57
1674319693.45856595,155761882,1,-1.59,-0.87,268.34000000000003,0.03233984485268593,-0.03583786264061928,-0.03748263418674469,0.010399815626442432,-0.5669873356819153,-2.671116828918457,6.779311180114746,0.29,-0.3,-0.13,283.57
1674319693.49857378,155801890,1,-1.59,-0.87,268.34000000000003,0.02916281670331955,-0.03446246311068535,-0.03687315806746483,0.010737224481999874,-0.5679558515548706,-2.6698532104492188,6.7792158126831055,0.29,-0.3,-0.13,283.57
1674319693.53859282,155841909,1,-1.59,-0.87,268.35,0.027004333212971687,-0.033240415155887604,-0.03613360971212387,0.00553415110334754,-0.568817138671875,-2.668856620788574,6.778740406036377,0.29,-0.3,-0.13,283.57
1674319693.55856800,155861884,1,-1.59,-0.87,268.35,0.026226067915558815,-0.03245401009917259,-0.03573591262102127,0.0020116781815886497,-0.5694903135299683,-2.668100118637085,6.778629302978516,0.29,-0.3,-0.13,283.57
1674319693.57858086,155881897,1,-1.58,-0.87,268.35,0.02575058862566948,-0.03246506303548813,-0.03549094870686531,-0.001508966670371592,-0.5695452094078064,-2.6680848598480225,6.7782111167907715,0.29,-0.3,-0.13,283.57
1674319693.61861682,155921933,1,-1.58,-0.87,268.35,0.02304430864751339,-0.030330270528793335,-0.03419942408800125,-0.005548788234591484,-0.5712279677391052,-2.6661524772644043,6.778899669647217,0.29,-0.3,-0.13,283.57
1674319693.65855598,155961872,1,-1.59,-0.87,268.36,0.02050720527768135,-0.02881593257188797,-0.033076394349336624,0.005895739886909723,-0.5725437998771667,-2.664685010910034,6.779792785644531,0.29,-0.3,-0.13,283.57
1674319693.69857097,156001887,1,-1.59,-0.88,268.36,0.018104959279298782,-0.02732807584106922,-0.031900227069854736,0.01681828685104847,-0.5737428069114685,-2.6634745597839355,6.780464172363281,0.29,-0.3,-0.13,283.57
1674319693.73857284,156041889,1,-1.58,-0.87,268.36,0.01498422585427761,-0.026531709358096123,-0.030966242775321007,0.021165184676647186,-0.574853241443634,-2.6625051498413086,6.780910968780518,0.29,-0.3,-0.13,283.57
1674319693.75858092,156061897,1,-1.58,-0.88,268.37,0.013673449866473675,-0.025888847187161446,-0.03067614696919918,0.02095746248960495,-0.575632631778717,-2.6618239879608154,6.781320095062256,0.29,-0.3,-0.13,283.57
1674319693.77859688,156081913,1,-1.58,-0.88,268.37,0.013094780035316944,-0.02568896859884262,-0.030283447355031967,0.020206058397889137,-0.5758732557296753,-2.6617696285247803,6.7812018394470215,0.29,-0.3,-0.13,283.57
1674319693.81858087,156121897,1,-1.58,-0.88,268.37,0.01106416154652834,-0.023277468979358673,-0.02967081032693386,0.016100015491247177,-0.5774824619293213,-2.659581184387207,6.781946659088135,0.29,-0.3,-0.13,283.57
1674319693.85860395,156161920,1,-1.58,-0.88,268.37,0.009536884725093842,-0.02105804905295372,-0.02873522974550724,0.014474350959062576,-0.5786022543907166,-2.6575992107391357,6.782228946685791,0.29,-0.3,-0.13,283.57
1674319693.89853692,156201853,1,-1.58,-0.88,268.37,0.008041869848966599,-0.019057108089327812,-0.028186915442347527,0.012031082063913345,-0.5796118378639221,-2.6558592319488525,6.782402515411377,0.29,-0.3,-0.13,283.57
1674319693.93857694,156241893,1,-1.58,-0.89,268.38,0.006315161474049091,-0.01746954955160618,-0.027875589206814766,0.008467135019600391,-0.5805196762084961,-2.654336452484131,6.782450199127197,0.29,-0.3,-0.13,283.57
1674319693.95861483,156261931,1,-1.58,-0.89,268.38,0.005509846843779087,-0.016329893842339516,-0.027334043756127357,0.006726101506501436,-0.581108033657074,-2.653320074081421,6.782620429992676,0.29,-0.3,-0.13,283.57
1674319693.97859287,156281909,1,-1.57,-0.89,268.38,0.005370439495891333,-0.015969155356287956,-0.02736322022974491,0.004526101052761078,-0.5813249349594116,-2.653017044067383,6.782400608062744,0.29,-0.3,-0.13,283.57
1674319694.01860380,156321920,1,-1.57,-0.89,268.38,0.0038861853536218405,-0.014342994429171085,-0.02685929648578167,7.101102528395131e-05,-0.5824931263923645,-2.6507277488708496,6.782711982727051,0.29,-0.3,-0.13,283.57
1674319694.05861378,156361930,1,-1.57,-0.89,268.38,0.0038713254034519196,-0.012715975753962994,-0.02626662887632847,0.0004108548746444285,-0.5833204388618469,-2.6489593982696533,6.782845973968506,0.29,-0.31,-0.13,283.57
1674319694.09859991,156401916,1,-1.57,-0.89,268.38,0.0035706469789147377,-0.011276953853666782,-0.02573033608496189,0.0010798214934766293,-0.5840011835098267,-2.647425889968872,6.782801151275635,0.29,-0.3,-0.13,283.57
1674319694.13856578,156441882,1,-1.57,-0.89,268.39,0.0031457229051738977,-0.010662266984581947,-0.025385893881320953,-0.001190226641483605,-0.5845587253570557,-2.6461048126220703,6.782553195953369,0.29,-0.31,-0.13,283.57
1674319694.15858078,156461897,1,-1.57,-0.89,268.39,0.0022892949637025595,-0.010284528136253357,-0.024909215047955513,-0.0026506574358791113,-0.5848981738090515,-2.6452791690826416,6.7825212478637695,0.29,-0.31,-0.13,283.57
1674319694.17856693,156481883,1,-1.56,-0.89,268.39,0.0019382330356165767,-0.010234685614705086,-0.024784935638308525,-0.00431255204603076,-0.5850335359573364,-2.6450042724609375,6.7822489738464355,0.29,-0.31,-0.13,283.57
1674319694.21859193,156521908,1,-1.56,-0.89,268.39,0.0007545521366409957,-0.008717643097043037,-0.024200232699513435,-0.008034631609916687,-0.5860622525215149,-2.642843723297119,6.7819719314575195,0.29,-0.31,-0.13,283.57
1674319694.25860381,156561920,1,-1.56,-0.9,268.39,-0.0002904547145590186,-0.006836894899606705,-0.023727793246507645,-0.011061294004321098,-0.5870676636695862,-2.6409358978271484,6.781499862670898,0.29,-0.31,-0.13,283.57
1674319694.29861283,156601929,1,-1.56,-0.9,268.39,-0.0008315130835399032,-0.005898888222873211,-0.0234009250998497,-0.013475916348397732,-0.5879532098770142,-2.639261245727539,6.780905246734619,0.29,-0.31,-0.13,283.57
1674319694.33854485,156641861,1,-1.56,-0.9,268.39,-0.002147635444998741,-0.004735090304166079,-0.022903311997652054,-0.017249135300517082,-0.588742733001709,-2.637805461883545,6.780111789703369,0.29,-0.31,-0.13,283.57
1674319694.35859895,156661915,1,-1.55,-0.9,268.39,-0.002899235812947154,-0.004414461087435484,-0.02267054095864296,-0.019047221168875694,-0.5892166495323181,-2.6369149684906006,6.7797465324401855,0.29,-0.31,-0.13,283.57
1674319694.37856483,156681881,1,-1.55,-0.91,268.4,-0.0035187157336622477,-0.003898054361343384,-0.02252618782222271,-0.020568912848830223,-0.589474081993103,-2.636544704437256,6.779338836669922,0.29,-0.31,-0.13,283.57
1674319694.41856480,156721881,1,-1.55,-0.91,268.4,-0.004982561804354191,-0.0030018319375813007,-0.02146502211689949,-0.020598217844963074,-0.5903778672218323,-2.6344571113586426,6.779350280761719,0.29,-0.31,-0.13,283.57
1674319694.45859885,156761915,1,-1.54,-0.91,268.41,-0.005707122851163149,-0.0021892439108341932,-0.020684951916337013,-0.009801508858799934,-0.5910631418228149,-2.6327366828918457,6.779697418212891,0.29,-0.31,-0.13,283.57
1674319694.49859285,156801909,1,-1.54,-0.91,268.41,-0.0056363181211054325,-0.0017464188858866692,-0.020087238401174545,0.00011738784814951941,-0.5916663408279419,-2.63124418258667,6.7798027992248535,0.29,-0.31,-0.13,283.57
1674319694.53863692,156841953,1,-1.55,-0.91,268.41,-0.005923123098909855,-0.0010574866319075227,-0.019257202744483948,0.0028888338711112738,-0.5921880006790161,-2.629960298538208,6.779586315155029,0.29,-0.31,-0.13,283.57
1674319694.55859685,156861913,1,-1.54,-0.91,268.41,-0.005875663831830025,-0.0009611197165213525,-0.018881570547819138,0.0024354082997888327,-0.5924509763717651,-2.6292049884796143,6.779555797576904,0.29,-0.31,-0.13,283.57
1674319694.57853794,156881854,1,-1.54,-0.91,268.41,-0.006035300903022289,-0.0010884026996791363,-0.01870238408446312,0.0014198123244568706,-0.592628538608551,-2.6288704872131348,6.779346466064453,0.29,-0.31,-0.13,283.57
1674319694.61857486,156921891,1,-1.54,-0.92,268.42,-0.006984616629779339,-0.0009163037175312638,-0.017578283324837685,0.0014400146901607513,-0.5930174589157104,-2.6274049282073975,6.780377388000488,0.29,-0.31,-0.13,283.57
1674319694.65854883,156961865,1,-1.53,-0.92,268.42,-0.006686112843453884,-0.001019083778373897,-0.016658376902341843,0.01679048128426075,-0.5932789444923401,-2.6263582706451416,6.781763076782227,0.29,-0.31,-0.13,283.57
1674319694.69859982,157001916,1,-1.53,-0.92,268.43,-0.005904541816562414,-0.0015507086645811796,-0.015660658478736877,0.03053981438279152,-0.5934527516365051,-2.625525712966919,6.782982349395752,0.29,-0.31,-0.13,283.57
1674319694.73859692,157041913,1,-1.53,-0.93,268.43,-0.005487213376909494,-0.001867605373263359,-0.014898546040058136,0.03763493150472641,-0.5935401320457458,-2.624891519546509,6.784090518951416,0.29,-0.31,-0.13,283.57
1674319694.75856900,157061885,1,-1.53,-0.93,268.44,-0.004977503791451454,-0.002210642909631133,-0.014422638341784477,0.03887369483709335,-0.5935295820236206,-2.624556303024292,6.784826755523682,0.29,-0.31,-0.13,283.57
1674319694.77863193,157081948,1,-1.53,-0.93,268.44,-0.005196846090257168,-0.0026086491998285055,-0.014260373078286648,0.03868113085627556,-0.5935634970664978,-2.6244418621063232,6.785027027130127,0.29,-0.31,-0.13,283.57
1674319694.81854296,157121859,1,-1.53,-0.93,268.44,-0.005104115232825279,-0.002401376608759165,-0.012927154079079628,0.03767717629671097,-0.5936334133148193,-2.623628616333008,6.787178993225098,0.29,-0.31,-0.13,283.57
1674319694.85856891,157161885,1,-1.53,-0.93,268.44,-0.005418049171566963,-0.0031876086723059416,-0.01174924336373806,0.04774973541498184,-0.5938218832015991,-2.62296462059021,6.789228439331055,0.29,-0.31,-0.13,283.57
1674319694.89859891,157201915,1,-1.52,-0.93,268.44,-0.005436987616121769,-0.003940804861485958,-0.010860675945878029,0.054671354591846466,-0.5939638018608093,-2.6225080490112305,6.790840148925781,0.29,-0.31,-0.13,283.57
1674319694.93859196,157241908,1,-1.52,-0.93,268.45,-0.004498225636780262,-0.004383927211165428,-0.010212371125817299,0.05074489861726761,-0.5940306186676025,-2.622238874435425,6.791873455047607,0.29,-0.31,-0.13,283.57
1674319694.95857477,157261891,1,-1.52,-0.9400000000000001,268.45,-0.004265232477337122,-0.004625231493264437,-0.00963075552135706,0.04691186174750328,-0.5940062999725342,-2.62211012840271,6.792558193206787,0.29,-0.31,-0.13,283.57
1674319694.97862697,157281943,1,-1.52,-0.9400000000000001,268.45,-0.004264386836439371,-0.005120513495057821,-0.009421072900295258,0.042427320033311844,-0.5940272808074951,-2.6221132278442383,6.792788505554199,0.29,-0.31,-0.13,283.57
1674319695.01857781,157321894,1,-1.53,-0.9400000000000001,268.46,-0.004247903358191252,-0.005054194014519453,-0.008588665165007114,0.03202866017818451,-0.5936304926872253,-2.6216049194335938,6.793736934661865,0.29,-0.31,-0.13,283.57
1674319695.05857182,157361888,1,-1.52,-0.9400000000000001,268.46,-0.003979045432060957,-0.006148761138319969,-0.008061908185482025,0.0231012012809515,-0.593134880065918,-2.62111234664917,6.794297695159912,0.29,-0.31,-0.13,283.57
1674319695.09856486,157401881,1,-1.52,-0.9400000000000001,268.47,-0.003478849772363901,-0.006069580093026161,-0.007388819474726915,0.01641242578625679,-0.5926324129104614,-2.6208090782165527,6.794739246368408,0.29,-0.31,-0.13,283.57
1674319695.13860679,157441923,1,-1.51,-0.9400000000000001,268.47,-0.002220532391220331,-0.00625168951228261,-0.006921782158315182,0.01005642395466566,-0.5920817852020264,-2.620656967163086,6.7950119972229,0.29,-0.31,-0.13,283.57
1674319695.15854383,157461860,1,-1.51,-0.9400000000000001,268.47,-0.0011358300689607859,-0.005993944592773914,-0.006651869975030422,0.007372223772108555,-0.5916779637336731,-2.62058162689209,6.795207977294922,0.29,-0.31,-0.13,283.57
1674319695.17859983,157481916,1,-1.52,-0.9400000000000001,268.47,-0.0006806741585023701,-0.006203107535839081,-0.00607904652133584,0.005490534473210573,-0.5914765000343323,-2.620622396469116,6.795238971710205,0.29,-0.31,-0.13,283.57
1674319695.21861386,157521930,1,-1.52,-0.9400000000000001,268.48,2.5879282475216314e-05,-0.006462469231337309,-0.005511953495442867,0.0035736311692744493,-0.590984582901001,-2.6201283931732178,6.796473026275635,0.29,-0.31,-0.13,283.57
1674319695.25857091,157561887,1,-1.51,-0.9400000000000001,268.48,-0.0005741816712543368,-0.00676533579826355,-0.004206825979053974,0.016700902953743935,-0.5908585786819458,-2.6196062564849854,6.7980170249938965,0.29,-0.31,-0.13,283.57
1674319695.29857183,157601888,1,-1.51,-0.9400000000000001,268.49,-0.0010677342070266604,-0.007128464058041573,-0.003391469828784466,0.028389822691679,-0.5906655192375183,-2.6192619800567627,6.799314975738525,0.29,-0.31,-0.13,283.57
1674319695.33858490,157641901,1,-1.5,-0.9400000000000001,268.49,0.0009117000736296177,-0.008120362646877766,-0.0025418605655431747,0.03273119777441025,-0.5905163288116455,-2.6190574169158936,6.80031156539917,0.29,-0.31,-0.13,283.57
1674319695.35857987,157661896,1,-1.5,-0.9400000000000001,268.49,0.0024528854992240667,-0.008901810273528099,-0.0018262037774547935,0.03301586955785751,-0.5903107523918152,-2.61899471282959,6.800947666168213,0.29,-0.31,-0.13,283.57
1674319695.37860489,157681921,1,-1.49,-0.9500000000000001,268.5,2.7530586521606892e-06,-0.006795455701649189,-0.0021394984796643257,0.03164203464984894,-0.5902044177055359,-2.6190552711486816,6.801235675811768,0.29,-0.31,-0.13,283.57
1674319695.41857195,157721888,1,-1.5,-0.9500000000000001,268.51,0.0026583911385387182,-0.009232754819095135,-0.000736392627004534,0.029973022639751434,-0.5900382995605469,-2.618530750274658,6.8030266761779785,0.29,-0.31,-0.13,283.57
1674319695.45862293,157761939,1,-1.5,-0.9400000000000001,268.51,-8.250421524280682e-05,-0.0053400699980556965,-0.00040787761099636555,0.037383660674095154,-0.5899913311004639,-2.6180922985076904,6.80486536026001,0.29,-0.31,-0.13,283.57
1674319695.49854589,157801862,1,-1.5,-0.9400000000000001,268.5,0.0025285903830081224,-0.010915408842265606,0.001317111891694367,0.04481038823723793,-0.5898759961128235,-2.6177401542663574,6.806403636932373,0.29,-0.31,-0.13,283.57
1674319695.53856993,157841886,1,-1.5,-0.9500000000000001,268.5,0.0004041595966555178,-0.012146111577749252,0.000832339923363179,0.04245398938655853,-0.589753270149231,-2.6177139282226562,6.807546138763428,0.29,-0.31,-0.13,283.57
1674319695.55862594,157861942,1,-1.49,-0.9500000000000001,268.5,0.0003589687985368073,-0.0159115269780159,0.0024477439001202583,0.04142864793539047,-0.589681088924408,-2.617732286453247,6.808241367340088,0.29,-0.31,-0.13,283.57
1674319695.57859278,157881909,1,-1.49,-0.96,268.52,-0.0025365932378917933,-0.018368147313594818,0.0022067215759307146,0.03827150538563728,-0.5896613001823425,-2.6179909706115723,6.808600425720215,0.29,-0.31,-0.13,283.57
1674319695.61860681,157921923,1,-1.48,-0.96,268.53000000000003,0.0029617082327604294,-0.001428441028110683,0.004211719613522291,0.034402068704366684,-0.5894837975502014,-2.6178815364837646,6.81033992767334,0.29,-0.31,-0.13,283.57
1674319695.65861297,157961929,1,-1.47,-0.9500000000000001,268.49,0.012003513984382153,-0.0069089047610759735,0.0067746397107839584,0.03964769095182419,-0.5888360738754272,-2.6175756454467773,6.812108993530273,0.29,-0.31,-0.13,283.57
1674319695.69859600,158001912,1,-1.48,-0.9500000000000001,268.51,-0.002398165175691247,-0.026369474828243256,0.005418337415903807,0.041019506752491,-0.5883399248123169,-2.6180226802825928,6.813689708709717,0.29,-0.31,-0.13,283.57
1674319695.73857284,158041889,1,-1.51,-0.96,268.53000000000003,0.0045701139606535435,0.0003634304157458246,0.004673395771533251,0.03919467329978943,-0.588157594203949,-2.618577241897583,6.814981937408447,0.29,-0.31,-0.13,283.57
1674319695.75858879,158061905,1,-1.5,-0.97,268.49,0.013900215737521648,0.006049262825399637,0.008592547848820686,0.04136237874627113,-0.5877494812011719,-2.6184208393096924,6.815736293792725,0.29,-0.31,-0.13,283.57
1674319695.77857780,158081894,1,-1.5,-0.97,268.48,0.006149899214506149,-0.023671459406614304,0.00943030510097742,0.040329981595277786,-0.5874335169792175,-2.618537664413452,6.816231727600098,0.29,-0.31,-0.13,283.57
1674319695.81861377,158121930,1,-1.47,-0.97,268.54,0.015640748664736748,-0.02937634289264679,0.009101719595491886,0.033363696187734604,-0.5868818163871765,-2.6196327209472656,6.816981792449951,0.29,-0.31,-0.13,283.57
1674319695.85863090,158161947,1,-1.5,-0.99,268.51,-0.021668976172804832,-0.001886277925223112,0.003128455486148596,0.013691439293324947,-0.5859347581863403,-2.618769884109497,6.817047595977783,0.29,-0.31,-0.13,283.57
1674319695.89860988,158201926,1,-1.51,-1.01,268.49,0.0427105613052845,-0.03979048877954483,0.009950529783964157,0.008518178015947342,-0.5857218503952026,-2.6197705268859863,6.817073345184326,0.29,-0.31,-0.13,283.57
1674319695.93858695,158241903,1,-1.54,-0.99,268.54,-0.011598451063036919,-0.008812058717012405,0.013786560855805874,-0.0009080475429072976,-0.5848796367645264,-2.6193487644195557,6.816621780395508,0.29,-0.31,-0.13,283.57
1674319695.95861292,158261929,1,-1.53,-1.01,268.5,0.025564122945070267,-0.04962266609072685,0.013117240741848946,-0.00664241798222065,-0.5846131443977356,-2.6197619438171387,6.816365718841553,0.29,-0.31,-0.13,283.57
1674319695.97857189,158281888,1,-1.55,-1.0,268.46,0.030174313113093376,-0.01797722838819027,0.009165138937532902,-0.014629784040153027,-0.5838311910629272,-2.620396137237549,6.816347599029541,0.29,-0.31,-0.13,283.57
1674319696.01856184,158321878,1,-1.53,-0.99,268.5,-0.0046799215488135815,-0.011909164488315582,0.005950231570750475,-0.019301628693938255,-0.5840937495231628,-2.6192421913146973,6.816957473754883,0.29,-0.31,-0.13,283.57
1674319696.05860686,158361923,1,-1.51,-1.02,268.44,0.014282185584306717,-0.024307265877723694,0.01418621838092804,0.0047262986190617085,-0.5834778547286987,-2.618833541870117,6.818451881408691,0.29,-0.31,-0.13,283.57
1674319696.09859991,158401916,1,-1.5,-1.01,268.44,0.007118575274944305,0.008736880496144295,0.011840509250760078,0.01808100938796997,-0.5835790634155273,-2.6183974742889404,6.819667816162109,0.29,-0.31,-0.13,283.57
1674319696.13862085,158441937,1,-1.51,-1.01,268.41,0.020051587373018265,-0.044981930404901505,0.00871948804706335,0.021693527698516846,-0.5832688212394714,-2.617833375930786,6.820600986480713,0.29,-0.31,-0.13,283.57
1674319696.15859389,158461910,1,-1.52,-1.01,268.36,0.02355138584971428,-0.03301958739757538,0.014096513390541077,0.028013471513986588,-0.5828195810317993,-2.6181681156158447,6.821093559265137,0.29,-0.31,-0.13,283.57
1674319696.17854285,158481859,1,-1.51,-1.01,268.37,-0.0034714562352746725,0.007727113552391529,0.013435554690659046,0.02741868980228901,-0.5826123356819153,-2.6181552410125732,6.821552276611328,0.29,-0.31,-0.13,283.57
1674319696.21857285,158521889,1,-1.53,-1.03,268.35,0.03612296283245087,-0.03417958691716194,0.021599728614091873,0.03542456403374672,-0.5819553732872009,-2.6175501346588135,6.823331356048584,0.29,-0.31,-0.12,283.57
1674319696.25857091,158561887,1,-1.49,-1.03,268.34000000000003,-0.014037743210792542,-0.018594365566968918,0.02282153069972992,0.04843401163816452,-0.5805084705352783,-2.6179890632629395,6.82550048828125,0.29,-0.31,-0.12,283.57
1674319696.29860091,158601917,1,-1.5,-1.03,268.3,0.02919216826558113,-0.006371666677296162,0.026953045278787613,0.06220560893416405,-0.5792243480682373,-2.617685317993164,6.827348709106445,0.29,-0.31,-0.12,283.57
1674319696.33856177,158641878,1,-1.47,-1.04,268.27,0.00962867308408022,-0.03782689943909645,0.01780928112566471,0.0530511811375618,-0.5782084465026855,-2.6185457706451416,6.82869291305542,0.29,-0.31,-0.12,283.57
1674319696.35857487,158661891,1,-1.49,-1.03,268.24,0.028599252924323082,0.011038863100111485,0.025094065815210342,0.05807294696569443,-0.5773171186447144,-2.618547201156616,6.829564094543457,0.29,-0.31,-0.12,283.57
1674319696.37863398,158681950,1,-1.51,-1.03,268.25,0.01209113746881485,-0.00020727753872051835,0.01993846520781517,0.05030893534421921,-0.5766571164131165,-2.6181867122650146,6.830077171325684,0.29,-0.31,-0.12,283.57
1674319696.41855288,158721869,1,-1.53,-1.02,268.21,0.031050272285938263,-0.03625008836388588,0.017672203481197357,0.040110472589731216,-0.5757609605789185,-2.6187045574188232,6.831192493438721,0.29,-0.31,-0.12,283.57
1674319696.45857787,158761894,1,-1.52,-1.03,268.19,0.012639791704714298,-0.005966226104646921,0.01618368551135063,0.030540555715560913,-0.5755961537361145,-2.6184723377227783,6.832273483276367,0.29,-0.31,-0.12,283.57
1674319696.49854589,158801862,1,-1.51,-1.02,268.17,0.007061503827571869,-0.03318489342927933,0.017081020399928093,0.02533007599413395,-0.5750735402107239,-2.618590831756592,6.833248615264893,0.29,-0.31,-0.12,283.57
1674319696.53860688,158841923,1,-1.49,-1.02,268.13,0.03738785535097122,-0.010897120460867882,0.02608001045882702,0.028041303157806396,-0.5749012231826782,-2.619535207748413,6.834024906158447,0.29,-0.31,-0.12,283.57
1674319696.55857277,158861889,1,-1.5,-1.02,268.14,0.01611180417239666,-0.004624682012945414,0.016895297914743423,0.01613355241715908,-0.5744408369064331,-2.6193253993988037,6.834359169006348,0.29,-0.31,-0.12,283.57
1674319696.57861185,158881928,1,-1.5,-1.03,268.16,0.0025841828901320696,-0.040030915290117264,0.03244682028889656,0.02958555892109871,-0.5744396448135376,-2.6196060180664062,6.834834575653076,0.29,-0.31,-0.12,283.57
1674319696.61862397,158921940,1,-1.51,-1.03,268.09000000000003,0.029170028865337372,-0.017395474016666412,0.03397104889154434,0.028544465079903603,-0.5740945935249329,-2.6198184490203857,6.835816383361816,0.29,-0.31,-0.12,283.57
1674319696.65855289,158961869,1,-1.53,-1.04,268.08,0.022868569940328598,-0.020302509889006615,0.030478307977318764,0.027111049741506577,-0.5743894577026367,-2.619098424911499,6.836996555328369,0.29,-0.31,-0.12,283.57
1674319696.69857597,159001892,1,-1.54,-1.04,268.05,0.010051693767309189,-0.0416921004652977,0.018000712618231773,0.01727663353085518,-0.5744685530662537,-2.6188976764678955,6.838027477264404,0.29,-0.31,-0.12,283.57
1674319696.73859882,159041915,1,-1.51,-1.07,268.02,0.01055100653320551,-0.009665117599070072,0.02365737035870552,0.022565962746739388,-0.574323832988739,-2.6187591552734375,6.838990688323975,0.29,-0.31,-0.12,283.57
1674319696.75855899,159061875,1,-1.49,-1.05,268.04,0.006635293364524841,-0.025743428617715836,0.024429164826869965,0.022590385749936104,-0.5746444463729858,-2.6183745861053467,6.839473724365234,0.29,-0.31,-0.12,283.57
1674319696.77860785,159081924,1,-1.49,-1.06,268.0,0.03269732743501663,-0.032224297523498535,0.012181047350168228,0.009644242003560066,-0.5743738412857056,-2.618690013885498,6.839957237243652,0.29,-0.31,-0.12,283.57
1674319696.81861496,159121931,1,-1.51,-1.06,267.98,0.015619836747646332,-0.029175540432333946,0.027720019221305847,0.023066528141498566,-0.5746700167655945,-2.617957353591919,6.840871334075928,0.29,-0.31,-0.12,283.57
1674319696.85857797,159161894,1,-1.52,-1.06,267.99,0.02154948003590107,-0.02090475894510746,0.028270678594708443,0.023291297256946564,-0.5747932195663452,-2.616460084915161,6.841905117034912,0.29,-0.31,-0.12,283.57
1674319696.89857483,159201891,1,-1.52,-1.07,267.93,0.016891920939087868,-0.024594662711024284,0.03915711119771004,0.03455191105604172,-0.5749156475067139,-2.616471290588379,6.842799186706543,0.29,-0.31,-0.12,283.57
1674319696.93857098,159241887,1,-1.52,-1.06,267.91,0.0362335741519928,-0.015501122921705246,0.026967303827404976,0.019299959763884544,-0.5751217007637024,-2.6153957843780518,6.8434906005859375,0.29,-0.31,-0.12,283.57
1674319696.95861077,159261927,1,-1.51,-1.07,267.9,0.013198893517255783,-0.04010491073131561,0.03233576938509941,0.022885477170348167,-0.5750095248222351,-2.6151492595672607,6.843860149383545,0.29,-0.31,-0.12,283.57
1674319696.97861290,159281929,1,-1.52,-1.07,267.88,0.006229802966117859,-0.03217722475528717,0.03815801814198494,0.0273843165487051,-0.5750901699066162,-2.615607261657715,6.844244956970215,0.29,-0.31,-0.12,283.57
1674319697.01858997,159321906,1,-1.52,-1.07,267.87,0.01817960850894451,-0.030352342873811722,0.03138790652155876,0.018799442797899246,-0.5750232934951782,-2.613823175430298,6.845144271850586,0.29,-0.31,-0.11,283.57
1674319697.05857396,159361890,1,-1.5,-1.09,267.84000000000003,0.006669890135526657,-0.0068060713820159435,0.03162884712219238,0.022776897996664047,-0.5745641589164734,-2.613455295562744,6.846424579620361,0.29,-0.31,-0.11,283.57
1674319697.09855580,159401872,1,-1.53,-1.08,267.8,0.03782935068011284,-0.04313762113451958,0.028972452506422997,0.024180762469768524,-0.5738601684570312,-2.6126151084899902,6.847615718841553,0.29,-0.31,-0.11,283.57
1674319697.13855195,159441868,1,-1.52,-1.09,267.79,0.022240126505494118,-0.011138792149722576,0.015563161112368107,0.009501087479293346,-0.5733909010887146,-2.6121206283569336,6.84841251373291,0.29,-0.31,-0.11,283.57
1674319697.15862393,159461940,1,-1.53,-1.1,267.77,0.010517258197069168,-0.04429924860596657,0.03294365853071213,0.025631312280893326,-0.5730985999107361,-2.611760139465332,6.848751544952393,0.29,-0.31,-0.11,283.57
1674319697.17857099,159481887,1,-1.52,-1.11,267.75,0.017301207408308983,-0.026954717934131622,0.03012092038989067,0.021479407325387,-0.5726778507232666,-2.612234592437744,6.849322319030762,0.29,-0.31,-0.11,283.57
1674319697.21861100,159521927,1,-1.5,-1.1,267.71,0.037055227905511856,-0.03146132081747055,0.03470814973115921,0.02192731574177742,-0.5727601647377014,-2.6113295555114746,6.84982442855835,0.29,-0.31,-0.11,283.57
1674319697.25861979,159561936,1,-1.49,-1.12,267.67,0.03580215573310852,-0.021686909720301628,0.03667672351002693,0.022525504231452942,-0.5731342434883118,-2.611374616622925,6.850800514221191,0.29,-0.31,-0.11,283.57
1674319697.29860997,159601926,1,-1.46,-1.12,267.64,0.019523773342370987,-0.022542379796504974,0.02319181151688099,0.010093796998262405,-0.5730531811714172,-2.6113498210906982,6.851848125457764,0.29,-0.31,-0.11,283.57
1674319697.33854485,159641861,1,-1.46,-1.1300000000000001,267.6,0.031981173902750015,-0.02092716284096241,0.03649861365556717,0.022335492074489594,-0.5730257034301758,-2.6117422580718994,6.85263204574585,0.29,-0.31,-0.11,283.57
1674319697.35859799,159661914,1,-1.49,-1.12,267.59000000000003,0.013558691367506981,-0.02379765175282955,0.00391016062349081,-0.010676730424165726,-0.5730765461921692,-2.6115870475769043,6.852983474731445,0.29,-0.31,-0.11,283.57
1674319697.37857699,159681893,1,-1.47,-1.1300000000000001,267.57,0.03569396212697029,-0.0383802093565464,0.0393652468919754,0.024374142289161682,-0.5728013515472412,-2.6120147705078125,6.853531360626221,0.29,-0.31,-0.11,283.57
1674319697.41860294,159721919,1,-1.5,-1.1500000000000001,267.54,0.047338876873254776,-0.027293171733617783,0.03723311796784401,0.02092711813747883,-0.573288083076477,-2.61181378364563,6.854150772094727,0.29,-0.31,-0.11,283.57
1674319697.45860291,159761919,1,-1.49,-1.1,267.5,0.029398903250694275,-0.032137736678123474,0.032960109412670135,0.016750138252973557,-0.5736090540885925,-2.611743211746216,6.8552470207214355,0.29,-0.31,-0.11,283.57
1674319697.49862385,159801940,1,-1.51,-1.09,267.47,0.00575180072337389,-0.021690795198082924,0.022121137008070946,0.006734893191605806,-0.5738298892974854,-2.6116151809692383,6.856060028076172,0.29,-0.31,-0.11,283.57
1674319697.53859782,159841914,1,-1.52,-1.09,267.42,0.038751665502786636,-0.022836819291114807,0.04095175862312317,0.019102007150650024,-0.5740064978599548,-2.6118733882904053,6.856379508972168,0.29,-0.31,-0.1,283.57
1674319697.55860686,159861923,1,-1.55,-1.09,267.37,0.037011146545410156,-0.015098604373633862,0.02668900229036808,0.0016950806602835655,-0.5742299556732178,-2.611826181411743,6.85629415512085,0.29,-0.31,-0.1,283.57
1674319697.57858396,159881900,1,-1.46,-1.08,267.37,0.0143275186419487,-0.028558773919939995,0.06331591308116913,0.03535344824194908,-0.573909342288971,-2.6121716499328613,6.856849193572998,0.29,-0.31,-0.1,283.57
1674319697.61857080,159921887,1,-1.48,-1.08,267.32,0.03117920458316803,-0.02252194657921791,0.05914974585175514,0.02613089419901371,-0.574250340461731,-2.612107753753662,6.8567070960998535,0.29,-0.31,-0.1,283.57
1674319697.65859890,159961915,1,-1.53,-1.08,267.29,0.03617991507053375,-0.04518565908074379,0.03504795581102371,-0.0005965690361335874,-0.5741205215454102,-2.6120312213897705,6.857242107391357,0.29,-0.31,-0.1,283.57
1674319697.69861293,160001929,1,-1.43,-1.12,267.24,0.03991679474711418,-0.04960434138774872,0.02199988067150116,-0.013397658243775368,-0.5738004446029663,-2.61234974861145,6.857549667358398,0.29,-0.31,-0.1,283.57
1674319697.73862481,160041941,1,-1.52,-1.1400000000000001,267.2,0.032759252935647964,-0.042598847299814224,0.07566411793231964,0.03630442172288895,-0.5733828544616699,-2.6127829551696777,6.85759162902832,0.29,-0.31,-0.1,283.57
1674319697.75856090,160061877,1,-1.49,-1.1400000000000001,267.17,0.02915644645690918,-0.03221774473786354,0.03888264298439026,-0.0021679657511413097,-0.5733659863471985,-2.6128969192504883,6.857511043548584,0.29,-0.31,-0.1,283.57
1674319697.77854896,160081865,1,-1.43,-1.1500000000000001,267.15,0.025509830564260483,-0.026204200461506844,0.05524756386876106,0.013476541265845299,-0.5729718804359436,-2.6133294105529785,6.857903957366943,0.29,-0.31,-0.1,283.57
1674319697.81857300,160121889,1,-1.43,-1.11,267.1,0.02292054332792759,-0.031118178740143776,0.037172574549913406,-0.009965303353965282,-0.57353675365448,-2.613054037094116,6.856096267700195,0.29,-0.31,-0.1,283.57
1674319697.85855293,160161869,1,-1.48,-1.1400000000000001,267.09000000000003,0.02483241632580757,-0.03743622824549675,0.077256940305233,0.011866430751979351,-0.5740712285041809,-2.612842321395874,6.854784965515137,0.29,-0.31,-0.1,283.57
1674319697.89859986,160201916,1,-1.46,-1.11,267.04,0.035003479570150375,-0.015528327785432339,0.056994203478097916,-0.020828133448958397,-0.5741982460021973,-2.6126761436462402,6.853489875793457,0.3,-0.31,-0.1,283.57
1674319697.93857980,160241896,1,-1.45,-1.1,266.96,0.04635251685976982,-0.030888140201568604,0.0379062257707119,-0.05253574997186661,-0.5741776823997498,-2.612605333328247,6.851588249206543,0.29,-0.31,-0.1,283.57
1674319697.95857286,160261889,1,-1.5,-1.12,266.95,0.038277555257081985,-0.0361262783408165,0.03900234028697014,-0.05522466078400612,-0.5742865800857544,-2.612501382827759,6.850357532501221,0.3,-0.31,-0.1,283.57
1674319697.97864294,160281959,1,-1.3900000000000001,-1.11,266.92,0.03485235944390297,-0.027218027040362358,0.023002328351140022,-0.07275177538394928,-0.5740829110145569,-2.6127371788024902,6.850219249725342,0.29,-0.31,-0.1,283.57
1674319698.01859379,160321910,1,-1.42,-1.06,266.89,0.029240181669592857,-0.03170017525553703,0.0485348179936409,-0.0485139824450016,-0.5747179388999939,-2.611147165298462,6.846804618835449,0.29,-0.31,-0.09,283.57
1674319698.05855989,160361876,1,-1.44,-1.1,266.85,0.014702272601425648,-0.03478780761361122,0.038878973573446274,-0.07018246501684189,-0.5749756693840027,-2.6095287799835205,6.844408988952637,0.3,-0.31,-0.09,283.57
1674319698.09858584,160401902,1,-1.5,-1.09,266.82,0.01529675628989935,-0.0405646413564682,0.018251435831189156,-0.09595347940921783,-0.574910044670105,-2.6082913875579834,6.842040061950684,0.3,-0.31,-0.09,283.57
1674319698.13861299,160441929,1,-1.48,-1.11,266.77,0.03344004601240158,-0.03887287899851799,0.02435862459242344,-0.09578549116849899,-0.5745345950126648,-2.6074366569519043,6.839287281036377,0.29,-0.31,-0.09,283.57
1674319698.15856385,160461880,1,-1.54,-1.1300000000000001,266.76,0.028472797945141792,-0.04095664247870445,0.04634390026330948,-0.07475613802671432,-0.5744262337684631,-2.606801986694336,6.837613582611084,0.3,-0.31,-0.09,283.57
1674319698.17862177,160481938,1,-1.56,-1.09,266.74,0.03161677345633507,-0.03335367888212204,0.058805614709854126,-0.06144667789340019,-0.5740364789962769,-2.606835126876831,6.83724308013916,0.29,-0.31,-0.09,283.57
1674319698.21862793,160521944,1,-1.6500000000000001,-1.12,266.68,0.031076153740286827,-0.03201107680797577,0.013116863556206226,-0.10191944241523743,-0.5738637447357178,-2.605400562286377,6.834304332733154,0.3,-0.31,-0.09,283.57
1674319698.25855684,160561873,1,-1.46,-1.11,266.64,0.028139451518654823,-0.024280322715640068,0.05760711804032326,-0.045235492289066315,-0.573390007019043,-2.604473352432251,6.833170413970947,0.3,-0.31,-0.09,283.57
1674319698.29857492,160601891,1,-1.3900000000000001,-1.12,266.59000000000003,0.05440864339470863,-0.025722434744238853,0.08744479715824127,-0.0007971460581757128,-0.5728802680969238,-2.603693723678589,6.8318190574646,0.3,-0.31,-0.09,283.57
1674319698.33857298,160641889,1,-1.37,-1.1,266.55,0.04173079505562782,-0.028620457276701927,0.0223864633589983,-0.06729619204998016,-0.5719576478004456,-2.603018283843994,6.829537868499756,0.3,-0.31,-0.09,283.57
1674319698.35855079,160661867,1,-1.4000000000000001,-1.06,266.54,0.0566614493727684,-0.021372830495238304,0.05953304469585419,-0.03196553513407707,-0.5715441107749939,-2.6025333404541016,6.827899932861328,0.3,-0.31,-0.09,283.57
1674319698.37859893,160681915,1,-1.52,-1.07,266.52,0.030067093670368195,-0.036201559007167816,0.0009156322339549661,-0.0919615849852562,-0.5708099007606506,-2.6024951934814453,6.827600955963135,0.3,-0.31,-0.09,283.57
1674319698.41862392,160721940,1,-1.54,-1.07,266.47,0.04520562291145325,-0.017716990783810616,0.07901589572429657,-0.013938146643340588,-0.5699447989463806,-2.6010611057281494,6.8248443603515625,0.3,-0.31,-0.09,283.57
1674319698.45859790,160761914,1,-1.62,-1.05,266.43,0.07722059637308121,-0.032381799072027206,0.12084748595952988,0.035019293427467346,-0.5691824555397034,-2.6001694202423096,6.823933124542236,0.3,-0.31,-0.09,283.57
1674319698.49857283,160801889,1,-1.75,-1.01,266.39,0.03843817487359047,-0.03044821135699749,0.04875737428665161,-0.027938323095440865,-0.5683457851409912,-2.5997414588928223,6.822531223297119,0.3,-0.31,-0.09,283.57
1674319698.53856993,160841886,1,-1.33,-1.11,266.36,0.05247531458735466,-0.043333664536476135,0.008501166477799416,-0.07357412576675415,-0.5672135353088379,-2.599747657775879,6.82030725479126,0.3,-0.31,-0.08,283.57
1674319698.55861282,160861929,1,-1.57,-1.08,266.31,0.07616987824440002,-0.04959229752421379,0.08469249308109283,-0.00089561304775998,-0.5665991902351379,-2.5997040271759033,6.818714618682861,0.3,-0.31,-0.08,283.57
1674319698.57861781,160881934,1,-1.6500000000000001,-1.04,266.3,0.08436843752861023,-0.04813455790281296,0.050140637904405594,-0.03868686780333519,-0.5656192302703857,-2.600123405456543,6.818291664123535,0.3,-0.31,-0.08,283.57
1674319698.61861277,160921929,1,-1.48,-1.1300000000000001,266.27,0.09205197542905807,-0.03987884521484375,0.0914602279663086,-0.009911793284118176,-0.5650019645690918,-2.5999908447265625,6.812227725982666,0.3,-0.31,-0.08,283.57
1674319698.65861797,160961934,1,-1.58,-1.11,266.23,0.07519528269767761,-0.039413321763277054,-0.042169682681560516,-0.1801520437002182,-0.5642426609992981,-2.600107192993164,6.806945323944092,0.3,-0.31,-0.08,283.57
1674319698.69856381,161001880,1,-1.59,-1.1,266.19,0.0689716562628746,-0.038868315517902374,0.004358998034149408,-0.16204087436199188,-0.5629832744598389,-2.60026478767395,6.801976680755615,0.3,-0.31,-0.08,283.57
1674319698.73857594,161041892,1,-1.67,-1.05,266.15,0.07076596468687057,-0.031148862093687057,0.01594439148902893,-0.1698278933763504,-0.5615858435630798,-2.6005115509033203,6.796382427215576,0.3,-0.31,-0.08,283.57
1674319698.75864196,161061958,1,-1.48,-1.08,266.14,0.06371946632862091,-0.04415086284279823,0.06375721842050552,-0.12565572559833527,-0.5610440969467163,-2.600579261779785,6.792713165283203,0.3,-0.31,-0.08,283.57
1674319698.77856779,161081884,1,-1.68,-1.03,266.09000000000003,0.07807471603155136,-0.05025336518883705,0.014450516551733017,-0.1767805516719818,-0.5598008632659912,-2.6010167598724365,6.7912397384643555,0.3,-0.31,-0.08,283.57
1674319698.81860185,161121918,1,-1.5,-1.05,266.06,0.12814827263355255,-0.04664028063416481,0.006422231439501047,-0.18582947552204132,-0.5580595135688782,-2.6016387939453125,6.782980918884277,0.3,-0.31,-0.08,283.57
1674319698.85856700,161161883,1,-1.44,-1.04,266.0,0.13404794037342072,-0.056415390223264694,0.017756162211298943,-0.1874249428510666,-0.5580846667289734,-2.6006224155426025,6.775794506072998,0.3,-0.31,-0.08,283.57
1674319698.89862084,161201937,1,-1.3900000000000001,-1.02,265.96,0.07450735569000244,-0.044162899255752563,-0.004975327290594578,-0.22138865292072296,-0.5576413869857788,-2.6000518798828125,6.769113540649414,0.3,-0.31,-0.08,283.57
1674319698.93857479,161241891,1,-1.7,-0.98,265.93,0.08445794880390167,-0.03335370495915413,0.03593431040644646,-0.18654729425907135,-0.557041347026825,-2.5998945236206055,6.762481212615967,0.3,-0.31,-0.08,283.57
1674319698.95860696,161261923,1,-1.6,-0.98,265.89,0.12391132861375809,-0.04020953178405762,0.07910723984241486,-0.14120914041996002,-0.557050883769989,-2.5996668338775635,6.75841760635376,0.3,-0.31,-0.08,283.57
1674319698.97858095,161281897,1,-1.46,-1.05,265.88,0.15455853939056396,-0.056645918637514114,0.03383399546146393,-0.18159715831279755,-0.556013822555542,-2.6001815795898438,6.7567057609558105,0.3,-0.31,-0.08,283.57
1674319699.01860595,161321922,1,-1.32,-1.12,265.84000000000003,0.07270023226737976,-0.05416588857769966,0.02006756328046322,-0.18615028262138367,-0.5563521981239319,-2.599782943725586,6.74752140045166,0.3,-0.31,-0.07,283.57
1674319699.05862093,161361937,1,-1.48,-1.1300000000000001,265.83,0.10230574756860733,-0.06284089386463165,0.019962720572948456,-0.1836896389722824,-0.5558345913887024,-2.5999529361724854,6.741562843322754,0.3,-0.31,-0.07,283.57
1674319699.09861779,161401934,1,-1.42,-1.1500000000000001,265.78000000000003,0.13561584055423737,-0.06962553411722183,-0.0032597084064036608,-0.1966930329799652,-0.5546883940696716,-2.6004507541656494,6.735656261444092,0.3,-0.31,-0.07,283.57
1674319699.13860393,161441920,1,-1.6,-1.12,265.74,0.128489151597023,-0.0536932647228241,0.04649997875094414,-0.1440196931362152,-0.5531378388404846,-2.6011412143707275,6.729425430297852,0.3,-0.31,-0.07,283.57
1674319699.15860295,161461919,1,-1.53,-1.16,265.7,0.12316128611564636,-0.052011970430612564,-0.00028432541876100004,-0.18771180510520935,-0.5526442527770996,-2.6013383865356445,6.725529193878174,0.3,-0.31,-0.07,283.57
1674319699.17856598,161481882,1,-1.58,-1.11,265.69,0.08033937215805054,-0.03483085334300995,0.04523646831512451,-0.13815155625343323,-0.5514326095581055,-2.6020023822784424,6.723881721496582,0.3,-0.31,-0.07,283.57
1674319699.21857190,161521888,1,-1.51,-1.11,265.65,0.1189960241317749,-0.03545821085572243,0.04132610186934471,-0.13528528809547424,-0.5523887872695923,-2.6012704372406006,6.715700149536133,0.3,-0.31,-0.07,283.57
1674319699.25860691,161561923,1,-1.67,-1.08,265.58,0.08903629332780838,-0.029093317687511444,0.018656443804502487,-0.1550501137971878,-0.5531630516052246,-2.6004974842071533,6.71044397354126,0.3,-0.31,-0.07,283.57
1674319699.29860783,161601924,1,-1.4000000000000001,-1.16,265.54,0.07538807392120361,-0.07384127378463745,-0.000646096421405673,-0.16332146525382996,-0.5533944368362427,-2.60003662109375,6.705141067504883,0.3,-0.31,-0.07,283.57
1674319699.33863878,161641955,1,-1.52,-1.17,265.53000000000003,0.1163535788655281,-0.07006972283124924,0.025422798469662666,-0.13999639451503754,-0.5533795356750488,-2.599954605102539,6.699065208435059,0.3,-0.31,-0.07,283.57
1674319699.35856986,161661886,1,-1.52,-1.1500000000000001,265.49,0.09302908927202225,-0.05114918574690819,0.01603538915514946,-0.15007664263248444,-0.5536759495735168,-2.599705934524536,6.695362567901611,0.3,-0.31,-0.07,283.57
1674319699.37856793,161681884,1,-1.52,-1.16,265.47,0.11584213376045227,-0.05006483197212219,0.028277236968278885,-0.1368141770362854,-0.5527316927909851,-2.6002461910247803,6.693917751312256,0.3,-0.31,-0.07,283.57
1674319699.41857290,161721889,1,-1.5,-1.1300000000000001,265.42,0.07243304699659348,-0.04341787472367287,0.036729298532009125,-0.12489946186542511,-0.5527009963989258,-2.600371837615967,6.68612003326416,0.3,-0.31,-0.07,283.57
1674319699.45856190,161761878,1,-1.3800000000000001,-1.18,265.37,0.10227233916521072,-0.04973834753036499,-0.0012793494388461113,-0.1679399162530899,-0.5525673031806946,-2.5997300148010254,6.680243968963623,0.3,-0.31,-0.07,283.57
1674319699.49859977,161801916,1,-1.52,-1.1500000000000001,265.31,0.09909404814243317,-0.05377202108502388,0.030022218823432922,-0.137624129652977,-0.5520374774932861,-2.599355697631836,6.674402713775635,0.3,-0.31,-0.07,283.57
1674319699.53858089,161841897,1,-1.44,-1.17,265.3,0.056743573397397995,-0.07298440486192703,0.01603790931403637,-0.15903280675411224,-0.5511634945869446,-2.599195718765259,6.668072700500488,0.3,-0.31,-0.06,283.57
1674319699.55857182,161861888,1,-1.41,-1.25,265.29,0.09534740447998047,-0.08208562433719635,0.031112119555473328,-0.14577698707580566,-0.5510660409927368,-2.598794937133789,6.664275646209717,0.3,-0.31,-0.06,283.57
1674319699.57862091,161881937,1,-1.44,-1.23,265.26,0.0843951478600502,-0.07571646571159363,0.036936886608600616,-0.13835889101028442,-0.550106406211853,-2.5991289615631104,6.662634372711182,0.3,-0.31,-0.06,283.57
1674319699.61859488,161921911,1,-1.55,-1.2,265.23,0.12200943380594254,-0.0504261739552021,-0.026898520067334175,-0.20104141533374786,-0.5510464310646057,-2.597750425338745,6.653588771820068,0.3,-0.31,-0.06,283.57
1674319699.65857697,161961893,1,-1.48,-1.1400000000000001,265.17,0.0898837074637413,-0.03994125500321388,0.023177532479166985,-0.1620144546031952,-0.5518922209739685,-2.596776247024536,6.647032737731934,0.3,-0.31,-0.06,283.57
1674319699.69857287,162001889,1,-1.43,-1.1500000000000001,265.1,0.09781211614608765,-0.031663961708545685,-0.0161450132727623,-0.20294080674648285,-0.5523487329483032,-2.596177816390991,6.640872478485107,0.3,-0.31,-0.06,283.57
1674319699.73860097,162041917,1,-1.53,-1.17,265.07,0.1287120282649994,-0.05181201547384262,-0.012243486009538174,-0.20160707831382751,-0.5522961616516113,-2.595916271209717,6.6343560218811035,0.3,-0.31,-0.06,283.57
1674319699.75858378,162061900,1,-1.45,-1.1500000000000001,265.05,0.08721862733364105,-0.03433164581656456,-0.015306846238672733,-0.2034505307674408,-0.5526049137115479,-2.595545768737793,6.6303935050964355,0.3,-0.31,-0.06,283.57
1674319699.77861285,162081929,1,-1.55,-1.11,265.03000000000003,0.07760874181985855,-0.017136676236987114,0.022348742932081223,-0.16211172938346863,-0.5518546104431152,-2.5958657264709473,6.628656387329102,0.3,-0.31,-0.06,283.57
1674319699.81863284,162121949,1,-1.45,-1.1500000000000001,264.95,0.09376220405101776,-0.021736091002821922,-0.037907082587480545,-0.2147057205438614,-0.5528527498245239,-2.5944437980651855,6.619622230529785,0.3,-0.31,-0.06,283.57
1674319699.85854483,162161861,1,-1.61,-1.17,264.93,0.126626119017601,-0.041758473962545395,-0.009965944103896618,-0.19557583332061768,-0.5530121326446533,-2.5934441089630127,6.612812042236328,0.3,-0.31,-0.06,283.57
1674319699.89857292,162201889,1,-1.5,-1.16,264.89,0.0723365843296051,-0.05004572495818138,-0.008172453381121159,-0.1952867954969406,-0.5524808168411255,-2.5932199954986572,6.606084823608398,0.3,-0.31,-0.06,283.57
1674319699.93862391,162241940,1,-1.6,-1.18,264.86,0.10633889585733414,-0.08089569211006165,0.017329182475805283,-0.1783527135848999,-0.5516371726989746,-2.5936198234558105,6.598748207092285,0.3,-0.31,-0.06,283.57
1674319699.95856094,162261877,1,-1.54,-1.2,264.81,0.10047216713428497,-0.081117644906044,-0.003517138073220849,-0.20069707930088043,-0.5515246987342834,-2.593632936477661,6.594244480133057,0.3,-0.31,-0.06,283.57
1674319699.97860384,162281920,1,-1.41,-1.22,264.81,0.06162763014435768,-0.06926979124546051,0.020567486062645912,-0.17607946693897247,-0.5505503416061401,-2.5942556858062744,6.592162609100342,0.3,-0.31,-0.06,283.57
1674319700.01861787,162321934,1,-1.57,-1.25,264.77,0.09116807579994202,-0.06393289566040039,0.008213004097342491,-0.1795392781496048,-0.5521699786186218,-2.5934414863586426,6.583856105804443,0.3,-0.31,-0.05,283.57
1674319700.05859780,162361914,1,-1.26,-1.21,264.7,0.08954748511314392,-0.05890697240829468,-0.02655196003615856,-0.20372453331947327,-0.5532895922660828,-2.592927932739258,6.578461170196533,0.3,-0.31,-0.05,283.57
1674319700.09857297,162401889,1,-1.58,-1.24,264.65,0.05824172869324684,-0.02758508175611496,0.010750887915492058,-0.14977051317691803,-0.5540299415588379,-2.5924675464630127,6.573017597198486,0.3,-0.31,-0.05,283.57
1674319700.13857198,162441888,1,-1.68,-1.18,264.62,0.05603020265698433,-0.04423746466636658,0.027112377807497978,-0.12611158192157745,-0.5542068481445312,-2.5923240184783936,6.5671796798706055,0.3,-0.31,-0.05,283.57
1674319700.15862989,162461946,1,-1.55,-1.22,264.59000000000003,0.10030003637075424,-0.0491727739572525,0.035771433264017105,-0.11345461010932922,-0.5546566247940063,-2.592094659805298,6.563716411590576,0.3,-0.31,-0.05,283.57
1674319700.17860699,162481923,1,-1.51,-1.23,264.6,0.11201968044042587,-0.059972502291202545,0.0033169498201459646,-0.141225665807724,-0.5539454221725464,-2.5926318168640137,6.562051296234131,0.3,-0.31,-0.05,283.57
1674319700.21861291,162521929,1,-1.42,-1.23,264.57,0.10624716430902481,-0.060049280524253845,-0.039289187639951706,-0.17663148045539856,-0.5542460083961487,-2.5929806232452393,6.554125785827637,0.3,-0.31,-0.05,283.57
1674319700.25861788,162561934,1,-1.52,-1.25,264.53000000000003,0.1179598793387413,-0.08104681223630905,-0.0115737896412611,-0.14912351965904236,-0.554820716381073,-2.5924835205078125,6.549160003662109,0.3,-0.31,-0.05,283.57
1674319700.29859781,162601914,1,-1.59,-1.21,264.46,0.09099695831537247,-0.07710034400224686,-0.0623881034553051,-0.19175010919570923,-0.55491703748703,-2.5923879146575928,6.544280052185059,0.3,-0.31,-0.05,283.57
1674319700.33857489,162641891,1,-1.52,-1.23,264.39,0.1062641590833664,-0.061626385897397995,0.011802981607615948,-0.1173756793141365,-0.5544099807739258,-2.5925819873809814,6.538623332977295,0.3,-0.31,-0.05,283.57
1674319700.35860991,162661926,1,-1.74,-1.29,264.35,0.10424493998289108,-0.06628339737653732,0.05366726592183113,-0.07475342601537704,-0.5543048977851868,-2.592402696609497,6.535433769226074,0.3,-0.31,-0.05,283.57
1674319700.37856388,162681880,1,-1.72,-1.23,264.32,0.12356191128492355,-0.06189446151256561,0.00011649684893200174,-0.12680046260356903,-0.5530747771263123,-2.5929675102233887,6.533819198608398,0.3,-0.31,-0.05,283.57
1674319700.41860580,162721922,1,-1.6500000000000001,-1.23,264.27,0.08237963914871216,-0.05380125716328621,-0.012705765664577484,-0.13160720467567444,-0.5529031753540039,-2.592567205429077,6.52855110168457,0.3,-0.31,-0.05,283.57
1674319700.45859289,162761909,1,-1.6300000000000001,-1.25,264.26,0.11074008047580719,-0.05400845780968666,0.04062872752547264,-0.057093843817710876,-0.5521119832992554,-2.592787742614746,6.525710105895996,0.3,-0.31,-0.05,283.57
1674319700.49857283,162801889,1,-1.51,-1.23,264.25,0.09524864703416824,-0.06695207953453064,-0.014690017327666283,-0.08937197923660278,-0.5509681701660156,-2.593242883682251,6.522607803344727,0.3,-0.31,-0.05,283.57
1674319700.53856587,162841882,1,-1.5,-1.22,264.22,0.09255477041006088,-0.05231066420674324,-0.030498486012220383,-0.09795673191547394,-0.5495673418045044,-2.5940065383911133,6.518935203552246,0.3,-0.31,-0.04,283.57
1674319700.55861688,162861933,1,-1.55,-1.21,264.19,0.08567354083061218,-0.06305782496929169,0.01130120549350977,-0.05396562069654465,-0.5491225719451904,-2.5942718982696533,6.516918182373047,0.3,-0.31,-0.04,283.57
1674319700.57859278,162881909,1,-1.5,-1.24,264.12,0.08758421242237091,-0.06634398549795151,-0.02837981842458248,-0.09130550175905228,-0.5478500723838806,-2.5952067375183105,6.515884876251221,0.3,-0.31,-0.04,283.57
1674319700.61857581,162921892,1,-1.46,-1.23,263.98,0.08522502332925797,-0.07037895172834396,-0.002621506107971072,-0.05979226529598236,-0.5485659241676331,-2.595191478729248,6.5133442878723145,0.3,-0.31,-0.04,283.57
1674319700.65861392,162961930,1,-1.42,-1.26,263.84000000000003,0.10039623826742172,-0.07470241189002991,-0.0212410856038332,-0.052340053021907806,-0.5491169691085815,-2.59550142288208,6.513159275054932,0.3,-0.31,-0.04,283.57
1674319700.69863796,163001954,1,-1.47,-1.28,263.73,0.10224812477827072,-0.07080931216478348,0.0098892692476511,0.005100773647427559,-0.5492037534713745,-2.5960500240325928,6.512603759765625,0.3,-0.31,-0.04,283.57
1674319700.73861194,163041928,1,-1.44,-1.29,263.68,0.09241712093353271,-0.06268496811389923,0.0035041833762079477,0.006726683117449284,-0.5489205121994019,-2.596928119659424,6.511364936828613,0.3,-0.31,-0.04,283.57
1674319700.75859690,163061913,1,-1.44,-1.29,263.68,0.08919724076986313,-0.05944771692156792,-0.010811813175678253,-0.007419619709253311,-0.5491122603416443,-2.5969700813293457,6.510805130004883,0.3,-0.31,-0.04,283.57
1674319700.77854800,163081864,1,-1.41,-1.31,263.69,0.08430027216672897,-0.06681936234235764,-0.00836143922060728,-0.0054902550764381886,-0.5483126640319824,-2.5978105068206787,6.510515213012695,0.3,-0.31,-0.04,283.57
1674319700.81857300,163121889,1,-1.44,-1.29,263.76,0.08170045912265778,-0.05246702581644058,-0.001451768446713686,-0.002878905273973942,-0.5496625304222107,-2.597365379333496,6.509428977966309,0.3,-0.31,-0.04,283.57
1674319700.85856795,163161884,1,-1.42,-1.27,263.84000000000003,0.08243345469236374,-0.06425875425338745,0.0007683606236241758,0.0009604460210539401,-0.5502271056175232,-2.5970711708068848,6.509205341339111,0.3,-0.31,-0.04,283.57
1674319700.89860678,163201923,1,-1.42,-1.26,263.86,0.0968768298625946,-0.05658630281686783,-0.0025842543691396713,0.002041495405137539,-0.5501450896263123,-2.596815824508667,6.509048938751221,0.3,-0.31,-0.04,283.57
1674319700.93861198,163241928,1,-1.44,-1.24,263.84000000000003,0.08736715465784073,-0.05346883088350296,0.005105762742459774,0.011551854200661182,-0.5499195456504822,-2.596944570541382,6.508803844451904,0.3,-0.31,-0.04,283.57
1674319700.95858979,163261906,1,-1.43,-1.22,263.79,0.08663778752088547,-0.05187416821718216,-0.002639288082718849,0.0040420047007501125,-0.5499551892280579,-2.596756935119629,6.508734226226807,0.3,-0.31,-0.04,283.57
1674319700.97859883,163281915,1,-1.42,-1.23,263.76,0.07377217710018158,-0.06128263473510742,-0.004446385428309441,0.0025389716029167175,-0.5491212606430054,-2.59731125831604,6.508715629577637,0.3,-0.31,-0.04,283.57
1674319701.01859188,163321908,1,-1.43,-1.22,263.69,0.08034005016088486,-0.061993036419153214,-0.001412318437360227,0.00618443638086319,-0.5508444905281067,-2.596550941467285,6.50909423828125,0.3,-0.31,-0.04,283.57
1674319701.05857396,163361890,1,-1.43,-1.22,263.65,0.06557273119688034,-0.0747234895825386,0.010120857506990433,0.02516799420118332,-0.5520311594009399,-2.596195936203003,6.50991153717041,0.3,-0.31,-0.04,283.57
1674319701.09859776,163401914,1,-1.3900000000000001,-1.24,263.67,0.08799505233764648,-0.07090362161397934,-0.0021607757080346346,0.02004106342792511,-0.5526771545410156,-2.596468448638916,6.510734558105469,0.3,-0.31,-0.04,283.57
1674319701.13861680,163441933,1,-1.41,-1.25,263.72,0.06711796671152115,-0.07695848494768143,0.009075179696083069,0.03579695522785187,-0.5532436966896057,-2.5970699787139893,6.5115966796875,0.3,-0.31,-0.04,283.57
1674319701.15858984,163461906,1,-1.43,-1.26,263.75,0.09096196293830872,-0.059890005737543106,0.004781708586961031,0.03277922794222832,-0.5535613894462585,-2.5971598625183105,6.51215934753418,0.3,-0.31,-0.04,283.57
1674319701.17862988,163481946,1,-1.43,-1.25,263.79,0.06121668964624405,-0.06588003784418106,0.008024797774851322,0.03673822060227394,-0.5531027913093567,-2.5977396965026855,6.512463569641113,0.3,-0.31,-0.04,283.57
1674319701.21855998,163521876,1,-1.4000000000000001,-1.26,263.82,0.07184305787086487,-0.05406906083226204,0.006042471155524254,0.035369329154491425,-0.5554192066192627,-2.597104072570801,6.514211177825928,0.3,-0.32,-0.04,283.57
1674319701.25857997,163561896,1,-1.4000000000000001,-1.25,263.79,0.06183870509266853,-0.06178964674472809,-0.0014460999518632889,0.036511391401290894,-0.5572390556335449,-2.596611976623535,6.516070365905762,0.3,-0.32,-0.04,283.57
1674319701.29855084,163601867,1,-1.3900000000000001,-1.22,263.72,0.05959056690335274,-0.05725059285759926,0.018005207180976868,0.0627460777759552,-0.5586920976638794,-2.596442699432373,6.51768684387207,0.3,-0.32,-0.04,283.57
1674319701.33860993,163641926,1,-1.4000000000000001,-1.21,263.65,0.06820357590913773,-0.06457667052745819,0.0147763192653656,0.05943399667739868,-0.5597708225250244,-2.5966124534606934,6.519094467163086,0.3,-0.32,-0.04,283.57
1674319701.35857582,163661892,1,-1.4000000000000001,-1.22,263.63,0.05308639630675316,-0.06438596546649933,0.001504390500485897,0.04463757574558258,-0.5606433153152466,-2.59659743309021,6.519905090332031,0.3,-0.32,-0.04,283.57
1674319701.37857795,163681894,1,-1.37,-1.22,263.62,0.06414790451526642,-0.06210462749004364,0.003035795409232378,0.04426605626940727,-0.5603849291801453,-2.5973355770111084,6.520380973815918,0.3,-0.32,-0.04,283.57
1674319701.41862988,163721946,1,-1.44,-1.21,263.6,0.053555142134428024,-0.07695449888706207,0.004851112142205238,0.03933081030845642,-0.5615477561950684,-2.5978658199310303,6.521496295928955,0.3,-0.32,-0.04,283.57
1674319701.45856786,163761884,1,-1.43,-1.24,263.61,0.05303850397467613,-0.07106821238994598,0.0014505956787616014,0.0379059836268425,-0.5633801817893982,-2.59829044342041,6.524517059326172,0.3,-0.32,-0.04,283.57
1674319701.49857187,163801888,1,-1.37,-1.25,263.64,0.05751296877861023,-0.06836692243814468,-0.0007980024674907327,0.04973743110895157,-0.5649561285972595,-2.5992186069488525,6.527224540710449,0.3,-0.32,-0.04,283.57
1674319701.53857279,163841889,1,-1.3800000000000001,-1.25,263.64,0.05472502112388611,-0.07383839786052704,0.0011989772319793701,0.05950354039669037,-0.5661846995353699,-2.6001853942871094,6.52949333190918,0.3,-0.32,-0.04,283.57
1674319701.55858493,163861901,1,-1.42,-1.25,263.62,0.04703487455844879,-0.07045005261898041,0.01458705309778452,0.07377279549837112,-0.5670640468597412,-2.600534439086914,6.53089714050293,0.3,-0.32,-0.04,283.57
