timestamp,TimeUS,C,Q1,Q2,Q3,Q4
1674319692.49857998,154801896,1,0.6962077617645264,-0.015075232833623886,0.004704697523266077,-0.7176665663719177
1674319692.53856897,154841885,1,0.696212112903595,-0.015079009346663952,0.0047051734291017056,-0.7176622748374939
1674319692.55860996,154861926,1,0.696235179901123,-0.015100068412721157,0.0047156354412436485,-0.7176393866539001
1674319692.57856488,154881881,1,0.6962465047836304,-0.015091893263161182,0.004722307901829481,-0.717628538608551
1674319692.61859488,154921911,1,0.6962756514549255,-0.015095082111656666,0.004742015618830919,-0.7176001071929932
1674319692.65859389,154961910,1,0.6962968111038208,-0.015074973925948143,0.004716562572866678,-0.7175801396369934
1674319692.69861197,155001928,1,0.6963227987289429,-0.01506247092038393,0.004707754589617252,-0.7175552248954773
1674319692.73854780,155041864,1,0.6963428854942322,-0.01507195271551609,0.004687429405748844,-0.717535674571991
1674319692.75860095,155061917,1,0.6963555216789246,-0.015077595598995686,0.004695175681263208,-0.7175232172012329
1674319692.77856898,155081885,1,0.6963596940040588,-0.015085522085428238,0.004699476528912783,-0.7175189852714539
1674319692.81857181,155121888,1,0.6963791251182556,-0.015109068714082241,0.004701136611402035,-0.7174996137619019
1674319692.85860491,155161921,1,0.6963972449302673,-0.015129000879824162,0.004680456593632698,-0.717481791973114
1674319692.89860392,155201920,1,0.6964165568351746,-0.015140597708523273,0.004660401027649641,-0.7174628973007202
1674319692.93861294,155241929,1,0.6964158415794373,-0.015153046697378159,0.004663337487727404,-0.7174633145332336
1674319692.95860481,155261921,1,0.696418046951294,-0.01516424585133791,0.0046726795844733715,-0.7174608707427979
1674319692.97853994,155281856,1,0.6964280605316162,-0.015173369087278843,0.00468512624502182,-0.7174508571624756
1674319693.01856780,155321884,1,0.6964464783668518,-0.015203956514596939,0.004702764563262463,-0.7174322605133057
1674319693.05854583,155361862,1,0.69646155834198,-0.01520893070846796,0.0047132172621786594,-0.7174174189567566
1674319693.09859991,155401916,1,0.6964665651321411,-0.015193845145404339,0.004706727806478739,-0.7174129486083984
1674319693.13863397,155441950,1,0.6964788436889648,-0.01516397949308157,0.004689981695264578,-0.7174018025398254
1674319693.15857482,155461891,1,0.6964884996414185,-0.015155640430748463,0.004678134340792894,-0.71739262342453
1674319693.17860579,155481922,1,0.6965035200119019,-0.015161680988967419,0.004671737086027861,-0.7173779606819153
1674319693.21855879,155521875,1,0.6965199708938599,-0.01518795546144247,0.00468580424785614,-0.717361330986023
1674319693.25856996,155561886,1,0.6965305805206299,-0.015202381648123264,0.004705273546278477,-0.7173506021499634
1674319693.29860783,155601924,1,0.6965487599372864,-0.015188508667051792,0.004687329288572073,-0.7173333764076233
1674319693.33859897,155641915,1,0.6965703964233398,-0.015150638297200203,0.004655422177165747,-0.7173134088516235
1674319693.35858798,155661904,1,0.6965773105621338,-0.015147504396736622,0.004658323712646961,-0.7173067331314087
1674319693.37861180,155681928,1,0.6965857744216919,-0.015145852230489254,0.004659917671233416,-0.7172985076904297
1674319693.41855478,155721871,1,0.6966145634651184,-0.015169509686529636,0.004669162444770336,-0.717270016670227
1674319693.45856595,155761882,1,0.6966588497161865,-0.01518470048904419,0.004676870070397854,-0.7172265648841858
1674319693.49857378,155801890,1,0.6966837048530579,-0.015188321471214294,0.004678748548030853,-0.717202365398407
1674319693.53859282,155841909,1,0.696701169013977,-0.015171077102422714,0.0046429382637143135,-0.7171860337257385
1674319693.55856800,155861884,1,0.6967083215713501,-0.015151682309806347,0.004628696013242006,-0.717179536819458
1674319693.57858086,155881897,1,0.6967131495475769,-0.015141227282583714,0.004616366699337959,-0.7171751856803894
1674319693.61861682,155921933,1,0.6967313289642334,-0.015155202709138393,0.00459311343729496,-0.7171573638916016
1674319693.65855598,155961872,1,0.6967586278915405,-0.015175738371908665,0.004608530551195145,-0.7171303033828735
1674319693.69857097,156001887,1,0.6967819333076477,-0.015195646323263645,0.004609365016222,-0.7171072363853455
1674319693.73857284,156041889,1,0.6968099474906921,-0.015170853585004807,0.004597904160618782,-0.7170805931091309
1674319693.75858092,156061897,1,0.69682377576828,-0.015163756906986237,0.00458055455237627,-0.7170674204826355
1674319693.77859688,156081913,1,0.6968334913253784,-0.015166639350354671,0.004555532708764076,-0.7170581221580505
1674319693.81858087,156121897,1,0.6968480944633484,-0.01517169363796711,0.004518748726695776,-0.7170439958572388
1674319693.85860395,156161920,1,0.6968672275543213,-0.015191147103905678,0.004512246232479811,-0.717025101184845
1674319693.89853692,156201853,1,0.6968702673912048,-0.01519588939845562,0.004504148382693529,-0.7170220613479614
1674319693.93857694,156241893,1,0.6968786120414734,-0.015194828622043133,0.004485087003558874,-0.7170140743255615
1674319693.95861483,156261931,1,0.6968773007392883,-0.015204297378659248,0.004449227824807167,-0.7170153856277466
1674319693.97859287,156281909,1,0.6968950629234314,-0.015199108049273491,0.00443814042955637,-0.7169983386993408
1674319694.01860380,156321920,1,0.6969005465507507,-0.015187685377895832,0.004392373841255903,-0.7169934511184692
1674319694.05861378,156361930,1,0.6969070434570312,-0.015171511098742485,0.004390406887978315,-0.7169874906539917
1674319694.09859991,156401916,1,0.6969239711761475,-0.015174266882240772,0.00440182164311409,-0.7169709801673889
1674319694.13856578,156441882,1,0.6969403624534607,-0.015173876658082008,0.004406897816807032,-0.7169550061225891
1674319694.15858078,156461897,1,0.696954071521759,-0.015160109847784042,0.004390409216284752,-0.7169420719146729
1674319694.17856693,156481883,1,0.6969543695449829,-0.015164344571530819,0.004363514482975006,-0.7169418334960938
1674319694.21859193,156521908,1,0.6969568729400635,-0.015143120661377907,0.004338282626122236,-0.7169399857521057
1674319694.25860381,156561920,1,0.6969725489616394,-0.01513584703207016,0.004290567710995674,-0.7169252038002014
1674319694.29861283,156601929,1,0.6969794631004333,-0.01515110395848751,0.00427798368036747,-0.7169182300567627
1674319694.33854485,156641861,1,0.6969825029373169,-0.015162725001573563,0.00425022654235363,-0.7169152498245239
1674319694.35859895,156661915,1,0.6969972252845764,-0.015173629857599735,0.004228751640766859,-0.7169008255004883
1674319694.37856483,156681881,1,0.697010338306427,-0.015168135054409504,0.004203641787171364,-0.7168883085250854
1674319694.41856480,156721881,1,0.6970340013504028,-0.015170850791037083,0.004167945124208927,-0.7168654203414917
1674319694.45859885,156761915,1,0.6970680952072144,-0.015141469426453114,0.004127732943743467,-0.7168331742286682
1674319694.49859285,156801909,1,0.6970873475074768,-0.015145264565944672,0.004115825518965721,-0.7168144583702087
1674319694.53863692,156841953,1,0.6970950365066528,-0.015175258740782738,0.004109608009457588,-0.7168062925338745
1674319694.55859685,156861913,1,0.6971055865287781,-0.0151695366948843,0.004103925544768572,-0.7167962193489075
1674319694.57853794,156881854,1,0.6971190571784973,-0.015178391709923744,0.0040910630486905575,-0.7167829871177673
1674319694.61857486,156921891,1,0.6971476674079895,-0.015173803083598614,0.0040444983169436455,-0.7167555689811707
1674319694.65854883,156961865,1,0.6971620321273804,-0.015147196128964424,0.004002475179731846,-0.7167423963546753
1674319694.69859982,157001916,1,0.6972063183784485,-0.015141093172132969,0.003958197310566902,-0.7166997194290161
1674319694.73859692,157041913,1,0.6972410082817078,-0.015162431634962559,0.003930258098989725,-0.7166656255722046
1674319694.75856900,157061885,1,0.6972635388374329,-0.015185268595814705,0.003944595344364643,-0.7166431546211243
1674319694.77863193,157081948,1,0.6972656846046448,-0.015204867348074913,0.003935182001441717,-0.7166407108306885
1674319694.81854296,157121859,1,0.6972739696502686,-0.015208081342279911,0.0039201462641358376,-0.7166326642036438
1674319694.85856891,157161885,1,0.6972899436950684,-0.015196775086224079,0.003881372045725584,-0.7166175842285156
1674319694.89859891,157201915,1,0.6973105669021606,-0.015170443803071976,0.003849008586257696,-0.7165982127189636
1674319694.93859196,157241908,1,0.6973260045051575,-0.015172107145190239,0.0038409007247537374,-0.7165831923484802
1674319694.95857477,157261891,1,0.6973370313644409,-0.015182853676378727,0.0038306056521832943,-0.7165722846984863
1674319694.97862697,157281943,1,0.697350800037384,-0.015204676426947117,0.003828800981864333,-0.7165584564208984
1674319695.01857781,157321894,1,0.6973826885223389,-0.015208831988275051,0.003837477182969451,-0.7165272831916809
1674319695.05857182,157361888,1,0.6974197626113892,-0.015186961740255356,0.003788562724366784,-0.7164919376373291
1674319695.09856486,157401881,1,0.697464108467102,-0.015165193937718868,0.0037535459268838167,-0.7164493799209595
1674319695.13860679,157441923,1,0.697497546672821,-0.015143957920372486,0.0037348815239965916,-0.7164174318313599
1674319695.15854383,157461860,1,0.6974989771842957,-0.015150817111134529,0.0037352752406150103,-0.7164158225059509
1674319695.17859983,157481916,1,0.697495698928833,-0.015164469368755817,0.0037519047036767006,-0.7164186835289001
1674319695.21861386,157521930,1,0.6975080966949463,-0.015162820927798748,0.0037700484972447157,-0.716406524181366
1674319695.25857091,157561887,1,0.6975390315055847,-0.015163604170084,0.003730662865564227,-0.7163766026496887
1674319695.29857183,157601888,1,0.6975711584091187,-0.015138603746891022,0.0037029057275503874,-0.7163459658622742
1674319695.33858490,157641901,1,0.6975823640823364,-0.015079980716109276,0.003636548761278391,-0.7163366675376892
1674319695.35857987,157661896,1,0.6976010203361511,-0.015093379653990269,0.003617536276578903,-0.7163183093070984
1674319695.37860489,157681921,1,0.6976384520530701,-0.015072903595864773,0.0035810128320008516,-0.7162824273109436
1674319695.41857195,157721888,1,0.6976997256278992,-0.01510663516819477,0.003614917164668441,-0.7162219285964966
1674319695.45862293,157761939,1,0.6977037787437439,-0.015086681582033634,0.003634687280282378,-0.7162182927131653
1674319695.49854589,157801862,1,0.6976780891418457,-0.015087436884641647,0.003648438723757863,-0.7162432074546814
1674319695.53856993,157841886,1,0.6976554989814758,-0.015105805359780788,0.0035882219672203064,-0.7162651419639587
1674319695.55862594,157861942,1,0.6976898312568665,-0.015114694833755493,0.003537367796525359,-0.7162317633628845
1674319695.57859278,157881909,1,0.6977832317352295,-0.015133118256926537,0.003525058040395379,-0.7161404490470886
1674319695.61860681,157921923,1,0.6978557109832764,-0.015077770687639713,0.00341017241589725,-0.7160715460777283
1674319695.65861297,157961929,1,0.69761061668396,-0.014985830523073673,0.003401024267077446,-0.7163122892379761
1674319695.69859600,158001912,1,0.6977336406707764,-0.015011579729616642,0.0034912375267595053,-0.7161914706230164
1674319695.73857284,158041889,1,0.6978403925895691,-0.015217863023281097,0.0035918729845434427,-0.7160826325416565
1674319695.75858879,158061905,1,0.6976081728935242,-0.015252658165991306,0.003517644479870796,-0.7163084745407104
1674319695.77857780,158081894,1,0.6975343823432922,-0.01521135400980711,0.0034840423613786697,-0.7163813710212708
1674319695.81861377,158121930,1,0.6979047656059265,-0.015068624168634415,0.003302503377199173,-0.7160244584083557
1674319695.85863090,158161947,1,0.6977145671844482,-0.015394819900393486,0.0033187211956828833,-0.7162027359008789
1674319695.89860988,158201926,1,0.6976029872894287,-0.015602444298565388,0.0032914853654801846,-0.7163070440292358
1674319695.93858695,158241903,1,0.6979043483734131,-0.015616309829056263,0.003582606790587306,-0.7160117030143738
1674319695.95861292,158261929,1,0.6976222395896912,-0.01568181999027729,0.0034211508464068174,-0.7162859439849854
1674319695.97857189,158281888,1,0.6974024176597595,-0.01573554053902626,0.0035924508702009916,-0.7164979577064514
1674319696.01856184,158321878,1,0.6976779103279114,-0.015579333528876305,0.0034959549084305763,-0.7162336111068726
1674319696.05860686,158361923,1,0.6972825527191162,-0.015600183978676796,0.0032634122762829065,-0.7166191339492798
1674319696.09859991,158401916,1,0.6972836256027222,-0.015524741262197495,0.0032175222877413034,-0.7166199684143066
1674319696.13862085,158441937,1,0.6970959305763245,-0.015566034242510796,0.0033424345310777426,-0.716801106929779
1674319696.15859389,158461910,1,0.6967664361000061,-0.015631582587957382,0.0033772909082472324,-0.7171198129653931
1674319696.17854285,158481859,1,0.6968553066253662,-0.015583435073494911,0.003348537255078554,-0.717034637928009
1674319696.21857285,158521889,1,0.6966843605041504,-0.015793075785040855,0.0033477137330919504,-0.7171961069107056
1674319696.25857091,158561887,1,0.6966789364814758,-0.015567364171147346,0.003119454951956868,-0.7172073125839233
1674319696.29860091,158601917,1,0.6964055299758911,-0.015625854954123497,0.0031727401074022055,-0.7174713015556335
1674319696.33856177,158641878,1,0.6961949467658997,-0.01552500482648611,0.002911212621256709,-0.717678964138031
1674319696.35857487,158661891,1,0.6960312128067017,-0.015571365132927895,0.003067497629672289,-0.7178361415863037
1674319696.37863398,158681950,1,0.6960880756378174,-0.015670763328671455,0.0031708262395113707,-0.7177783846855164
1674319696.41855288,158721869,1,0.6958239674568176,-0.015752550214529037,0.003361036768183112,-0.7180317044258118
1674319696.45857787,158761894,1,0.6957278251647949,-0.015752390027046204,0.003323945449665189,-0.7181251049041748
1674319696.49854589,158801862,1,0.6955994963645935,-0.015656884759664536,0.003246252192184329,-0.7182518243789673
1674319696.53860688,158841923,1,0.6953200101852417,-0.015517717227339745,0.0031344129238277674,-0.7185258865356445
1674319696.55857277,158861889,1,0.6954153776168823,-0.015598146244883537,0.0032005435787141323,-0.7184315323829651
1674319696.57861185,158881928,1,0.6955074667930603,-0.015647035092115402,0.003158861305564642,-0.7183415293693542
1674319696.61862397,158921940,1,0.6950811147689819,-0.0157358106225729,0.003223762381821871,-0.718751847743988
1674319696.65855289,158961869,1,0.6950204968452454,-0.015867432579398155,0.0032747171353548765,-0.7188073396682739
1674319696.69857597,159001892,1,0.6947946548461914,-0.015925459563732147,0.0033842616248875856,-0.7190238237380981
1674319696.73859882,159041915,1,0.6946527361869812,-0.01594904251396656,0.0029982065316289663,-0.7191621661186218
1674319696.75855899,159061875,1,0.6947886347770691,-0.015688331797719002,0.002968850079923868,-0.7190367579460144
1674319696.77860785,159081924,1,0.6945195198059082,-0.01575084961950779,0.0029804366640746593,-0.7192952036857605
1674319696.81861496,159121931,1,0.6943886280059814,-0.015857966616749763,0.003093745093792677,-0.7194188237190247
1674319696.85857797,159161894,1,0.6944568157196045,-0.015933286398649216,0.003092488506808877,-0.7193512916564941
1674319696.89857483,159201891,1,0.6940646171569824,-0.016002126038074493,0.0030894640367478132,-0.7197281718254089
1674319696.93857098,159241887,1,0.6939610242843628,-0.01594039797782898,0.0031013675034046173,-0.7198294401168823
1674319696.95861077,159261927,1,0.6938644647598267,-0.015912584960460663,0.0030077528208494186,-0.7199234962463379
1674319696.97861290,159281929,1,0.6937382817268372,-0.015976980328559875,0.0030422282870858908,-0.7200434803962708
1674319697.01858997,159321906,1,0.6936938762664795,-0.015971606597304344,0.0031005966011434793,-0.7200861573219299
1674319697.05857396,159361890,1,0.693501889705658,-0.01599106937646866,0.002848037052899599,-0.7202717065811157
1674319697.09855580,159401872,1,0.6932765245437622,-0.016089357435703278,0.0030829226598143578,-0.7204854488372803
1674319697.13855195,159441868,1,0.6931589245796204,-0.01606765016913414,0.002966734115034342,-0.7205995917320251
1674319697.15862393,159461940,1,0.6930673718452454,-0.01625026762485504,0.002936819102615118,-0.7206836342811584
1674319697.17857099,159481887,1,0.6929483413696289,-0.016254020854830742,0.002868782728910446,-0.7207983136177063
1674319697.21861100,159521927,1,0.6926953196525574,-0.01609743759036064,0.00279703876003623,-0.7210452556610107
1674319697.25861979,159561936,1,0.6924403309822083,-0.016101855784654617,0.002657347358763218,-0.7212905287742615
1674319697.29860997,159601926,1,0.692267894744873,-0.015968507155776024,0.0024482698645442724,-0.7214597463607788
1674319697.33854485,159641861,1,0.692003071308136,-0.01604204811155796,0.0023604435846209526,-0.7217124700546265
1674319697.35859799,159661914,1,0.6919460892677307,-0.016123704612255096,0.002599088242277503,-0.7217644453048706
1674319697.37857699,159681893,1,0.6917857527732849,-0.016054250299930573,0.002490781247615814,-0.7219200134277344
1674319697.41860294,159721919,1,0.6916038393974304,-0.01632939651608467,0.0024931093212217093,-0.722088098526001
1674319697.45860291,159761919,1,0.691382110118866,-0.016030922532081604,0.002751352731138468,-0.7223061919212341
1674319697.49862385,159801940,1,0.6911789178848267,-0.016024168580770493,0.0029584679286926985,-0.7224999666213989
1674319697.53859782,159841914,1,0.6908616423606873,-0.016129575669765472,0.003017850685864687,-0.7228007316589355
1674319697.55860686,159861923,1,0.6905564665794373,-0.016281217336654663,0.003168372204527259,-0.723088264465332
1674319697.57858396,159881900,1,0.6905413269996643,-0.0157025046646595,0.0026712799444794655,-0.7231175303459167
1674319697.61857080,159921887,1,0.6902467012405396,-0.01578695699572563,0.0028039077296853065,-0.7233964800834656
1674319697.65859890,159961915,1,0.6900174021720886,-0.01614522747695446,0.0031589048448950052,-0.7236058115959167
1674319697.69861293,160001929,1,0.6897314190864563,-0.015761619433760643,0.002335743512958288,-0.723889946937561
1674319697.73862481,160041941,1,0.6894859075546265,-0.016430262476205826,0.002760289004072547,-0.7241075038909912
1674319697.75856090,160061877,1,0.6892954707145691,-0.016224680468440056,0.002581050619482994,-0.7242940068244934
1674319697.77854896,160081865,1,0.68916255235672,-0.015922384336590767,0.00213852827437222,-0.724428653717041
1674319697.81857300,160121889,1,0.688841700553894,-0.015703702345490456,0.002397756325080991,-0.7247377038002014
1674319697.85855293,160161869,1,0.6887539625167847,-0.016201244667172432,0.0025167653802782297,-0.7248097658157349
1674319697.89859986,160201916,1,0.68845134973526,-0.01586039364337921,0.002573506673797965,-0.7251045107841492
1674319697.93857980,160241896,1,0.6879879236221313,-0.01568836346268654,0.002569648204371333,-0.7255479693412781
1674319697.95857286,160261889,1,0.6879135966300964,-0.016111131757497787,0.0027641295455396175,-0.7256084680557251
1674319697.97864294,160281959,1,0.6877335906028748,-0.015421006828546524,0.0021350120659917593,-0.7257961630821228
1674319698.01859379,160321910,1,0.6875059604644775,-0.015331641770899296,0.0026178285479545593,-0.7260121703147888
1674319698.05855989,160361876,1,0.68726646900177,-0.0156619381159544,0.002561132423579693,-0.7262319922447205
1674319698.09858584,160401902,1,0.6870478987693787,-0.015960553660988808,0.0030041660647839308,-0.7264305949211121
1674319698.13861299,160441929,1,0.6867762207984924,-0.01601681299507618,0.0027421521954238415,-0.7266872525215149
1674319698.15856385,160461880,1,0.6866462230682373,-0.016444597393274307,0.002979871118441224,-0.7267996072769165
1674319698.17862177,160481938,1,0.6865535974502563,-0.0163375623524189,0.003355979220941663,-0.7268878817558289
1674319698.21862793,160521944,1,0.6861266493797302,-0.01702014170587063,0.003735574893653393,-0.7272734045982361
1674319698.25855684,160561873,1,0.6859110593795776,-0.01588040217757225,0.002647790592163801,-0.7275072932243347
1674319698.29857492,160601891,1,0.685641348361969,-0.015546558424830437,0.0021355249918997288,-0.7277703285217285
1674319698.33857298,160641889,1,0.6853603720664978,-0.015216680243611336,0.002143791178241372,-0.7280418872833252
1674319698.35855079,160661867,1,0.6852766871452332,-0.015168823301792145,0.0025919547770172358,-0.7281202077865601
1674319698.37859893,160681915,1,0.6851550936698914,-0.015948235988616943,0.003208833746612072,-0.7282155752182007
1674319698.41862392,160721940,1,0.684857964515686,-0.016097545623779297,0.0033951904624700546,-0.7284908890724182
1674319698.45859790,160761914,1,0.6845956444740295,-0.016413787379860878,0.003990961238741875,-0.7287272810935974
1674319698.49857283,160801889,1,0.6843274831771851,-0.01693441905081272,0.005116150714457035,-0.7289601564407349
1674319698.53856993,160841886,1,0.6841781735420227,-0.015094093047082424,0.001850227126851678,-0.7291563153266907
1674319698.55861282,160861929,1,0.6837965846061707,-0.016316300258040428,0.0035757985897362232,-0.7294815182685852
1674319698.57861781,160881934,1,0.6837259531021118,-0.016504701226949692,0.00430639274418354,-0.7295395135879517
1674319698.61861277,160921929,1,0.6835465431213379,-0.016115978360176086,0.002658520359545946,-0.7297241687774658
1674319698.65861797,160961934,1,0.6833138465881348,-0.016525881364941597,0.003414158709347248,-0.7299297451972961
1674319698.69856381,161001880,1,0.6830194592475891,-0.01658301241695881,0.003596715396270156,-0.7302030920982361
1674319698.73857594,161041892,1,0.6827634572982788,-0.016760263592004776,0.004385923035442829,-0.7304340600967407
1674319698.75864196,161061958,1,0.6827301979064941,-0.01578490622341633,0.0029651164077222347,-0.7304940223693848
1674319698.77856779,161081884,1,0.6824132800102234,-0.01664143241941929,0.004613814875483513,-0.7307625412940979
1674319698.81860185,161121918,1,0.682245135307312,-0.0157040785998106,0.003296385984867811,-0.7309473752975464
1674319698.85856700,161161883,1,0.6818662285804749,-0.015279273502528667,0.0030148096848279238,-0.7313110828399658
1674319698.89862084,161201937,1,0.6816421747207642,-0.014828471466898918,0.0027976431883871555,-0.7315300703048706
1674319698.93857479,161241891,1,0.681373655796051,-0.01643344573676586,0.0050325943157076836,-0.7317339181900024
1674319698.95860696,161261923,1,0.6811721920967102,-0.01582605019211769,0.004410042893141508,-0.731938898563385
1674319698.97858095,161281897,1,0.6810969114303589,-0.015486936084926128,0.003078773617744446,-0.7320230007171631
1674319699.01860595,161321922,1,0.6808276772499084,-0.015024006366729736,0.0017844202229753137,-0.7322873473167419
1674319699.05862093,161361937,1,0.6807516813278198,-0.01609513908624649,0.0027280920185148716,-0.7323323488235474
1674319699.09861779,161401934,1,0.6804467439651489,-0.015862010419368744,0.0022651483304798603,-0.7326223850250244
1674319699.13860393,161441920,1,0.680138111114502,-0.016756493598222733,0.00356260291300714,-0.7328838109970093
1674319699.15860295,161461919,1,0.6799420714378357,-0.016599921509623528,0.002923484891653061,-0.7330721020698547
1674319699.17856598,161481882,1,0.6798346638679504,-0.016562094911932945,0.0035127117298543453,-0.7331699132919312
1674319699.21857190,161521888,1,0.6796127557754517,-0.01611347496509552,0.0030785282142460346,-0.7333875894546509
1674319699.25860691,161561923,1,0.6791610717773438,-0.016896922141313553,0.004279011860489845,-0.7337822914123535
1674319699.29860783,161601924,1,0.6789389848709106,-0.015775222331285477,0.0021375794894993305,-0.7340220808982849
1674319699.33863878,161641955,1,0.6788508296012878,-0.0165416169911623,0.0027811527252197266,-0.7340846061706543
1674319699.35856986,161661886,1,0.6785742044448853,-0.01639338582754135,0.0029403616208583117,-0.7343429923057556
1674319699.37856793,161681884,1,0.6784523129463196,-0.016469191759824753,0.0028468638192862272,-0.734454333782196
1674319699.41857290,161721889,1,0.6781158447265625,-0.016150949522852898,0.0029584881849586964,-0.7347716093063354
1674319699.45856190,161761878,1,0.6778115034103394,-0.015795601531863213,0.0019201335962861776,-0.7350634932518005
1674319699.49859977,161801916,1,0.6774410009384155,-0.016387304291129112,0.0029716691933572292,-0.7353885769844055
1674319699.53858089,161841897,1,0.6773858070373535,-0.01607021875679493,0.0023366266395896673,-0.7354487180709839
1674319699.55857182,161861888,1,0.6773145794868469,-0.016434846445918083,0.0016145341796800494,-0.7355082035064697
1674319699.57862091,161881937,1,0.6770921349525452,-0.016472043469548225,0.0020069547463208437,-0.7357110977172852
1674319699.61859488,161921911,1,0.676896333694458,-0.016923481598496437,0.0028206577990204096,-0.7358783483505249
1674319699.65857697,161961893,1,0.676558256149292,-0.016141444444656372,0.0028185141272842884,-0.7362068295478821
1674319699.69857287,162001889,1,0.6761115193367004,-0.01592015102505684,0.0023886251728981733,-0.7366234064102173
1674319699.73860097,162041917,1,0.6758629679679871,-0.016618408262729645,0.0029861151706427336,-0.7368338704109192
1674319699.75858378,162061900,1,0.6757627725601196,-0.01600940339267254,0.0025089564733207226,-0.7369410395622253
1674319699.77861285,162081929,1,0.6756560802459717,-0.016329847276210785,0.003442691173404455,-0.7370280623435974
1674319699.81863284,162121949,1,0.6751287579536438,-0.015988772734999657,0.0025832857936620712,-0.7375220656394958
1674319699.85854483,162161861,1,0.6749339699745178,-0.01708506979048252,0.0034288845490664244,-0.7376723289489746
1674319699.89857292,162201889,1,0.6747508645057678,-0.016359053552150726,0.0028063529171049595,-0.7378588914871216
1674319699.93862391,162241940,1,0.6745030283927917,-0.017098119482398033,0.0033296230249106884,-0.738066554069519
1674319699.95856094,162261877,1,0.6742168068885803,-0.016818322241306305,0.002851903671398759,-0.738336443901062
1674319699.97860384,162281920,1,0.6741808652877808,-0.01616514101624489,0.001901574432849884,-0.7383869290351868
1674319700.01861787,162321934,1,0.6739087700843811,-0.01738753542304039,0.0027882959693670273,-0.7386046648025513
1674319700.05859780,162361914,1,0.6735386252403259,-0.015236712992191315,0.00103758426848799,-0.7389942407608032
1674319700.09857297,162401889,1,0.6731692552566528,-0.01735672540962696,0.0028901775367558002,-0.7392790913581848
1674319700.13857198,162441888,1,0.6729673743247986,-0.017590347677469254,0.003910180181264877,-0.7394526600837708
1674319700.15862989,162461946,1,0.6727828979492188,-0.01705043762922287,0.002881881780922413,-0.7396378517150879
1674319700.17860699,162481923,1,0.6728325486183167,-0.016848944127559662,0.002506006509065628,-0.7395986318588257
1674319700.21861291,162521929,1,0.6726737022399902,-0.01635817065834999,0.0019343665335327387,-0.7397558689117432
1674319700.25861788,162561934,1,0.6724027991294861,-0.017025955021381378,0.002498416695743799,-0.7399854063987732
1674319700.29859781,162601914,1,0.6719537973403931,-0.017193343490362167,0.0032013128511607647,-0.7403865456581116
1674319700.33857489,162641891,1,0.6715119481086731,-0.01693558506667614,0.0026156906969845295,-0.7407955527305603
1674319700.35860991,162661926,1,0.6711635589599609,-0.018546875566244125,0.0037032240070402622,-0.7410680055618286
1674319700.37856388,162681880,1,0.6709920763969421,-0.01808488368988037,0.003969194367527962,-0.7412333488464355
1674319700.41860580,162721922,1,0.67066890001297,-0.017680414021015167,0.0034739035181701183,-0.7415379881858826
1674319700.45859289,162761909,1,0.6706247925758362,-0.01772240176796913,0.003208720590919256,-0.7415780425071716
1674319700.49857283,162801889,1,0.6705761551856995,-0.01687399297952652,0.002603277564048767,-0.7416442036628723
1674319700.53856587,162841882,1,0.670409083366394,-0.016759658232331276,0.0025838492438197136,-0.7417978644371033
1674319700.55861688,162861933,1,0.670183002948761,-0.0169677697122097,0.0029679429717361927,-0.7419959902763367
1674319700.57859278,162881909,1,0.6697179079055786,-0.01680627278983593,0.0024725738912820816,-0.7424212694168091
1674319700.61857581,162921892,1,0.6688675284385681,-0.016560962423682213,0.0022421861067414284,-0.7431937456130981
1674319700.65861392,162961930,1,0.6679193377494812,-0.016538677737116814,0.0019174701301380992,-0.7440474033355713
1674319700.69863796,163001954,1,0.6671768426895142,-0.016962021589279175,0.0020843581296503544,-0.7447032928466797
1674319700.73861194,163041928,1,0.6668760776519775,-0.016822822391986847,0.0018590881954878569,-0.7449764013290405
1674319700.75859690,163061913,1,0.6668780446052551,-0.016851389780640602,0.0018623903160914779,-0.7449740171432495
1674319700.77854800,163081864,1,0.6669491529464722,-0.016759030520915985,0.0015702031087130308,-0.7449131011962891
1674319700.81857300,163121889,1,0.6673812866210938,-0.0167864840477705,0.001849162857979536,-0.7445247173309326
1674319700.85856795,163161884,1,0.6679161787033081,-0.016576727852225304,0.0018238716293126345,-0.7440496683120728
1674319700.89860678,163201923,1,0.6680343747138977,-0.016528954729437828,0.0018962739268317819,-0.7439444065093994
1674319700.93861198,163241928,1,0.6679078936576843,-0.01654641702771187,0.0021302502136677504,-0.7440569400787354
1674319700.95858979,163261906,1,0.6676230430603027,-0.016368016600608826,0.0021739935036748648,-0.7443163394927979
1674319700.97859883,163281915,1,0.6674473285675049,-0.016297368332743645,0.002046744804829359,-0.7444758415222168
1674319701.01859188,163321908,1,0.6669385433197021,-0.016349824145436287,0.0022108997218310833,-0.74493008852005
1674319701.05857396,163361890,1,0.6667192578315735,-0.016333064064383507,0.002217243192717433,-0.7451266646385193
1674319701.09859776,163401914,1,0.6668468117713928,-0.016262955963611603,0.0018350874306634068,-0.7450150847434998
1674319701.13861680,163441933,1,0.6671572327613831,-0.016385266557335854,0.001887284917756915,-0.7447342872619629
1674319701.15858984,163461906,1,0.6673651933670044,-0.016558624804019928,0.001965247793123126,-0.7445439100265503
1674319701.17862988,163481946,1,0.6675726771354675,-0.016562681645154953,0.0020033777691423893,-0.744357705116272
1674319701.21855998,163521876,1,0.6678028106689453,-0.016385667026042938,0.0017747682286426425,-0.744155764579773
1674319701.25857997,163561896,1,0.6675822138786316,-0.016345715150237083,0.0017650853842496872,-0.7443545460700989
1674319701.29855084,163601867,1,0.6671678423881531,-0.01609850488603115,0.001954790437594056,-0.7447308897972107
1674319701.33860993,163641926,1,0.6667262315750122,-0.01610773615539074,0.0020439194049686193,-0.7451258301734924
1674319701.35857582,163661892,1,0.6665660738945007,-0.01615041308104992,0.0019842099864035845,-0.7452683448791504
1674319701.37857795,163681894,1,0.6664823293685913,-0.01598210632801056,0.0017903451807796955,-0.7453473210334778
1674319701.41862988,163721946,1,0.6663827300071716,-0.016301855444908142,0.0023071945179253817,-0.7454280257225037
1674319701.45856786,163761884,1,0.6664625406265259,-0.01642163284122944,0.0021296071354299784,-0.7453545928001404
1674319701.49857187,163801888,1,0.666650116443634,-0.016181938350200653,0.001645840355195105,-0.7451933026313782
1674319701.53857279,163841889,1,0.6666202545166016,-0.0162418894469738,0.0017185579054057598,-0.7452185750007629
1674319701.55858493,163861901,1,0.6665058732032776,-0.01642867922782898,0.0019981570076197386,-0.7453160285949707
1674319701.57860398,163881920,1,0.6662908792495728,-0.01655738614499569,0.001949872705154121,-0.7455055713653564
1674319701.61861277,163921929,1,0.6659659743309021,-0.016476508229970932,0.001819722237996757,-0.7457979321479797
1674319701.65861297,163961929,1,0.6655715703964233,-0.01643271930515766,0.0019121506484225392,-0.7461506724357605
1674319701.69854379,164001860,1,0.6652208566665649,-0.016526242718100548,0.001943196402862668,-0.7464612126350403
1674319701.73855090,164041867,1,0.6651760935783386,-0.01631910912692547,0.001762397587299347,-0.7465060949325562
1674319701.75862980,164061946,1,0.6652348041534424,-0.016324391588568687,0.00194259500131011,-0.7464532256126404
1674319701.77860093,164081917,1,0.6652791500091553,-0.016211485490202904,0.001736453385092318,-0.7464166283607483
1674319701.81860685,164121923,1,0.6652751564979553,-0.016306957229971886,0.001672194222919643,-0.746418297290802
1674319701.85861397,164161930,1,0.6652069091796875,-0.016313590109348297,0.00154597288928926,-0.7464792132377625
1674319701.89857197,164201888,1,0.6649383306503296,-0.016450045630335808,0.0018489999929443002,-0.7467147707939148
1674319701.93857598,164241892,1,0.6644182801246643,-0.016577238216996193,0.001857326366007328,-0.7471747398376465
1674319701.95860481,164261921,1,0.6641795039176941,-0.01644406095147133,0.001678427099250257,-0.7473903894424438
1674319701.97856688,164281883,1,0.6639772057533264,-0.01651422679424286,0.001618084730580449,-0.747568666934967
1674319702.01860189,164321918,1,0.6636724472045898,-0.016474733129143715,0.0017184006283059716,-0.7478398680686951
1674319702.05861878,164361935,1,0.663625955581665,-0.016413148492574692,0.0015997933223843575,-0.7478827834129333
1674319702.09860992,164401926,1,0.6637053489685059,-0.016521992161870003,0.0018540916498750448,-0.7478093504905701
1674319702.13856077,164441877,1,0.6635211110115051,-0.016406811773777008,0.0017970161279663444,-0.7479754686355591
1674319702.15860486,164461921,1,0.6633341312408447,-0.01649298146367073,0.0017289354000240564,-0.7481395602226257
1674319702.17856979,164481886,1,0.6630172729492188,-0.016318293288350105,0.0017418351490050554,-0.7484241724014282
1674319702.21856785,164521884,1,0.6621642708778381,-0.016415584832429886,0.0015819115797057748,-0.7491772174835205
1674319702.25859880,164561915,1,0.6615762114524841,-0.0163099467754364,0.0015659213531762362,-0.7496988773345947
1674319702.29860592,164601922,1,0.6612480282783508,-0.016180844977498055,0.0015384422149509192,-0.749991238117218
1674319702.33863783,164641954,1,0.6616289615631104,-0.016305066645145416,0.0016416803700849414,-0.7496522665023804
1674319702.35858679,164661903,1,0.661928653717041,-0.01631629653275013,0.0016453559510409832,-0.7493874430656433
1674319702.37859583,164681912,1,0.6622335910797119,-0.016301997005939484,0.0017868885770440102,-0.7491179704666138
1674319702.41857195,164721888,1,0.6628323793411255,-0.016163265332579613,0.0016666657757014036,-0.7485914826393127
1674319702.45856881,164761885,1,0.6630836129188538,-0.016156338155269623,0.0017964615253731608,-0.7483687996864319
1674319702.49859786,164801914,1,0.6626109480857849,-0.016035819426178932,0.001754363183863461,-0.7487900257110596
1674319702.53862190,164841938,1,0.6620150208473206,-0.016042914241552353,0.0018977689323946834,-0.7493164539337158
1674319702.55855393,164861870,1,0.6615902781486511,-0.01605897769331932,0.0018898609559983015,-0.7496911883354187
1674319702.57859683,164881913,1,0.6612116098403931,-0.016026398167014122,0.0018536940915510058,-0.7500259280204773
1674319702.61853981,164921856,1,0.6609132885932922,-0.01597888581454754,0.0017723701894283295,-0.750290036201477
1674319702.65857196,164961888,1,0.6610158085823059,-0.0160381980240345,0.0018066269112750888,-0.7501983642578125
1674319702.69860387,165001920,1,0.6614559888839722,-0.016012098640203476,0.0017838975181803107,-0.7498109340667725
1674319702.73859286,165041909,1,0.662041425704956,-0.01596490480005741,0.0017642542952671647,-0.7492951154708862
1674319702.75856996,165061886,1,0.6622202396392822,-0.015984177589416504,0.0017787589458748698,-0.7491366267204285
1674319702.77860785,165081924,1,0.6622741222381592,-0.01598421484231949,0.0017677120631560683,-0.7490890622138977
1674319702.81856585,165121882,1,0.6621243357658386,-0.015938205644488335,0.0018324292032048106,-0.7492222189903259
1674319702.85857677,165161893,1,0.661660373210907,-0.015818677842617035,0.0018750880844891071,-0.7496344447135925
1674319702.89856195,165201878,1,0.6611433029174805,-0.015777867287397385,0.0018359763780608773,-0.7500914931297302
1674319702.93860483,165241921,1,0.6608774065971375,-0.015721682459115982,0.0018893219530582428,-0.7503268122673035
1674319702.95854688,165261863,1,0.6608527898788452,-0.015699319541454315,0.0018501670565456152,-0.7503490447998047
1674319702.97858000,165281896,1,0.6608926653862,-0.01579076424241066,0.0018971703248098493,-0.7503119111061096
1674319703.01863790,165321954,1,0.6612780690193176,-0.015861142426729202,0.0018784550484269857,-0.7499707937240601
1674319703.05856180,165361878,1,0.6616736650466919,-0.01587032899260521,0.0018875772366300225,-0.749621570110321
1674319703.09857893,165401895,1,0.6619125008583069,-0.015908876433968544,0.0018783663399517536,-0.7494099140167236
1674319703.13857293,165441889,1,0.6618332266807556,-0.01586347445845604,0.0018474310636520386,-0.7494809627532959
1674319703.15859485,165461911,1,0.6616503000259399,-0.0158451609313488,0.001895940164104104,-0.7496427297592163
1674319703.17859793,165481914,1,0.6613999605178833,-0.01580648683011532,0.0019042071653530002,-0.749864399433136
1674319703.21855783,165521874,1,0.6610292792320251,-0.015695901587605476,0.0018800102407112718,-0.7501935958862305
1674319703.25861883,165561935,1,0.6607568860054016,-0.01565748080611229,0.0019519751658663154,-0.7504341006278992
1674319703.29854488,165601861,1,0.660740077495575,-0.015601631253957748,0.001942495466209948,-0.7504501342773438
1674319703.33857298,165641889,1,0.6610978841781616,-0.015615154057741165,0.0019166868878528476,-0.7501347064971924
1674319703.35861397,165661930,1,0.6612215042114258,-0.01559058204293251,0.0019379766890779138,-0.7500261664390564
1674319703.37859797,165681914,1,0.6613445281982422,-0.01556423120200634,0.0019108138512820005,-0.7499183416366577
1674319703.41860080,165721917,1,0.661483645439148,-0.015638144686818123,0.0019157527713105083,-0.7497941255569458
1674319703.45861697,165761933,1,0.6614372730255127,-0.015566219575703144,0.001935633597895503,-0.7498364448547363
1674319703.49858785,165801904,1,0.6609892249107361,-0.015560745261609554,0.0019148936262354255,-0.7502316236495972
1674319703.53853393,165841850,1,0.6607072949409485,-0.015559937804937363,0.001894653425551951,-0.7504799365997314
1674319703.55858183,165861898,1,0.6606128215789795,-0.015545360743999481,0.0019451307598501444,-0.7505632638931274
1674319703.57856083,165881877,1,0.6604954600334167,-0.015489300712943077,0.0019243605202063918,-0.7506677508354187
1674319703.61857390,165921890,1,0.660467803478241,-0.0154336579144001,0.001885812496766448,-0.7506933808326721
1674319703.65859389,165961910,1,0.6607751250267029,-0.01549297384917736,0.0019461235497146845,-0.7504214644432068
1674319703.69861293,166001929,1,0.6610192656517029,-0.015561243519186974,0.0020038289949297905,-0.750204861164093
1674319703.73856783,166041884,1,0.6610461473464966,-0.01553085632622242,0.002003445290029049,-0.7501817941665649
1674319703.75859880,166061915,1,0.6610264778137207,-0.015577679499983788,0.0020230531226843596,-0.7501981258392334
1674319703.77856088,166081877,1,0.6609960198402405,-0.015618612058460712,0.0020264743361622095,-0.7502241134643555
1674319703.81856179,166121878,1,0.660765528678894,-0.015560588799417019,0.0019610223826020956,-0.7504284977912903
1674319703.85856891,166161885,1,0.6603810787200928,-0.015450332313776016,0.001967149553820491,-0.7507691383361816
1674319703.89857197,166201888,1,0.6601925492286682,-0.015447729267179966,0.0019494000589475036,-0.7509350180625916
1674319703.93861890,166241935,1,0.6602972149848938,-0.015484381467103958,0.0020178041886538267,-0.7508420348167419
1674319703.95854187,166261858,1,0.6604659557342529,-0.015477190725505352,0.0020705226343125105,-0.7506936192512512
1674319703.97853398,166281850,1,0.6606017351150513,-0.015397661365568638,0.002021710854023695,-0.7505759000778198
1674319704.01856899,166321885,1,0.6608021259307861,-0.01530624832957983,0.001968046650290489,-0.750401496887207
1674319704.05856681,166361883,1,0.6608595848083496,-0.015348144806921482,0.0019950035493820906,-0.7503499388694763
1674319704.09859180,166401908,1,0.6607851982116699,-0.015432192012667656,0.002098598051816225,-0.7504134178161621
1674319704.13857985,166441896,1,0.6605891585350037,-0.015371901914477348,0.0021153753623366356,-0.7505872249603271
1674319704.15856695,166461883,1,0.6604878902435303,-0.01533250231295824,0.0020005565602332354,-0.7506774663925171
1674319704.17859578,166481912,1,0.6603941917419434,-0.015316757373511791,0.0019206827273592353,-0.7507604360580444
1674319704.21854091,166521857,1,0.6602756381034851,-0.015255887061357498,0.0019083298975601792,-0.7508659958839417
1674319704.25856686,166561883,1,0.6603270173072815,-0.015203886665403843,0.0021473609376698732,-0.7508211731910706
1674319704.29859996,166601916,1,0.6605437994003296,-0.015315880067646503,0.0021920849103480577,-0.7506280541419983
1674319704.33859777,166641914,1,0.6607698202133179,-0.015325924381613731,0.0020784111693501472,-0.7504292726516724
1674319704.35857487,166661891,1,0.6608548760414124,-0.015258566476404667,0.0020406502299010754,-0.7503557801246643
1674319704.37861300,166681929,1,0.660891056060791,-0.015178043395280838,0.002056847559288144,-0.7503255009651184
1674319704.41859293,166721909,1,0.6607849597930908,-0.015130902640521526,0.0020497730001807213,-0.7504199743270874
1674319704.45858383,166761900,1,0.6606040596961975,-0.01530427485704422,0.0020153005607426167,-0.7505757808685303
1674319704.49856186,166801878,1,0.6604335308074951,-0.015285618603229523,0.0020641835872083902,-0.7507261037826538
1674319704.53858280,166841899,1,0.6604140996932983,-0.015194017440080643,0.0021333119366317987,-0.7507448792457581
1674319704.55858183,166861898,1,0.6604589819908142,-0.015204181894659996,0.0021236578468233347,-0.7507051825523376
1674319704.57860398,166881920,1,0.6605442762374878,-0.01521197147667408,0.002084228675812483,-0.7506300806999207
1674319704.61861181,166921928,1,0.6607194542884827,-0.015197550877928734,0.0020201345905661583,-0.7504763603210449
1674319704.65856981,166961886,1,0.6608641147613525,-0.015128355473279953,0.002134941751137376,-0.7503500580787659
1674319704.69857693,167001893,1,0.6609023213386536,-0.015191128477454185,0.002169597428292036,-0.7503150701522827
1674319704.73857093,167041887,1,0.6608030796051025,-0.015272530727088451,0.0021912665106356144,-0.750400722026825
1674319704.75858188,167061898,1,0.6607149243354797,-0.015233958140015602,0.0022068119142204523,-0.7504791021347046
1674319704.77859497,167081911,1,0.6606471538543701,-0.015189618803560734,0.0022041832562536,-0.7505396008491516
1674319704.81858897,167121905,1,0.6605460047721863,-0.015207797288894653,0.0022017760202288628,-0.7506282925605774
1674319704.85861588,167161932,1,0.6605615019798279,-0.015248021110892296,0.002136414172127843,-0.7506140470504761
1674319704.89858389,167201900,1,0.6606918573379517,-0.01524006575345993,0.0022040200419723988,-0.7504992485046387
1674319704.93856883,167241885,1,0.6609179973602295,-0.015223202295601368,0.0022608384024351835,-0.7503002882003784
1674319704.95861697,167261933,1,0.6610064506530762,-0.015236969105899334,0.0022599617950618267,-0.7502220869064331
1674319704.97856784,167281884,1,0.6610617637634277,-0.01527875754982233,0.0022576777264475822,-0.75017249584198
1674319705.01861382,167321930,1,0.661064624786377,-0.01525625865906477,0.0022771437652409077,-0.7501704096794128
1674319705.05857086,167361887,1,0.6609592437744141,-0.015154794789850712,0.002324697095900774,-0.7502651214599609
1674319705.09860086,167401917,1,0.6608346700668335,-0.015140606090426445,0.002325469860807061,-0.7503751516342163
1674319705.13853788,167441854,1,0.6607638597488403,-0.01517500076442957,0.0023233999963849783,-0.7504368424415588
1674319705.15859890,167461915,1,0.6607875823974609,-0.01516413688659668,0.002389572560787201,-0.7504159808158875
1674319705.17856693,167481883,1,0.6608372330665588,-0.015160803683102131,0.0024043822195380926,-0.7503722906112671
1674319705.21853781,167521854,1,0.6610158085823059,-0.015132472850382328,0.002402361249551177,-0.7502155303955078
1674319705.25859785,167561914,1,0.6612048745155334,-0.015140630304813385,0.002342760097235441,-0.7500489354133606
1674319705.29860687,167601923,1,0.6613029837608337,-0.015059218741953373,0.002331135096028447,-0.7499641180038452
1674319705.33856297,167641879,1,0.661315381526947,-0.01502988487482071,0.0023924524430185556,-0.74995356798172
1674319705.35859394,167661910,1,0.6612447500228882,-0.015034295618534088,0.002396328141912818,-0.7500157356262207
1674319705.37856483,167681881,1,0.6611840724945068,-0.015045185573399067,0.002404053695499897,-0.7500689625740051
1674319705.41856098,167721877,1,0.6610706448554993,-0.015035406686365604,0.002405541716143489,-0.7501691579818726
1674319705.45860291,167761919,1,0.6610267162322998,-0.014972402714192867,0.002408653497695923,-0.7502090930938721
1674319705.49859500,167801911,1,0.6611194610595703,-0.014980498701334,0.002353118499740958,-0.750127375125885
1674319705.53859782,167841914,1,0.6612910032272339,-0.01497586164623499,0.0023242926690727472,-0.7499763369560242
1674319705.55857396,167861890,1,0.6613803505897522,-0.01498258113861084,0.002336059929803014,-0.7498973608016968
1674319705.57855892,167881875,1,0.6614595055580139,-0.014990026131272316,0.002367771230638027,-0.7498273253440857
1674319705.61853981,167921856,1,0.6615483164787292,-0.01496792770922184,0.002368866465985775,-0.7497494220733643
1674319705.65853977,167961856,1,0.6615301966667175,-0.014961441978812218,0.002324894070625305,-0.7497656941413879
1674319705.69860387,168001920,1,0.6614301204681396,-0.01487781573086977,0.002314778044819832,-0.749855637550354
1674319705.73859692,168041913,1,0.6613281965255737,-0.014821543358266354,0.0023142362479120493,-0.749946653842926
1674319705.75856495,168061881,1,0.6613039374351501,-0.014834953472018242,0.0023104564752429724,-0.7499677538871765
1674319705.77861786,168081934,1,0.6612959504127502,-0.014831931330263615,0.0023207091726362705,-0.7499748468399048
1674319705.81859279,168121909,1,0.6613799333572388,-0.014836110174655914,0.0023104639258235693,-0.749900758266449
1674319705.85856390,168161880,1,0.6615504026412964,-0.014794117771089077,0.0022889741230756044,-0.7497512698173523
1674319705.89856982,168201886,1,0.6617093682289124,-0.014770611189305782,0.002222927287220955,-0.7496116161346436
1674319705.93859577,168241912,1,0.6617929339408875,-0.014766894280910492,0.0021830429323017597,-0.749538004398346
1674319705.95856786,168261884,1,0.6617879271507263,-0.014761109836399555,0.0021808648016303778,-0.7495425939559937
1674319705.97859883,168281915,1,0.6617502570152283,-0.014748305082321167,0.002163074677810073,-0.7495761513710022
1674319706.01858282,168321899,1,0.6616355776786804,-0.014771380461752415,0.002185629680752754,-0.7496768832206726
1674319706.05853891,168361855,1,0.661547839641571,-0.014779427088797092,0.0021852687932550907,-0.7497541308403015
1674319706.09856081,168401877,1,0.6615414619445801,-0.014756472781300545,0.002172923879697919,-0.7497602701187134
1674319706.13857985,168441896,1,0.6616393327713013,-0.014745635911822319,0.0021477704867720604,-0.7496741414070129
1674319706.15855598,168461872,1,0.6617223024368286,-0.014753134921193123,0.0021204722579568624,-0.749600887298584
1674319706.17860985,168481926,1,0.6618156433105469,-0.01476308237761259,0.0021038800477981567,-0.7495183348655701
1674319706.21861291,168521929,1,0.6619419455528259,-0.01478703785687685,0.0021301808301359415,-0.7494062185287476
1674319706.25858283,168561899,1,0.6619872450828552,-0.014801176264882088,0.0021289722062647343,-0.7493659257888794
1674319706.29857779,168601894,1,0.661955714225769,-0.01481851376593113,0.002115285489708185,-0.7493934631347656
1674319706.33855987,168641876,1,0.6618794202804565,-0.014796612784266472,0.002088954672217369,-0.7494613528251648
1674319706.35860991,168661926,1,0.6618394255638123,-0.014772115275263786,0.0020823925733566284,-0.7494971752166748
1674319706.37859178,168681908,1,0.6618092060089111,-0.014759506098926067,0.002087218454107642,-0.7495241165161133
1674319706.41859579,168721912,1,0.6618125438690186,-0.014777889475226402,0.0020944855641573668,-0.7495207786560059
1674319706.45860791,168761924,1,0.6619195938110352,-0.014822428114712238,0.0021176510490477085,-0.7494252920150757
1674319706.49856591,168801882,1,0.6620637774467468,-0.014825253747403622,0.002156882779672742,-0.7492977380752563
1674319706.53856587,168841882,1,0.6621844172477722,-0.01482431124895811,0.0021379338577389717,-0.749191164970398
1674319706.55860782,168861924,1,0.6622233986854553,-0.014815754257142544,0.0021177150774747133,-0.7491570115089417
1674319706.57856393,168881880,1,0.662233829498291,-0.014791855588555336,0.0020982257556170225,-0.7491482496261597
1674319706.61859584,168921912,1,0.6621811389923096,-0.014769474044442177,0.00205210130661726,-0.7491954565048218
1674319706.65858388,168961900,1,0.6621155142784119,-0.01478840596973896,0.0020776016172021627,-0.74925297498703
1674319706.69861078,169001927,1,0.6620640158653259,-0.014832676388323307,0.0020879600197076797,-0.749297559261322
1674319706.73854089,169041857,1,0.6620774865150452,-0.01486991997808218,0.0020967558957636356,-0.7492849230766296
1674319706.75860977,169061926,1,0.662119448184967,-0.014861096628010273,0.002098641823977232,-0.7492479681968689
1674319706.77856684,169081883,1,0.6621738076210022,-0.01485235895961523,0.002089248038828373,-0.749200165271759
1674319706.81856298,169121879,1,0.6623122096061707,-0.014828251674771309,0.002055533928796649,-0.7490783929824829
1674319706.85860181,169161918,1,0.66240394115448,-0.014815270900726318,0.002039046958088875,-0.7489975690841675
1674319706.89860988,169201926,1,0.662415087223053,-0.014822562225162983,0.0020558827091008425,-0.7489875555038452
1674319706.93860698,169241923,1,0.6623765230178833,-0.014875213615596294,0.0020781357306987047,-0.749020516872406
1674319706.95859480,169261911,1,0.6623448133468628,-0.014867475256323814,0.002077784389257431,-0.7490487098693848
1674319706.97853279,169281849,1,0.6623082756996155,-0.014860737137496471,0.002055542077869177,-0.7490811944007874
1674319707.01856995,169321886,1,0.6622568368911743,-0.014826620928943157,0.00201231031678617,-0.7491274476051331
1674319707.05859590,169361912,1,0.6622896790504456,-0.014793411828577518,0.0019755761604756117,-0.7490992546081543
1674319707.09858894,169401905,1,0.6623774766921997,-0.014789765700697899,0.001971064368262887,-0.7490216493606567
1674319707.13861585,169441932,1,0.6624938249588013,-0.014814485795795918,0.0020091882906854153,-0.7489181756973267
1674319707.15856481,169461881,1,0.662539005279541,-0.014830232597887516,0.002018137602135539,-0.7488778829574585
1674319707.17857599,169481892,1,0.6625813841819763,-0.01484767533838749,0.0020395575556904078,-0.7488399744033813
1674319707.21856284,169521879,1,0.6626049876213074,-0.014863983727991581,0.0020040436647832394,-0.7488188743591309
1674319707.25855589,169561872,1,0.662570595741272,-0.014830144122242928,0.0019717251416295767,-0.7488500475883484
1674319707.29859400,169601910,1,0.6625127792358398,-0.014798072166740894,0.00194010220002383,-0.748901903629303
1674319707.33858800,169641904,1,0.662510871887207,-0.014800394885241985,0.0019377362914383411,-0.7489035725593567
1674319707.35858679,169661903,1,0.6625291109085083,-0.014822942204773426,0.0019280444830656052,-0.7488870024681091
1674319707.37860680,169681923,1,0.6625624299049377,-0.014823094010353088,0.0019446694059297442,-0.7488574385643005
1674319707.41856694,169721883,1,0.6626908779144287,-0.014849345199763775,0.001957992557436228,-0.7487432360649109
1674319707.45857191,169761888,1,0.6628131866455078,-0.014810859225690365,0.0019334612879902124,-0.7486358284950256
1674319707.49856281,169801879,1,0.6628912091255188,-0.014787523075938225,0.0018949826480820775,-0.7485672831535339
1674319707.53859878,169841915,1,0.6629024744033813,-0.014778701588511467,0.0018564636120572686,-0.7485575675964355
1674319707.55857396,169861890,1,0.6628938913345337,-0.014772928319871426,0.0018632140709087253,-0.7485652565956116
1674319707.57854700,169881863,1,0.6628668904304504,-0.014791199937462807,0.0018636402674019337,-0.7485888600349426
1674319707.61860895,169921925,1,0.6628221273422241,-0.014812738634645939,0.001842663623392582,-0.7486280798912048
1674319707.65854096,169961857,1,0.6628147959709167,-0.01482411753386259,0.0018234853632748127,-0.748634397983551
1674319707.69856381,170001880,1,0.6628751754760742,-0.014807653613388538,0.0017936605727300048,-0.7485812902450562
1674319707.73859382,170041910,1,0.6629895567893982,-0.014790122397243977,0.001773247611708939,-0.7484804391860962
1674319707.75854683,170061863,1,0.6630449295043945,-0.014804733917117119,0.0017426034901291132,-0.7484311461448669
1674319707.77859879,170081915,1,0.6630858778953552,-0.014795470982789993,0.0017450768500566483,-0.7483950257301331
1674319707.81860280,170121919,1,0.6631437540054321,-0.014809800311923027,0.0017239495646208525,-0.7483435869216919
1674319707.85859299,170161909,1,0.6631377935409546,-0.014786909334361553,0.001721350010484457,-0.7483493089675903
1674319707.89856887,170201885,1,0.6630892157554626,-0.014782893471419811,0.001697790576145053,-0.7483924627304077
1674319707.93861294,170241929,1,0.6630488634109497,-0.014766494743525982,0.0016793152317404747,-0.7484285831451416
1674319707.95861292,170261929,1,0.6630440354347229,-0.014753217808902264,0.0016793851973488927,-0.7484331130981445
1674319707.97859192,170281908,1,0.6630486249923706,-0.014746589586138725,0.001664607203565538,-0.7484291791915894
1674319708.01861095,170321927,1,0.6631120443344116,-0.014737135730683804,0.0016540661454200745,-0.74837327003479
1674319708.05861592,170361932,1,0.6632075905799866,-0.014742671512067318,0.0016644545830786228,-0.7482884526252747
1674319708.09857082,170401887,1,0.6632996797561646,-0.014725148677825928,0.0016620480455458164,-0.748207151889801
1674319708.13856292,170441879,1,0.6633595824241638,-0.014702516607940197,0.0016574901528656483,-0.7481545209884644
1674319708.15861297,170461929,1,0.6633602976799011,-0.014692890457808971,0.0016433221753686666,-0.7481541037559509
1674319708.17855692,170481873,1,0.6633446216583252,-0.014698990620672703,0.0016344558680430055,-0.748167872428894
1674319708.21859694,170521913,1,0.6633216738700867,-0.014700916595757008,0.0016283984296023846,-0.7481881976127625
1674319708.25857687,170561893,1,0.6632938981056213,-0.014708125032484531,0.0016242811689153314,-0.7482126951217651
1674319708.29856896,170601885,1,0.6632977724075317,-0.014726129360496998,0.00161654909607023,-0.7482089400291443
1674319708.33856392,170641880,1,0.6633771657943726,-0.01472077239304781,0.0015981601318344474,-0.7481386661529541
1674319708.35858488,170661901,1,0.6634193658828735,-0.014692345634102821,0.0015841919230297208,-0.7481018304824829
1674319708.37856388,170681880,1,0.6634661555290222,-0.014682148583233356,0.0015660508070141077,-0.7480605840682983
1674319708.41857600,170721892,1,0.6635435819625854,-0.014652010053396225,0.0015431207139045,-0.7479925155639648
1674319708.45861077,170761927,1,0.6635902523994446,-0.014660120941698551,0.0015308053698390722,-0.7479510307312012
1674319708.49860191,170801918,1,0.6636060476303101,-0.014656267128884792,0.0015357319498434663,-0.7479370832443237
1674319708.53859997,170841916,1,0.6635876297950745,-0.014651047997176647,0.001536014722660184,-0.747953474521637
1674319708.55859184,170861908,1,0.6635691523551941,-0.014646525494754314,0.0015320403035730124,-0.7479699850082397
1674319708.57853389,170881850,1,0.6635642647743225,-0.01462914701551199,0.0015219456981867552,-0.747974693775177
1674319708.61856198,170921878,1,0.6635960340499878,-0.014622646383941174,0.0014946033479645848,-0.7479466795921326
1674319708.65855193,170961868,1,0.6636850833892822,-0.014656012877821922,0.001470395247451961,-0.7478670477867126
1674319708.69859481,171001911,1,0.663785994052887,-0.014669995754957199,0.0014608834171667695,-0.7477772235870361
1674319708.73860288,171041919,1,0.66387540102005,-0.014691002666950226,0.0014459248632192612,-0.7476975321769714
1674319708.75857186,171061888,1,0.6639057397842407,-0.014688865281641483,0.0014639776200056076,-0.7476705312728882
1674319708.77858686,171081903,1,0.6639314889907837,-0.014690926298499107,0.00146580976434052,-0.7476476430892944
1674319708.81856585,171121882,1,0.6639309525489807,-0.014662831090390682,0.0014433666365221143,-0.7476487159729004
1674319708.85856700,171161883,1,0.6639130711555481,-0.014633458107709885,0.0014151481445878744,-0.7476652264595032
1674319708.89858198,171201898,1,0.6639068126678467,-0.014610917307436466,0.0014030751772224903,-0.7476712465286255
1674319708.93859386,171241910,1,0.6639370918273926,-0.014611970633268356,0.0014210472581908107,-0.747644305229187
1674319708.95856690,171261883,1,0.6639630794525146,-0.014616699889302254,0.0014271303080022335,-0.7476211190223694
1674319708.97860694,171281923,1,0.6640016436576843,-0.014636603184044361,0.0014300774782896042,-0.7475864887237549
1674319709.01855588,171321872,1,0.6640735268592834,-0.01465012226253748,0.0014290953986346722,-0.7475223541259766
1674319709.05856299,171361879,1,0.6641437411308289,-0.014632757753133774,0.0014114981750026345,-0.7474603652954102
1674319709.09853792,171401854,1,0.6641790866851807,-0.014617998152971268,0.0013744429452344775,-0.7474293112754822
1674319709.13859582,171441912,1,0.6641960740089417,-0.014600039459764957,0.0013475300511345267,-0.7474145889282227
1674319709.15855289,171461869,1,0.6641907095909119,-0.014604691416025162,0.0013520934153348207,-0.7474192976951599
1674319709.17855382,171481870,1,0.6641814112663269,-0.014608079567551613,0.0013797269202768803,-0.7474274039268494
1674319709.21862698,171521943,1,0.6641785502433777,-0.014625759795308113,0.001398291322402656,-0.747429609298706
1674319709.25858879,171561905,1,0.6641973257064819,-0.01463087648153305,0.0013785534538328648,-0.7474128603935242
1674319709.29856396,171601880,1,0.6642471551895142,-0.014622961170971394,0.0013460154877975583,-0.7473687529563904
1674319709.33858585,171641902,1,0.6643180251121521,-0.01458065677434206,0.0013242879649624228,-0.7473066449165344
1674319709.35857487,171661891,1,0.6643630862236023,-0.014578579925000668,0.0013120243092998862,-0.7472666501998901
1674319709.37859488,171681911,1,0.6643970012664795,-0.014577050693333149,0.0012984999921172857,-0.7472365498542786
1674319709.41857386,171721890,1,0.6644077897071838,-0.014568228274583817,0.0013048379914835095,-0.747227132320404
1674319709.45860791,171761924,1,0.6644278764724731,-0.014553481712937355,0.0013371403329074383,-0.7472094893455505
1674319709.49853396,171801850,1,0.6644220948219299,-0.014550312422215939,0.0013393990229815245,-0.747214674949646
1674319709.53856993,171841886,1,0.6644489169120789,-0.01453783456236124,0.001294503454118967,-0.7471911311149597
1674319709.55861783,171861934,1,0.664466381072998,-0.014518764801323414,0.0012767724692821503,-0.7471759915351868
1674319709.57859278,171881909,1,0.6644830107688904,-0.014505155384540558,0.001242102705873549,-0.7471615672111511
1674319709.61859798,171921914,1,0.664549708366394,-0.01449656393378973,0.0012375800870358944,-0.7471023797988892
1674319709.65861487,171961931,1,0.6646175384521484,-0.014534153044223785,0.001220909645780921,-0.7470413446426392
1674319709.69855690,172001873,1,0.6646650433540344,-0.014551714062690735,0.0011948441388085485,-0.7469987869262695
1674319709.73856282,172041879,1,0.6647045016288757,-0.014546726830303669,0.0011832477757707238,-0.7469637989997864
1674319709.75858784,172061904,1,0.664696216583252,-0.014546789228916168,0.0011529175098985434,-0.7469712495803833
1674319709.77856278,172081879,1,0.6647047400474548,-0.01455671340227127,0.0011393773602321744,-0.7469634413719177
1674319709.81859398,172121910,1,0.664707601070404,-0.014541227370500565,0.0011059711687266827,-0.746961236000061
1674319709.85859084,172161907,1,0.664725124835968,-0.014551378786563873,0.0011054308852180839,-0.7469454407691956
1674319709.89859295,172201909,1,0.6647660136222839,-0.014558172784745693,0.0011115343077108264,-0.746908962726593
1674319709.93857598,172241892,1,0.6648191809654236,-0.014553473331034184,0.001099440618418157,-0.7468616962432861
1674319709.95860195,172261918,1,0.6648478507995605,-0.014546790160238743,0.0011009832378476858,-0.7468363642692566
1674319709.97854185,172281858,1,0.6648705005645752,-0.014529154635965824,0.0011007244465872645,-0.7468165159225464
