timestamp,TimeUS,I,Status,GMS,GWk,NSats,HDop,Lat,Lng,Alt,Spd,GCrs,VZ,Yaw,U
1666655387.59999990,261494382,0,3,172205600,2233,12,0.87,42.7309334,-84.4904548,226.79,0.058008622378110886,35.882137298583984,0.06700000166893005,0.0,1
1666655387.61931205,261513694,0,3,172205800,2233,12,0.87,42.730933799999995,-84.49045459999999,226.81,0.0403112918138504,313.99493408203125,0.006000000052154064,0.0,1
1666655387.79962397,261694006,0,3,172206000,2233,12,0.87,42.7309341,-84.49045439999999,226.9,0.04477722942829132,209.42745971679688,-0.04800000041723251,0.0,1
1666655387.97940993,261873792,0,3,172206200,2233,12,0.87,42.730934399999995,-84.4904543,226.96,0.09883826225996017,207.08355712890625,0.018000001087784767,0.0,1
1666655388.17941999,262073802,0,3,172206400,2233,12,0.87,42.7309347,-84.4904541,227.02,0.012165524996817112,260.5376892089844,-0.0010000000474974513,0.0,1
1666655388.37932301,262273705,0,3,172206600,2233,11,0.87,42.730935699999996,-84.4904538,227.13,0.04294182360172272,332.241455078125,0.05100000277161598,0.0,1
1666655388.57930899,262473691,0,3,172206800,2233,11,0.87,42.7309367,-84.49045339999999,227.27,0.02906888537108898,40.81507873535156,0.09400000423192978,0.0,1
1666655388.77940202,262673784,0,3,172207000,2233,11,0.87,42.7309376,-84.4904531,227.43,0.04876474291086197,254.53878784179688,0.06100000441074371,0.0,1
1666655388.97944808,262873830,0,3,172207200,2233,11,0.87,42.7309384,-84.49045269999999,227.55,0.05423098802566528,157.21759033203125,-0.09300000220537186,0.0,1
1666655389.17941689,263073799,0,3,172207400,2233,11,0.87,42.730939299999996,-84.4904523,227.66,0.06466065347194672,140.6482391357422,-0.0950000062584877,0.0,1
1666655389.37938595,263273768,0,3,172207600,2233,11,0.87,42.7309401,-84.4904519,227.77,0.07802563905715942,358.53118896484375,0.01100000087171793,0.0,1
1666655389.59970307,263494085,0,3,172207800,2233,11,0.87,42.730941099999995,-84.49045149999999,227.91,0.05060632526874542,37.77568054199219,-0.06800000369548798,0.0,1
1666655389.77937007,263673752,0,3,172208000,2233,11,0.87,42.730942,-84.4904511,227.99,0.0598163865506649,218.21102905273438,-0.1080000028014183,0.0,1
1666655389.97930193,263873684,0,3,172208200,2233,11,0.87,42.7309428,-84.49045079999999,228.09,0.052086468786001205,86.69812774658203,-0.0010000000474974513,0.0,1
1666655390.17936707,264073749,0,3,172208400,2233,11,0.87,42.730943599999996,-84.49045029999999,228.20000000000002,0.025495098903775215,138.17982482910156,-0.1340000033378601,0.0,1
1666655390.37936997,264273752,0,3,172208600,2233,11,0.87,42.7309446,-84.4904499,228.3,0.03832753747701645,7.495857238769531,-0.07400000095367432,0.0,1
1666655390.57933903,264473721,0,3,172208800,2233,11,0.87,42.7309455,-84.4904495,228.39000000000001,0.09533625096082687,195.20242309570312,0.0860000029206276,0.0,1
1666655390.77943611,264673818,0,3,172209000,2233,11,0.87,42.7309464,-84.4904492,228.44,0.07083079218864441,13.055246353149414,-0.06200000271201134,0.0,1
1666655390.97944093,264873823,0,3,172209200,2233,11,0.87,42.7309474,-84.490449,228.5,0.07353910803794861,315.0,0.07700000703334808,0.0,1
1666655391.17944407,265073826,0,3,172209400,2233,11,0.87,42.730948399999996,-84.4904486,228.65,0.05423098802566528,247.21759033203125,0.0690000057220459,0.0,1
1666655391.37943196,265273814,0,3,172209600,2233,11,0.87,42.7309491,-84.4904482,228.77,0.05178803205490112,190.00799560546875,0.1120000034570694,0.0,1
1666655391.57939291,265473775,0,3,172209800,2233,11,0.87,42.7309499,-84.49044789999999,228.9,0.05813777074217796,266.0548095703125,0.10000000149011612,0.0,1
1666655391.77934194,265673724,0,3,172210000,2233,11,0.87,42.730950799999995,-84.4904475,229.01,0.033837851136922836,325.8403015136719,0.08900000154972076,0.0,1
1666655391.97933197,265873714,0,3,172210200,2233,11,0.87,42.7309518,-84.4904471,229.15,0.098061203956604,281.768310546875,0.24000000953674316,0.0,1
1666655392.17942810,266073810,0,3,172210400,2233,11,0.87,42.730952699999996,-84.4904468,229.23000000000002,0.0648459792137146,289.8321228027344,0.08300000429153442,0.0,1
1666655392.37940407,266273786,0,3,172210600,2233,11,0.87,42.7309535,-84.4904464,229.33,0.0187882948666811,205.20114135742188,0.11800000816583633,0.0,1
1666655392.57941794,266473800,0,3,172210800,2233,11,0.87,42.730954399999995,-84.4904461,229.44,0.03962322697043419,280.1755065917969,0.2160000056028366,0.0,1
1666655392.77946210,266673844,0,3,172211000,2233,11,0.87,42.7309553,-84.4904457,229.59,0.067601777613163,277.6506652832031,0.11100000888109207,0.0,1
1666655392.97943091,266873813,0,3,172211200,2233,12,0.87,42.7309561,-84.49044549999999,229.68,0.07500000298023224,343.73980712890625,0.13100001215934753,0.0,1
1666655393.17937994,267073762,0,3,172211400,2233,12,0.87,42.730956899999995,-84.4904454,229.75,0.03397057577967644,227.38595581054688,-0.01600000075995922,0.0,1
1666655393.37940788,267273790,0,3,172211600,2233,11,0.91,42.730957599999996,-84.4904452,229.82,0.02024845778942108,57.09475326538086,0.1510000079870224,0.0,1
1666655393.57932806,267473710,0,3,172211800,2233,11,0.91,42.7309584,-84.4904451,229.85,0.05663921311497688,227.86239624023438,-0.03800000250339508,0.0,1
1666655393.79973888,267694121,0,3,172212000,2233,11,0.91,42.730959,-84.4904451,229.87,0.021095024421811104,174.5596466064453,-0.04800000041723251,0.0,1
1666655393.97940993,267873792,0,3,172212200,2233,11,0.91,42.7309597,-84.4904451,229.85,0.016552945598959923,64.98310089111328,-0.05700000375509262,0.0,1
1666655394.17940998,268073792,0,3,172212400,2233,11,0.91,42.730960499999995,-84.49044529999999,229.79,0.10988176614046097,13.150947570800781,-0.07500000298023224,0.0,1
1666655394.37944794,268273830,0,3,172212600,2233,9,1.03,42.730961099999995,-84.49044529999999,229.81,0.009000000543892384,270.0,-0.0560000017285347,0.0,1
1666655394.57943201,268473814,0,3,172212800,2233,9,1.03,42.730961199999996,-84.49044459999999,230.01,0.08489994704723358,344.98162841796875,-0.021000001579523087,0.0,1
1666655394.77940989,268673792,0,3,172213000,2233,8,1.03,42.730961,-84.4904443,230.17000000000002,0.06788225471973419,225.0,0.03100000135600567,0.0,1
1666655394.97948694,268873869,0,3,172213200,2233,10,1.03,42.730961,-84.49044479999999,230.15,0.2238057255744934,239.0801544189453,0.024000000208616257,0.0,1
1666655395.17936492,269073747,0,3,172213400,2233,11,1.03,42.730961,-84.490445,230.23000000000002,0.07975588738918304,59.8986930847168,-0.32600000500679016,0.0,1
1666655395.37942100,269273803,0,3,172213600,2233,12,0.77,42.730961,-84.4904456,230.13,0.06350590288639069,277.2369384765625,-0.2639999985694885,0.0,1
1666655395.57941008,269473792,0,3,172213800,2233,11,0.77,42.7309614,-84.49044599999999,230.15,0.14610271155834198,287.93890380859375,-0.07400000095367432,0.0,1
1666655395.77941298,269673795,0,3,172214000,2233,13,0.77,42.7309616,-84.4904468,230.11,0.327299565076828,304.4183654785156,0.31300002336502075,0.0,1
1666655395.97940612,269873788,0,3,172214200,2233,11,0.77,42.7309619,-84.4904473,230.09,0.12731458246707916,304.4389953613281,0.04400000348687172,0.0,1
1666655396.19978690,270094169,0,3,172214400,2233,13,0.77,42.7309621,-84.49044769999999,230.18,0.14449913799762726,265.2363586425781,0.032999999821186066,0.0,1
1666655396.37935591,270273738,0,3,172214600,2233,13,0.75,42.730962,-84.490448,230.37,0.08402381092309952,271.3639221191406,-0.1860000044107437,0.0,1
1666655396.57942796,270473810,0,3,172214800,2233,12,0.75,42.730961799999996,-84.4904481,230.66,0.19897989928722382,221.9444122314453,-0.3660000264644623,0.0,1
1666655396.79988408,270694266,0,3,172215000,2233,13,0.75,42.7309615,-84.490449,230.66,0.12447088211774826,231.19642639160156,-0.37700000405311584,0.0,1
1666655396.97944307,270873825,0,3,172215200,2233,13,0.75,42.730961,-84.4904499,230.58,0.3763402998447418,267.5633544921875,-0.28700000047683716,0.0,1
1666655397.17941403,271073796,0,3,172215400,2233,13,0.75,42.730961,-84.49045199999999,230.09,0.5339738130569458,19.928102493286133,-0.4270000159740448,0.0,1
1666655397.37942505,271273807,0,3,172215600,2233,14,0.72,42.730961199999996,-84.4904535,229.81,0.27626076340675354,267.51043701171875,-0.35500001907348633,0.0,1
1666655397.57937098,271473753,0,3,172215800,2233,13,0.72,42.7309607,-84.49045509999999,229.72,0.21149232983589172,165.76663208007812,-0.40300002694129944,0.0,1
1666655397.79974294,271694125,0,3,172216000,2233,14,0.72,42.730960599999996,-84.4904554,229.84,0.16130097210407257,283.2608642578125,-0.398000031709671,0.0,1
1666655397.99976897,271894151,0,3,172216200,2233,13,0.72,42.730960499999995,-84.4904559,230.01,0.33707717061042786,247.31475830078125,-0.4130000174045563,0.0,1
1666655398.19982600,272094208,0,3,172216400,2233,13,0.72,42.730960499999995,-84.4904564,230.19,0.21357201039791107,319.7478942871094,-0.3750000298023224,0.0,1
1666655398.39983606,272294218,0,3,172216600,2233,14,0.72,42.7309597,-84.4904585,229.91,0.2710074186325073,269.5771484375,-0.18800000846385956,0.0,1
1666655398.59975004,272494132,0,3,172216800,2233,13,0.72,42.730959,-84.49046,229.71,0.18246370553970337,274.08563232421875,-0.18400001525878906,0.0,1
1666655398.77943897,272673821,0,3,172217000,2233,13,0.72,42.730958199999996,-84.49046,229.9,0.1302497684955597,255.3236083984375,-0.38600000739097595,0.0,1
1666655398.97933888,272873721,0,3,172217200,2233,14,0.72,42.7309573,-84.4904603,230.12,0.3240756094455719,178.76231384277344,-0.15800000727176666,0.0,1
1666655399.17942190,273073804,0,3,172217400,2233,14,0.72,42.7309565,-84.490461,230.17000000000002,0.25682681798934937,289.56378173828125,0.06200000271201134,0.0,1
1666655399.37933612,273273718,0,3,172217600,2233,13,0.72,42.730955699999996,-84.4904615,230.41,0.6018978357315063,223.7209930419922,0.18000000715255737,0.0,1
1666655399.57935905,273473741,0,3,172217800,2233,13,0.72,42.7309546,-84.4904619,230.8,0.12553884088993073,239.34933471679688,-0.04700000211596489,0.0,1
1666655399.77935004,273673732,0,3,172218000,2233,13,0.72,42.730953799999995,-84.4904627,230.93,0.09464143216609955,276.6744689941406,0.12000000476837158,0.0,1
1666655399.97946596,273873848,0,3,172218200,2233,13,0.72,42.7309529,-84.49046349999999,231.02,0.29882436990737915,207.93716430664062,0.10400000214576721,0.0,1
1666655400.17941904,274073801,0,3,172218400,2233,13,0.72,42.7309519,-84.49046489999999,231.04,0.20064397156238556,215.6704559326172,0.2290000170469284,0.0,1
1666655400.37942410,274273806,0,3,172218600,2233,14,0.74,42.7309512,-84.4904663,230.94,0.04933558776974678,252.29959106445312,0.32200002670288086,0.0,1
1666655400.59971809,274494100,0,3,172218800,2233,13,0.74,42.730950899999996,-84.4904668,230.91,0.0655209869146347,105.94538879394531,0.2900000214576721,0.0,1
1666655400.79971409,274694096,0,3,172219000,2233,13,0.74,42.7309505,-84.49046709999999,230.96,0.09035485982894897,84.9203872680664,0.2670000195503235,0.0,1
1666655400.97943091,274873813,0,3,172219200,2233,13,0.74,42.73095,-84.49046849999999,230.51,0.36855530738830566,59.32951354980469,0.29500001668930054,0.0,1
1666655401.17946911,275073851,0,3,172219400,2233,13,0.74,42.7309507,-84.4904686,230.42000000000002,0.456711083650589,27.799440383911133,0.4180000126361847,0.0,1
1666655401.39984608,275294228,0,3,172219600,2233,13,0.74,42.730950799999995,-84.4904686,230.34,0.30884626507759094,138.4126739501953,0.0430000014603138,0.0,1
1666655401.57941508,275473797,0,3,172219800,2233,13,0.74,42.7309501,-84.4904696,230.01,0.3390059173107147,180.33802795410156,0.18900001049041748,0.0,1
1666655401.77943897,275673821,0,3,172220000,2233,13,0.74,42.7309494,-84.49047089999999,229.68,0.2842710018157959,171.29978942871094,0.2939999997615814,0.0,1
1666655401.97944689,275873829,0,3,172220200,2233,13,0.74,42.730948999999995,-84.49047159999999,229.6,0.4116515517234802,78.93572998046875,0.032999999821186066,0.0,1
1666655402.17943096,276073813,0,3,172220400,2233,13,0.74,42.7309492,-84.4904724,229.38,0.041868843138217926,310.156005859375,0.15600000321865082,0.0,1
1666655402.37940693,276273789,0,3,172220600,2233,12,0.8300000000000001,42.7309494,-84.49047279999999,229.27,0.0570087768137455,178.99490356445312,0.15600000321865082,0.0,1
1666655402.57931399,276473696,0,3,172220800,2233,12,0.8300000000000001,42.7309493,-84.4904736,229.21,0.07387828081846237,309.5076904296875,0.29100000858306885,0.0,1
1666655402.79975510,276694137,0,3,172221000,2233,13,0.8300000000000001,42.7309488,-84.4904743,229.09,0.21372179687023163,170.84617614746094,0.27800002694129944,0.0,1
1666655402.99973392,276894116,0,3,172221200,2233,13,0.8300000000000001,42.7309483,-84.4904747,229.03,0.15047259628772736,98.02239227294922,0.19100001454353333,0.0,1
1666655403.17941499,277073797,0,3,172221400,2233,13,0.8300000000000001,42.7309477,-84.4904754,228.89000000000001,0.15608331561088562,139.6774139404297,0.32100000977516174,0.0,1
1666655403.37941790,277273800,0,3,172221600,2233,12,0.87,42.7309475,-84.49047589999999,228.73000000000002,0.09935794770717621,40.10090637207031,0.3150000274181366,0.0,1
1666655403.57944608,277473828,0,3,172221800,2233,12,0.87,42.730947,-84.4904761,228.67000000000002,0.3653217852115631,167.0288848876953,0.18700000643730164,0.0,1
1666655403.77944994,277673832,0,3,172222000,2233,12,0.87,42.7309462,-84.49047639999999,228.66,0.228875532746315,174.98687744140625,0.3150000274181366,0.0,1
1666655403.97941709,277873799,0,3,172222200,2233,12,0.87,42.7309458,-84.4904768,228.63,0.07736925035715103,116.89622497558594,0.33400002121925354,0.0,1
1666655404.19974303,278094125,0,3,172222400,2233,12,0.87,42.730945,-84.490478,228.51,0.0255538672208786,239.4207763671875,0.2639999985694885,0.0,1
1666655404.39979601,278294178,0,3,172222600,2233,12,0.87,42.730944099999995,-84.490479,228.47,0.11921828985214233,71.4130630493164,0.17500001192092896,0.0,1
1666655404.57934999,278473732,0,3,172222800,2233,12,0.87,42.7309434,-84.4904799,228.44,0.13579396903514862,170.6763916015625,0.06000000238418579,0.0,1
1666655404.77941394,278673796,0,3,172223000,2233,11,0.87,42.730942899999995,-84.49048069999999,228.26,0.07716217637062073,183.71530151367188,0.1550000011920929,0.0,1
1666655404.97939992,278873782,0,3,172223200,2233,11,0.87,42.7309426,-84.4904816,228.24,0.27506545186042786,225.1472930908203,0.10600000619888306,0.0,1
1666655405.17944002,279073822,0,3,172223400,2233,11,0.87,42.730942299999995,-84.4904828,228.21,0.2047925889492035,264.9575500488281,0.21700000762939453,0.0,1
1666655405.39973593,279294118,0,3,172223600,2233,13,0.85,42.7309421,-84.490484,228.11,0.14577379822731018,255.29644775390625,0.23900000751018524,0.0,1
1666655405.57943106,279473813,0,3,172223800,2233,12,0.85,42.7309422,-84.4904846,228.04,0.19608671963214874,56.228885650634766,0.1730000078678131,0.0,1
1666655405.77938509,279673767,0,3,172224000,2233,12,0.85,42.7309426,-84.4904851,227.96,0.1850000023841858,36.86989974975586,0.14500001072883606,0.0,1
1666655405.97943401,279873816,0,3,172224200,2233,12,0.85,42.7309432,-84.49048549999999,227.87,0.2995480000972748,41.88768768310547,0.20500001311302185,0.0,1
1666655406.17936993,280073752,0,3,172224400,2233,12,0.85,42.730944099999995,-84.49048599999999,227.72,0.28469106554985046,35.42069625854492,0.21900001168251038,0.0,1
1666655406.37941003,280273792,0,3,172224600,2233,12,0.87,42.730944799999996,-84.490487,227.49,0.20800000429153442,67.380126953125,0.23200000822544098,0.0,1
1666655406.57941604,280473798,0,3,172224800,2233,12,0.87,42.730944799999996,-84.490488,227.46,0.18999475240707397,34.275550842285156,0.23800000548362732,0.0,1
1666655406.77943492,280673817,0,3,172225000,2233,11,0.87,42.7309449,-84.4904887,227.33,0.07600000500679016,0.0,0.14500001072883606,0.0,1
1666655406.97944093,280873823,0,3,172225200,2233,12,0.87,42.7309445,-84.49049,227.22,0.08011242747306824,335.6744384765625,0.3100000023841858,0.0,1
1666655407.17939591,281073778,0,3,172225400,2233,12,0.87,42.7309439,-84.4904916,227.0,0.16211415827274323,330.43048095703125,0.3400000035762787,0.0,1
1666655407.37946010,281273842,0,3,172225600,2233,11,0.93,42.7309431,-84.4904932,227.02,0.20703865587711334,268.8929748535156,-0.017000000923871994,0.0,1
1666655407.57942796,281473810,0,3,172225800,2233,12,0.93,42.7309426,-84.490493,227.5,0.23464229702949524,236.6485595703125,-0.13500000536441803,0.0,1
1666655407.79974890,281694131,0,3,172226000,2233,13,0.93,42.730942399999996,-84.49049339999999,227.83,0.452656626701355,316.2531433105469,0.004000000189989805,0.0,1
1666655407.97941303,281873795,0,3,172226200,2233,13,0.93,42.7309426,-84.4904932,228.25,0.18401087820529938,0.6227555871009827,-0.04500000178813934,0.0,1
1666655408.19972205,282094104,0,3,172226400,2233,13,0.93,42.7309419,-84.49049269999999,228.85,0.4566333591938019,201.45191955566406,-0.16500000655651093,0.0,1
1666655408.37940311,282273785,0,3,172226600,2233,13,0.77,42.7309414,-84.4904932,228.88,0.24730953574180603,238.55946350097656,-0.05300000309944153,0.0,1
1666655408.59970498,282494087,0,3,172226800,2233,12,0.77,42.7309408,-84.4904942,229.04,0.6837031841278076,235.72886657714844,0.09600000083446503,0.0,1
1666655408.79973698,282694119,0,3,172227000,2233,14,0.77,42.7309402,-84.4904954,229.20000000000002,0.14066271483898163,234.84112548828125,-0.049000002443790436,0.0,1
1666655408.97938299,282873765,0,3,172227200,2233,14,0.77,42.7309398,-84.4904961,229.39000000000001,0.4101828932762146,262.857666015625,0.30000001192092896,0.0,1
1666655409.17941689,283073799,0,3,172227400,2233,13,0.77,42.730939899999996,-84.4904969,229.38,0.0914822444319725,195.859375,-0.030000001192092896,0.0,1
1666655409.37939596,283273778,0,3,172227600,2233,13,0.77,42.730939899999996,-84.49049749999999,229.42000000000002,0.4442083239555359,262.1070251464844,0.3100000023841858,0.0,1
1666655409.57945609,283473838,0,3,172227800,2233,12,0.77,42.7309396,-84.4904976,229.73000000000002,0.17836199700832367,219.31201171875,-0.010000000707805157,0.0,1
1666655409.77941394,283673796,0,3,172228000,2233,12,0.77,42.7309398,-84.4904978,229.89000000000001,0.3419707715511322,294.1666259765625,0.3110000193119049,0.0,1
1666655409.97936201,283873744,0,3,172228200,2233,13,0.77,42.7309396,-84.4904991,229.81,0.5890543460845947,225.61903381347656,0.13600000739097595,0.0,1
1666655410.17940688,284073789,0,3,172228400,2233,14,0.77,42.7309385,-84.4905016,229.76,0.10060318559408188,232.67449951171875,0.3760000169277191,0.0,1
1666655410.37932992,284273712,0,3,172228600,2233,14,0.72,42.730938699999996,-84.4905027,229.47,0.094021275639534,29.29136085510254,0.21700000762939453,0.0,1
1666655410.57948303,284473865,0,3,172228800,2233,14,0.72,42.7309389,-84.4905035,229.48000000000002,0.2240200936794281,323.89739990234375,0.46400001645088196,0.0,1
1666655410.79982305,284694205,0,3,172229000,2233,14,0.72,42.730938699999996,-84.490505,229.34,0.2815759479999542,3.665184259414673,0.38600000739097595,0.0,1
1666655410.99975491,284894137,0,3,172229200,2233,14,0.72,42.7309382,-84.4905074,228.86,0.10920165479183197,20.92449951171875,0.29500001668930054,0.0,1
1666655411.17941689,285073799,0,3,172229400,2233,14,0.72,42.7309379,-84.49050919999999,228.59,0.1696496456861496,50.02145767211914,0.281000018119812,0.0,1
1666655411.39970708,285294089,0,3,172229600,2233,14,0.72,42.730937999999995,-84.4905101,228.44,0.1569235622882843,67.52056121826172,0.33500000834465027,0.0,1
1666655411.59970093,285494083,0,3,172229800,2233,14,0.72,42.7309384,-84.49051089999999,228.3,0.29384690523147583,27.34987449645996,0.34800001978874207,0.0,1
1666655411.79968500,285694067,0,3,172230000,2233,14,0.72,42.7309385,-84.4905118,228.20000000000002,0.12254387140274048,117.19235229492188,0.21000000834465027,0.0,1
1666655411.97936201,285873744,0,3,172230200,2233,14,0.72,42.730938599999995,-84.4905126,228.05,0.10100000351667404,78.57881164550781,0.17600001394748688,0.0,1
1666655412.19980502,286094187,0,3,172230400,2233,14,0.72,42.730938699999996,-84.49051349999999,227.94,0.036055512726306915,109.44002532958984,0.12300000339746475,0.0,1
1666655412.39993811,286294320,0,3,172230600,2233,14,0.72,42.730939,-84.49051469999999,227.67000000000002,0.11344162374734879,84.9427490234375,0.17100000381469727,0.0,1
1666655412.59975100,286494133,0,3,172230800,2233,14,0.72,42.7309394,-84.49051539999999,227.47,0.2258782982826233,120.31121063232422,-0.012000000104308128,0.0,1
1666655412.77941799,286673800,0,3,172231000,2233,14,0.72,42.7309396,-84.4905157,227.47,0.16570456326007843,108.65362548828125,0.06300000101327896,0.0,1
1666655412.97943497,286873817,0,3,172231200,2233,14,0.72,42.7309397,-84.4905158,227.52,0.09998500347137451,59.33106994628906,-0.026000000536441803,0.0,1
1666655413.17943907,287073821,0,3,172231400,2233,13,0.72,42.730939199999995,-84.49051589999999,227.55,0.10159233212471008,69.24592590332031,0.03500000014901161,0.0,1
1666655413.37930202,287273684,0,3,172231600,2233,13,0.75,42.7309388,-84.4905161,227.58,0.03546829894185066,229.5739288330078,0.1940000057220459,0.0,1
1666655413.57935905,287473741,0,3,172231800,2233,13,0.75,42.730939,-84.49051639999999,227.41,0.2744612991809845,35.65901565551758,0.06100000441074371,0.0,1
1666655413.77940011,287673782,0,3,172232000,2233,14,0.75,42.7309389,-84.49051659999999,227.36,0.051009804010391235,91.12329864501953,0.09200000762939453,0.0,1
1666655413.99977112,287894153,0,3,172232200,2233,14,0.75,42.7309382,-84.4905168,227.49,0.3048098087310791,204.21060180664062,0.01600000075995922,0.0,1
1666655414.19970798,288094090,0,3,172232400,2233,14,0.75,42.7309372,-84.4905162,227.96,0.2577072083950043,208.25559997558594,0.055000003427267075,0.0,1
1666655414.39970303,288294085,0,3,172232600,2233,14,0.72,42.7309361,-84.4905153,228.42000000000002,0.255978524684906,204.46249389648438,0.03800000250339508,0.0,1
1666655414.59974504,288494127,0,3,172232800,2233,14,0.72,42.7309352,-84.49051419999999,228.95000000000002,0.26128336787223816,38.31733703613281,0.13500000536441803,0.0,1
1666655414.77944398,288673826,0,3,172233000,2233,13,0.72,42.7309341,-84.49051349999999,229.41,0.4958518147468567,218.69590759277344,0.07800000160932541,0.0,1
1666655414.99977493,288894157,0,3,172233200,2233,13,0.72,42.730933,-84.4905129,229.73000000000002,0.14447492361068726,207.62925720214844,0.0020000000949949026,0.0,1
1666655415.19977498,289094157,0,3,172233400,2233,13,0.72,42.7309318,-84.49051299999999,229.78,0.02280350960791111,285.255126953125,-0.07900000363588333,0.0,1
1666655415.39982104,289294203,0,3,172233600,2233,13,0.75,42.730930099999995,-84.49051399999999,229.71,0.12406450510025024,178.15237426757812,-0.027000000700354576,0.0,1
1666655415.59972501,289494107,0,3,172233800,2233,13,0.75,42.7309294,-84.4905153,229.49,0.07500667124986649,90.7638931274414,0.052000001072883606,0.0,1
1666655415.79969692,289694079,0,3,172234000,2233,13,0.75,42.7309288,-84.49051639999999,229.34,0.12484391033649445,130.4519500732422,0.11100000888109207,0.0,1
1666655415.99969006,289894072,0,3,172234200,2233,12,0.75,42.7309292,-84.4905168,229.14000000000001,0.03573513776063919,17.927919387817383,0.013000000268220901,0.0,1
1666655416.17954493,290073927,0,3,172234400,2233,12,0.75,42.730929599999996,-84.49051709999999,229.13,0.10829589515924454,355.76361083984375,0.0,0.0,1
1666655416.39974093,290294123,0,3,172234600,2233,13,0.75,42.7309297,-84.49051759999999,229.36,0.055036354809999466,114.70242309570312,-0.10400000214576721,0.0,1
1666655416.59984207,290494224,0,3,172234800,2233,13,0.75,42.7309299,-84.49051759999999,229.64000000000001,0.08839117735624313,315.4583740234375,-0.06800000369548798,0.0,1
1666655416.79977703,290694159,0,3,172235000,2233,12,0.75,42.73093,-84.4905174,229.9,0.07513321936130524,243.0939178466797,-0.020000001415610313,0.0,1
1666655416.99982190,290894204,0,3,172235200,2233,13,0.75,42.73093,-84.4905173,230.15,0.07433034479618073,17.216073989868164,-0.1730000078678131,0.0,1
1666655417.19973993,291094122,0,3,172235400,2233,13,0.75,42.7309297,-84.4905172,230.26,0.08772685378789902,204.22775268554688,-0.1290000081062317,0.0,1
1666655417.39979911,291294181,0,3,172235600,2233,13,0.75,42.7309291,-84.49051779999999,230.17000000000002,0.0860929787158966,210.73550415039062,0.004000000189989805,0.0,1
1666655417.59966612,291494048,0,3,172235800,2233,13,0.75,42.730927699999995,-84.4905187,229.96,0.24697571992874146,192.6294708251953,-0.0820000022649765,0.0,1
1666655417.79972506,291694107,0,3,172236000,2233,12,0.75,42.7309263,-84.4905194,229.81,0.06742403656244278,234.659912109375,0.06400000303983688,0.0,1
1666655417.99971890,291894101,0,3,172236200,2233,13,0.75,42.7309239,-84.4905205,229.91,0.039051249623298645,129.80557250976562,0.07300000637769699,0.0,1
1666655418.19974089,292094123,0,3,172236400,2233,14,0.75,42.7309219,-84.4905218,229.95000000000002,0.49330419301986694,192.28945922851562,-0.014000000432133675,0.0,1
1666655418.37947392,292273856,0,3,172236600,2233,13,0.72,42.7309208,-84.49052209999999,230.03,0.22740714251995087,126.41637420654297,-0.006000000052154064,0.0,1
1666655418.57935500,292473737,0,3,172236800,2233,13,0.72,42.730919799999995,-84.4905228,229.9,0.3220062255859375,157.73599243164062,0.12600000202655792,0.0,1
1666655418.79972005,292694102,0,3,172237000,2233,12,0.72,42.730919,-84.490523,229.83,0.2574101984500885,108.57571411132812,0.032999999821186066,0.0,1
1666655418.99968791,292894070,0,3,172237200,2233,13,0.72,42.7309179,-84.4905248,229.35,0.3378313183784485,143.9102783203125,0.13500000536441803,0.0,1
1666655419.17940092,293073783,0,3,172237400,2233,12,0.72,42.730917,-84.4905241,229.36,0.6348873972892761,118.3007583618164,-0.28600001335144043,0.0,1
1666655419.37934995,293273732,0,3,172237600,2233,12,0.75,42.730916199999996,-84.4905225,229.47,0.7938072681427002,106.01478576660156,-0.18400001525878906,0.0,1
1666655419.59973693,293494119,0,3,172237800,2233,13,0.75,42.730916099999995,-84.4905215,229.52,0.0375765897333622,205.20114135742188,0.3800000250339508,0.0,1
1666655419.77934790,293673730,0,3,172238000,2233,14,0.75,42.7309159,-84.49052139999999,229.63,0.3933764398097992,110.69241333007812,-0.17000000178813934,0.0,1
1666655419.99982190,293894204,0,3,172238200,2233,14,0.75,42.730914999999996,-84.4905216,229.63,0.4517565965652466,149.68878173828125,0.04000000283122063,0.0,1
1666655420.17946601,294073848,0,3,172238400,2233,12,0.75,42.7309142,-84.49052189999999,229.58,0.2041568160057068,92.24573516845703,0.0950000062584877,0.0,1
1666655420.37941408,294273796,0,3,172238600,2233,13,0.85,42.730914,-84.4905218,229.66,0.18062391877174377,85.2363510131836,0.34700000286102295,0.0,1
1666655420.57939792,294473780,0,3,172238800,2233,13,0.85,42.730914399999996,-84.4905216,229.61,0.25185710191726685,102.38075256347656,-0.2639999985694885,0.0,1
1666655420.79978299,294694165,0,3,172239000,2233,14,0.85,42.7309141,-84.49052119999999,229.66,0.5628961324691772,149.69960021972656,-0.33100003004074097,0.0,1
1666655420.99970388,294894086,0,3,172239200,2233,14,0.85,42.7309133,-84.4905211,229.77,0.32369276881217957,203.8726348876953,-0.01600000075995922,0.0,1
1666655421.19977403,295094156,0,3,172239400,2233,14,0.85,42.730913099999995,-84.490521,229.8,0.09339165687561035,167.00537109375,0.17500001192092896,0.0,1
1666655421.39981103,295294193,0,3,172239600,2233,13,0.75,42.730913,-84.49052069999999,229.94,0.23830443620681763,102.11154174804688,0.08500000089406967,0.0,1
1666655421.57941890,295473801,0,3,172239800,2233,14,0.75,42.7309133,-84.4905204,230.08,0.25848984718322754,63.3358154296875,-0.029000001028180122,0.0,1
1666655421.79980302,295694185,0,3,172240000,2233,14,0.75,42.730913699999995,-84.49052019999999,230.18,0.3841731548309326,27.0986385345459,0.23800000548362732,0.0,1
1666655421.99979305,295894175,0,3,172240200,2233,13,0.75,42.7309139,-84.49051999999999,230.26,0.28022313117980957,68.65421295166016,-0.11600000411272049,0.0,1
1666655422.19965410,296094036,0,3,172240400,2233,12,0.75,42.7309141,-84.49051879999999,230.77,0.05154609680175781,18.083444595336914,0.015000000596046448,0.0,1
1666655422.39971709,296294099,0,3,172240600,2233,14,0.72,42.7309142,-84.4905181,231.16,0.21380598843097687,25.48638916015625,-0.05000000074505806,0.0,1
1666655422.59971309,296494095,0,3,172240800,2233,14,0.72,42.7309146,-84.49051779999999,231.39000000000001,0.1202164813876152,315.6740417480469,0.07400000095367432,0.0,1
1666655422.79972005,296694102,0,3,172241000,2233,14,0.72,42.7309146,-84.4905185,231.34,0.11541230976581573,297.89727783203125,-0.01100000087171793,0.0,1
1666655422.97937608,296873758,0,3,172241200,2233,14,0.72,42.730914299999995,-84.49051949999999,231.31,0.38067835569381714,291.57781982421875,-0.14300000667572021,0.0,1
1666655423.19983912,297094221,0,3,172241400,2233,14,0.72,42.7309145,-84.49052019999999,231.34,0.13569451868534088,299.5877685546875,-0.007000000216066837,0.0,1
1666655423.39982295,297294205,0,3,172241600,2233,13,0.72,42.7309142,-84.4905213,231.39000000000001,0.5982641577720642,274.986328125,0.27300000190734863,0.0,1
1666655423.57943106,297473813,0,3,172241800,2233,12,0.72,42.7309136,-84.4905232,231.46,1.0545843839645386,244.01809692382812,0.6910000443458557,0.0,1
1666655423.79977202,297694154,0,3,172242000,2233,14,0.72,42.7309129,-84.4905247,231.49,0.36349692940711975,309.8661193847656,0.1850000023841858,0.0,1
1666655423.97943807,297873820,0,3,172242200,2233,14,0.72,42.7309124,-84.49052569999999,231.46,0.18462124466896057,260.3336181640625,0.1120000034570694,0.0,1
1666655424.17928600,298073668,0,3,172242400,2233,13,0.72,42.7309108,-84.49052499999999,231.71,0.28280913829803467,346.5042724609375,0.01900000125169754,0.0,1
1666655424.37935400,298273736,0,3,172242600,2233,13,0.75,42.7309105,-84.4905252,231.81,0.26483580470085144,311.93896484375,0.0950000062584877,0.0,1
1666655424.59975600,298494138,0,3,172242800,2233,13,0.75,42.7309096,-84.4905256,231.8,0.16719450056552887,279.2933044433594,0.052000001072883606,0.0,1
1666655424.79981494,298694197,0,3,172243000,2233,13,0.75,42.730908899999996,-84.4905256,231.76,0.16070160269737244,328.4859313964844,-0.03200000151991844,0.0,1
1666655424.99993205,298894314,0,3,172243200,2233,14,0.75,42.7309085,-84.49052619999999,232.1,0.17638878524303436,318.4473876953125,0.003000000026077032,0.0,1
1666655425.19972205,299094104,0,3,172243400,2233,13,0.75,42.730907599999995,-84.49052739999999,232.38,0.4224121570587158,217.303955078125,-0.07700000703334808,0.0,1
1666655425.39973903,299294121,0,3,172243600,2233,13,0.75,42.7309068,-84.4905284,232.54,0.055731501430273056,9.293307304382324,0.0860000029206276,0.0,1
1666655425.57943606,299473818,0,3,172243800,2233,13,0.75,42.730906,-84.4905287,232.63,0.25251734256744385,256.9543762207031,0.21300001442432404,0.0,1
1666655425.79971504,299694097,0,3,172244000,2233,13,0.75,42.730905,-84.49052879999999,232.74,0.3167870044708252,224.74423217773438,0.2510000169277191,0.0,1
1666655425.97945189,299873834,0,3,172244200,2233,13,0.75,42.7309038,-84.4905295,232.94,0.6678757667541504,198.5977325439453,0.05900000408291817,0.0,1
1666655426.17944503,300073827,0,3,172244400,2233,14,0.75,42.7309033,-84.4905297,232.93,0.3047950267791748,257.8789978027344,0.1550000011920929,0.0,1
1666655426.37930799,300273690,0,3,172244600,2233,14,0.72,42.7309035,-84.4905299,232.88,0.4525715410709381,194.06695556640625,0.07400000095367432,0.0,1
1666655426.57936502,300473747,0,3,172244800,2233,13,0.72,42.7309032,-84.4905301,232.8,0.2522478997707367,205.85397338867188,0.006000000052154064,0.0,1
1666655426.79971004,300694092,0,3,172245000,2233,13,0.72,42.730903399999995,-84.4905301,232.72,0.16037769615650177,176.0670928955078,0.0950000062584877,0.0,1
1666655426.97945690,300873839,0,3,172245200,2233,12,0.72,42.7309026,-84.4905325,232.28,0.5080885887145996,200.1468963623047,-0.1380000114440918,0.0,1
1666655427.17942905,301073811,0,3,172245400,2233,13,0.72,42.7309024,-84.4905337,232.22,0.1696142703294754,216.12672424316406,0.14900000393390656,0.0,1
1666655427.37941694,301273799,0,3,172245600,2233,12,0.72,42.730903,-84.4905337,232.20000000000002,0.14839474856853485,320.1944274902344,0.009000000543892384,0.0,1
1666655427.57936907,301473751,0,3,172245800,2233,13,0.72,42.730903399999995,-84.49053409999999,232.20000000000002,0.2534758448600769,238.88119506835938,0.15200001001358032,0.0,1
1666655427.79979801,301694180,0,3,172246000,2233,13,0.72,42.730903,-84.49053459999999,232.22,0.23730361461639404,182.89859008789062,-0.08300000429153442,0.0,1
1666655427.99977589,301894158,0,3,172246200,2233,14,0.72,42.7309027,-84.4905344,232.24,0.14431217312812805,249.3045654296875,-0.0010000000474974513,0.0,1
1666655428.19966888,302094051,0,3,172246400,2233,12,0.72,42.7309024,-84.4905349,232.33,0.1790027916431427,359.6799011230469,-0.24500000476837158,0.0,1
1666655428.37940001,302273782,0,3,172246600,2233,14,0.72,42.7309025,-84.4905352,232.37,0.18580098450183868,233.31512451171875,-0.09200000762939453,0.0,1
1666655428.57943296,302473815,0,3,172246800,2233,14,0.72,42.730902,-84.490534,232.49,0.4623126983642578,20.512527465820312,-0.11900000274181366,0.0,1
1666655428.79973412,302694116,0,3,172247000,2233,13,0.72,42.7309011,-84.4905339,232.36,0.032649654895067215,319.9697265625,0.13100001215934753,0.0,1
1666655428.99979305,302894175,0,3,172247200,2233,12,0.72,42.730901499999995,-84.49053459999999,232.13,0.4090672433376312,344.4009094238281,0.07900000363588333,0.0,1
1666655429.17936611,303073748,0,3,172247400,2233,13,0.72,42.730901499999995,-84.490535,231.93,0.34291255474090576,212.2533416748047,0.13300000131130219,0.0,1
1666655429.37938404,303273766,0,3,172247600,2233,14,0.72,42.7309012,-84.4905347,232.12,0.203002467751503,180.28225708007812,0.052000001072883606,0.0,1
1666655429.57934308,303473725,0,3,172247800,2233,13,0.72,42.730900999999996,-84.4905354,232.11,0.33874621987342834,239.87750244140625,0.12400000542402267,0.0,1
1666655429.79968405,303694066,0,3,172248000,2233,12,0.72,42.730901599999996,-84.49053459999999,232.38,0.44648072123527527,6.042590141296387,0.08700000494718552,0.0,1
1666655429.97940207,303873784,0,3,172248200,2233,12,0.72,42.730901599999996,-84.4905332,232.5,0.3012191951274872,311.0964660644531,0.14300000667572021,0.0,1
1666655430.19972205,304094104,0,3,172248400,2233,13,0.72,42.7309025,-84.49053239999999,232.79,0.3546745181083679,62.640228271484375,-0.20900000631809235,0.0,1
1666655430.39976597,304294148,0,3,172248600,2233,12,0.75,42.7309005,-84.49052909999999,233.24,0.41874217987060547,29.626079559326172,-0.06599999964237213,0.0,1
1666655430.59972000,304494102,0,3,172248800,2233,13,0.75,42.7309011,-84.4905283,233.36,0.16571059823036194,336.5290222167969,0.058000002056360245,0.0,1
1666655430.79979992,304694182,0,3,172249000,2233,12,0.75,42.7309019,-84.4905285,233.23000000000002,0.10530432313680649,341.73712158203125,0.05700000375509262,0.0,1
1666655430.97943997,304873822,0,3,172249200,2233,11,0.75,42.7309025,-84.4905287,233.1,0.3110402226448059,0.9210745692253113,0.3460000157356262,0.0,1
1666655431.17934704,305073729,0,3,172249400,2233,12,0.75,42.7309027,-84.4905284,233.21,0.2164486199617386,30.237382888793945,0.15900000929832458,0.0,1
1666655431.39976907,305294151,0,3,172249600,2233,12,0.8300000000000001,42.730902199999996,-84.4905276,233.67000000000002,0.15462537109851837,232.092529296875,0.10100000351667404,0.0,1
1666655431.59969711,305494079,0,3,172249800,2233,14,0.8300000000000001,42.7309006,-84.490529,234.06,0.19949187338352203,355.97576904296875,0.09200000762939453,0.0,1
1666655431.79971504,305694097,0,3,172250000,2233,14,0.8300000000000001,42.7308989,-84.4905302,234.46,0.31445351243019104,25.424175262451172,0.02500000037252903,0.0,1
1666655431.99975801,305894140,0,3,172250200,2233,14,0.8300000000000001,42.7308971,-84.4905308,234.88,0.11225863546133041,25.880271911621094,0.08900000154972076,0.0,1
1666655432.19975901,306094141,0,3,172250400,2233,14,0.8300000000000001,42.7308956,-84.4905303,235.29,0.022360680624842644,333.4349365234375,0.18300001323223114,0.0,1
1666655432.37944603,306273828,0,3,172250600,2233,14,0.8300000000000001,42.7308942,-84.4905302,235.4,0.15725776553153992,33.58901596069336,0.0430000014603138,0.0,1
1666655432.59983397,306494216,0,3,172250800,2233,14,0.72,42.730891799999995,-84.4905323,235.5,0.17486567795276642,243.87454223632812,0.14500001072883606,0.0,1
1666655432.79981589,306694198,0,3,172251000,2233,14,0.72,42.7308896,-84.4905352,235.43,0.08884256333112717,348.3106384277344,0.09200000762939453,0.0,1
1666655432.99967599,306894058,0,3,172251200,2233,14,0.72,42.7308878,-84.4905381,235.27,0.09261749684810638,37.983497619628906,0.07700000703334808,0.0,1
1666655433.19967103,307094053,0,3,172251400,2233,14,0.72,42.7308861,-84.49054129999999,235.07,0.07310950756072998,310.0062561035156,0.12700000405311584,0.0,1
1666655433.39980412,307294186,0,3,172251600,2233,14,0.72,42.7308847,-84.4905442,234.74,0.2128497213125229,45.5710334777832,0.1120000034570694,0.0,1
1666655433.59974504,307494127,0,3,172251800,2233,14,0.72,42.730883,-84.4905462,234.55,0.040311288088560104,119.744873046875,0.01600000075995922,0.0,1
1666655433.77932596,307673708,0,3,172252000,2233,14,0.72,42.7308807,-84.4905476,234.54,0.03841874748468399,38.65980529785156,0.1120000034570694,0.0,1
1666655433.99979806,307894180,0,3,172252200,2233,14,0.72,42.730879099999996,-84.49054869999999,234.61,0.1237618699669838,44.017879486083984,0.08100000023841858,0.0,1
1666655434.19982791,308094210,0,3,172252400,2233,13,0.72,42.730878,-84.4905491,234.82,0.06997142732143402,239.0362548828125,0.0560000017285347,0.0,1
1666655434.37935901,308273741,0,3,172252600,2233,12,0.75,42.730877899999996,-84.4905493,235.05,0.2851245403289795,34.13593673706055,0.09300000220537186,0.0,1
1666655434.57942104,308473803,0,3,172252800,2233,12,0.75,42.730878399999995,-84.4905491,235.06,0.5564908385276794,80.58845520019531,-0.1080000028014183,0.0,1
1666655434.79964709,308694029,0,3,172253000,2233,13,0.75,42.730879099999996,-84.4905497,235.02,0.4339631497859955,57.99461364746094,-0.07600000500679016,0.0,1
1666655434.99971509,308894097,0,3,172253200,2233,12,0.75,42.7308792,-84.49054869999999,235.29,0.6780361533164978,89.4084701538086,0.014000000432133675,0.0,1
1666655435.17945290,309073835,0,3,172253400,2233,14,0.75,42.7308788,-84.4905483,235.17000000000002,0.7031372785568237,114.26860809326172,0.032999999821186066,0.0,1
1666655435.37934303,309273725,0,3,172253600,2233,14,0.72,42.7308786,-84.49054819999999,235.07,0.13505925238132477,88.30284118652344,0.5420000553131104,0.0,1
1666655435.57936096,309473743,0,3,172253800,2233,12,0.72,42.7308783,-84.49054819999999,235.07,0.6350126266479492,90.36090850830078,0.43300002813339233,0.0,1
1666655435.77936697,309673749,0,3,172254000,2233,12,0.72,42.730877799999995,-84.4905483,234.97,0.14560219645500183,164.05459594726562,0.4690000116825104,0.0,1
1666655435.99982810,309894210,0,3,172254200,2233,14,0.72,42.7308775,-84.4905485,235.01,0.5169913172721863,56.67877960205078,0.0020000000949949026,0.0,1
1666655436.19971299,310094095,0,3,172254400,2233,13,0.72,42.730877899999996,-84.4905478,235.06,0.41920164227485657,91.777099609375,0.05100000277161598,0.0,1
1666655436.39981794,310294200,0,3,172254600,2233,14,0.72,42.7308777,-84.4905481,235.16,0.07951100915670395,309.8978271484375,0.22500000894069672,0.0,1
1666655436.57944298,310473825,0,3,172254800,2233,14,0.72,42.730877299999996,-84.4905491,235.31,0.0394081249833107,215.70669555664062,0.03100000135600567,0.0,1
1666655436.79969501,310694077,0,3,172255000,2233,14,0.72,42.730876699999996,-84.4905501,235.45000000000002,0.07102112472057343,170.2724151611328,0.10200000554323196,0.0,1
1666655436.97935605,310873738,0,3,172255200,2233,14,0.72,42.7308757,-84.4905515,235.52,0.14766517281532288,211.4295654296875,0.1550000011920929,0.0,1
1666655437.17941809,311073800,0,3,172255400,2233,14,0.72,42.7308746,-84.4905529,235.67000000000002,0.08989439159631729,332.8648681640625,0.13900001347064972,0.0,1
1666655437.37937093,311273753,0,3,172255600,2233,14,0.72,42.7308737,-84.49055419999999,235.76,0.07964923232793808,128.88449096679688,0.17600001394748688,0.0,1
1666655437.57942891,311473811,0,3,172255800,2233,13,0.72,42.7308731,-84.49055469999999,235.86,0.1550806313753128,218.71751403808594,0.22300000488758087,0.0,1
1666655437.79967904,311694061,0,3,172256000,2233,14,0.72,42.7308732,-84.49055489999999,235.96,0.10807405412197113,51.009002685546875,0.10900000482797623,0.0,1
1666655437.97946405,311873846,0,3,172256200,2233,14,0.72,42.7308733,-84.4905548,236.15,0.10201960802078247,358.876708984375,0.10200000554323196,0.0,1
1666655438.19977689,312094159,0,3,172256400,2233,14,0.72,42.7308733,-84.4905545,236.32,0.20888753235340118,27.66911506652832,0.17000000178813934,0.0,1
1666655438.39979196,312294174,0,3,172256600,2233,14,0.72,42.7308729,-84.4905544,236.55,0.08023092150688171,247.270263671875,0.22800001502037048,0.0,1
1666655438.57944298,312473825,0,3,172256800,2233,14,0.72,42.7308725,-84.4905546,236.69,0.16548414528369904,332.6607360839844,0.07900000363588333,0.0,1
1666655438.79977489,312694157,0,3,172257000,2233,14,0.72,42.7308722,-84.4905552,236.70000000000002,0.10610373318195343,316.52752685546875,0.07100000232458115,0.0,1
1666655438.99973989,312894122,0,3,172257200,2233,14,0.72,42.7308717,-84.49055609999999,236.97,0.3459393382072449,294.41656494140625,0.09200000762939453,0.0,1
1666655439.19974208,313094124,0,3,172257400,2233,13,0.72,42.7308714,-84.4905568,237.3,0.1736663579940796,241.07357788085938,0.009000000543892384,0.0,1
1666655439.40008402,313294466,0,3,172257600,2233,13,0.75,42.730870499999995,-84.4905581,237.6,0.14526183903217316,329.3744812011719,-0.02800000086426735,0.0,1
1666655439.59970498,313494087,0,3,172257800,2233,14,0.75,42.7308691,-84.49055919999999,237.95000000000002,0.21954499185085297,263.1986999511719,0.11100000888109207,0.0,1
1666655439.79975200,313694134,0,3,172258000,2233,13,0.75,42.7308691,-84.49055899999999,238.11,0.11423660069704056,23.198589324951172,-0.010000000707805157,0.0,1
1666655439.97944999,313873832,0,3,172258200,2233,12,0.75,42.730869299999995,-84.4905593,238.18,0.23967687785625458,355.6929626464844,-0.020000001415610313,0.0,1
1666655440.17936993,314073752,0,3,172258400,2233,13,0.75,42.730868099999995,-84.4905608,238.26,0.038052596151828766,266.9872131347656,-0.13600000739097595,0.0,1
1666655440.37931490,314273697,0,3,172258600,2233,13,0.85,42.7308667,-84.4905624,238.42000000000002,0.054708320647478104,300.7841491699219,-0.07100000232458115,0.0,1
1666655440.57941699,314473799,0,3,172258800,2233,13,0.85,42.7308661,-84.4905637,238.42000000000002,0.07116881757974625,17.16191864013672,-0.1120000034570694,0.0,1
1666655440.77941394,314673796,0,3,172259000,2233,13,0.85,42.7308662,-84.4905643,238.32,0.18242807686328888,15.255117416381836,0.03800000250339508,0.0,1
1666655440.97942591,314873808,0,3,172259200,2233,13,0.85,42.7308665,-84.4905648,238.25,0.04801041632890701,1.1934893131256104,0.023000001907348633,0.0,1
1666655441.17945099,315073833,0,3,172259400,2233,13,0.85,42.7308665,-84.4905654,238.17000000000002,0.17310403287410736,212.49658203125,0.11900000274181366,0.0,1
1666655441.39974308,315294125,0,3,172259600,2233,13,0.85,42.730866,-84.49056619999999,238.09,0.2971127927303314,248.2702178955078,0.18400001525878906,0.0,1
1666655441.59980297,315494185,0,3,172259800,2233,14,0.85,42.7308654,-84.4905668,238.24,0.15286922454833984,305.1455383300781,0.22300000488758087,0.0,1
1666655441.79985189,315694234,0,3,172260000,2233,14,0.85,42.7308646,-84.4905679,238.18,0.14447492361068726,207.62925720214844,0.20100000500679016,0.0,1
1666655441.97943997,315873822,0,3,172260200,2233,13,0.85,42.7308636,-84.4905692,238.16,0.07420243322849274,307.33319091796875,0.2510000169277191,0.0,1
1666655442.19964194,316094024,0,3,172260400,2233,13,0.85,42.730863,-84.4905706,238.19,0.04522167518734932,305.0958251953125,0.055000003427267075,0.0,1
1666655442.39970803,316294090,0,3,172260600,2233,13,0.85,42.7308628,-84.4905721,238.15,0.06453680992126465,12.528807640075684,0.1380000114440918,0.0,1
1666655442.59971094,316494093,0,3,172260800,2233,13,0.85,42.730862699999996,-84.4905739,238.11,0.11002727597951889,82.16447448730469,0.0950000062584877,0.0,1
1666655442.79970193,316694084,0,3,172261000,2233,13,0.85,42.7308637,-84.49057499999999,237.91,0.09013878554105759,199.44004821777344,0.10400000214576721,0.0,1
1666655442.97942090,316873803,0,3,172261200,2233,13,0.85,42.730864,-84.4905756,237.79,0.20038214325904846,111.05802917480469,0.2590000033378601,0.0,1
1666655443.17942810,317073810,0,3,172261400,2233,13,0.85,42.730864,-84.4905763,237.65,0.1524631232023239,59.22959518432617,0.17600001394748688,0.0,1
1666655443.37946892,317273851,0,3,172261600,2233,13,0.85,42.7308637,-84.490577,237.57,0.18113531172275543,124.65513610839844,0.203000009059906,0.0,1
1666655443.57945395,317473836,0,3,172261800,2233,12,0.85,42.730863299999996,-84.4905776,237.57,0.11527792364358902,93.97937774658203,0.16500000655651093,0.0,1
1666655443.79963899,317694021,0,3,172262000,2233,13,0.85,42.730863199999995,-84.4905783,237.63,0.0590762235224247,236.04095458984375,0.33400002121925354,0.0,1
1666655443.99964094,317894023,0,3,172262200,2233,12,0.85,42.730863199999995,-84.4905788,237.74,0.019313208758831024,201.25051879882812,0.25600001215934753,0.0,1
1666655444.19968605,318094068,0,3,172262400,2233,13,0.85,42.730863299999996,-84.4905795,237.8,0.1508144587278366,281.08642578125,0.3460000157356262,0.0,1
1666655444.37939906,318273781,0,3,172262600,2233,13,0.72,42.730862599999995,-84.4905819,237.96,0.1296340972185135,258.4300537109375,0.2410000115633011,0.0,1
1666655444.59971905,318494101,0,3,172262800,2233,14,0.72,42.730861399999995,-84.4905845,237.98000000000002,0.07093659788370132,139.57391357421875,-0.03200000151991844,0.0,1
1666655444.79975510,318694137,0,3,172263000,2233,14,0.72,42.730860299999996,-84.4905864,237.99,0.08973851054906845,104.19108581542969,-0.032999999821186066,0.0,1
1666655444.99982309,318894205,0,3,172263200,2233,13,0.72,42.7308593,-84.4905888,237.81,0.14713940024375916,133.34768676757812,0.07700000703334808,0.0,1
1666655445.19976807,319094150,0,3,172263400,2233,13,0.72,42.7308588,-84.4905904,237.54,0.04729693755507469,193.44862365722656,0.06200000271201134,0.0,1
1666655445.37940788,319273790,0,3,172263600,2233,14,0.72,42.7308583,-84.4905915,237.55,0.14228492975234985,273.6265869140625,0.2580000162124634,0.0,1
1666655445.57942104,319473803,0,3,172263800,2233,14,0.72,42.7308585,-84.4905919,237.33,0.2710737884044647,72.8351058959961,0.0430000014603138,0.0,1
1666655445.77941298,319673795,0,3,172264000,2233,14,0.72,42.7308583,-84.49059199999999,237.33,0.09493682533502579,66.40518188476562,0.14900000393390656,0.0,1
1666655445.97942400,319873806,0,3,172264200,2233,14,0.72,42.7308582,-84.4905922,237.36,0.06313478201627731,29.40718650817871,0.2460000067949295,0.0,1
1666655446.17934108,320073723,0,3,172264400,2233,12,0.72,42.730858,-84.4905926,237.32,0.1225765123963356,228.63818359375,0.18300001323223114,0.0,1
1666655446.39984488,320294227,0,3,172264600,2233,12,0.85,42.730857799999995,-84.4905933,237.31,0.28897926211357117,200.88095092773438,0.18700000643730164,0.0,1
1666655446.59978104,320494163,0,3,172264800,2233,13,0.85,42.7308571,-84.49059369999999,237.32,0.2006838321685791,195.90618896484375,-0.026000000536441803,0.0,1
1666655446.79981399,320694196,0,3,172265000,2233,14,0.85,42.7308565,-84.4905941,237.27,0.1322459876537323,135.91909790039062,-0.06599999964237213,0.0,1
1666655446.99970102,320894083,0,3,172265200,2233,13,0.85,42.7308564,-84.4905943,237.29,0.13923002779483795,56.42406463623047,-0.11500000208616257,0.0,1
1666655447.19974804,321094130,0,3,172265400,2233,14,0.85,42.7308561,-84.4905947,237.11,0.19412368535995483,27.62107276916504,0.05400000140070915,0.0,1
1666655447.39972997,321294112,0,3,172265600,2233,13,0.72,42.7308555,-84.490595,237.05,0.13971400260925293,66.37062072753906,0.018000001087784767,0.0,1
1666655447.59971499,321494097,0,3,172265800,2233,13,0.72,42.7308551,-84.490596,236.89000000000001,0.39849719405174255,340.6556701660156,-0.10700000822544098,0.0,1
1666655447.79974794,321694130,0,3,172266000,2233,13,0.72,42.7308551,-84.49059659999999,236.83,0.284269243478775,14.671751022338867,-0.10200000554323196,0.0,1
1666655447.97944689,321873829,0,3,172266200,2233,12,0.72,42.7308546,-84.4905967,236.79,0.12160592526197433,126.30449676513672,-0.08700000494718552,0.0,1
1666655448.19984198,322094224,0,3,172266400,2233,12,0.72,42.730854199999996,-84.4905971,236.62,0.11543396860361099,340.78021240234375,-0.12000000476837158,0.0,1
1666655448.39977694,322294159,0,3,172266600,2233,11,0.79,42.7308538,-84.49059779999999,236.55,0.049648769199848175,325.6697998046875,-0.08900000154972076,0.0,1
1666655448.59971404,322494096,0,3,172266800,2233,11,0.79,42.7308533,-84.4905983,236.5,0.07280109822750092,344.0545959472656,0.05300000309944153,0.0,1
1666655448.77942204,322673804,0,3,172267000,2233,10,0.79,42.730852399999996,-84.4905986,236.38,0.21445047855377197,137.4567108154297,-0.25699999928474426,0.0,1
1666655448.99979305,322894175,0,3,172267200,2233,10,0.79,42.7308515,-84.4905983,236.21,0.4396021068096161,109.25928497314453,-0.08300000429153442,0.0,1
1666655449.19967604,323094058,0,3,172267400,2233,10,0.79,42.7308506,-84.4905982,236.19,0.006403124425560236,51.34019088745117,0.14000000059604645,0.0,1
1666655449.37940407,323273786,0,3,172267600,2233,9,0.89,42.7308498,-84.49059849999999,236.14000000000001,0.10159724950790405,118.83548736572266,0.07700000703334808,0.0,1
1666655449.57933807,323473720,0,3,172267800,2233,9,0.89,42.730849,-84.49059869999999,236.12,0.1194026842713356,126.48601531982422,0.1420000046491623,0.0,1
1666655449.77930999,323673692,0,3,172268000,2233,10,0.89,42.7308484,-84.49059849999999,236.12,0.05448853224515915,132.76881408691406,0.18400001525878906,0.0,1
1666655449.97936106,323873743,0,3,172268200,2233,10,0.89,42.7308479,-84.4905982,236.07,0.04455334320664406,99.03948211669922,0.04800000041723251,0.0,1
1666655450.17941308,324073795,0,3,172268400,2233,10,0.89,42.730847399999995,-84.49059799999999,236.03,0.042296573519706726,263.2110290527344,0.14400000870227814,0.0,1
1666655450.37939191,324273774,0,3,172268600,2233,10,0.8300000000000001,42.730846899999996,-84.49059779999999,235.97,0.01044030673801899,286.6992492675781,0.1720000058412552,0.0,1
1666655450.57935810,324473740,0,3,172268800,2233,10,0.8300000000000001,42.7308466,-84.4905974,235.92000000000002,0.09676776826381683,18.060470581054688,0.31800001859664917,0.0,1
1666655450.77940989,324673792,0,3,172269000,2233,10,0.8300000000000001,42.7308461,-84.4905972,235.87,0.047074414789676666,282.2647705078125,0.20900000631809235,0.0,1
1666655450.99973798,324894120,0,3,172269200,2233,10,0.8300000000000001,42.730845599999995,-84.4905969,235.75,0.023194829002022743,187.43141174316406,0.2540000081062317,0.0,1
1666655451.17934108,325073723,0,3,172269400,2233,10,0.8300000000000001,42.7308449,-84.49059659999999,235.65,0.07528612017631531,50.38930892944336,0.36100003123283386,0.0,1
1666655451.37928295,325273665,0,3,172269600,2233,10,0.8300000000000001,42.7308443,-84.49059609999999,235.63,0.07502666115760803,111.09233093261719,0.10500000417232513,0.0,1
1666655451.57934999,325473732,0,3,172269800,2233,10,0.8300000000000001,42.7308437,-84.49059559999999,235.70000000000002,0.02941088378429413,17.81888771057129,0.242000013589859,0.0,1
1666655451.77938390,325673766,0,3,172270000,2233,10,0.8300000000000001,42.7308431,-84.49059539999999,235.69,0.139474019408226,287.52557373046875,0.36000001430511475,0.0,1
1666655451.97940111,325873783,0,3,172270200,2233,10,0.8300000000000001,42.7308425,-84.4905952,235.70000000000002,0.05408327281475067,19.440032958984375,0.03800000250339508,0.0,1
1666655452.17943311,326073815,0,3,172270400,2233,10,0.8300000000000001,42.7308417,-84.4905947,235.73000000000002,0.09610411524772644,77.98851776123047,0.11000000685453415,0.0,1
1666655452.39979005,326294172,0,3,172270600,2233,10,0.8300000000000001,42.730841,-84.49059419999999,235.76,0.0530848391354084,183.23971557617188,0.20100000500679016,0.0,1
1666655452.59982610,326494208,0,3,172270800,2233,11,0.8300000000000001,42.7308406,-84.4905936,235.89000000000001,0.04219004884362221,328.5704345703125,0.23500001430511475,0.0,1
1666655452.77939296,326673775,0,3,172271000,2233,11,0.8300000000000001,42.730840099999995,-84.4905929,236.02,0.10358571261167526,120.77401733398438,0.08500000089406967,0.0,1
1666655452.99972701,326894109,0,3,172271200,2233,10,0.8300000000000001,42.7308394,-84.49059249999999,236.28,0.025961510837078094,254.35775756835938,0.06200000271201134,0.0,1
1666655453.19966793,327094050,0,3,172271400,2233,11,0.8300000000000001,42.7308382,-84.49059129999999,236.61,0.18797075748443604,75.52017974853516,0.052000001072883606,0.0,1
1666655453.39962697,327294009,0,3,172271600,2233,12,0.72,42.7308379,-84.4905905,236.76,0.17258621752262115,348.2994079589844,0.1510000079870224,0.0,1
1666655453.57931590,327473698,0,3,172271800,2233,11,0.72,42.7308382,-84.49058989999999,236.85,0.14221462607383728,116.74522399902344,0.049000002443790436,0.0,1
1666655453.79973507,327694117,0,3,172272000,2233,11,0.72,42.730838399999996,-84.4905891,237.04,0.08570881187915802,352.626220703125,0.2370000183582306,0.0,1
1666655453.97942495,327873807,0,3,172272200,2233,11,0.72,42.7308387,-84.49058869999999,237.15,0.18879884481430054,262.0845031738281,0.1120000034570694,0.0,1
1666655454.17937207,328073754,0,3,172272400,2233,12,0.72,42.730838899999995,-84.4905881,237.33,0.19258765876293182,168.92343139648438,-0.036000002175569534,0.0,1
1666655454.37938690,328273769,0,3,172272600,2233,12,0.72,42.7308393,-84.49058749999999,237.46,0.2750454545021057,358.9583740234375,0.28200000524520874,0.0,1
1666655454.57932711,328473709,0,3,172272800,2233,12,0.72,42.730840199999996,-84.4905868,237.5,0.07615773379802704,60.068485260009766,0.15700000524520874,0.0,1
1666655454.79966402,328694046,0,3,172273000,2233,13,0.72,42.730840699999995,-84.4905857,237.64000000000001,0.0660378709435463,32.00537872314453,0.05400000140070915,0.0,1
1666655454.97937107,328873753,0,3,172273200,2233,13,0.72,42.7308419,-84.4905844,237.81,0.0672309473156929,210.37913513183594,0.13300000131130219,0.0,1
1666655455.19966412,329094046,0,3,172273400,2233,12,0.72,42.7308433,-84.490583,237.85,0.10357606410980225,100.00797271728516,0.04200000315904617,0.0,1
1666655455.39970803,329294090,0,3,172273600,2233,12,0.75,42.7308447,-84.4905816,237.96,0.1775640845298767,346.981201171875,0.11300000548362732,0.0,1
1666655455.57938099,329473763,0,3,172273800,2233,12,0.75,42.730845699999996,-84.4905801,238.14000000000001,0.19927118718624115,188.6587371826172,0.10500000417232513,0.0,1
1666655455.79975510,329694137,0,3,172274000,2233,12,0.75,42.7308467,-84.49057859999999,238.3,0.06767570227384567,18.970407485961914,0.16500000655651093,0.0,1
1666655455.99977589,329894158,0,3,172274200,2233,13,0.75,42.730847499999996,-84.4905768,238.55,0.11890332400798798,161.86981201171875,0.17600001394748688,0.0,1
1666655456.19976306,330094145,0,3,172274400,2233,13,0.75,42.7308482,-84.49057499999999,238.75,0.10002000629901886,11.53462028503418,0.05300000309944153,0.0,1
1666655456.39966607,330294048,0,3,172274600,2233,13,0.75,42.730849,-84.49057309999999,239.03,0.026419691741466522,119.47587585449219,-0.04000000283122063,0.0,1
1666655456.59965706,330494039,0,3,172274800,2233,13,0.75,42.73085,-84.4905714,239.16,0.16807736456394196,22.7509765625,0.33500000834465027,0.0,1
1666655456.79969811,330694080,0,3,172275000,2233,11,0.75,42.730851099999995,-84.4905704,239.11,0.13152946531772614,314.3839416503906,0.3330000042915344,0.0,1
1666655456.97927690,330873659,0,3,172275200,2233,12,0.75,42.730851799999996,-84.49056929999999,239.17000000000002,0.08563294261693954,227.3662567138672,0.0950000062584877,0.0,1
1666655457.19979811,331094180,0,3,172275400,2233,12,0.75,42.7308525,-84.4905685,239.21,0.3004213869571686,57.36790466308594,0.14100000262260437,0.0,1
1666655457.37946606,331273848,0,3,172275600,2233,12,0.75,42.7308533,-84.4905679,239.3,0.11677756905555725,312.57073974609375,0.14500001072883606,0.0,1
1666655457.57933307,331473715,0,3,172275800,2233,12,0.75,42.7308537,-84.4905679,239.34,0.2713300883769989,251.96572875976562,0.289000004529953,0.0,1
1666655457.79973602,331694118,0,3,172276000,2233,14,0.75,42.730854,-84.4905677,239.53,0.022472206503152847,69.14553833007812,0.06700000166893005,0.0,1
1666655457.99972010,331894102,0,3,172276200,2233,14,0.75,42.730854699999995,-84.4905672,239.61,0.21758906543254852,94.21693420410156,0.0010000000474974513,0.0,1
1666655458.19966602,332094048,0,3,172276400,2233,14,0.75,42.7308555,-84.490567,239.55,0.12758135795593262,56.18537521362305,0.3070000112056732,0.0,1
1666655458.37930489,332273687,0,3,172276600,2233,14,0.72,42.7308565,-84.49056709999999,239.57,0.1225765123963356,48.63818359375,-0.01600000075995922,0.0,1
1666655458.59976411,332494146,0,3,172276800,2233,14,0.72,42.7308574,-84.490567,239.62,0.2245551347732544,11.56013011932373,0.15700000524520874,0.0,1
1666655458.79969692,332694079,0,3,172277000,2233,13,0.72,42.7308581,-84.4905673,239.68,0.18439090251922607,204.3411102294922,-0.017000000923871994,0.0,1
1666655458.99978900,332894171,0,3,172277200,2233,13,0.72,42.7308587,-84.490567,239.82,0.381266325712204,76.0366439819336,-0.10700000822544098,0.0,1
1666655459.19978499,333094167,0,3,172277400,2233,13,0.72,42.7308599,-84.4905668,239.65,0.11925183981657028,17.06740379333496,-0.1210000067949295,0.0,1
1666655459.37934804,333273730,0,3,172277600,2233,13,0.72,42.7308611,-84.4905673,239.54,0.172956645488739,254.91921997070312,0.07800000160932541,0.0,1
1666655459.57940102,333473783,0,3,172277800,2233,13,0.72,42.7308625,-84.4905678,239.38,0.2043624222278595,20.0310115814209,-0.11700000613927841,0.0,1
1666655459.79971910,333694101,0,3,172278000,2233,13,0.72,42.7308636,-84.49056809999999,239.28,0.09078545868396759,243.1527099609375,-0.10000000149011612,0.0,1
1666655459.97941208,333873794,0,3,172278200,2233,13,0.72,42.7308646,-84.490568,239.22,0.29821133613586426,74.23934173583984,-0.38700002431869507,0.0,1
1666655460.17929411,334073676,0,3,172278400,2233,13,0.72,42.730865699999995,-84.4905679,239.06,0.07387828081846237,50.4923210144043,0.049000002443790436,0.0,1
1666655460.37932491,334273707,0,3,172278600,2233,14,0.72,42.7308668,-84.49056759999999,239.04,0.2663268744945526,65.8409194946289,-0.23400001227855682,0.0,1
1666655460.57929206,334473674,0,3,172278800,2233,13,0.72,42.7308673,-84.49056739999999,239.08,0.12949518859386444,222.80943298339844,0.03700000047683716,0.0,1
1666655460.79972696,334694109,0,3,172279000,2233,13,0.72,42.7308677,-84.4905678,239.07,0.15241064131259918,233.80679321289062,-0.06000000238418579,0.0,1
1666655460.97942591,334873808,0,3,172279200,2233,13,0.72,42.7308679,-84.4905679,239.12,0.155666321516037,227.0825653076172,0.05300000309944153,0.0,1
1666655461.19967794,335094060,0,3,172279400,2233,14,0.72,42.730868199999996,-84.490567,239.27,0.11458621919155121,46.41442108154297,-0.029000001028180122,0.0,1
1666655461.39971590,335294098,0,3,172279600,2233,14,0.72,42.730868199999996,-84.490566,239.48000000000002,0.11516944319009781,20.323135375976562,-0.10000000149011612,0.0,1
1666655461.59974909,335494131,0,3,172279800,2233,13,0.72,42.7308679,-84.49056519999999,239.55,0.09004998952150345,91.90914154052734,0.04500000178813934,0.0,1
1666655461.79971695,335694099,0,3,172280000,2233,14,0.72,42.7308678,-84.4905642,239.55,0.16541160643100739,70.57917785644531,0.06800000369548798,0.0,1
1666655461.99972296,335894105,0,3,172280200,2233,14,0.72,42.730867499999995,-84.4905634,239.70000000000002,0.10925200581550598,246.25050354003906,-0.04000000283122063,0.0,1
1666655462.19976306,336094145,0,3,172280400,2233,14,0.72,42.7308674,-84.4905627,239.72,0.13651740550994873,43.5159797668457,0.05100000277161598,0.0,1
1666655462.37931895,336273701,0,3,172280600,2233,13,0.75,42.730867499999995,-84.4905615,239.84,0.28058868646621704,31.594120025634766,0.02800000086426735,0.0,1
1666655462.59967399,336494056,0,3,172280800,2233,13,0.75,42.7308677,-84.4905603,239.99,0.29061490297317505,18.247909545898438,0.02800000086426735,0.0,1
1666655462.79974198,336694124,0,3,172281000,2233,13,0.75,42.7308677,-84.4905593,240.15,0.1102587953209877,321.259033203125,0.006000000052154064,0.0,1
1666655462.99970794,336894090,0,3,172281200,2233,13,0.75,42.7308678,-84.49055829999999,240.34,0.17923448979854584,83.271484375,-0.020000001415610313,0.0,1
1666655463.19972801,337094110,0,3,172281400,2233,13,0.75,42.730868099999995,-84.4905579,240.33,0.08955445885658264,66.29734802246094,-0.014000000432133675,0.0,1
