timestamp,TimeUS,Lat,Lng,Alt,RelHomeAlt,RelOriginAlt
1666655387.60067296,261495055,42.730927199999996,-84.49046299999999,221.00999450683594,0.002895193174481392,0.2728951871395111
1666655387.64008403,261534466,42.7309273,-84.49046299999999,221.00999450683594,0.0038190651684999466,0.27381905913352966
1666655387.67995095,261574333,42.7309274,-84.4904629,221.00999450683594,0.004535214975476265,0.274535208940506
1666655387.68013191,261574514,42.7309274,-84.4904629,221.00999450683594,0.004535214975476265,0.274535208940506
1666655387.71972489,261614107,42.7309274,-84.4904628,221.00999450683594,0.005130069330334663,0.2751300632953644
1666655387.75974488,261654127,42.7309275,-84.4904628,221.00999450683594,0.005612658336758614,0.27561265230178833
1666655387.77997899,261674361,42.7309275,-84.4904627,221.00999450683594,0.0058893729001283646,0.2758893668651581
1666655387.80009294,261694475,42.7309276,-84.4904627,221.00999450683594,0.006142484024167061,0.2761424779891968
1666655387.84001088,261734393,42.7309276,-84.4904626,221.00999450683594,0.007394539192318916,0.27739453315734863
1666655387.87989497,261774277,42.730927699999995,-84.49046249999999,221.00999450683594,0.00854097492992878,0.2785409688949585
1666655387.88000202,261774384,42.730927699999995,-84.49046249999999,221.00999450683594,0.00854097492992878,0.2785409688949585
1666655387.91980100,261814183,42.730927799999996,-84.49046249999999,221.00999450683594,0.009531663730740547,0.27953165769577026
1666655387.95975304,261854135,42.730927799999996,-84.4904624,221.01998901367188,0.010434644296765327,0.28043463826179504
1666655387.97992110,261874303,42.7309279,-84.4904624,221.01998901367188,0.010971145704388618,0.28097113966941833
1666655388.00005603,261894438,42.7309279,-84.49046229999999,221.01998901367188,0.011244433000683784,0.2812444269657135
1666655388.04011798,261934500,42.730928,-84.4904622,221.01998901367188,0.011822449043393135,0.28182244300842285
1666655388.07993197,261974314,42.730928,-84.4904621,221.01998901367188,0.012415098026394844,0.28241509199142456
1666655388.08006406,261974446,42.730928,-84.4904621,221.01998901367188,0.012415098026394844,0.28241509199142456
1666655388.11979389,262014176,42.7309281,-84.490462,221.01998901367188,0.012918489053845406,0.2829184830188751
1666655388.15967798,262054060,42.7309281,-84.490462,221.01998901367188,0.013658987358212471,0.2836589813232422
1666655388.17992902,262074311,42.7309282,-84.490462,221.01998901367188,0.014093296602368355,0.28409329056739807
1666655388.20000005,262094382,42.7309282,-84.490462,221.01998901367188,0.014489071443676949,0.28448906540870667
1666655388.24003005,262134412,42.730928299999995,-84.4904619,221.01998901367188,0.014912443235516548,0.28491243720054626
1666655388.27997994,262174362,42.730928399999996,-84.49046179999999,221.01998901367188,0.015224205330014229,0.28522419929504395
1666655388.28008389,262174466,42.730928399999996,-84.49046179999999,221.01998901367188,0.015224205330014229,0.28522419929504395
1666655388.31984401,262214226,42.730928399999996,-84.4904617,221.01998901367188,0.015473650768399239,0.28547364473342896
1666655388.35972810,262254110,42.7309285,-84.4904617,221.01998901367188,0.015760021284222603,0.2857600152492523
1666655388.37986207,262274244,42.7309285,-84.4904617,221.01998901367188,0.015920298174023628,0.28592029213905334
1666655388.40035105,262294733,42.7309286,-84.4904616,221.01998901367188,0.015474395826458931,0.28547438979148865
1666655388.44011497,262334497,42.7309287,-84.4904615,221.01998901367188,0.015127049759030342,0.28512704372406006
1666655388.47988200,262374264,42.7309288,-84.4904614,221.01998901367188,0.01491926796734333,0.28491926193237305
1666655388.48002601,262374408,42.7309288,-84.4904614,221.01998901367188,0.01491926796734333,0.28491926193237305
1666655388.51962495,262414007,42.7309288,-84.4904614,221.01998901367188,0.014691011980175972,0.2846910059452057
1666655388.55975199,262454134,42.730928899999995,-84.49046129999999,221.01998901367188,0.014710204675793648,0.28471019864082336
1666655388.57989311,262474275,42.730928899999995,-84.49046129999999,221.01998901367188,0.01471702940762043,0.28471702337265015
1666655388.60012007,262494502,42.730928999999996,-84.4904612,221.01998901367188,0.013561354950070381,0.2835613489151001
1666655388.64009500,262534477,42.7309291,-84.49046109999999,221.01998901367188,0.01213725097477436,0.2821372449398041
1666655388.67995906,262574341,42.7309292,-84.490461,221.01998901367188,0.010907696560025215,0.28090769052505493
1666655388.68009090,262574473,42.7309292,-84.490461,221.01998901367188,0.010907696560025215,0.28090769052505493
1666655388.71964788,262614030,42.7309293,-84.490461,221.00999450683594,0.009747462347149849,0.27974745631217957
1666655388.75963712,262654019,42.7309294,-84.4904609,221.00999450683594,0.00896020419895649,0.2789601981639862
1666655388.78004408,262674426,42.7309294,-84.4904609,221.00999450683594,0.00848563201725483,0.27848562598228455
1666655388.80004096,262694423,42.730929499999995,-84.4904608,221.00999450683594,0.007491962984204292,0.277491956949234
1666655388.84009504,262734477,42.730929599999996,-84.4904607,221.00999450683594,0.006313728168606758,0.2763137221336365
1666655388.88002491,262774407,42.7309297,-84.49046059999999,221.00999450683594,0.005333470180630684,0.2753334641456604
1666655388.88015890,262774541,42.7309297,-84.49046059999999,221.00999450683594,0.005333470180630684,0.2753334641456604
1666655388.91968894,262814071,42.7309298,-84.4904605,221.00999450683594,0.004385070875287056,0.2743850648403168
1666655388.95968390,262854066,42.7309299,-84.4904605,221.00999450683594,0.0039424169808626175,0.27394241094589233
1666655388.97991490,262874297,42.73093,-84.49046039999999,221.00999450683594,0.0036870110780000687,0.2736870050430298
1666655389.00008798,262894470,42.73093,-84.49046039999999,221.00999450683594,0.004532413557171822,0.27453240752220154
1666655389.04012799,262934510,42.730930199999996,-84.4904603,221.00999450683594,0.005765872076153755,0.27576586604118347
1666655389.07988811,262974270,42.7309304,-84.49046009999999,221.00999450683594,0.006910460069775581,0.2769104540348053
1666655389.07996798,262974350,42.7309304,-84.49046009999999,221.00999450683594,0.006910460069775581,0.2769104540348053
1666655389.11966896,263014051,42.7309304,-84.49046009999999,221.00999450683594,0.007874922826886177,0.2778749167919159
1666655389.15968895,263054071,42.7309304,-84.49046,221.00999450683594,0.009050654247403145,0.27905064821243286
1666655389.17995000,263074332,42.7309305,-84.49046,221.00999450683594,0.009785311296582222,0.27978530526161194
1666655389.20006800,263094450,42.7309306,-84.49045989999999,221.01998901367188,0.011635826900601387,0.2816358208656311
1666655389.24001288,263134395,42.730930699999995,-84.4904598,221.01998901367188,0.014152275398373604,0.2841522693634033
1666655389.27994299,263174325,42.730930799999996,-84.4904597,221.01998901367188,0.016404317691922188,0.2864043116569519
1666655389.28007889,263174461,42.730930799999996,-84.4904597,221.01998901367188,0.016404317691922188,0.2864043116569519
1666655389.31969690,263214079,42.7309309,-84.4904596,221.01998901367188,0.01839865930378437,0.2883986532688141
1666655389.35973191,263254114,42.7309309,-84.4904595,221.02999877929688,0.020892279222607613,0.29089227318763733
1666655389.37990904,263274291,42.730931,-84.49045939999999,221.02999877929688,0.022412555292248726,0.29241254925727844
1666655389.40030789,263294690,42.7309311,-84.49045939999999,221.02999877929688,0.023654745891690254,0.29365473985671997
1666655389.44004798,263334430,42.7309312,-84.49045919999999,221.02999877929688,0.025624291971325874,0.2956242859363556
1666655389.47990704,263374289,42.730931399999996,-84.4904591,221.02999877929688,0.027507709339261055,0.29750770330429077
1666655389.48001003,263374392,42.730931399999996,-84.4904591,221.02999877929688,0.027507709339261055,0.29750770330429077
1666655389.51975894,263414141,42.7309315,-84.490459,221.02999877929688,0.029166536405682564,0.2991665303707123
1666655389.55971503,263454097,42.7309316,-84.490459,221.0399932861328,0.030738042667508125,0.30073803663253784
1666655389.57999802,263474380,42.7309316,-84.4904589,221.0399932861328,0.03168727457523346,0.3016872704029083
1666655389.60006905,263494451,42.7309317,-84.4904589,221.0399932861328,0.03255407512187958,0.30255407094955444
1666655389.64001203,263534394,42.730931899999995,-84.49045869999999,221.0399932861328,0.035326823592185974,0.30532681941986084
1666655389.67995691,263574339,42.730931999999996,-84.4904586,221.0399932861328,0.038006141781806946,0.3080061376094818
1666655389.68007994,263574462,42.730931999999996,-84.4904586,221.0399932861328,0.038006141781806946,0.3080061376094818
1666655389.71987009,263614252,42.7309321,-84.4904585,221.04998779296875,0.04037095606327057,0.31037095189094543
1666655389.75977802,263654160,42.7309322,-84.4904584,221.04998779296875,0.042876824736595154,0.31287682056427
1666655389.77991009,263674292,42.7309323,-84.4904584,221.04998779296875,0.04437880218029022,0.3143787980079651
1666655389.80000401,263694386,42.7309324,-84.4904583,221.04998779296875,0.04705648124217987,0.31705647706985474
1666655389.84003806,263734420,42.730932599999996,-84.49045819999999,221.05999755859375,0.05126483738422394,0.3212648332118988
1666655389.87993693,263774319,42.7309327,-84.4904581,221.05999755859375,0.055272653698921204,0.32527264952659607
1666655389.88004208,263774424,42.7309327,-84.4904581,221.05999755859375,0.055272653698921204,0.32527264952659607
1666655389.91973805,263814120,42.7309328,-84.49045799999999,221.05999755859375,0.058850690722465515,0.3288506865501404
1666655389.95978999,263854172,42.7309329,-84.4904579,221.0699920654297,0.06237195432186127,0.33237195014953613
1666655389.97987008,263874252,42.730933,-84.4904579,221.0699920654297,0.06447239220142365,0.3344723880290985
1666655390.00011706,263894499,42.7309331,-84.4904578,221.0699920654297,0.06630174815654755,0.3363017439842224
1666655390.04001188,263934394,42.7309333,-84.4904576,221.0699920654297,0.06918583810329437,0.33918583393096924
1666655390.07987905,263974261,42.7309335,-84.49045749999999,221.0800018310547,0.07191343605518341,0.3419134318828583
1666655390.08002591,263974408,42.7309335,-84.49045749999999,221.0800018310547,0.07191343605518341,0.3419134318828583
1666655390.11977696,264014159,42.7309337,-84.4904574,221.0800018310547,0.0743505209684372,0.34435051679611206
1666655390.15972304,264054105,42.7309337,-84.4904573,221.0800018310547,0.07680027186870575,0.3468002676963806
1666655390.17991209,264074294,42.7309337,-84.4904573,221.0800018310547,0.07823722064495087,0.34823721647262573
1666655390.20004010,264094422,42.730933799999995,-84.4904572,221.08999633789062,0.08110781013965607,0.35110780596733093
1666655390.24006104,264134443,42.730934,-84.4904571,221.08999633789062,0.08524657785892487,0.35524657368659973
1666655390.27996707,264174349,42.7309341,-84.49045699999999,221.08999633789062,0.08903314173221588,0.35903313755989075
1666655390.28011608,264174498,42.7309341,-84.49045699999999,221.08999633789062,0.08903314173221588,0.35903313755989075
1666655390.31970000,264214082,42.7309343,-84.4904569,221.09999084472656,0.09242843091487885,0.3624284267425537
1666655390.35972905,264254111,42.730934399999995,-84.49045679999999,221.09999084472656,0.09547080099582672,0.3654707968235016
1666655390.37986207,264274244,42.730934399999995,-84.4904567,221.09999084472656,0.09725035727024078,0.36725035309791565
1666655390.40040588,264294788,42.7309346,-84.4904567,221.09999084472656,0.09972868859767914,0.369728684425354
1666655390.44010496,264334487,42.7309347,-84.4904565,221.11000061035156,0.10350574553012848,0.37350574135780334
1666655390.47988391,264374266,42.7309349,-84.4904564,221.11000061035156,0.10703535377979279,0.37703534960746765
1666655390.48002100,264374403,42.7309349,-84.4904564,221.11000061035156,0.10703535377979279,0.37703534960746765
1666655390.51968908,264414071,42.730934999999995,-84.49045629999999,221.1199951171875,0.1102214902639389,0.38022148609161377
1666655390.55971193,264454094,42.730935099999996,-84.49045629999999,221.1199951171875,0.11328087747097015,0.383280873298645
1666655390.57989192,264474274,42.7309352,-84.4904562,221.1199951171875,0.11504469811916351,0.3850446939468384
1666655390.60009193,264494474,42.7309353,-84.4904561,221.1199951171875,0.1152404397726059,0.38524043560028076
1666655390.64002895,264534411,42.7309355,-84.490456,221.1199951171875,0.1157492846250534,0.38574928045272827
1666655390.67996907,264574351,42.730935599999995,-84.490456,221.1199951171875,0.11628113687038422,0.3862811326980591
1666655390.68010998,264574492,42.730935599999995,-84.490456,221.1199951171875,0.11628113687038422,0.3862811326980591
1666655390.71971798,264614100,42.730935699999996,-84.4904559,221.1199951171875,0.1167808324098587,0.38678082823753357
1666655390.75962806,264654010,42.7309358,-84.49045579999999,221.1199951171875,0.11723633110523224,0.3872363269329071
1666655390.77991700,264674299,42.7309359,-84.49045579999999,221.1199951171875,0.11743591725826263,0.3874359130859375
1666655390.80004811,264694430,42.730936,-84.4904557,221.1199951171875,0.11834581196308136,0.3883458077907562
1666655390.84008789,264734470,42.730936199999995,-84.49045559999999,221.1199951171875,0.1198267787694931,0.38982677459716797
1666655390.87994599,264774328,42.730936299999996,-84.4904555,221.12998962402344,0.12119604647159576,0.39119604229927063
1666655390.88002205,264774404,42.730936299999996,-84.4904555,221.12998962402344,0.12119604647159576,0.39119604229927063
1666655390.91972804,264814110,42.7309365,-84.4904554,221.12998962402344,0.12244121730327606,0.3924412131309509
1666655390.95974588,264854128,42.7309366,-84.4904554,221.12998962402344,0.12376351654529572,0.3937635123729706
1666655390.98006010,264874442,42.7309366,-84.4904553,221.12998962402344,0.12448956072330475,0.3944895565509796
1666655391.00010705,264894489,42.730936799999995,-84.4904553,221.12998962402344,0.12389804422855377,0.39389804005622864
1666655391.04008293,264934465,42.730937,-84.4904552,221.12998962402344,0.123263880610466,0.39326387643814087
1666655391.07991290,264974295,42.7309372,-84.49045509999999,221.12998962402344,0.12272302806377411,0.392723023891449
1666655391.08005309,264974435,42.7309372,-84.49045509999999,221.12998962402344,0.12272302806377411,0.392723023891449
1666655391.11974096,265014123,42.730937399999995,-84.490455,221.12998962402344,0.12226887047290802,0.3922688663005829
1666655391.15970707,265054089,42.730937399999995,-84.490455,221.12998962402344,0.12197871506214142,0.3919787108898163
1666655391.17994094,265074323,42.730937499999996,-84.490455,221.12998962402344,0.12172998487949371,0.3917299807071686
1666655391.20010495,265094487,42.7309376,-84.4904549,221.12998962402344,0.12060265243053436,0.39060264825820923
1666655391.23999190,265134374,42.7309378,-84.4904548,221.1199951171875,0.11967764794826508,0.38967764377593994
1666655391.27994800,265174330,42.7309379,-84.4904548,221.1199951171875,0.11907593905925751,0.3890759348869324
1666655391.28005695,265174439,42.7309379,-84.4904548,221.1199951171875,0.11907593905925751,0.3890759348869324
1666655391.31981111,265214193,42.730938099999996,-84.4904547,221.1199951171875,0.11851154267787933,0.3885115385055542
1666655391.35978007,265254162,42.7309382,-84.4904547,221.1199951171875,0.11858202517032623,0.3885820209980011
1666655391.37995505,265274337,42.7309383,-84.49045459999999,221.1199951171875,0.1185150295495987,0.38851502537727356
1666655391.40038300,265294765,42.7309384,-84.49045459999999,221.1199951171875,0.11698465049266815,0.386984646320343
1666655391.44005394,265334436,42.730938599999995,-84.4904545,221.1199951171875,0.11551432311534882,0.3855143189430237
1666655391.47994494,265374327,42.730938699999996,-84.49045439999999,221.1199951171875,0.11441431939601898,0.38441431522369385
1666655391.48002195,265374404,42.730938699999996,-84.49045439999999,221.1199951171875,0.11441431939601898,0.38441431522369385
1666655391.51974511,265414127,42.7309389,-84.49045439999999,221.1199951171875,0.11340965330600739,0.38340964913368225
1666655391.55974507,265454127,42.730939,-84.4904543,221.1199951171875,0.11320088803768158,0.38320088386535645
1666655391.57989097,265474273,42.730939,-84.4904543,221.1199951171875,0.11300142109394073,0.3830014169216156
1666655391.59998894,265494371,42.730939199999995,-84.4904543,221.1199951171875,0.11162318289279938,0.38162317872047424
1666655391.64001489,265534397,42.730939299999996,-84.4904542,221.1199951171875,0.11007000505924225,0.3800700008869171
1666655391.67987895,265574261,42.7309395,-84.4904541,221.11000061035156,0.10874061286449432,0.3787406086921692
1666655391.68004894,265574431,42.7309395,-84.4904541,221.11000061035156,0.10874061286449432,0.3787406086921692
1666655391.71968102,265614063,42.7309396,-84.4904541,221.11000061035156,0.10751666128635406,0.37751665711402893
1666655391.75977802,265654160,42.7309397,-84.490454,221.11000061035156,0.10692180693149567,0.37692180275917053
1666655391.77987790,265674260,42.7309398,-84.490454,221.11000061035156,0.1065121740102768,0.37651216983795166
1666655391.80002999,265694412,42.730939899999996,-84.490454,221.11000061035156,0.10498233139514923,0.3749823272228241
1666655391.84003901,265734421,42.7309401,-84.49045389999999,221.11000061035156,0.10303013026714325,0.3730301260948181
1666655391.87994695,265774329,42.7309403,-84.4904538,221.11000061035156,0.10131745040416718,0.37131744623184204
1666655391.88009095,265774473,42.7309403,-84.4904538,221.11000061035156,0.10131745040416718,0.37131744623184204
1666655391.91969299,265814075,42.7309404,-84.4904538,221.09999084472656,0.09970872104167938,0.36970871686935425
1666655391.95963192,265854014,42.7309406,-84.49045369999999,221.09999084472656,0.09888391196727753,0.3688839077949524
1666655391.97986102,265874243,42.7309406,-84.49045369999999,221.09999084472656,0.0983601063489914,0.36836010217666626
1666655392.00009298,265894475,42.7309408,-84.4904536,221.09999084472656,0.09490205347537994,0.3649020493030548
1666655392.04010201,265934484,42.7309409,-84.4904536,221.09999084472656,0.09043793380260468,0.36043792963027954
1666655392.07987905,265974261,42.7309412,-84.4904535,221.08999633789062,0.08652244508266449,0.35652244091033936
1666655392.08002305,265974405,42.7309412,-84.4904535,221.08999633789062,0.08652244508266449,0.35652244091033936
1666655392.11976695,266014149,42.7309413,-84.4904535,221.08999633789062,0.08296675980091095,0.3529667556285858
1666655392.15967011,266054052,42.7309414,-84.49045339999999,221.08999633789062,0.08026425540447235,0.3502642512321472
1666655392.17996907,266074351,42.7309415,-84.49045339999999,221.0800018310547,0.07864980399608612,0.348649799823761
1666655392.20006609,266094448,42.7309416,-84.49045339999999,221.0800018310547,0.07620029151439667,0.34620028734207153
1666655392.24027801,266134660,42.7309418,-84.4904533,221.0800018310547,0.0726555734872818,0.34265556931495667
1666655392.27997994,266174362,42.730942,-84.4904533,221.0699920654297,0.06937997043132782,0.3393799662590027
1666655392.28011703,266174499,42.730942,-84.4904533,221.0699920654297,0.06937997043132782,0.3393799662590027
1666655392.31967902,266214061,42.7309421,-84.49045319999999,221.0699920654297,0.06638853251934052,0.3363885283470154
1666655392.35971904,266254101,42.730942299999995,-84.49045319999999,221.0699920654297,0.06392635405063629,0.33392634987831116
1666655392.37990689,266274289,42.730942299999995,-84.49045319999999,221.0699920654297,0.06247307360172272,0.3324730694293976
1666655392.40039897,266294781,42.7309425,-84.4904531,221.05999755859375,0.05971716344356537,0.32971715927124023
1666655392.44009995,266334482,42.7309426,-84.490453,221.05999755859375,0.05599139630794525,0.3259913921356201
1666655392.48003411,266374416,42.7309428,-84.490453,221.05999755859375,0.052727892994880676,0.32272788882255554
1666655392.48019409,266374576,42.7309428,-84.490453,221.05999755859375,0.052727892994880676,0.32272788882255554
1666655392.51973200,266414114,42.730942999999996,-84.4904529,221.04998779296875,0.04968048632144928,0.31968048214912415
1666655392.55971003,266454092,42.7309431,-84.4904529,221.04998779296875,0.04743377864360809,0.31743377447128296
1666655392.57998705,266474369,42.7309432,-84.4904529,221.04998779296875,0.04616306722164154,0.3161630630493164
1666655392.60011005,266494492,42.7309433,-84.4904528,221.04998779296875,0.042517468333244324,0.3125174641609192
1666655392.64006495,266534447,42.730943499999995,-84.49045269999999,221.0399932861328,0.037938788533210754,0.3079387843608856
1666655392.67990398,266574286,42.730943599999996,-84.49045269999999,221.0399932861328,0.03396911919116974,0.3039691150188446
1666655392.68000793,266574390,42.730943599999996,-84.49045269999999,221.0399932861328,0.03396911919116974,0.3039691150188446
1666655392.71980000,266614182,42.7309438,-84.4904526,221.0399932861328,0.030338900163769722,0.30033889412879944
1666655392.75970697,266654089,42.7309439,-84.4904526,221.02999877929688,0.028170811012387276,0.298170804977417
1666655392.77999091,266674373,42.730944,-84.49045249999999,221.02999877929688,0.0269577968865633,0.296957790851593
1666655392.80011106,266694493,42.730944099999995,-84.49045249999999,221.02999877929688,0.024798857048153877,0.2947988510131836
1666655392.84013295,266734515,42.7309443,-84.4904524,221.02999877929688,0.022521721199154854,0.29252171516418457
1666655392.87992597,266774308,42.7309445,-84.4904523,221.02999877929688,0.020676957443356514,0.29067695140838623
1666655392.88006401,266774446,42.7309445,-84.4904523,221.02999877929688,0.020676957443356514,0.29067695140838623
1666655392.91980004,266814182,42.7309446,-84.4904523,221.01998901367188,0.018912749364972115,0.28891274333000183
1666655392.95982504,266854207,42.730944799999996,-84.4904522,221.01998901367188,0.01800014264881611,0.2880001366138458
1666655392.97995210,266874334,42.7309449,-84.4904522,221.01998901367188,0.017564522102475166,0.2875645160675049
1666655393.00006700,266894449,42.730945,-84.4904522,221.01998901367188,0.015664653852581978,0.2856646478176117
1666655393.04004788,266934430,42.7309452,-84.4904521,221.01998901367188,0.013600276783108711,0.2836002707481384
1666655393.08002210,266974404,42.730945399999996,-84.49045199999999,221.01998901367188,0.012048261240124702,0.2820482552051544
1666655393.08012295,266974505,42.730945399999996,-84.49045199999999,221.01998901367188,0.012048261240124702,0.2820482552051544
1666655393.11976004,267014142,42.7309455,-84.49045199999999,221.01998901367188,0.010446863248944283,0.280446857213974
1666655393.15980697,267054189,42.7309457,-84.4904519,221.01998901367188,0.010226504877209663,0.2802264988422394
1666655393.17996192,267074344,42.7309458,-84.4904519,221.01998901367188,0.010253923013806343,0.28025391697883606
1666655393.20008397,267094466,42.730945899999995,-84.4904518,221.01998901367188,0.011030392721295357,0.2810303866863251
1666655393.24001002,267134392,42.7309461,-84.4904517,221.01998901367188,0.012824373319745064,0.2828243672847748
1666655393.27992702,267174309,42.7309462,-84.4904517,221.01998901367188,0.01486806757748127,0.284868061542511
1666655393.28006506,267174447,42.7309462,-84.4904517,221.01998901367188,0.01486806757748127,0.284868061542511
1666655393.31970811,267214090,42.7309464,-84.4904516,221.01998901367188,0.016493486240506172,0.2864934802055359
1666655393.35973597,267254118,42.730946499999995,-84.4904516,221.02999877929688,0.020090775564312935,0.29009076952934265
1666655393.38003993,267274422,42.730946599999996,-84.49045149999999,221.02999877929688,0.022364692762494087,0.2923646867275238
1666655393.40038800,267294770,42.7309467,-84.49045149999999,221.02999877929688,0.022479431703686714,0.29247942566871643
1666655393.44013309,267334515,42.7309469,-84.4904514,221.02999877929688,0.024065034464001656,0.29406502842903137
1666655393.47988009,267374262,42.730947099999995,-84.49045129999999,221.02999877929688,0.026185112074017525,0.29618510603904724
1666655393.48002911,267374411,42.730947099999995,-84.49045129999999,221.02999877929688,0.026185112074017525,0.29618510603904724
1666655393.51971292,267414095,42.730947199999996,-84.4904512,221.02999877929688,0.027843283489346504,0.2978432774543762
1666655393.55984592,267454228,42.7309474,-84.4904512,221.0399932861328,0.03213377296924591,0.3021337687969208
1666655393.57986999,267474252,42.7309474,-84.4904511,221.0399932861328,0.03480382263660431,0.3048038184642792
1666655393.60007596,267494458,42.7309475,-84.4904511,221.0399932861328,0.03832714259624481,0.3083271384239197
1666655393.64000702,267534389,42.7309477,-84.490451,221.04998779296875,0.04549373686313629,0.31549373269081116
1666655393.67992592,267574308,42.7309479,-84.4904509,221.05999755859375,0.05305291712284088,0.32305291295051575
1666655393.68010902,267574491,42.7309479,-84.4904509,221.05999755859375,0.05305291712284088,0.32305291295051575
1666655393.71973705,267614119,42.730948,-84.4904509,221.05999755859375,0.059648141264915466,0.32964813709259033
1666655393.75967002,267654052,42.7309481,-84.49045079999999,221.0800018310547,0.07056616246700287,0.34056615829467773
1666655393.77988791,267674270,42.7309482,-84.49045079999999,221.0800018310547,0.07726599276065826,0.34726598858833313
1666655393.80005693,267694439,42.7309483,-84.49045079999999,221.08999633789062,0.08338557183742523,0.3533855676651001
1666655393.84008598,267734468,42.730948399999996,-84.4904507,221.09999084472656,0.09659986197948456,0.3665998578071594
1666655393.87994599,267774328,42.7309486,-84.4904506,221.1199951171875,0.11028929054737091,0.3802892863750458
1666655393.88009310,267774475,42.7309486,-84.4904506,221.1199951171875,0.11028929054737091,0.3802892863750458
1666655393.91982293,267814205,42.7309487,-84.4904506,221.12998962402344,0.12296946346759796,0.3929694592952728
1666655393.95970297,267854085,42.7309489,-84.4904505,221.14999389648438,0.14057095348834991,0.4105709493160248
1666655393.97994399,267874326,42.7309489,-84.4904505,221.1599884033203,0.15121130645275116,0.421211302280426
1666655394.00002503,267894407,42.730948999999995,-84.4904504,221.1699981689453,0.16178129613399506,0.4317812919616699
1666655394.04009008,267934472,42.7309492,-84.49045029999999,221.19000244140625,0.1804393082857132,0.45043930411338806
1666655394.07995605,267974338,42.7309494,-84.4904502,221.1999969482422,0.19893856346607208,0.46893855929374695
1666655394.08003902,267974421,42.7309494,-84.4904502,221.1999969482422,0.19893856346607208,0.46893855929374695
1666655394.11970496,268014087,42.7309495,-84.4904502,221.22000122070312,0.21553905308246613,0.485539048910141
1666655394.15967989,268054062,42.730949599999995,-84.49045009999999,221.239990234375,0.23693357408046722,0.5069335699081421
1666655394.17991900,268074301,42.7309497,-84.49045,221.25,0.2496316283941269,0.5196316242218018
1666655394.20008707,268094469,42.7309498,-84.49045,221.26998901367188,0.26175135374069214,0.5317513346672058
1666655394.24006796,268134450,42.73095,-84.4904499,221.2899932861328,0.28341972827911377,0.5534197092056274
1666655394.28002405,268174406,42.730950199999995,-84.4904498,221.30999755859375,0.30496662855148315,0.5749666094779968
1666655394.28012490,268174507,42.730950199999995,-84.4904498,221.30999755859375,0.30496662855148315,0.5749666094779968
1666655394.31975007,268214132,42.730950299999996,-84.4904497,221.3300018310547,0.324221134185791,0.5942211151123047
1666655394.35971189,268254094,42.7309505,-84.49044959999999,221.34999084472656,0.34695369005203247,0.6169536709785461
1666655394.37996793,268274350,42.7309506,-84.4904495,221.3699951171875,0.3601415157318115,0.6301414966583252
1666655394.40035892,268294741,42.7309507,-84.4904495,221.37998962402344,0.371904194355011,0.6419041752815247
1666655394.44011903,268334501,42.730950799999995,-84.4904494,221.39999389648438,0.3926873803138733,0.662687361240387
1666655394.47992802,268374310,42.730951,-84.4904493,221.4199981689453,0.4134874939918518,0.6834874749183655
1666655394.48004198,268374424,42.730951,-84.4904493,221.4199981689453,0.4134874939918518,0.6834874749183655
1666655394.51985598,268414238,42.7309511,-84.4904492,221.44000244140625,0.43246597051620483,0.7024659514427185
1666655394.55975795,268454140,42.7309513,-84.4904492,221.45999145507812,0.45416831970214844,0.7241683006286621
1666655394.57995105,268474333,42.7309513,-84.49044909999999,221.47000122070312,0.46648108959198,0.7364810705184937
1666655394.60007191,268494454,42.730951399999995,-84.49044909999999,221.47999572753906,0.4762699007987976,0.7462698817253113
1666655394.64012694,268534509,42.7309516,-84.490449,221.5,0.4945719838142395,0.7645719647407532
1666655394.67991996,268574302,42.7309518,-84.490449,221.51998901367188,0.5131614208221436,0.7831614017486572
1666655394.68002391,268574406,42.7309518,-84.490449,221.51998901367188,0.5131614208221436,0.7831614017486572
1666655394.71972489,268614107,42.7309519,-84.49044889999999,221.5399932861328,0.5307863354682922,0.8007863163948059
1666655394.75991702,268654299,42.730951999999995,-84.49044889999999,221.55999755859375,0.5523287057876587,0.8223286867141724
1666655394.77999592,268674378,42.730952099999996,-84.49044889999999,221.5699920654297,0.564676821231842,0.8346768021583557
1666655394.80018711,268694569,42.7309522,-84.49044889999999,221.5800018310547,0.5748957395553589,0.8448957204818726
1666655394.84003401,268734416,42.7309524,-84.4904488,221.59999084472656,0.5940307378768921,0.8640307188034058
1666655394.87991500,268774297,42.7309525,-84.4904488,221.6199951171875,0.6133095026016235,0.8833094835281372
1666655394.88005495,268774437,42.7309525,-84.4904488,221.6199951171875,0.6133095026016235,0.8833094835281372
1666655394.91979504,268814177,42.730952599999995,-84.4904488,221.63999938964844,0.6316203474998474,0.9016203284263611
1666655394.95975995,268854142,42.730952699999996,-84.4904487,221.6699981689453,0.6671677231788635,0.9371677041053772
1666655394.97993398,268874316,42.7309528,-84.4904487,221.69000244140625,0.6878271102905273,0.957827091217041
1666655395.00007892,268894461,42.7309529,-84.4904487,221.70999145507812,0.7053303122520447,0.9753302931785583
1666655395.04007101,268934453,42.730953,-84.4904486,221.75,0.7450875043869019,1.0150874853134155
1666655395.07988906,268974271,42.730953199999995,-84.4904486,221.7899932861328,0.7877521514892578,1.0577521324157715
1666655395.08002901,268974411,42.730953199999995,-84.4904486,221.7899932861328,0.7877521514892578,1.0577521324157715
1666655395.11969709,269014079,42.730953299999996,-84.4904485,221.8300018310547,0.8269844055175781,1.0969843864440918
1666655395.15971303,269054095,42.7309534,-84.4904485,221.87998962402344,0.8758721351623535,1.1458721160888672
1666655395.18003392,269074416,42.7309535,-84.49044839999999,221.9099884033203,0.9038916826248169,1.1738916635513306
1666655395.20008397,269094466,42.7309536,-84.4904483,221.94000244140625,0.9304687976837158,1.2004687786102295
1666655395.24009991,269134482,42.730953799999995,-84.4904482,221.97999572753906,0.9778217077255249,1.2478216886520386
1666655395.28001809,269174400,42.730953899999996,-84.4904481,222.02999877929688,1.0244605541229248,1.2944605350494385
1666655395.28015590,269174538,42.730953899999996,-84.4904481,222.02999877929688,1.0244605541229248,1.2944605350494385
1666655395.31975508,269214137,42.730954,-84.49044789999999,222.0699920654297,1.0665949583053589,1.3365949392318726
1666655395.35974908,269254131,42.7309542,-84.4904478,222.1199951171875,1.1196614503860474,1.389661431312561
1666655395.37993503,269274317,42.7309542,-84.49044769999999,222.14999389648438,1.1497029066085815,1.4197028875350952
1666655395.40031910,269294701,42.7309543,-84.4904476,222.17999267578125,1.1765995025634766,1.4465994834899902
1666655395.44010592,269334488,42.730954499999996,-84.4904475,222.22999572753906,1.2259786128997803,1.495978593826294
1666655395.47996497,269374347,42.7309546,-84.4904474,222.27999877929688,1.2745498418807983,1.544549822807312
1666655395.48010206,269374484,42.7309546,-84.4904474,222.27999877929688,1.2745498418807983,1.544549822807312
1666655395.51977301,269414155,42.7309547,-84.49044719999999,222.3199920654297,1.3181155920028687,1.5881155729293823
1666655395.55972195,269454104,42.7309549,-84.4904471,222.3699951171875,1.3669960498809814,1.6369960308074951
1666655395.57988501,269474267,42.7309549,-84.490447,222.39999389648438,1.3950589895248413,1.665058970451355
1666655395.60014200,269494524,42.730955,-84.490447,222.4199981689453,1.4184902906417847,1.6884902715682983
1666655395.64006495,269534447,42.730955099999996,-84.4904469,222.47000122070312,1.4605342149734497,1.7305341958999634
1666655395.67995691,269574339,42.7309553,-84.4904468,222.50999450683594,1.5011285543441772,1.771128535270691
1666655395.68004894,269574431,42.7309553,-84.4904468,222.50999450683594,1.5011285543441772,1.771128535270691
1666655395.71983004,269614212,42.7309554,-84.49044669999999,222.5399932861328,1.5369863510131836,1.8069863319396973
1666655395.75973392,269654116,42.7309555,-84.4904466,222.5800018310547,1.5745832920074463,1.84458327293396
1666655395.77992892,269674311,42.7309555,-84.49044649999999,222.59999084472656,1.5963826179504395,1.8663825988769531
1666655395.80010390,269694486,42.7309556,-84.49044649999999,222.6199951171875,1.612419843673706,1.8824198246002197
1666655395.84004211,269734424,42.730955699999996,-84.49044649999999,222.63999938964844,1.6390726566314697,1.9090726375579834
1666655395.87994099,269774323,42.7309559,-84.49044649999999,222.6699981689453,1.664405345916748,1.9344053268432617
1666655395.88007998,269774462,42.7309559,-84.49044649999999,222.6699981689453,1.664405345916748,1.9344053268432617
1666655395.91979289,269814175,42.730956,-84.4904464,222.69000244140625,1.6876229047775269,1.9576228857040405
1666655395.95974493,269854127,42.7309561,-84.4904464,222.72000122070312,1.713718295097351,1.9837182760238647
1666655395.97993588,269874318,42.7309562,-84.4904464,222.72999572753906,1.7284159660339355,1.9984159469604492
1666655396.00009394,269894476,42.7309562,-84.4904464,222.75,1.7405829429626465,2.01058292388916
1666655396.04006910,269934451,42.730956299999995,-84.4904464,222.76998901367188,1.764509677886963,2.0345096588134766
1666655396.07997203,269974354,42.7309565,-84.4904464,222.7899932861328,1.7889633178710938,2.0589632987976074
1666655396.08007193,269974454,42.7309565,-84.4904464,222.7899932861328,1.7889633178710938,2.0589632987976074
1666655396.11976695,270014149,42.7309566,-84.4904464,222.8199920654297,1.8119170665740967,2.0819170475006104
1666655396.15975189,270054134,42.7309567,-84.4904464,222.83999633789062,1.8368139266967773,2.106813907623291
1666655396.17996001,270074342,42.7309567,-84.4904464,222.86000061035156,1.8505175113677979,2.1205174922943115
1666655396.20012307,270094505,42.7309568,-84.4904464,222.8699951171875,1.863936185836792,2.1339361667633057
1666655396.24009204,270134474,42.730956899999995,-84.4904464,222.88999938964844,1.8835291862487793,2.153529167175293
1666655396.27997494,270174357,42.730956899999995,-84.4904464,222.9099884033203,1.9032375812530518,2.1732375621795654
1666655396.28010702,270174489,42.730956899999995,-84.4904464,222.9099884033203,1.9032375812530518,2.1732375621795654
1666655396.31966305,270214045,42.730957,-84.49044649999999,222.92999267578125,1.9229109287261963,2.19291090965271
1666655396.35981202,270254194,42.7309571,-84.49044649999999,222.9499969482422,1.9410104751586914,2.211010456085205
1666655396.37988901,270274271,42.7309572,-84.49044649999999,222.95999145507812,1.9502313137054443,2.220231294631958
1666655396.40039802,270294780,42.7309572,-84.4904466,222.95999145507812,1.9590282440185547,2.2290282249450684
1666655396.44023490,270334617,42.7309573,-84.4904466,222.97999572753906,1.9753282070159912,2.245328187942505
1666655396.47990489,270374287,42.7309574,-84.49044669999999,223.0,1.9919230937957764,2.26192307472229
1666655396.48007894,270374461,42.7309574,-84.49044669999999,223.0,1.9919230937957764,2.26192307472229
1666655396.51969600,270414078,42.730957499999995,-84.49044669999999,223.00999450683594,2.0094311237335205,2.279431104660034
1666655396.55977988,270454162,42.730957499999995,-84.4904468,223.02999877929688,2.022662401199341,2.2926623821258545
1666655396.57992911,270474311,42.730957599999996,-84.4904468,223.02999877929688,2.0288147926330566,2.2988147735595703
1666655396.60003996,270494422,42.730957599999996,-84.4904468,223.0399932861328,2.035442352294922,2.3054423332214355
1666655396.64009595,270534478,42.7309577,-84.4904469,223.04998779296875,2.048407554626465,2.3184075355529785
1666655396.67987108,270574253,42.7309577,-84.4904469,223.0699920654297,2.06140398979187,2.331403970718384
1666655396.68000603,270574388,42.7309577,-84.4904469,223.0699920654297,2.06140398979187,2.331403970718384
1666655396.71974492,270614127,42.7309578,-84.490447,223.0800018310547,2.076949119567871,2.3469491004943848
1666655396.75971007,270654092,42.7309579,-84.490447,223.08999633789062,2.0851802825927734,2.355180263519287
1666655396.77991390,270674296,42.7309579,-84.4904471,223.08999633789062,2.087754487991333,2.3577544689178467
1666655396.80020499,270694587,42.7309579,-84.4904471,223.09999084472656,2.0912959575653076,2.3612959384918213
1666655396.84002709,270734409,42.730958,-84.49044719999999,223.09999084472656,2.0969326496124268,2.3669326305389404
1666655396.87989306,270774275,42.730958,-84.49044719999999,223.11000061035156,2.10250186920166,2.372501850128174
1666655396.88002491,270774407,42.730958,-84.49044719999999,223.11000061035156,2.10250186920166,2.372501850128174
1666655396.91973209,270814114,42.730958,-84.4904473,223.1199951171875,2.1105754375457764,2.38057541847229
1666655396.95969892,270854081,42.730958099999995,-84.4904473,223.1199951171875,2.1123569011688232,2.382356882095337
1666655396.97999597,270874378,42.730958099999995,-84.4904473,223.1199951171875,2.1112048625946045,2.381204843521118
1666655397.00004292,270894425,42.730958099999995,-84.4904474,223.11000061035156,2.1088879108428955,2.378887891769409
1666655397.04007196,270934454,42.730958099999995,-84.4904475,223.1199951171875,2.110179901123047,2.3801798820495605
1666655397.07993388,270974316,42.730958199999996,-84.49044769999999,223.1199951171875,2.113372325897217,2.3833723068237305
1666655397.08000898,270974391,42.730958199999996,-84.49044769999999,223.1199951171875,2.113372325897217,2.3833723068237305
1666655397.11972404,271014106,42.730958199999996,-84.4904478,223.1199951171875,2.1194405555725098,2.3894405364990234
1666655397.15981007,271054192,42.730958199999996,-84.49044789999999,223.12998962402344,2.1228737831115723,2.392873764038086
1666655397.17994690,271074329,42.730958199999996,-84.490448,223.12998962402344,2.1215617656707764,2.39156174659729
1666655397.20000410,271094386,42.7309583,-84.490448,223.1199951171875,2.119518995285034,2.389518976211548
1666655397.24004507,271134427,42.7309584,-84.4904481,223.12998962402344,2.12252140045166,2.392521381378174
1666655397.28017807,271174560,42.7309585,-84.4904482,223.12998962402344,2.127225875854492,2.397225856781006
1666655397.28033090,271174713,42.7309585,-84.4904482,223.12998962402344,2.127225875854492,2.397225856781006
1666655397.31979394,271214176,42.7309585,-84.4904482,223.13999938964844,2.1351747512817383,2.405174732208252
1666655397.35964704,271254029,42.7309586,-84.4904483,223.14999389648438,2.1410677433013916,2.4110677242279053
1666655397.37993193,271274314,42.730958699999995,-84.4904483,223.14999389648438,2.141233444213867,2.411233425140381
1666655397.40027905,271294661,42.730958699999995,-84.49044839999999,223.13999938964844,2.1398019790649414,2.409801959991455
1666655397.44009995,271334482,42.730958799999996,-84.49044839999999,223.14999389648438,2.1442580223083496,2.4142580032348633
1666655397.47993994,271374322,42.730958799999996,-84.4904486,223.1599884033203,2.150265693664551,2.4202656745910645
1666655397.48007298,271374455,42.730958799999996,-84.4904486,223.1599884033203,2.150265693664551,2.4202656745910645
1666655397.51979399,271414176,42.7309589,-84.4904487,223.1599884033203,2.1590373516082764,2.42903733253479
1666655397.55977392,271454156,42.7309589,-84.4904488,223.1699981689453,2.1657097339630127,2.4357097148895264
1666655397.57991600,271474298,42.730959,-84.49044889999999,223.1699981689453,2.167457342147827,2.437457323074341
1666655397.60006189,271494444,42.730959,-84.49044889999999,223.1699981689453,2.1680450439453125,2.438045024871826
1666655397.64008689,271534469,42.730959,-84.490449,223.17999267578125,2.1769957542419434,2.446995735168457
1666655397.67994905,271574331,42.730959,-84.49044909999999,223.19000244140625,2.186824321746826,2.45682430267334
1666655397.68005300,271574435,42.730959,-84.49044909999999,223.19000244140625,2.186824321746826,2.45682430267334
1666655397.71973610,271614118,42.730959,-84.4904492,223.1999969482422,2.198195695877075,2.468195676803589
1666655397.75973701,271654119,42.730959,-84.4904493,223.20999145507812,2.2070271968841553,2.477027177810669
1666655397.77997088,271674353,42.7309591,-84.4904494,223.20999145507812,2.2095413208007812,2.479541301727295
1666655397.80009103,271694473,42.7309591,-84.4904494,223.22000122070312,2.2130234241485596,2.4830234050750732
1666655397.84007907,271734461,42.7309591,-84.49044959999999,223.22999572753906,2.2221858501434326,2.4921858310699463
1666655397.87990808,271774290,42.7309591,-84.4904497,223.239990234375,2.2322192192077637,2.5022192001342773
1666655397.88009310,271774475,42.7309591,-84.4904497,223.239990234375,2.2322192192077637,2.5022192001342773
1666655397.91972208,271814104,42.7309591,-84.4904498,223.25,2.2442643642425537,2.5142643451690674
1666655397.95980906,271854191,42.7309592,-84.4904499,223.25999450683594,2.254011869430542,2.5240118503570557
1666655397.97993898,271874321,42.7309592,-84.49045,223.25999450683594,2.256908655166626,2.5269086360931396
1666655398.00014400,271894526,42.7309592,-84.49045009999999,223.26998901367188,2.2602789402008057,2.5302789211273193
1666655398.04004002,271934422,42.7309592,-84.49045029999999,223.26998901367188,2.2684218883514404,2.538421869277954
1666655398.07984304,271974225,42.7309592,-84.4904505,223.27999877929688,2.277600049972534,2.547600030899048
1666655398.07997108,271974353,42.7309592,-84.4904505,223.27999877929688,2.277600049972534,2.547600030899048
1666655398.11972499,272014107,42.7309592,-84.4904507,223.2899932861328,2.2884597778320312,2.558459758758545
1666655398.15978789,272054170,42.7309592,-84.49045079999999,223.29998779296875,2.297621726989746,2.5676217079162598
1666655398.18000293,272074385,42.7309592,-84.4904509,223.30999755859375,2.3003196716308594,2.570319652557373
1666655398.20008993,272094472,42.7309592,-84.4904509,223.30999755859375,2.303788900375366,2.57378888130188
1666655398.24012804,272134510,42.7309592,-84.4904511,223.3199920654297,2.312215566635132,2.5822155475616455
1666655398.27990794,272174290,42.7309592,-84.49045129999999,223.3300018310547,2.3209381103515625,2.590938091278076
1666655398.28007793,272174460,42.7309592,-84.49045129999999,223.3300018310547,2.3209381103515625,2.590938091278076
1666655398.31970406,272214086,42.7309592,-84.49045149999999,223.33999633789062,2.3302128314971924,2.600212812423706
1666655398.35967398,272254056,42.730959299999995,-84.4904516,223.33999633789062,2.337552785873413,2.6075527667999268
1666655398.38003993,272274422,42.730959299999995,-84.4904517,223.33999633789062,2.339454412460327,2.609454393386841
1666655398.40042591,272294808,42.730959299999995,-84.4904518,223.34999084472656,2.3421735763549805,2.612173557281494
1666655398.44006991,272334452,42.730959299999995,-84.49045199999999,223.34999084472656,2.3461554050445557,2.6161553859710693
1666655398.47988892,272374271,42.730959299999995,-84.4904522,223.34999084472656,2.349896192550659,2.619896173477173
1666655398.47999310,272374375,42.730959299999995,-84.4904522,223.34999084472656,2.349896192550659,2.619896173477173
1666655398.51978588,272414168,42.730959299999995,-84.4904524,223.36000061035156,2.354677438735962,2.6246774196624756
1666655398.55966902,272454051,42.730959299999995,-84.4904526,223.36000061035156,2.3574376106262207,2.6274375915527344
1666655398.57995200,272474334,42.730959299999995,-84.49045269999999,223.36000061035156,2.3572380542755127,2.6272380352020264
1666655398.60009408,272494476,42.730959399999996,-84.4904528,223.36000061035156,2.357649564743042,2.6276495456695557
1666655398.64007211,272534454,42.730959399999996,-84.490453,223.36000061035156,2.3593804836273193,2.629380464553833
1666655398.67990208,272574284,42.730959299999995,-84.49045319999999,223.3699951171875,2.362260103225708,2.6322600841522217
1666655398.68001699,272574399,42.730959299999995,-84.49045319999999,223.3699951171875,2.362260103225708,2.6322600841522217
1666655398.71975303,272614135,42.730959299999995,-84.49045339999999,223.3699951171875,2.365980863571167,2.6359808444976807
1666655398.75974488,272654127,42.730959399999996,-84.4904536,223.3699951171875,2.3695218563079834,2.639521837234497
1666655398.77999902,272674381,42.730959299999995,-84.49045369999999,223.37998962402344,2.370065450668335,2.6400654315948486
1666655398.80003500,272694417,42.730959299999995,-84.4904538,223.37998962402344,2.371046781539917,2.6410467624664307
1666655398.84000993,272734392,42.730959299999995,-84.490454,223.37998962402344,2.375645399093628,2.6456453800201416
1666655398.87995791,272774340,42.730959299999995,-84.4904542,223.38999938964844,2.380690813064575,2.650690793991089
1666655398.88008404,272774466,42.730959299999995,-84.4904542,223.38999938964844,2.380690813064575,2.650690793991089
1666655398.91978192,272814164,42.7309592,-84.49045439999999,223.38999938964844,2.3861441612243652,2.656144142150879
1666655398.95978498,272854167,42.7309592,-84.49045459999999,223.39999389648438,2.3912699222564697,2.6612699031829834
1666655398.97994995,272874332,42.7309592,-84.49045459999999,223.39999389648438,2.3929505348205566,2.6629505157470703
1666655399.00008893,272894471,42.7309591,-84.4904547,223.39999389648438,2.394143581390381,2.6641435623168945
1666655399.04001307,272934395,42.7309591,-84.4904549,223.39999389648438,2.3982205390930176,2.6682205200195312
1666655399.07994294,272974325,42.730959,-84.49045509999999,223.4099884033203,2.4025464057922363,2.67254638671875
1666655399.08004808,272974430,42.730959,-84.49045509999999,223.4099884033203,2.4025464057922363,2.67254638671875
1666655399.11984611,273014228,42.7309589,-84.4904552,223.4099884033203,2.4065802097320557,2.6765801906585693
1666655399.15981293,273054195,42.7309589,-84.4904554,223.4199981689453,2.4106624126434326,2.6806623935699463
1666655399.17995191,273074334,42.730958799999996,-84.4904554,223.4199981689453,2.4120724201202393,2.682072401046753
1666655399.20004010,273094422,42.730958799999996,-84.49045559999999,223.4199981689453,2.4118762016296387,2.6818761825561523
1666655399.24008608,273134468,42.730958699999995,-84.4904557,223.4199981689453,2.413463592529297,2.6834635734558105
1666655399.27997303,273174355,42.7309586,-84.4904559,223.4199981689453,2.415076732635498,2.6850767135620117
1666655399.28008103,273174463,42.7309586,-84.4904559,223.4199981689453,2.415076732635498,2.6850767135620117
1666655399.31985688,273214239,42.7309586,-84.4904561,223.4199981689453,2.4165260791778564,2.68652606010437
1666655399.35979104,273254173,42.7309585,-84.49045629999999,223.4199981689453,2.4174392223358154,2.687439203262329
1666655399.38003206,273274414,42.7309585,-84.4904564,223.4199981689453,2.4173030853271484,2.687303066253662
1666655399.40037107,273294753,42.7309584,-84.4904565,223.4199981689453,2.4151527881622314,2.685152769088745
1666655399.44010305,273334485,42.7309584,-84.4904567,223.4199981689453,2.4128522872924805,2.682852268218994
1666655399.47990298,273374285,42.730958199999996,-84.49045699999999,223.4199981689453,2.41062593460083,2.6806259155273438
1666655399.48006392,273374446,42.730958199999996,-84.49045699999999,223.4199981689453,2.41062593460083,2.6806259155273438
1666655399.51968694,273414069,42.730958099999995,-84.4904572,223.4099884033203,2.4083774089813232,2.678377389907837
1666655399.55979300,273454175,42.730958,-84.4904574,223.4099884033203,2.40583872795105,2.6758387088775635
1666655399.57988095,273474263,42.730958,-84.49045749999999,223.4099884033203,2.4040632247924805,2.674063205718994
1666655399.60010099,273494483,42.7309579,-84.4904576,223.4099884033203,2.401925802230835,2.6719257831573486
1666655399.64003992,273534422,42.7309577,-84.4904578,223.39999389648438,2.398932456970215,2.6689324378967285
1666655399.67997694,273574359,42.730957599999996,-84.49045799999999,223.39999389648438,2.395967960357666,2.6659679412841797
1666655399.68010807,273574490,42.730957599999996,-84.49045799999999,223.39999389648438,2.395967960357666,2.6659679412841797
1666655399.71964192,273614024,42.730957499999995,-84.49045819999999,223.39999389648438,2.3929924964904785,2.662992477416992
1666655399.75972295,273654105,42.7309574,-84.4904584,223.38999938964844,2.389695167541504,2.6596951484680176
1666655399.77986002,273674242,42.7309574,-84.4904585,223.38999938964844,2.387805938720703,2.657805919647217
1666655399.80023789,273694620,42.7309573,-84.4904585,223.38999938964844,2.384578227996826,2.65457820892334
1666655399.84012198,273734504,42.7309572,-84.49045869999999,223.37998962402344,2.3795223236083984,2.649522304534912
1666655399.87987089,273774253,42.7309571,-84.4904588,223.37998962402344,2.374436616897583,2.6444365978240967
1666655399.88001394,273774396,42.7309571,-84.4904588,223.37998962402344,2.374436616897583,2.6444365978240967
1666655399.91970110,273814083,42.730957,-84.490459,223.3699951171875,2.3694732189178467,2.6394731998443604
1666655399.95971489,273854097,42.730956899999995,-84.4904591,223.3699951171875,2.364698886871338,2.6346988677978516
1666655399.97993493,273874317,42.730956899999995,-84.49045919999999,223.3699951171875,2.362098455429077,2.632098436355591
1666655400.00008202,273894464,42.7309568,-84.4904593,223.36000061035156,2.359009265899658,2.629009246826172
1666655400.04015803,273934540,42.7309566,-84.4904595,223.36000061035156,2.353750705718994,2.623750686645508
1666655400.07993603,273974318,42.7309564,-84.4904596,223.34999084472656,2.348360061645508,2.6183600425720215
1666655400.08006907,273974451,42.7309564,-84.4904596,223.34999084472656,2.348360061645508,2.6183600425720215
1666655400.11969900,274014081,42.730956299999995,-84.4904598,223.34999084472656,2.3429503440856934,2.612950325012207
1666655400.15971899,274054101,42.730956299999995,-84.49046,223.33999633789062,2.337372303009033,2.607372283935547
1666655400.17995691,274074339,42.7309562,-84.49046,223.33999633789062,2.334500789642334,2.6045007705688477
1666655400.20007992,274094462,42.7309561,-84.49046009999999,223.33999633789062,2.330310344696045,2.6003103256225586
1666655400.24006391,274134446,42.730956,-84.4904603,223.3300018310547,2.3232381343841553,2.593238115310669
1666655400.27997804,274174360,42.7309558,-84.4904605,223.3199920654297,2.31640625,2.5864062309265137
1666655400.28012109,274174503,42.7309558,-84.4904605,223.3199920654297,2.31640625,2.5864062309265137
1666655400.31971693,274214099,42.730955699999996,-84.4904607,223.30999755859375,2.3095014095306396,2.5795013904571533
1666655400.35972309,274254105,42.7309555,-84.4904609,223.30999755859375,2.302278995513916,2.5722789764404297
1666655400.37999010,274274372,42.7309554,-84.490461,223.29998779296875,2.2985150814056396,2.5685150623321533
1666655400.40032506,274294707,42.7309554,-84.49046109999999,223.29998779296875,2.2928919792175293,2.562891960144043
1666655400.44003105,274334413,42.7309552,-84.49046129999999,223.2899932861328,2.283292293548584,2.5532922744750977
1666655400.47992802,274374310,42.730955099999996,-84.4904615,223.27999877929688,2.2741260528564453,2.544126033782959
1666655400.48007011,274374452,42.730955099999996,-84.4904615,223.27999877929688,2.2741260528564453,2.544126033782959
1666655400.51983190,274414214,42.7309549,-84.49046179999999,223.26998901367188,2.2650537490844727,2.5350537300109863
1666655400.55971098,274454093,42.7309548,-84.490462,223.25999450683594,2.2559235095977783,2.525923490524292
1666655400.57999706,274474379,42.7309547,-84.4904621,223.25999450683594,2.251168727874756,2.5211687088012695
1666655400.60010505,274494487,42.7309546,-84.49046229999999,223.25,2.246445894241333,2.5164458751678467
1666655400.64015889,274534541,42.730954499999996,-84.4904624,223.239990234375,2.2356433868408203,2.505643367767334
1666655400.67996097,274574343,42.7309543,-84.4904626,223.22999572753906,2.225006103515625,2.4950060844421387
1666655400.68006897,274574451,42.7309543,-84.4904626,223.22999572753906,2.225006103515625,2.4950060844421387
1666655400.71982408,274614206,42.7309542,-84.4904628,223.22000122070312,2.2147152423858643,2.484715223312378
1666655400.75983810,274654220,42.7309541,-84.49046299999999,223.20999145507812,2.2052597999572754,2.475259780883789
1666655400.77991700,274674299,42.730954,-84.49046299999999,223.20999145507812,2.200389862060547,2.4703898429870605
1666655400.80001998,274694402,42.730954,-84.4904631,223.1999969482422,2.195636749267578,2.465636730194092
1666655400.84017801,274734560,42.730953899999996,-84.4904632,223.19000244140625,2.185904026031494,2.455904006958008
1666655400.87993002,274774312,42.730953799999995,-84.4904633,223.17999267578125,2.1764485836029053,2.446448564529419
1666655400.88004208,274774424,42.730953799999995,-84.4904633,223.17999267578125,2.1764485836029053,2.446448564529419
1666655400.91974497,274814127,42.7309537,-84.4904634,223.1699981689453,2.1672990322113037,2.4372990131378174
1666655400.95974207,274854124,42.7309536,-84.49046349999999,223.1599884033203,2.158255100250244,2.428255081176758
1666655400.97989392,274874276,42.7309536,-84.49046349999999,223.1599884033203,2.153625965118408,2.423625946044922
1666655401.00009990,274894482,42.7309535,-84.4904634,223.14999389648438,2.147826910018921,2.4178268909454346
1666655401.04011893,274934501,42.7309535,-84.4904634,223.13999938964844,2.1374287605285645,2.407428741455078
1666655401.07989502,274974277,42.7309535,-84.4904633,223.12998962402344,2.12748646736145,2.397486448287964
1666655401.08005810,274974440,42.7309535,-84.4904633,223.12998962402344,2.12748646736145,2.397486448287964
1666655401.11977291,275014155,42.7309534,-84.4904633,223.1199951171875,2.117908239364624,2.3879082202911377
1666655401.15973496,275054117,42.7309534,-84.4904633,223.11000061035156,2.108419179916382,2.3784191608428955
1666655401.17992997,275074312,42.7309534,-84.4904633,223.11000061035156,2.1035993099212646,2.3735992908477783
1666655401.20003510,275094417,42.7309534,-84.4904632,223.09999084472656,2.0966622829437256,2.3666622638702393
1666655401.24008608,275134468,42.7309534,-84.4904632,223.08999633789062,2.0852999687194824,2.355299949645996
1666655401.27998209,275174364,42.7309535,-84.4904631,223.0800018310547,2.0745906829833984,2.344590663909912
1666655401.28012109,275174503,42.7309535,-84.4904631,223.0800018310547,2.0745906829833984,2.344590663909912
1666655401.31964803,275214030,42.7309535,-84.4904631,223.0699920654297,2.0643787384033203,2.334378719329834
1666655401.35972404,275254106,42.7309535,-84.4904631,223.05999755859375,2.054520845413208,2.3245208263397217
1666655401.37988496,275274267,42.7309535,-84.4904631,223.04998779296875,2.0493338108062744,2.319333791732788
1666655401.40041900,275294801,42.7309535,-84.4904631,223.04998779296875,2.0444860458374023,2.314486026763916
1666655401.44010806,275334490,42.7309534,-84.49046299999999,223.0399932861328,2.0374600887298584,2.307460069656372
1666655401.48004389,275374426,42.730953299999996,-84.49046299999999,223.0399932861328,2.0304982662200928,2.3004982471466064
1666655401.48020697,275374589,42.730953299999996,-84.49046299999999,223.0399932861328,2.0304982662200928,2.3004982471466064
1666655401.51969790,275414080,42.730953299999996,-84.4904629,223.02999877929688,2.0235595703125,2.2935595512390137
1666655401.55966592,275454048,42.730953199999995,-84.4904629,223.01998901367188,2.0171306133270264,2.28713059425354
1666655401.57995105,275474333,42.7309531,-84.4904629,223.01998901367188,2.0140674114227295,2.284067392349243
1666655401.60010004,275494482,42.7309531,-84.4904629,223.01998901367188,2.0109848976135254,2.280984878540039
1666655401.64007497,275534457,42.7309529,-84.4904629,223.00999450683594,2.004621744155884,2.2746217250823975
1666655401.67993093,275574313,42.7309528,-84.4904629,223.0,1.998201847076416,2.2682018280029297
1666655401.68007588,275574458,42.7309528,-84.4904629,223.0,1.998201847076416,2.2682018280029297
1666655401.71973205,275614114,42.730952599999995,-84.4904629,223.0,1.9917442798614502,2.261744260787964
1666655401.75973010,275654112,42.7309525,-84.4904629,222.989990234375,1.985555648803711,2.2555556297302246
1666655401.77995706,275674339,42.7309524,-84.4904629,222.989990234375,1.9826858043670654,2.252685785293579
1666655401.80003190,275694414,42.7309523,-84.4904629,222.97999572753906,1.9783060550689697,2.2483060359954834
1666655401.84012508,275734507,42.7309522,-84.4904629,222.97999572753906,1.970567226409912,2.240567207336426
1666655401.87991190,275774294,42.730951999999995,-84.49046299999999,222.97000122070312,1.962853193283081,2.2328531742095947
1666655401.88002110,275774403,42.730951999999995,-84.49046299999999,222.97000122070312,1.962853193283081,2.2328531742095947
1666655401.91971803,275814100,42.7309519,-84.49046299999999,222.95999145507812,1.9552416801452637,2.2252416610717773
1666655401.95974112,275854123,42.7309517,-84.49046299999999,222.9499969482422,1.9477009773254395,2.217700958251953
1666655401.97999501,275874377,42.7309516,-84.4904631,222.9499969482422,1.9439623355865479,2.2139623165130615
1666655402.00011206,275894494,42.7309516,-84.49046299999999,222.9499969482422,1.9422006607055664,2.21220064163208
1666655402.04002309,275934405,42.730951499999996,-84.49046299999999,222.94000244140625,1.9372406005859375,2.207240581512451
1666655402.07991195,275974294,42.730951399999995,-84.4904629,222.94000244140625,1.931840181350708,2.2018401622772217
1666655402.08004403,275974426,42.730951399999995,-84.4904629,222.94000244140625,1.931840181350708,2.2018401622772217
1666655402.11980605,276014188,42.7309513,-84.4904629,222.92999267578125,1.9261608123779297,2.1961607933044434
1666655402.15976405,276054146,42.7309512,-84.4904629,222.9199981689453,1.9194908142089844,2.189490795135498
1666655402.17999101,276074373,42.7309512,-84.4904629,222.9199981689453,1.9164173603057861,2.1864173412323
1666655402.20012689,276094509,42.7309511,-84.4904629,222.9199981689453,1.913564920425415,2.1835649013519287
1666655402.24004292,276134425,42.7309511,-84.49046299999999,222.9099884033203,1.9073376655578613,2.177337646484375
1666655402.28000593,276174388,42.730951,-84.49046299999999,222.9099884033203,1.901003360748291,2.1710033416748047
1666655402.28011608,276174498,42.730951,-84.49046299999999,222.9099884033203,1.901003360748291,2.1710033416748047
1666655402.31985211,276214234,42.730950899999996,-84.4904631,222.89999389648438,1.8944830894470215,2.164483070373535
1666655402.35981989,276254202,42.730950899999996,-84.4904631,222.88999938964844,1.8888304233551025,2.158830404281616
1666655402.37996602,276274348,42.730950799999995,-84.4904632,222.88999938964844,1.8860602378845215,2.156060218811035
1666655402.40034103,276294723,42.730950799999995,-84.4904632,222.88999938964844,1.8840839862823486,2.1540839672088623
1666655402.44008398,276334466,42.7309507,-84.4904633,222.87998962402344,1.8787798881530762,2.14877986907959
1666655402.47995710,276374339,42.7309507,-84.4904634,222.87998962402344,1.8732521533966064,2.14325213432312
1666655402.48003197,276374414,42.7309507,-84.4904634,222.87998962402344,1.8732521533966064,2.14325213432312
1666655402.51974893,276414131,42.7309506,-84.49046349999999,222.8699951171875,1.8669357299804688,2.1369357109069824
1666655402.55984592,276454228,42.7309506,-84.4904636,222.8699951171875,1.861269235610962,2.1312692165374756
1666655402.57987809,276474260,42.7309505,-84.4904636,222.86000061035156,1.85872483253479,2.1287248134613037
1666655402.60011911,276494501,42.7309505,-84.49046369999999,222.86000061035156,1.8552794456481934,2.125279426574707
