timestamp,TimeUS,C,Roll,Pitch,Yaw,VN,VE,VD,dPD,PN,PE,PD,GX,GY,GZ,OH
1666655387.59898305,261493365,1,-0.1,-0.28,355.07,0.10198480635881424,-0.03717242553830147,-0.002002863911911845,-0.03623339533805847,28.68938446044922,0.13633549213409424,-0.28307434916496277,0.14,0.06,0.05,220.73000000000002
1666655387.63898110,261533363,1,-0.1,-0.28,355.07,0.10234814882278442,-0.0368160642683506,-0.0018120892345905304,-0.020257947966456413,28.69717788696289,0.14124834537506104,-0.2839367091655731,0.14,0.06,0.05,220.73000000000002
1666655387.67901707,261573399,1,-0.1,-0.28,355.06,0.10337864607572556,-0.03580035641789436,-0.002059393096715212,-0.014685689471662045,28.70581817626953,0.1474386751651764,-0.28460511565208435,0.14,0.06,0.05,220.73000000000002
1666655387.71899009,261613372,1,-0.1,-0.28,355.06,0.10420946776866913,-0.03494779020547867,-0.0019225369906052947,-0.011976195499300957,28.713829040527344,0.1526120901107788,-0.2851901650428772,0.14,0.06,0.05,220.73000000000002
1666655387.75900793,261653390,1,-0.09,-0.28,355.06,0.10522918403148651,-0.03451663628220558,-0.0018366577569395304,-0.010127427987754345,28.72136116027832,0.15687288343906403,-0.28569188714027405,0.14,0.06,0.05,220.73000000000002
1666655387.77902508,261673407,1,-0.09,-0.28,355.05,0.10575681924819946,-0.03415483236312866,-0.001694041769951582,-0.009158477187156677,28.725391387939453,0.1595168560743332,-0.2859710156917572,0.14,0.06,0.05,220.73000000000002
1666655387.79897308,261693355,1,-0.09,-0.28,355.05,0.10612181574106216,-0.034419067203998566,-0.0017553478246554732,-0.008477181196212769,28.728439331054688,0.16035768389701843,-0.28611764311790466,0.14,0.06,0.05,220.73000000000002
1666655387.83898497,261733367,1,-0.09,-0.27,355.05,0.10557004064321518,-0.03303595259785652,-0.0018175846198573709,-0.012887941673398018,28.73853302001953,0.17072045803070068,-0.28772616386413574,0.14,0.06,0.05,220.73000000000002
1666655387.87896299,261773345,1,-0.08,-0.27,355.05,0.10500012338161469,-0.03217105194926262,-0.0021886813919991255,-0.021172603592276573,28.746381759643555,0.17681123316287994,-0.2888500988483429,0.14,0.06,0.05,220.73000000000002
1666655387.91902304,261813405,1,-0.09,-0.27,355.05,0.10424274206161499,-0.03202582895755768,-0.002463956130668521,-0.026169084012508392,28.753623962402344,0.18190768361091614,-0.28986579179763794,0.14,0.06,0.05,220.73000000000002
1666655387.95902300,261853405,1,-0.09,-0.27,355.05,0.10388031601905823,-0.03151697292923927,-0.0025560606736689806,-0.027587302029132843,28.760435104370117,0.1861053705215454,-0.29079169034957886,0.14,0.06,0.05,220.73000000000002
1666655387.97898293,261873365,1,-0.08,-0.27,355.05,0.10331366211175919,-0.031225793063640594,-0.0022926214151084423,-0.026878003031015396,28.7639217376709,0.18872159719467163,-0.29132336378097534,0.14,0.06,0.05,220.73000000000002
1666655387.99899507,261893377,1,-0.08,-0.27,355.04,0.10254902392625809,-0.03149164095520973,-0.0017954461509361863,-0.025041373446583748,28.76727867126465,0.19098100066184998,-0.2914631962776184,0.14,0.06,0.05,220.73000000000002
1666655388.03895903,261933341,1,-0.08,-0.26,355.04,0.09935978055000305,-0.030446836724877357,-0.0016281463904306293,-0.020193424075841904,28.775550842285156,0.2000245898962021,-0.29217854142189026,0.14,0.06,0.05,220.73000000000002
1666655388.07898402,261973366,1,-0.08,-0.26,355.04,0.09726084023714066,-0.03029187209904194,-0.001559807569719851,-0.016871996223926544,28.78202247619629,0.20527814328670502,-0.2927168309688568,0.14,0.06,0.05,220.73000000000002
1666655388.11900997,262013392,1,-0.08,-0.26,355.03000000000003,0.09480410069227219,-0.030581645667552948,-0.0011049153981730342,-0.013908067718148232,28.787944793701172,0.2095959484577179,-0.293284147977829,0.14,0.06,0.05,220.73000000000002
1666655388.15901208,262053394,1,-0.08,-0.26,355.03000000000003,0.09353933483362198,-0.0305620189756155,-0.0013676168164238334,-0.014311371371150017,28.793363571166992,0.21311111748218536,-0.2939686179161072,0.14,0.06,0.05,220.73000000000002
1666655388.17898107,262073363,1,-0.08,-0.25,355.03000000000003,0.09251786023378372,-0.03089803084731102,-0.001529096276499331,-0.014721879735589027,28.796051025390625,0.2152814418077469,-0.294370174407959,0.14,0.06,0.05,220.73000000000002
1666655388.19901991,262093402,1,-0.08,-0.25,355.03000000000003,0.0916731208562851,-0.030731426551938057,-0.0011625996557995677,-0.01441238820552826,28.799728393554688,0.21763989329338074,-0.2945556044578552,0.14,0.06,0.05,220.73000000000002
1666655388.23898506,262133367,1,-0.08,-0.25,355.02,0.08905383944511414,-0.029951302334666252,-0.0012504385085776448,-0.01293194480240345,28.8095645904541,0.22701986134052277,-0.29500946402549744,0.14,0.06,0.05,220.73000000000002
1666655388.27898002,262173362,1,-0.08,-0.25,355.01,0.0867759957909584,-0.029503127560019493,-0.0012775480281561613,-0.00989352073520422,28.81686019897461,0.23250070214271545,-0.2952682673931122,0.14,0.06,0.05,220.73000000000002
1666655388.31898594,262213368,1,-0.08,-0.25,355.01,0.08464884757995605,-0.029416454955935478,-0.0010454598814249039,-0.006783457472920418,28.823423385620117,0.23705756664276123,-0.29551422595977783,0.14,0.06,0.05,220.73000000000002
1666655388.35901308,262253395,1,-0.08,-0.25,355.0,0.08311617374420166,-0.02936851605772972,-0.0008347172988578677,-0.004893857520073652,28.82935905456543,0.24080759286880493,-0.29576173424720764,0.14,0.06,0.05,220.73000000000002
1666655388.37898993,262273372,1,-0.08,-0.24,355.0,0.08222773671150208,-0.029086891561746597,-0.0007333406829275191,-0.004215902648866177,28.832473754882812,0.24310488998889923,-0.2958974540233612,0.14,0.06,0.05,220.73000000000002
1666655388.39900303,262293385,1,-0.08,-0.24,355.0,0.08150427788496017,-0.02904902771115303,-0.0005783947999589145,-0.002338141668587923,28.836923599243164,0.2454928606748581,-0.2956550419330597,0.14,0.06,0.05,220.73000000000002
1666655388.43903303,262333415,1,-0.07,-0.24,354.99,0.07966531068086624,-0.02774125523865223,-0.00010427449888084084,0.0051351143047213554,28.84994888305664,0.25494176149368286,-0.295142263174057,0.14,0.06,0.05,220.73000000000002
1666655388.47898102,262373363,1,-0.07,-0.24,354.99,0.07844614237546921,-0.027615873143076897,0.00036874122451990843,0.009814009070396423,28.859233856201172,0.2605120837688446,-0.2948668897151947,0.14,0.06,0.05,220.73000000000002
1666655388.51898408,262413366,1,-0.07,-0.24,354.99,0.07716748118400574,-0.027593139559030533,0.0008777907351031899,0.011921355500817299,28.867586135864258,0.2651624381542206,-0.2946811020374298,0.14,0.06,0.05,220.73000000000002
1666655388.55898595,262453368,1,-0.07,-0.24,354.98,0.0761759802699089,-0.027600139379501343,0.0014351623831316829,0.010558966547250748,28.8751277923584,0.2690010368824005,-0.294627845287323,0.14,0.06,0.05,220.73000000000002
1666655388.57897496,262473357,1,-0.07,-0.24,354.98,0.07561839371919632,-0.027438635006546974,0.0015617884928360581,0.00926965195685625,28.87925910949707,0.2713412642478943,-0.2945859730243683,0.14,0.06,0.05,220.73000000000002
1666655388.59901595,262493398,1,-0.07,-0.24,354.98,0.07499866187572479,-0.02661285363137722,0.001900554052554071,0.010498018935322762,28.88417625427246,0.27415457367897034,-0.29394760727882385,0.14,0.06,0.05,220.73000000000002
1666655388.63898802,262533370,1,-0.06,-0.24,354.98,0.07373154908418655,-0.023263217881321907,0.002824816619977355,0.02346336841583252,28.899267196655273,0.2850860357284546,-0.29195135831832886,0.14,0.06,0.05,220.73000000000002
1666655388.67900991,262573392,1,-0.06,-0.25,354.98,0.07231160253286362,-0.021157415583729744,0.0036759027279913425,0.034694693982601166,28.909809112548828,0.2917809784412384,-0.29063400626182556,0.14,0.06,0.05,220.73000000000002
1666655388.71896601,262613348,1,-0.06,-0.25,354.98,0.07095836848020554,-0.019700918346643448,0.004688731860369444,0.04047761857509613,28.919273376464844,0.2975313067436218,-0.2894957363605499,0.14,0.06,0.05,220.73000000000002
1666655388.75898004,262653362,1,-0.06,-0.25,354.97,0.06961899250745773,-0.018858661875128746,0.004900351632386446,0.03857843205332756,28.927698135375977,0.3024614453315735,-0.28862014412879944,0.14,0.06,0.05,220.73000000000002
1666655388.77901196,262673394,1,-0.06,-0.25,354.97,0.06914766132831573,-0.01825057528913021,0.0054649109952151775,0.0367501899600029,28.932432174682617,0.30544036626815796,-0.2880876362323761,0.14,0.06,0.05,220.73000000000002
1666655388.79896092,262693343,1,-0.06,-0.25,354.97,0.06857284903526306,-0.017971742898225784,0.005870602559298277,0.0357464998960495,28.93762969970703,0.3081471920013428,-0.2875012755393982,0.14,0.06,0.05,220.73000000000002
1666655388.83900690,262733389,1,-0.06,-0.25,354.97,0.06695392727851868,-0.017010224983096123,0.006968671455979347,0.03714487701654434,28.954008102416992,0.31831714510917664,-0.2858882248401642,0.14,0.06,0.05,220.73000000000002
1666655388.87902093,262773403,1,-0.06,-0.25,354.97,0.06547506898641586,-0.01651223562657833,0.007479408290237188,0.03626951575279236,28.965307235717773,0.3245168626308441,-0.2847852110862732,0.14,0.06,0.05,220.73000000000002
1666655388.91899490,262813377,1,-0.06,-0.25,354.97,0.06413615494966507,-0.016294358298182487,0.008512984029948711,0.034303002059459686,28.9753360748291,0.32978948950767517,-0.28388315439224243,0.14,0.06,0.05,220.73000000000002
1666655388.95898890,262853371,1,-0.06,-0.25,354.96,0.06268111616373062,-0.01628015749156475,0.009309470653533936,0.02804623171687126,28.98426628112793,0.33422333002090454,-0.2832876145839691,0.14,0.06,0.05,220.73000000000002
1666655388.97899508,262873377,1,-0.06,-0.25,354.96,0.06209356710314751,-0.01633267104625702,0.009596630930900574,0.024492284283041954,28.98929786682129,0.33686673641204834,-0.28294068574905396,0.14,0.06,0.05,220.73000000000002
1666655388.99898005,262893362,1,-0.06,-0.25,354.96,0.06094951927661896,-0.016044672578573227,0.00948336161673069,0.01907520741224289,28.994474411010742,0.33994194865226746,-0.28324320912361145,0.14,0.06,0.05,220.73000000000002
1666655389.03901505,262933397,1,-0.06,-0.25,354.96,0.05785920098423958,-0.01394553855061531,0.008944730274379253,-0.002431651344522834,29.010929107666016,0.35140740871429443,-0.28488901257514954,0.14,0.06,0.05,220.73000000000002
1666655389.07900190,262973384,1,-0.06,-0.25,354.95,0.05508949235081673,-0.011987567879259586,0.009068844839930534,-0.021669356152415276,29.02202033996582,0.3585461974143982,-0.28588739037513733,0.14,0.06,0.05,220.73000000000002
1666655389.11899090,263013373,1,-0.05,-0.25,354.95,0.05274876579642296,-0.010741271078586578,0.009006564505398273,-0.03271622210741043,29.031770706176758,0.3647228479385376,-0.2868325710296631,0.14,0.06,0.05,220.73000000000002
1666655389.15898800,263053370,1,-0.05,-0.25,354.95,0.05030576139688492,-0.010321038775146008,0.00885290652513504,-0.038462769240140915,29.040264129638672,0.37004536390304565,-0.2878504693508148,0.14,0.06,0.05,220.73000000000002
1666655389.17902803,263073410,1,-0.05,-0.25,354.95,0.04897588491439819,-0.009765720926225185,0.008808487094938755,-0.0394168458878994,29.04505729675293,0.3732209801673889,-0.2884899973869324,0.14,0.06,0.05,220.73000000000002
1666655389.19898295,263093365,1,-0.05,-0.25,354.94,0.04758035019040108,-0.008731722831726074,0.008357997052371502,-0.04203871265053749,29.05021858215332,0.3767370879650116,-0.2893180549144745,0.14,0.06,0.05,220.73000000000002
1666655389.23898292,263133365,1,-0.05,-0.25,354.94,0.04391198232769966,-0.0057040490210056305,0.0070312004536390305,-0.05612950026988983,29.06686019897461,0.3896830379962921,-0.292712539434433,0.14,0.06,0.05,220.73000000000002
1666655389.27899694,263173379,1,-0.05,-0.26,354.94,0.04101923853158951,-0.003571361768990755,0.006306653376668692,-0.06803418695926666,29.077869415283203,0.39794307947158813,-0.2948625087738037,0.14,0.06,0.05,220.73000000000002
1666655389.31899595,263213378,1,-0.05,-0.26,354.93,0.03805926814675331,-0.0019564232788980007,0.0060033355839550495,-0.07164326310157776,29.08741569519043,0.4052085280418396,-0.29699957370758057,0.14,0.06,0.05,220.73000000000002
1666655389.35902095,263253403,1,-0.05,-0.26,354.93,0.035401780158281326,0.0001200109618366696,0.00590395275503397,-0.07385462522506714,29.095672607421875,0.41158777475357056,-0.2993370592594147,0.14,0.06,0.05,220.73000000000002
1666655389.37895489,263273337,1,-0.05,-0.26,354.93,0.03397200629115105,0.001244424027390778,0.00556949945166707,-0.07368705421686172,29.100309371948242,0.4154064953327179,-0.3007698953151703,0.14,0.06,0.05,220.73000000000002
1666655389.39896011,263293342,1,-0.05,-0.26,354.93,0.0338478609919548,0.0018764269771054387,0.005407277960330248,-0.07224596291780472,29.106515884399414,0.41891345381736755,-0.3013163208961487,0.14,0.06,0.05,220.73000000000002
1666655389.43899012,263333372,1,-0.04,-0.26,354.92,0.035218968987464905,0.0037844383623450994,0.0045137847773730755,-0.06700335443019867,29.127567291259766,0.4314408600330353,-0.3039388060569763,0.14,0.06,0.05,220.73000000000002
1666655389.47899699,263373379,1,-0.04,-0.26,354.92,0.035183727741241455,0.005218902137130499,0.00438721664249897,-0.06172647327184677,29.141502380371094,0.43951117992401123,-0.30569079518318176,0.14,0.06,0.05,220.73000000000002
1666655389.51901197,263413394,1,-0.04,-0.26,354.92,0.03491827845573425,0.006050875876098871,0.004276189021766186,-0.05509522184729576,29.15381622314453,0.4465877115726471,-0.3072570264339447,0.14,0.06,0.05,220.73000000000002
1666655389.55899596,263453378,1,-0.04,-0.26,354.92,0.03429519385099411,0.007125595584511757,0.004023145884275436,-0.04811980947852135,29.164731979370117,0.45277848839759827,-0.3086855113506317,0.14,0.06,0.05,220.73000000000002
1666655389.57898903,263473371,1,-0.04,-0.26,354.92,0.03449872508645058,0.007951776497066021,0.004065176472067833,-0.044352054595947266,29.171062469482422,0.4564175009727478,-0.3095604181289673,0.14,0.06,0.05,220.73000000000002
1666655389.59901690,263493399,1,-0.04,-0.26,354.92,0.03407194837927818,0.008080372586846352,0.003972421400249004,-0.04086462780833244,29.17439079284668,0.45819661021232605,-0.30992797017097473,0.14,0.06,0.05,220.73000000000002
1666655389.63898396,263533366,1,-0.04,-0.26,354.91,0.03622784465551376,0.011535857804119587,0.003029927611351013,-0.04570460319519043,29.198163986206055,0.4716559946537018,-0.3136047422885895,0.14,0.06,0.05,220.73000000000002
1666655389.67898393,263573366,1,-0.04,-0.26,354.91,0.03773420304059982,0.013631806708872318,0.002936971141025424,-0.05724373459815979,29.21396827697754,0.48046213388442993,-0.31610262393951416,0.14,0.06,0.05,220.73000000000002
1666655389.71901488,263613397,1,-0.04,-0.27,354.91,0.038467466831207275,0.014697517268359661,0.002168135717511177,-0.06411430239677429,29.22801971435547,0.48822319507598877,-0.31843894720077515,0.14,0.06,0.05,220.73000000000002
1666655389.75900006,263653382,1,-0.04,-0.26,354.91,0.03876271843910217,0.016268927603960037,0.0019391493406146765,-0.0669962614774704,29.240520477294922,0.4950782358646393,-0.32075759768486023,0.14,0.06,0.05,220.73000000000002
1666655389.77899504,263673377,1,-0.04,-0.27,354.91,0.03946082293987274,0.016609983518719673,0.0014339176705107093,-0.06660209596157074,29.247835159301758,0.49908915162086487,-0.3221600651741028,0.14,0.06,0.05,220.73000000000002
1666655389.79901505,263693397,1,-0.04,-0.27,354.91,0.03908894583582878,0.016542628407478333,0.0010892569553107023,-0.06803479790687561,29.25452995300293,0.50251305103302,-0.3234884738922119,0.14,0.06,0.05,220.73000000000002
1666655389.83899593,263733378,1,-0.04,-0.27,354.90000000000003,0.038937367498874664,0.017668675631284714,-0.0007881092024035752,-0.0848727822303772,29.277084350585938,0.5141133666038513,-0.3291375935077667,0.14,0.06,0.05,220.73000000000002
1666655389.87898111,263773363,1,-0.04,-0.27,354.90000000000003,0.03785572201013565,0.01757771335542202,-0.002190179191529751,-0.10350041091442108,29.292028427124023,0.5217015147209167,-0.333037793636322,0.14,0.06,0.05,220.73000000000002
1666655389.91898203,263813364,1,-0.04,-0.28,354.89,0.03686824068427086,0.01764378696680069,-0.0028481518384069204,-0.1103518009185791,29.305160522460938,0.5283008217811584,-0.3366232216358185,0.14,0.06,0.05,220.73000000000002
1666655389.95902205,263853404,1,-0.04,-0.28,354.89,0.03625008091330528,0.017385732382535934,-0.0033543657045811415,-0.10946032404899597,29.31671905517578,0.5340337157249451,-0.3400152325630188,0.14,0.06,0.05,220.73000000000002
1666655389.97896910,263873351,1,-0.04,-0.28,354.89,0.03540509194135666,0.017266010865569115,-0.004021575208753347,-0.10655158013105392,29.32340431213379,0.5373108983039856,-0.34204617142677307,0.14,0.06,0.05,220.73000000000002
1666655389.99899197,263893374,1,-0.04,-0.28,354.89,0.0350593663752079,0.017842235043644905,-0.004367305431514978,-0.10265402495861053,29.330297470092773,0.5411278605461121,-0.34300696849823,0.14,0.06,0.05,220.73000000000002
1666655390.03901196,263933394,1,-0.03,-0.28,354.89,0.03530219942331314,0.020469116047024727,-0.005172062199562788,-0.09251078963279724,29.35373306274414,0.5542041063308716,-0.34681540727615356,0.14,0.06,0.05,220.73000000000002
1666655390.07898402,263973366,1,-0.03,-0.28,354.89,0.03479822725057602,0.0224931463599205,-0.005351480096578598,-0.08423741906881332,29.369112014770508,0.5628290772438049,-0.3494596481323242,0.14,0.06,0.05,220.73000000000002
1666655390.11898708,264013369,1,-0.03,-0.29,354.88,0.03443737328052521,0.023987211287021637,-0.005940079689025879,-0.07523230463266373,29.382659912109375,0.5704886317253113,-0.35192257165908813,0.14,0.06,0.05,220.73000000000002
1666655390.15898705,264053369,1,-0.03,-0.28,354.88,0.033607713878154755,0.02564173750579357,-0.006693837232887745,-0.06802176684141159,29.394567489624023,0.5772951245307922,-0.354303240776062,0.14,0.06,0.05,220.73000000000002
1666655390.17902708,264073409,1,-0.03,-0.28,354.88,0.03344143182039261,0.02627132087945938,-0.007051707711070776,-0.06442337483167648,29.401477813720703,0.5812326073646545,-0.3557087481021881,0.14,0.06,0.05,220.73000000000002
1666655390.19902802,264093410,1,-0.03,-0.29,354.88,0.033114247024059296,0.026755549013614655,-0.007274038624018431,-0.06378749012947083,29.408353805541992,0.5850657820701599,-0.3572397828102112,0.14,0.06,0.05,220.73000000000002
1666655390.23898911,264133371,1,-0.02,-0.29,354.88,0.033203840255737305,0.028778938576579094,-0.009173999540507793,-0.07962068170309067,29.431835174560547,0.5979376435279846,-0.3627665638923645,0.14,0.06,0.05,220.73000000000002
1666655390.27901793,264173400,1,-0.02,-0.29,354.88,0.032461583614349365,0.030540678650140762,-0.010456180199980736,-0.0951281413435936,29.44721794128418,0.6065603494644165,-0.3665398359298706,0.14,0.06,0.05,220.73000000000002
1666655390.31903291,264213415,1,-0.02,-0.29,354.87,0.031521424651145935,0.031712714582681656,-0.011567533016204834,-0.10066202282905579,29.46071434020996,0.6142224669456482,-0.369942307472229,0.14,0.06,0.05,220.73000000000002
1666655390.35898590,264253368,1,-0.02,-0.29,354.87,0.03108341246843338,0.03281760588288307,-0.012135447934269905,-0.09716302901506424,29.472551345825195,0.6210408806800842,-0.37299299240112305,0.14,0.06,0.05,220.73000000000002
1666655390.37901497,264273397,1,-0.02,-0.29,354.87,0.030857741832733154,0.03344208374619484,-0.01266902033239603,-0.09344066679477692,29.479446411132812,0.6249679327011108,-0.3747919201850891,0.14,0.06,0.05,220.73000000000002
1666655390.39897895,264293361,1,-0.02,-0.29,354.87,0.030848277732729912,0.033579666167497635,-0.012948543764650822,-0.09055996686220169,29.48676872253418,0.6286466121673584,-0.37618425488471985,0.14,0.06,0.05,220.73000000000002
1666655390.43901706,264333399,1,-0.02,-0.3,354.87,0.033350490033626556,0.036585379391908646,-0.013959321193397045,-0.09273882210254669,29.512056350708008,0.640762984752655,-0.3811870515346527,0.14,0.06,0.05,220.73000000000002
1666655390.47902393,264373406,1,-0.02,-0.3,354.86,0.033409588038921356,0.034943316131830215,-0.014622095040977001,-0.09693247079849243,29.528671264648438,0.6489267945289612,-0.384712815284729,0.14,0.06,0.05,220.73000000000002
1666655390.51899695,264413379,1,-0.02,-0.3,354.85,0.03299883008003235,0.0368373766541481,-0.01628665253520012,-0.0962730422616005,29.543397903442383,0.6562005281448364,-0.38796886801719666,0.14,0.06,0.05,220.73000000000002
1666655390.55899596,264453378,1,-0.02,-0.3,354.85,0.03413878008723259,0.03847669064998627,-0.01699499413371086,-0.09162922203540802,29.556377410888672,0.6626298427581787,-0.39101436734199524,0.14,0.06,0.05,220.73000000000002
1666655390.57901192,264473394,1,-0.02,-0.3,354.85,0.033987388014793396,0.03836452588438988,-0.016750553622841835,-0.08743596076965332,29.563980102539062,0.6662780046463013,-0.3927852213382721,0.14,0.06,0.05,220.73000000000002
1666655390.59898806,264493370,1,-0.02,-0.3,354.85,0.03202075511217117,0.036774810403585434,-0.01663186028599739,-0.08022183179855347,29.570552825927734,0.6695777773857117,-0.39304429292678833,0.14,0.06,0.05,220.73000000000002
1666655390.63901711,264533399,1,-0.02,-0.3,354.85,0.03214697167277336,0.038327716290950775,-0.016124648973345757,-0.051098018884658813,29.59284019470215,0.6800664067268372,-0.39349955320358276,0.14,0.06,0.05,220.73000000000002
1666655390.67901206,264573394,1,-0.03,-0.3,354.86,0.02930578961968422,0.037889398634433746,-0.0166961457580328,-0.025129416957497597,29.60736846923828,0.6871389746665955,-0.3940241038799286,0.14,0.06,0.05,220.73000000000002
1666655390.71901989,264613402,1,-0.02,-0.31,354.86,0.028108641505241394,0.03644133359193802,-0.01653517410159111,-0.0072114006616175175,29.62004852294922,0.6933967471122742,-0.39452236890792847,0.14,0.06,0.05,220.73000000000002
1666655390.75898409,264653366,1,-0.02,-0.3,354.85,0.026805860921740532,0.03694101423025131,-0.01606588624417782,0.0025800911244004965,29.63103485107422,0.6988192796707153,-0.3949699103832245,0.14,0.06,0.05,220.73000000000002
1666655390.77902198,264673404,1,-0.02,-0.31,354.85,0.02659938484430313,0.0378754660487175,-0.01593153551220894,0.0051259673200547695,29.63739776611328,0.7018541693687439,-0.39516040682792664,0.14,0.06,0.05,220.73000000000002
1666655390.79898500,264693367,1,-0.02,-0.31,354.85,0.026141101494431496,0.03756547346711159,-0.015510042198002338,0.005513578653335571,29.644840240478516,0.7052122354507446,-0.39577826857566833,0.14,0.06,0.05,220.73000000000002
1666655390.83898592,264733368,1,-0.02,-0.31,354.85,0.028978917747735977,0.03834643214941025,-0.014748343266546726,-0.003433570498600602,29.67058753967285,0.7158801555633545,-0.3975735604763031,0.14,0.06,0.05,220.73000000000002
1666655390.87901711,264773399,1,-0.01,-0.31,354.85,0.03031228482723236,0.03904981166124344,-0.01595497503876686,-0.016400953754782677,29.68745231628418,0.723103404045105,-0.3989308178424835,0.14,0.06,0.05,220.73000000000002
1666655390.91901493,264813397,1,0.0,-0.31,354.86,0.03245425224304199,0.03674798458814621,-0.01645071431994438,-0.024885432794690132,29.70240592956543,0.7295079231262207,-0.4002414643764496,0.14,0.06,0.05,220.73000000000002
1666655390.95902300,264853405,1,-0.01,-0.31,354.87,0.03050490841269493,0.04117912799119949,-0.012699715793132782,-0.026210566982626915,29.71553611755371,0.7351709008216858,-0.40155214071273804,0.14,0.06,0.05,220.73000000000002
1666655390.97896504,264873347,1,-0.01,-0.31,354.87,0.03183538839221001,0.0344754159450531,-0.016222620382905006,-0.03101418912410736,29.723203659057617,0.7383070588111877,-0.4022671580314636,0.14,0.06,0.05,220.73000000000002
1666655390.99898696,264893369,1,0.0,-0.31,354.86,0.031786806881427765,0.0375404879450798,-0.01562863029539585,-0.028722591698169708,29.731128692626953,0.7410924434661865,-0.40209701657295227,0.14,0.06,0.05,220.73000000000002
1666655391.03898597,264933368,1,-0.03,-0.31,354.86,0.04037907347083092,0.0373239740729332,-0.017358887940645218,-0.012947811745107174,29.758535385131836,0.7495904564857483,-0.4009804427623749,0.14,0.06,0.05,220.73000000000002
1666655391.07898593,264973368,1,0.0,-0.33,354.86,0.04199650138616562,0.036426786333322525,-0.013351132161915302,0.008684207685291767,29.77668571472168,0.7553691267967224,-0.4004078209400177,0.14,0.06,0.05,220.73000000000002
1666655391.11902308,265013405,1,-0.04,-0.32,354.86,0.041017208248376846,0.031718332320451736,-0.013004596345126629,0.019679231569170952,29.792831420898438,0.7603040933609009,-0.39998167753219604,0.14,0.06,0.05,220.73000000000002
1666655391.15899396,265053376,1,0.0,-0.31,354.87,0.04297459125518799,0.03214552253484726,-0.017359770834445953,0.018393022939562798,29.807220458984375,0.7645763754844666,-0.399688720703125,0.14,0.06,0.05,220.73000000000002
1666655391.17898393,265073366,1,0.0,-0.31,354.87,0.044351864606142044,0.02994624897837639,-0.020501580089330673,0.014815124683082104,29.815641403198242,0.7668979167938232,-0.3994332551956177,0.14,0.06,0.05,220.73000000000002
1666655391.19902110,265093403,1,0.01,-0.33,354.87,0.04298139736056328,0.039899881929159164,-0.010846496559679508,0.025206666439771652,29.823503494262695,0.7693672180175781,-0.39894551038742065,0.14,0.06,0.05,220.73000000000002
1666655391.23898506,265133367,1,-0.02,-0.3,354.88,0.042601220309734344,0.025628678500652313,-0.0065608397126197815,0.03571692481637001,29.85027313232422,0.7769371867179871,-0.3974773585796356,0.14,0.06,0.05,220.73000000000002
1666655391.27899694,265173379,1,0.0,-0.34,354.89,0.05359002202749252,0.033742859959602356,-0.019255366176366806,0.0242003221064806,29.868104934692383,0.7820857763290405,-0.39677709341049194,0.14,0.06,0.05,220.73000000000002
1666655391.31896806,265213350,1,-0.04,-0.32,354.90000000000003,0.04879534989595413,0.030235564336180687,-0.005372381769120693,0.03529256954789162,29.883899688720703,0.7864230275154114,-0.3963204622268677,0.14,0.06,0.05,220.73000000000002
1666655391.35902905,265253411,1,-0.01,-0.33,354.90000000000003,0.049957361072301865,0.02295897714793682,-0.008241512812674046,0.02414279244840145,29.897907257080078,0.790127694606781,-0.3962821662425995,0.14,0.06,0.05,220.73000000000002
1666655391.37898588,265273368,1,0.0,-0.33,354.90000000000003,0.048682939261198044,0.028277641162276268,-0.0132596455514431,0.014446839690208435,29.90605926513672,0.7921502590179443,-0.3961385488510132,0.14,0.06,0.05,220.73000000000002
1666655391.39902997,265293412,1,0.0,-0.33,354.89,0.05003742128610611,0.02830265276134014,-0.014326134696602821,0.012630819343030453,29.913528442382812,0.794711709022522,-0.3953723907470703,0.14,0.06,0.05,220.73000000000002
1666655391.43900609,265333388,1,0.0,-0.32,354.90000000000003,0.05194840580224991,0.019804516807198524,-0.010640651918947697,0.027289079502224922,29.938526153564453,0.8027594685554504,-0.3929905891418457,0.14,0.06,0.05,220.73000000000002
1666655391.47900200,265373384,1,0.0,-0.33,354.90000000000003,0.05194183066487312,0.029830636456608772,-0.010154311545193195,0.03596995770931244,29.9552001953125,0.8081873059272766,-0.391647607088089,0.14,0.06,0.05,220.73000000000002
1666655391.51898599,265413368,1,-0.01,-0.32,354.91,0.05122363194823265,0.022692250087857246,-0.006217563059180975,0.04198538139462471,29.96988296508789,0.8128788471221924,-0.3906807601451874,0.14,0.06,0.05,220.73000000000002
1666655391.55901790,265453400,1,0.0,-0.34,354.92,0.05536973476409912,0.02575085312128067,-0.00997330341488123,0.030649658292531967,29.982955932617188,0.8169630169868469,-0.39025527238845825,0.14,0.06,0.05,220.73000000000002
1666655391.57897305,265473355,1,0.0,-0.33,354.92,0.053836412727832794,0.025304801762104034,-0.006850424222648144,0.028691792860627174,29.990455627441406,0.8192201256752014,-0.38992080092430115,0.14,0.06,0.05,220.73000000000002
1666655391.59900308,265493385,1,-0.02,-0.33,354.92,0.05236337333917618,0.024165043607354164,-0.005438433028757572,0.0278885830193758,29.998069763183594,0.8215397000312805,-0.3891478478908539,0.14,0.06,0.05,220.73000000000002
1666655391.63902092,265533403,1,0.01,-0.34,354.93,0.05427193641662598,0.019360294565558434,-0.005228926427662373,0.03555130586028099,30.023605346679688,0.8288384675979614,-0.3865428864955902,0.14,0.06,0.05,220.73000000000002
1666655391.67897201,265573354,1,0.0,-0.34,354.92,0.05499859154224396,0.025028157979249954,-0.006682611536234617,0.041189417243003845,30.040605545043945,0.8336670398712158,-0.3849170207977295,0.14,0.06,0.05,220.73000000000002
1666655391.71898890,265613371,1,0.0,-0.34,354.92,0.05454461649060249,0.019471317529678345,-0.0035728386137634516,0.04635030776262283,30.055618286132812,0.8378351330757141,-0.38360854983329773,0.14,0.06,0.05,220.73000000000002
1666655391.75898695,265653369,1,0.0,-0.34,354.93,0.0553160198032856,0.022500162944197655,-0.002559236716479063,0.04136471450328827,30.068939208984375,0.8414226174354553,-0.382748007774353,0.14,0.06,0.05,220.73000000000002
1666655391.77900410,265673386,1,-0.01,-0.34,354.92,0.05426589399576187,0.020149029791355133,0.00012035795953124762,0.03961227834224701,30.076602935791016,0.8433896899223328,-0.3821694254875183,0.14,0.06,0.05,220.73000000000002
1666655391.79902291,265693405,1,0.0,-0.34,354.93,0.05419280752539635,0.01962260901927948,-0.0025393476244062185,0.0351906381547451,30.084482192993164,0.8458313345909119,-0.3812871277332306,0.14,0.06,0.05,220.73000000000002
1666655391.83902407,265733406,1,-0.01,-0.34,354.94,0.06134301424026489,0.020301539450883865,-0.00032495619961991906,0.045059800148010254,30.111101150512695,0.8536474108695984,-0.378217875957489,0.14,0.06,0.05,220.73000000000002
1666655391.87903595,265773418,1,0.0,-0.34,354.94,0.05926457792520523,0.015127457678318024,0.0028285756707191467,0.05566534399986267,30.128921508789062,0.8587325215339661,-0.37623536586761475,0.14,0.06,0.05,220.73000000000002
1666655391.91897798,265813360,1,0.0,-0.35000000000000003,354.94,0.06185988709330559,0.01717083901166916,-0.003317045047879219,0.051516950130462646,30.144731521606445,0.8631396293640137,-0.3746149241924286,0.14,0.06,0.05,220.73000000000002
1666655391.95899296,265853375,1,0.0,-0.35000000000000003,354.94,0.06170746684074402,0.018458819016814232,0.004076535347849131,0.05143100023269653,30.15886116027832,0.8669509887695312,-0.37356895208358765,0.14,0.06,0.05,220.73000000000002
1666655391.97901893,265873401,1,0.0,-0.35000000000000003,354.94,0.0622219555079937,0.01851094700396061,0.000251979538006708,0.04243289306759834,30.166969299316406,0.8691259026527405,-0.3729114830493927,0.14,0.06,0.05,220.73000000000002
1666655391.99898696,265893369,1,0.0,-0.35000000000000003,354.94,0.06094316393136978,0.017470119521021843,0.0002619260048959404,0.04336708411574364,30.175138473510742,0.8711630702018738,-0.3710794150829315,0.14,0.06,0.05,220.73000000000002
1666655392.03901911,265933401,1,-0.01,-0.35000000000000003,354.94,0.06493988633155823,0.013958167284727097,0.004210157319903374,0.07470697909593582,30.20244026184082,0.8775783181190491,-0.3649449348449707,0.14,0.06,0.05,220.73000000000002
1666655392.07900906,265973391,1,0.0,-0.35000000000000003,354.94,0.06533938646316528,0.012985164299607277,0.0065666548907756805,0.1028510108590126,30.22085952758789,0.8816812634468079,-0.3609444797039032,0.14,0.06,0.05,220.73000000000002
1666655392.11901689,266013399,1,0.0,-0.35000000000000003,354.95,0.06739548593759537,0.008905160240828991,0.0056260921992361546,0.11225765198469162,30.237207412719727,0.8851671814918518,-0.3575304448604584,0.14,0.06,0.05,220.73000000000002
1666655392.15898108,266053363,1,0.01,-0.35000000000000003,354.95,0.06936608254909515,0.011666982434689999,0.006461357697844505,0.10736648738384247,30.251842498779297,0.8880407810211182,-0.35476139187812805,0.14,0.06,0.05,220.73000000000002
1666655392.17902303,266073405,1,0.01,-0.36,354.95,0.06903723627328873,0.013598852790892124,0.0053645954467356205,0.10004003345966339,30.260255813598633,0.8896533250808716,-0.35309693217277527,0.14,0.06,0.05,220.73000000000002
1666655392.19899702,266093379,1,-0.01,-0.36,354.95,0.07030419260263443,0.012914755381643772,0.009813833981752396,0.09943598508834839,30.26861000061035,0.8916230201721191,-0.35173988342285156,0.14,0.06,0.05,220.73000000000002
1666655392.23898005,266133362,1,0.0,-0.36,354.95,0.07460884004831314,0.0040624793618917465,0.008983101695775986,0.09663736820220947,30.29637336730957,0.8980631828308105,-0.3469542860984802,0.14,0.06,0.05,220.73000000000002
1666655392.27901697,266173399,1,0.0,-0.36,354.95,0.07688699662685394,0.010574993677437305,0.010638512670993805,0.09805648773908615,30.315277099609375,0.9021007418632507,-0.34364432096481323,0.14,0.06,0.05,220.73000000000002
1666655392.31902909,266213411,1,0.0,-0.36,354.95,0.07569052278995514,0.003160665510222316,0.012715744785964489,0.0957113653421402,30.33207893371582,0.9054989218711853,-0.3407324254512787,0.14,0.06,0.05,220.73000000000002
1666655392.35900402,266253386,1,0.0,-0.37,354.95,0.07918931543827057,0.0032815372105687857,0.01210874505341053,0.08468514680862427,30.347190856933594,0.90823894739151,-0.33825716376304626,0.14,0.06,0.05,220.73000000000002
1666655392.37901902,266273401,1,0.01,-0.37,354.94,0.0737355425953865,0.0030423009302467108,0.011622723191976547,0.078079454600811,30.355741500854492,0.9098174571990967,-0.3367998003959656,0.14,0.06,0.05,220.73000000000002
1666655392.39899397,266293376,1,0.01,-0.37,354.94,0.07712182402610779,0.004261672496795654,0.01470546517521143,0.07813118398189545,30.36383819580078,0.9121184349060059,-0.33524078130722046,0.14,0.06,0.05,220.73000000000002
1666655392.43899107,266333373,1,0.03,-0.37,354.95,0.08176076412200928,0.00611879862844944,0.01147985365241766,0.08102501928806305,30.390541076660156,0.920134961605072,-0.3303026854991913,0.14,0.06,0.05,220.73000000000002
1666655392.47902989,266373412,1,0.01,-0.38,354.96,0.08051571249961853,0.0014792073052376509,0.014969129115343094,0.09008463472127914,30.408578872680664,0.9252923130989075,-0.32697319984436035,0.14,0.06,0.05,220.73000000000002
1666655392.51900697,266413389,1,0.0,-0.37,354.96,0.08523032069206238,0.002358965342864394,0.010389186441898346,0.08445626497268677,30.424814224243164,0.9295884966850281,-0.32409802079200745,0.14,0.06,0.05,220.73000000000002
1666655392.55903506,266453417,1,0.0,-0.38,354.97,0.08296221494674683,0.003827949520200491,0.02022554539144039,0.08358155936002731,30.43927574157715,0.9333168864250183,-0.3218148946762085,0.14,0.06,0.05,220.73000000000002
1666655392.57897592,266473358,1,0.0,-0.36,354.97,0.08289755135774612,-0.004134162329137325,0.010888893157243729,0.06757893413305283,30.44744110107422,0.9353997111320496,-0.32052096724510193,0.14,0.06,0.05,220.73000000000002
1666655392.59897709,266493359,1,0.04,-0.36,354.98,0.08556528389453888,0.0038153096102178097,0.01218482106924057,0.0672367736697197,30.45574188232422,0.9377641081809998,-0.31843695044517517,0.14,0.06,0.05,220.73000000000002
1666655392.63898611,266533368,1,0.03,-0.36,354.98,0.09182508289813995,0.0023806183598935604,0.00875976774841547,0.08098351210355759,30.48280906677246,0.94594806432724,-0.31243759393692017,0.14,0.06,0.05,220.73000000000002
1666655392.67899108,266573373,1,0.06,-0.37,354.99,0.09336449950933456,0.0014947381569072604,0.02538761869072914,0.1103147566318512,30.501298904418945,0.9512216448783875,-0.30838584899902344,0.14,0.06,0.05,220.73000000000002
1666655392.71901703,266613399,1,0.03,-0.37,355.01,0.09100374579429626,-0.011645788326859474,0.02155608870089054,0.1086587980389595,30.517822265625,0.9556280374526978,-0.3051387369632721,0.14,0.06,0.05,220.73000000000002
1666655392.75900197,266653384,1,-0.02,-0.36,355.03000000000003,0.0964675173163414,-0.0007565445848740637,0.020816732197999954,0.09222423285245895,30.53261947631836,0.9594686627388,-0.3028815984725952,0.14,0.06,0.05,220.73000000000002
1666655392.77899098,266673373,1,0.07,-0.36,355.03000000000003,0.0868961364030838,-0.00028804049361497164,0.03611176460981369,0.09775692224502563,30.540983200073242,0.9616946578025818,-0.3016301691532135,0.14,0.06,0.05,220.73000000000002
1666655392.79902911,266693411,1,0.05,-0.38,355.05,0.09525416046380997,0.016042472794651985,0.007327060215175152,0.06166798621416092,30.54949188232422,0.9638139605522156,-0.30018341541290283,0.14,0.06,0.05,220.73000000000002
1666655392.83899903,266733381,1,0.06,-0.38,355.07,0.08883032202720642,-0.0090261185541749,0.02342352084815502,0.07044462114572525,30.576913833618164,0.9716088175773621,-0.2971840500831604,0.14,0.06,0.04,220.73000000000002
1666655392.87898803,266773370,1,0.05,-0.37,355.09000000000003,0.0953894853591919,0.012163110077381134,0.027474194765090942,0.06271969527006149,30.595876693725586,0.9765447974205017,-0.295082151889801,0.14,0.06,0.04,220.73000000000002
1666655392.91898799,266813370,1,0.03,-0.38,355.12,0.0992693156003952,-0.005820061545819044,0.03698352724313736,0.06154051050543785,30.61277961730957,0.9807952642440796,-0.2934284210205078,0.14,0.06,0.04,220.73000000000002
1666655392.95901799,266853400,1,0.01,-0.37,355.15000000000003,0.09598901122808456,0.005725754890590906,0.017486795783042908,0.02759072184562683,30.627899169921875,0.9845394492149353,-0.29229751229286194,0.14,0.06,0.04,220.73000000000002
1666655392.97899294,266873375,1,0.02,-0.38,355.16,0.0947168692946434,0.009095952846109867,0.02717847190797329,0.03061002679169178,30.6364688873291,0.9866666197776794,-0.29172641038894653,0.14,0.06,0.04,220.73000000000002
1666655392.99900508,266893387,1,0.01,-0.36,355.17,0.0984719917178154,0.00867458339780569,0.03043915331363678,0.03133435547351837,30.64546775817871,0.9891847968101501,-0.2904151678085327,0.14,0.06,0.04,220.73000000000002
1666655393.03900599,266933388,1,0.03,-0.38,355.2,0.10120894014835358,0.0028787986375391483,0.037407003343105316,0.04459249973297119,30.674482345581055,0.9980436563491821,-0.28788134455680847,0.14,0.06,0.04,220.73000000000002
1666655393.07898998,266973372,1,0.02,-0.36,355.23,0.10465677827596664,0.00014698671293444932,0.03786444664001465,0.04772626608610153,30.694480895996094,1.0036063194274902,-0.28605860471725464,0.14,0.06,0.04,220.73000000000002
1666655393.11899090,267013373,1,0.02,-0.34,355.26,0.10283929109573364,0.0015294404001906514,0.02811574563384056,0.03798924759030342,30.712495803833008,1.0084807872772217,-0.2847108244895935,0.14,0.06,0.04,220.73000000000002
1666655393.15902305,267053405,1,0.0,-0.36,355.31,0.11023838073015213,0.006877639796584845,0.02341168001294136,0.02135911025106907,30.728782653808594,1.0127818584442139,-0.2842378318309784,0.14,0.06,0.04,220.73000000000002
1666655393.17897010,267073352,1,0.02,-0.36,355.34000000000003,0.1099819615483284,0.008693899028003216,0.026598919183015823,0.017545992508530617,30.738109588623047,1.01528799533844,-0.284071683883667,0.14,0.06,0.04,220.73000000000002
1666655393.19900489,267093387,1,0.05,-0.35000000000000003,355.37,0.10763595253229141,0.010526217520236969,0.03301149234175682,0.01705227419734001,30.746639251708984,1.0178463459014893,-0.284004271030426,0.14,0.06,0.04,220.73000000000002
1666655393.23901796,267133400,1,-0.01,-0.38,355.41,0.11030325293540955,0.004961432423442602,0.0386665053665638,-0.0009288792498409748,30.773584365844727,1.0267482995986938,-0.2864477038383484,0.14,0.06,0.04,220.73000000000002
1666655393.27900195,267173384,1,0.03,-0.36,355.46,0.11353534460067749,-0.005093851592391729,0.019968174397945404,-0.048144225031137466,30.79228973388672,1.0323245525360107,-0.2880578935146332,0.14,0.06,0.04,220.73000000000002
1666655393.31898499,267213367,1,-0.02,-0.36,355.49,0.11424553394317627,0.0009528733789920807,0.033985260874032974,-0.05146414041519165,30.809062957763672,1.0370869636535645,-0.2901020348072052,0.14,0.06,0.04,220.73000000000002
1666655393.35899091,267253373,1,0.04,-0.35000000000000003,355.53000000000003,0.1110883578658104,0.004712190944701433,0.021974265575408936,-0.08644016087055206,30.824115753173828,1.0412644147872925,-0.2932937443256378,0.14,0.06,0.03,220.73000000000002
1666655393.37903500,267273417,1,0.03,-0.34,355.55,0.11301309615373611,0.0077496664598584175,0.03957624360918999,-0.07735743373632431,30.832536697387695,1.0437397956848145,-0.2953166961669922,0.14,0.06,0.03,220.73000000000002
1666655393.39902806,267293410,1,0.03,-0.34,355.58,0.11176829040050507,0.0013992770109325647,0.027075087651610374,-0.09189509600400925,30.840835571289062,1.046622395515442,-0.2949422001838684,0.14,0.06,0.03,220.73000000000002
1666655393.43903208,267333414,1,0.01,-0.33,355.62,0.11165082454681396,0.009683778509497643,0.032541945576667786,-0.07292180508375168,30.866811752319336,1.056840181350708,-0.29722779989242554,0.14,0.06,0.03,220.73000000000002
1666655393.47902012,267373402,1,0.0,-0.32,355.67,0.11765322834253311,0.0005315966554917395,0.025363801047205925,-0.0737573504447937,30.885040283203125,1.0634640455245972,-0.2988939583301544,0.14,0.06,0.03,220.73000000000002
1666655393.51899004,267413372,1,0.0,-0.33,355.72,0.12099017202854156,0.009929005987942219,0.02297632023692131,-0.0703418105840683,30.90143585205078,1.0691816806793213,-0.30119845271110535,0.14,0.06,0.03,220.73000000000002
1666655393.55898595,267453368,1,0.0,-0.32,355.76,0.11877347528934479,-0.005574474111199379,0.024498114362359047,-0.08392592519521713,30.916173934936523,1.0741558074951172,-0.3050838112831116,0.14,0.06,0.03,220.73000000000002
1666655393.57900000,267473382,1,0.0,-0.33,355.8,0.12327906489372253,0.013919990509748459,0.04130396991968155,-0.0753568634390831,30.924495697021484,1.0770702362060547,-0.3074956238269806,0.14,0.06,0.03,220.73000000000002
1666655393.59898901,267493371,1,0.01,-0.33,355.81,0.11917827278375626,0.010870540514588356,0.017853161320090294,-0.10658606141805649,30.932231903076172,1.079443335533142,-0.3088722229003906,0.14,0.06,0.03,220.73000000000002
1666655393.63900089,267533383,1,0.0,-0.34,355.87,0.12632590532302856,0.01956397481262684,0.029765808954834938,-0.1273408681154251,30.956233978271484,1.0876355171203613,-0.31870362162590027,0.14,0.06,0.03,220.73000000000002
1666655393.67899489,267573377,1,-0.04,-0.34,355.91,0.12084395438432693,-0.00394950807094574,0.04176695644855499,-0.16321420669555664,30.973175048828125,1.0929996967315674,-0.32566729187965393,0.14,0.06,0.03,220.73000000000002
1666655393.71902895,267613411,1,0.1,-0.35000000000000003,355.94,0.1174820065498352,0.0015829952899366617,0.026939349249005318,-0.20524129271507263,30.988370895385742,1.0976117849349976,-0.33354806900024414,0.14,0.06,0.03,220.73000000000002
1666655393.75897408,267653356,1,0.04,-0.38,355.99,0.12687073647975922,0.022329984232783318,0.014344055205583572,-0.2589546740055084,31.001937866210938,1.101523756980896,-0.343770831823349,0.14,0.06,0.03,220.73000000000002
1666655393.77900505,267673387,1,-0.01,-0.36,356.01,0.1123325377702713,-0.006028199102729559,0.030101478099822998,-0.25854140520095825,31.009429931640625,1.1037508249282837,-0.35004398226737976,0.14,0.06,0.03,220.73000000000002
1666655393.79898596,267693368,1,0.03,-0.35000000000000003,356.02,0.12425486743450165,0.011904958635568619,0.02638491615653038,-0.27242156863212585,31.014202117919922,1.1048800945281982,-0.3527570962905884,0.14,0.06,0.03,220.73000000000002
1666655393.83898091,267733363,1,0.1,-0.35000000000000003,356.09000000000003,0.11819655448198318,0.012387953698635101,0.016645850613713264,-0.3119206428527832,31.03850555419922,1.1141246557235718,-0.3706798255443573,0.14,0.06,0.02,220.73000000000002
1666655393.87902689,267773409,1,0.15,-0.33,356.12,0.11977282911539078,0.004114991519600153,-0.00751093914732337,-0.3829804062843323,31.055540084838867,1.1202526092529297,-0.38366109132766724,0.14,0.06,0.02,220.73000000000002
1666655393.91901708,267813399,1,0.23,-0.34,356.18,0.12296174466609955,0.007712900172919035,-0.015555481426417828,-0.40705469250679016,31.070777893066406,1.1258881092071533,-0.39767178893089294,0.14,0.06,0.02,220.73000000000002
1666655393.95900393,267853386,1,0.37,-0.26,356.22,0.12467257678508759,0.0005966906901448965,-0.03531911224126816,-0.45774200558662415,31.084514617919922,1.1310491561889648,-0.41449296474456787,0.14,0.06,0.02,220.73000000000002
1666655393.97901702,267873399,1,0.42,-0.21,356.23,0.11851664632558823,0.04450492188334465,-0.035648830235004425,-0.4657854437828064,31.092134475708008,1.1339597702026367,-0.4246293008327484,0.14,0.06,0.02,220.73000000000002
1666655393.99899197,267893374,1,0.51,-0.09,356.24,0.12170668691396713,0.012645144946873188,-0.053709182888269424,-0.4862123131752014,31.10016441345215,1.1369620561599731,-0.43018990755081177,0.14,0.06,0.02,220.73000000000002
1666655394.03898811,267933370,1,0.62,-0.07,356.28000000000003,0.10964818298816681,0.021101592108607292,-0.06062333285808563,-0.500045120716095,31.124923706054688,1.1469060182571411,-0.4542921781539917,0.14,0.06,0.02,220.73000000000002
1666655394.07901812,267973400,1,0.78,0.0,356.29,0.10570212453603745,0.03976001590490341,-0.05890271067619324,-0.5195462107658386,31.14228057861328,1.1538679599761963,-0.4719175398349762,0.14,0.06,0.02,220.73000000000002
1666655394.11901093,268013393,1,0.87,0.06,356.3,0.1220226064324379,0.056165266782045364,-0.06886408478021622,-0.5230458974838257,31.1579532623291,1.1602823734283447,-0.4898632764816284,0.14,0.06,0.02,220.73000000000002
1666655394.15901709,268053399,1,0.9500000000000001,0.09,356.32,0.12442672252655029,0.05931727588176727,-0.04823192581534386,-0.5183921456336975,31.171958923339844,1.1662664413452148,-0.5102551579475403,0.14,0.06,0.02,220.73000000000002
1666655394.17898607,268073368,1,1.07,0.17,356.33,0.11271882057189941,0.05175625905394554,-0.10105779021978378,-0.5737712979316711,31.179712295532227,1.1698365211486816,-0.5223991274833679,0.14,0.06,0.02,220.73000000000002
1666655394.19897795,268093360,1,0.99,0.2,356.31,0.13006246089935303,0.04856133460998535,-0.07501905411481857,-0.5449714064598083,31.18840789794922,1.1733219623565674,-0.5290673971176147,0.14,0.06,0.02,220.73000000000002
1666655394.23899293,268133375,1,1.05,0.22,356.33,0.12984757125377655,0.04551054909825325,-0.09481705725193024,-0.5587700009346008,31.21572494506836,1.1844028234481812,-0.556266188621521,0.13,0.06,0.02,220.73000000000002
1666655394.27899194,268173374,1,1.1500000000000001,0.23,356.31,0.11777810007333755,0.058971479535102844,-0.10953216254711151,-0.5823647975921631,31.234724044799805,1.1926202774047852,-0.5767426490783691,0.13,0.06,0.02,220.73000000000002
1666655394.31902099,268213403,1,1.07,0.29,356.29,0.11556201428174973,0.08343590795993805,-0.11247847974300385,-0.5720087289810181,31.25175666809082,1.2004891633987427,-0.5969221591949463,0.13,0.06,0.02,220.73000000000002
1666655394.35900998,268253392,1,0.99,0.33,356.28000000000003,0.11519164592027664,0.09752381592988968,-0.10381684452295303,-0.5682487487792969,31.267122268676758,1.2079639434814453,-0.618567168712616,0.13,0.06,0.01,220.73000000000002
1666655394.37899208,268273374,1,0.89,0.32,356.26,0.1201416626572609,0.07454653829336166,-0.0964437946677208,-0.558894693851471,31.275684356689453,1.2120972871780396,-0.6311232447624207,0.13,0.06,0.01,220.73000000000002
1666655394.39902806,268293410,1,0.76,0.34,356.25,0.11919345706701279,0.1025707945227623,-0.10698214918375015,-0.5618394613265991,31.28377914428711,1.215437889099121,-0.6375718116760254,0.14,0.06,0.01,220.73000000000002
1666655394.43902612,268333408,1,0.37,0.29,356.21,0.11728762835264206,0.08751793205738068,-0.09103095531463623,-0.5242334604263306,31.308940887451172,1.2244354486465454,-0.6628974676132202,0.14,0.06,0.01,220.73000000000002
1666655394.47898602,268373368,1,0.14,0.31,356.19,0.10930978506803513,0.07482153922319412,-0.0893130674958229,-0.5145715475082397,31.326583862304688,1.231501817703247,-0.6822517514228821,0.14,0.06,0.01,220.73000000000002
1666655394.51898789,268413370,1,-0.09,0.32,356.13,0.11406466364860535,0.07289773225784302,-0.10895103216171265,-0.51168292760849,31.34231948852539,1.2381272315979004,-0.7014954090118408,0.14,0.06,0.01,220.73000000000002
1666655394.55903292,268453415,1,-0.54,0.23,356.09000000000003,0.11558540910482407,0.0843639224767685,-0.11544351279735565,-0.5156906843185425,31.356395721435547,1.2441868782043457,-0.7218180298805237,0.14,0.06,0.01,220.73000000000002
1666655394.57898998,268473372,1,-0.9500000000000001,0.22,356.06,0.10560854524374008,0.09012290090322495,-0.10373788326978683,-0.49887561798095703,31.364280700683594,1.247267484664917,-0.7333385348320007,0.14,0.06,0.01,220.73000000000002
1666655394.59899807,268493380,1,-0.9500000000000001,0.16,356.03000000000003,0.11826462298631668,0.08706256002187729,-0.12057971209287643,-0.505251407623291,31.37235450744629,1.2497869729995728,-0.7392320036888123,0.14,0.06,0.01,220.73000000000002
1666655394.63901496,268533397,1,-1.26,0.13,355.97,0.11818774789571762,0.08372709900140762,-0.14137355983257294,-0.4992792308330536,31.397533416748047,1.2555768489837646,-0.7619796395301819,0.14,0.06,0.01,220.73000000000002
1666655394.67897296,268573355,1,-1.5,0.09,355.92,0.11247891187667847,0.0768076553940773,-0.14589715003967285,-0.5002180337905884,31.414995193481445,1.2599461078643799,-0.7796456813812256,0.14,0.06,0.01,220.73000000000002
1666655394.71898603,268613368,1,-1.53,0.15,355.88,0.10837677121162415,0.05966329574584961,-0.15643003582954407,-0.493828684091568,31.430580139160156,1.263620138168335,-0.7981113195419312,0.14,0.06,0.01,220.73000000000002
1666655394.75897193,268653354,1,1.1400000000000001,1.01,153.97,0.09942654520273209,0.026907408609986305,-0.17632317543029785,-0.5233808755874634,31.444334030151367,1.2658361196517944,-0.8187816143035889,0.14,0.06,0.01,220.73000000000002
1666655394.77898002,268673362,1,0.92,1.0,153.94,0.10770956426858902,0.029811663553118706,-0.13752363622188568,-0.48756033182144165,31.452293395996094,1.2670177221298218,-0.8306154012680054,0.14,0.06,0.01,220.73000000000002
1666655394.79902411,268693406,1,1.03,0.96,153.92000000000002,0.11425954848527908,0.02151305042207241,-0.1770610362291336,-0.5241804122924805,31.459014892578125,1.2683546543121338,-0.8372743129730225,0.14,0.06,0.01,220.73000000000002
1666655394.83902693,268733409,1,0.91,0.8,153.85,0.1255905032157898,0.027636682614684105,-0.19829648733139038,-0.5281474590301514,31.4801025390625,1.2727277278900146,-0.8608017563819885,0.14,0.06,0.01,220.73000000000002
1666655394.87901211,268773394,1,0.64,0.64,153.85,0.13799560070037842,0.011028955690562725,-0.20283961296081543,-0.5347707271575928,31.49547576904297,1.275872826576233,-0.8795986771583557,0.14,0.06,0.01,220.73000000000002
1666655394.91901994,268813402,1,0.31,0.39,153.87,0.14283080399036407,-0.004744714591652155,-0.22185935080051422,-0.554895281791687,31.509918212890625,1.2788081169128418,-0.903760552406311,0.14,0.06,0.01,220.73000000000002
1666655394.95898700,268853369,1,0.07,0.19,153.82,0.16431787610054016,0.0041176448576152325,-0.2380334436893463,-0.6920693516731262,31.523929595947266,1.2819398641586304,-0.9380902051925659,0.14,0.06,0.01,220.73000000000002
1666655394.97903395,268873416,1,-0.05,0.18,153.78,0.1560637354850769,0.04845692217350006,-0.21188734471797943,-0.7284351587295532,31.532075881958008,1.2841267585754395,-0.9580797553062439,0.14,0.06,0.01,220.73000000000002
1666655394.99901795,268893400,1,-0.16,0.08,153.76,0.17297068238258362,0.01637912541627884,-0.2627965211868286,-0.8096680641174316,31.538713455200195,1.2852002382278442,-0.9692792892456055,0.14,0.06,0.01,220.73000000000002
1666655395.03901601,268933398,1,-0.42,0.01,153.63,0.18273833394050598,0.03855082020163536,-0.29042255878448486,-0.9228096604347229,31.55796241760254,1.2888643741607666,-1.0204651355743408,0.14,0.06,0.01,220.73000000000002
1666655395.07901907,268973401,1,-0.65,-0.09,153.43,0.18585693836212158,0.05171807110309601,-0.31997057795524597,-1.095275640487671,31.573322296142578,1.2931240797042847,-1.0620553493499756,0.14,0.06,0.01,220.73000000000002
1666655395.11896992,269013352,1,-0.79,-0.19,153.23,0.1938892900943756,0.07394666224718094,-0.31552693247795105,-1.154579520225525,31.58819007873535,1.2984395027160645,-1.100290298461914,0.14,0.06,0.01,220.73000000000002
1666655395.15898490,269053367,1,-0.9500000000000001,-0.29,153.02,0.19356632232666016,0.09709486365318298,-0.3265775144100189,-1.2245416641235352,31.60274887084961,1.3050419092178345,-1.148454189300537,0.14,0.06,0.01,220.73000000000002
1666655395.17899203,269073374,1,-1.1,-0.22,152.92000000000002,0.23132634162902832,0.12180062383413315,-0.2999061644077301,-1.2240378856658936,31.61087989807129,1.3093299865722656,-1.1761205196380615,0.14,0.06,0.01,220.73000000000002
1666655395.19899511,269093377,1,-1.09,-0.22,152.79,0.2079637348651886,0.12193115055561066,-0.34320518374443054,-1.2817021608352661,31.618438720703125,1.3133267164230347,-1.1926274299621582,0.14,0.06,0.01,220.73000000000002
1666655395.23902392,269133406,1,-1.24,-0.13,152.57,0.21869899332523346,0.14152559638023376,-0.3559556305408478,-1.310636043548584,31.63921356201172,1.3250865936279297,-1.2523324489593506,0.14,0.06,0.01,220.73000000000002
1666655395.27901602,269173398,1,-1.26,-0.17,152.4,0.23643675446510315,0.15608260035514832,-0.36579015851020813,-1.352640986442566,31.656082153320312,1.336092233657837,-1.2980546951293945,0.14,0.06,0.01,220.73000000000002
1666655395.31902003,269213402,1,-1.1400000000000001,-0.19,152.22,0.2548772692680359,0.17208988964557648,-0.3544234335422516,-1.319175124168396,31.67227554321289,1.3478790521621704,-1.3450076580047607,0.14,0.06,0.01,220.73000000000002
1666655395.35899711,269253379,1,-0.97,-0.14,152.06,0.25136277079582214,0.17949508130550385,-0.3164607286453247,-1.321679949760437,31.68776512145996,1.3603428602218628,-1.3968312740325928,0.14,0.06,0.01,220.73000000000002
1666655395.37901902,269273401,1,-0.84,-0.08,151.99,0.2431924045085907,0.2217569649219513,-0.28656119108200073,-1.3040283918380737,31.696224212646484,1.3675695657730103,-1.4260839223861694,0.14,0.06,0.01,220.73000000000002
1666655395.39898896,269293371,1,-0.58,-0.2,151.92000000000002,0.25216859579086304,0.20349740982055664,-0.30621930956840515,-1.3207534551620483,31.70357894897461,1.3725087642669678,-1.4424210786819458,0.14,0.06,0.01,220.73000000000002
1666655395.43898511,269333367,1,-0.4,-0.2,151.8,0.24802272021770477,0.2144707441329956,-0.2985106110572815,-1.3044755458831787,31.722305297851562,1.3845131397247314,-1.5052719116210938,0.14,0.06,0.01,220.73000000000002
1666655395.47902203,269373404,1,-0.14,-0.24,151.73,0.25159338116645813,0.21663133800029755,-0.2852865159511566,-1.3271149396896362,31.73793601989746,1.3961331844329834,-1.5525858402252197,0.14,0.06,0.01,220.73000000000002
1666655395.51901102,269413393,1,0.05,-0.28,151.71,0.2541743814945221,0.22808150947093964,-0.2993585169315338,-1.3203479051589966,31.752967834472656,1.408089518547058,-1.5985729694366455,0.14,0.06,0.01,220.73000000000002
1666655395.55902791,269453410,1,0.18,-0.29,151.67000000000002,0.24981358647346497,0.2303614318370819,-0.2838746905326843,-1.303520917892456,31.767141342163086,1.419958472251892,-1.6460310220718384,0.14,0.06,0.01,220.73000000000002
1666655395.57902694,269473409,1,0.32,-0.25,151.67000000000002,0.28331393003463745,0.2622123062610626,-0.23465687036514282,-1.2382242679595947,31.774690628051758,1.4264533519744873,-1.6734298467636108,0.14,0.06,0.01,220.73000000000002
1666655395.59897804,269493360,1,0.39,-0.25,151.64000000000001,0.2522500455379486,0.23950405418872833,-0.2928653061389923,-1.2690600156784058,31.781705856323242,1.430596947669983,-1.6876171827316284,0.14,0.06,0.01,220.73000000000002
1666655395.63898492,269533367,1,0.51,-0.26,151.64000000000001,0.25904276967048645,0.2321520894765854,-0.25501328706741333,-1.157078742980957,31.798255920410156,1.437455415725708,-1.7408292293548584,0.14,0.06,0.01,220.73000000000002
1666655395.67896605,269573348,1,0.6900000000000001,-0.26,151.67000000000002,0.2531333267688751,0.22671952843666077,-0.23307454586029053,-1.107055902481079,31.812267303466797,1.445109248161316,-1.780340552330017,0.14,0.06,0.01,220.73000000000002
1666655395.71902609,269613408,1,0.84,-0.25,151.71,0.24209833145141602,0.22336359322071075,-0.22400130331516266,-1.0361151695251465,31.825519561767578,1.452759861946106,-1.8172475099563599,0.14,0.06,0.01,220.73000000000002
1666655395.75899410,269653376,1,0.89,-0.29,151.79,0.2457883358001709,0.21650198101997375,-0.2113274782896042,-0.981959342956543,31.838281631469727,1.460660457611084,-1.8539047241210938,0.14,0.06,0.01,220.73000000000002
1666655395.77898908,269673371,1,1.04,-0.21,151.85,0.2644706070423126,0.24332749843597412,-0.17743249237537384,-0.9207311272621155,31.844514846801758,1.4641127586364746,-1.8747056722640991,0.14,0.06,0.01,220.73000000000002
1666655395.79902911,269693411,1,1.01,-0.31,151.89000000000001,0.2485748678445816,0.21781069040298462,-0.21074426174163818,-0.9159181714057922,31.851642608642578,1.4665591716766357,-1.8844900131225586,0.14,0.06,0.01,220.73000000000002
1666655395.83896494,269733347,1,1.08,-0.26,152.0,0.2469344288110733,0.2092151790857315,-0.19281409680843353,-0.7795884609222412,31.868877410888672,1.4674313068389893,-1.9168916940689087,0.14,0.06,0.01,220.73000000000002
1666655395.87898993,269773372,1,1.12,-0.25,152.13,0.24307771027088165,0.20448468625545502,-0.23552347719669342,-0.7196990847587585,31.883066177368164,1.4704123735427856,-1.9413871765136719,0.14,0.06,0.01,220.73000000000002
1666655395.91904211,269813424,1,1.07,-0.25,152.27,0.24353793263435364,0.19752225279808044,-0.24291838705539703,-0.6383165717124939,31.896347045898438,1.4735037088394165,-1.9655275344848633,0.14,0.06,0.01,220.73000000000002
1666655395.95901895,269853401,1,1.11,-0.27,152.44,0.24918754398822784,0.19199959933757782,-0.25087201595306396,-0.6035019159317017,31.908790588378906,1.4766888618469238,-1.990850806236267,0.14,0.06,0.01,220.73000000000002
1666655395.97898602,269873368,1,0.92,-0.28,152.53,0.22925518453121185,0.1929626613855362,-0.21131187677383423,-0.5482956767082214,31.915287017822266,1.477736234664917,-2.005011796951294,0.14,0.06,0.01,220.73000000000002
1666655395.99902201,269893404,1,1.07,-0.28,152.61,0.24573788046836853,0.1779167354106903,-0.248118057847023,-0.5660537481307983,31.92169952392578,1.4790645837783813,-2.0131571292877197,0.14,0.06,0.01,220.73000000000002
1666655396.03901792,269933400,1,1.09,-0.25,152.77,0.23613879084587097,0.17502611875534058,-0.2574682831764221,-0.5441229939460754,31.93685531616211,1.4773619174957275,-2.0421013832092285,0.14,0.06,0.01,220.73000000000002
1666655396.07898903,269973371,1,1.0,-0.24,152.96,0.23449848592281342,0.17760463058948517,-0.26797226071357727,-0.5643221139907837,31.94938850402832,1.4780516624450684,-2.0656607151031494,0.14,0.06,0.01,220.73000000000002
1666655396.11898494,270013367,1,0.92,-0.23,153.14000000000001,0.23720982670783997,0.17645253241062164,-0.28102996945381165,-0.5747030377388,31.961091995239258,1.4787243604660034,-2.089057445526123,0.14,0.06,0.01,220.73000000000002
1666655396.15902901,270053411,1,0.85,-0.14,153.36,0.23614805936813354,0.16816973686218262,-0.2805686593055725,-0.572185218334198,31.972026824951172,1.4794118404388428,-2.1132466793060303,0.14,0.06,0.01,220.73000000000002
1666655396.17900801,270073390,1,0.73,-0.13,153.43,0.21685244143009186,0.1284966915845871,-0.3235499858856201,-0.6095137000083923,31.977432250976562,1.478916049003601,-2.126411199569702,0.14,0.06,0.01,220.73000000000002
1666655396.19900703,270093389,1,0.7000000000000001,-0.02,153.52,0.22827385365962982,0.15078000724315643,-0.27830469608306885,-0.5554986596107483,31.9822940826416,1.480094075202942,-2.136045455932617,0.14,0.06,0.01,220.73000000000002
1666655396.23902297,270133405,1,0.56,0.09,153.70000000000002,0.21361380815505981,0.1326589286327362,-0.31182897090911865,-0.539905309677124,31.99398422241211,1.47437584400177,-2.1575939655303955,0.14,0.06,0.01,220.73000000000002
1666655396.27896309,270173345,1,0.55,0.19,153.87,0.20824149250984192,0.11122507601976395,-0.33159714937210083,-0.5017010569572449,32.00419616699219,1.4717087745666504,-2.1768786907196045,0.14,0.06,0.01,220.73000000000002
1666655396.31898999,270213372,1,0.54,0.33,154.04,0.20950137078762054,0.0907089039683342,-0.3424418270587921,-0.4600598216056824,32.01376724243164,1.4690836668014526,-2.19559383392334,0.14,0.06,0.01,220.73000000000002
1666655396.35898495,270253367,1,0.47000000000000003,0.46,154.21,0.21296153962612152,0.0830492228269577,-0.3834081292152405,-0.44757354259490967,32.02284240722656,1.4665385484695435,-2.2135398387908936,0.14,0.06,0.01,220.73000000000002
