timestamp,TimeUS,C,Q1,Q2,Q3,Q4
1666655387.59898305,261493365,1,0.9990725517272949,-0.0010373221011832356,-0.0024671952705830336,-0.04297546669840813
1666655387.63898110,261533363,1,0.9990710616111755,-0.0010232306085526943,-0.0024613302666693926,-0.0430106595158577
1666655387.67901707,261573399,1,0.9990707039833069,-0.0009992715204134583,-0.002446863567456603,-0.04302015155553818
1666655387.71899009,261613372,1,0.999068558216095,-0.0009835746604949236,-0.0024362215772271156,-0.04307054355740547
1666655387.75900793,261653390,1,0.9990676045417786,-0.0009614960290491581,-0.002430677181109786,-0.043094098567962646
1666655387.77902508,261673407,1,0.9990673661231995,-0.0009511788375675678,-0.0024278273340314627,-0.043100446462631226
1666655387.79897308,261693355,1,0.9990667104721069,-0.0009419117122888565,-0.002422850113362074,-0.04311537742614746
1666655387.83898497,261733367,1,0.9990659952163696,-0.000924370891880244,-0.0023936163634061813,-0.043134719133377075
1666655387.87896299,261773345,1,0.9990655183792114,-0.0008840415393933654,-0.0023600386921316385,-0.04314817488193512
1666655387.91902304,261813405,1,0.9990648627281189,-0.000889535469468683,-0.0023343204520642757,-0.04316478967666626
1666655387.95902300,261853405,1,0.9990643858909607,-0.0008890596218407154,-0.002337580779567361,-0.043174806982278824
1666655387.97898293,261873365,1,0.9990640878677368,-0.0008834010805003345,-0.0023390043061226606,-0.04318268597126007
1666655387.99899507,261893377,1,0.9990634322166443,-0.0008598614949733019,-0.002325110835954547,-0.04319837689399719
1666655388.03895903,261933341,1,0.9990626573562622,-0.000859648862387985,-0.002293931320309639,-0.04321825131773949
1666655388.07898402,261973366,1,0.9990607500076294,-0.0008647635113447905,-0.0022563913371413946,-0.04326421022415161
1666655388.11900997,262013392,1,0.9990598559379578,-0.0008671103278174996,-0.002244496252387762,-0.04328564554452896
1666655388.15901208,262053394,1,0.9990580081939697,-0.0008769498090259731,-0.0022335790563374758,-0.043328627943992615
1666655388.17898107,262073363,1,0.9990578293800354,-0.0008750161505304277,-0.002217730274423957,-0.04333364591002464
1666655388.19901991,262093402,1,0.9990571737289429,-0.0008706438820809126,-0.0022225966677069664,-0.043348394334316254
1666655388.23898506,262133367,1,0.9990548491477966,-0.0008505746955052018,-0.002200155286118388,-0.04340363293886185
1666655388.27898002,262173362,1,0.9990518689155579,-0.0008311315323226154,-0.0021792456973344088,-0.04347330331802368
1666655388.31898594,262213368,1,0.9990503191947937,-0.0008090811898000538,-0.0021597149316221476,-0.04351029917597771
1666655388.35901308,262253395,1,0.999048113822937,-0.0008055965299718082,-0.0021589321549981833,-0.0435609444975853
1666655388.37898993,262273372,1,0.9990471601486206,-0.0008020124514587224,-0.0021422128193080425,-0.04358435422182083
1666655388.39900303,262293385,1,0.999045729637146,-0.0008003281545825303,-0.0021418952383100986,-0.043616753071546555
1666655388.43903303,262333415,1,0.9990444183349609,-0.0007764259353280067,-0.002141228411346674,-0.04364695027470589
1666655388.47898102,262373363,1,0.999043881893158,-0.0007544694235548377,-0.002131958492100239,-0.04366018623113632
1666655388.51898408,262413366,1,0.9990429282188416,-0.0007407570956274867,-0.002108001383021474,-0.04368332028388977
1666655388.55898595,262453368,1,0.9990413784980774,-0.0007221406558528543,-0.002126747276633978,-0.04371784254908562
1666655388.57897496,262473357,1,0.9990409016609192,-0.0007215793011710048,-0.0021199064794927835,-0.043729569762945175
1666655388.59901595,262493398,1,0.9990404844284058,-0.0007149559096433222,-0.0021214517764747143,-0.043738629668951035
1666655388.63898802,262533370,1,0.9990395307540894,-0.0006932349060662091,-0.002135750837624073,-0.043759915977716446
1666655388.67900991,262573392,1,0.9990388751029968,-0.0006873163511045277,-0.0021669447887688875,-0.043773505836725235
1666655388.71896601,262613348,1,0.9990381598472595,-0.0006971941329538822,-0.002166229300200939,-0.04379024729132652
1666655388.75898004,262653362,1,0.9990377426147461,-0.0006998716853559017,-0.0021835055667907,-0.04379846528172493
1666655388.77901196,262673394,1,0.9990378022193909,-0.0006959351012483239,-0.0021688109263777733,-0.04379851371049881
1666655388.79896092,262693343,1,0.9990376234054565,-0.0006881479639559984,-0.0021777090150862932,-0.04380222037434578
1666655388.83900690,262733389,1,0.9990373849868774,-0.0006667508278042078,-0.002190639730542898,-0.043807342648506165
1666655388.87902093,262773403,1,0.9990361928939819,-0.0006571681005880237,-0.0021954455878585577,-0.04383381828665733
1666655388.91899490,262813377,1,0.9990357160568237,-0.0006474813562817872,-0.002205278491601348,-0.043844595551490784
1666655388.95898890,262853371,1,0.9990338683128357,-0.0006556991138495505,-0.002215789398178458,-0.04388594999909401
1666655388.97899508,262873377,1,0.9990329742431641,-0.0006772855413146317,-0.0022187232971191406,-0.0439055934548378
1666655388.99898005,262893362,1,0.9990321397781372,-0.000667195999994874,-0.002211496466770768,-0.04392555356025696
1666655389.03901505,262933397,1,0.999030351638794,-0.0006487100035883486,-0.002202230039983988,-0.043966468423604965
1666655389.07900190,262973384,1,0.999029278755188,-0.0006276390049606562,-0.0022211226169019938,-0.04399126023054123
1666655389.11899090,263013373,1,0.9990277290344238,-0.0006129508255980909,-0.0022293664515018463,-0.04402586817741394
1666655389.15898800,263053370,1,0.9990274310112,-0.0005976526881568134,-0.002213484840467572,-0.044032834470272064
1666655389.17902803,263073410,1,0.9990265369415283,-0.0005967398174107075,-0.002218307927250862,-0.04405275359749794
1666655389.19898295,263093365,1,0.9990257620811462,-0.0005869421875104308,-0.0022392268292605877,-0.04407019913196564
1666655389.23898292,263133365,1,0.9990248680114746,-0.0005712965503334999,-0.0022311080247163773,-0.044091589748859406
1666655389.27899694,263173379,1,0.9990231394767761,-0.0005755290039815009,-0.0022627420257776976,-0.04412779584527016
1666655389.31899595,263213378,1,0.9990218281745911,-0.0005727717652916908,-0.0022858965676277876,-0.04415646195411682
1666655389.35902095,263253403,1,0.9990203976631165,-0.0005617695860564709,-0.0022769609931856394,-0.04419014975428581
1666655389.37895489,263273337,1,0.9990194439888,-0.0005425396957434714,-0.0022848746739327908,-0.04421185702085495
1666655389.39896011,263293342,1,0.9990191459655762,-0.0005469968309625983,-0.0022765120957046747,-0.04421799257397652
1666655389.43899012,263333372,1,0.9990180134773254,-0.0005377725465223193,-0.0022927504032850266,-0.044243715703487396
1666655389.47899699,263373379,1,0.9990166425704956,-0.0005320340278558433,-0.002314901677891612,-0.04427296295762062
1666655389.51901197,263413394,1,0.9990168213844299,-0.0005287809181027114,-0.002315012039616704,-0.04426940158009529
1666655389.55899596,263453378,1,0.9990152716636658,-0.00052143499488011,-0.0023231059312820435,-0.044303398579359055
1666655389.57898903,263473371,1,0.9990150332450867,-0.0005223199841566384,-0.002326088258996606,-0.04430846497416496
1666655389.59901690,263493399,1,0.9990147948265076,-0.0005231118411757052,-0.0023159391712397337,-0.0443146638572216
1666655389.63898396,263533366,1,0.9990131855010986,-0.0005393518367782235,-0.0023133931681513786,-0.04435087740421295
1666655389.67898393,263573366,1,0.99901282787323,-0.0005252239643596113,-0.0023244894109666348,-0.04435846209526062
1666655389.71901488,263613397,1,0.9990129470825195,-0.0005120817222632468,-0.0023406606633216143,-0.04435506835579872
1666655389.75900006,263653382,1,0.9990120530128479,-0.000514279818162322,-0.0023325858637690544,-0.04437532648444176
1666655389.77899504,263673377,1,0.9990118145942688,-0.0005106653552502394,-0.0023400839418172836,-0.04438070207834244
1666655389.79901505,263693397,1,0.9990109801292419,-0.0005151068908162415,-0.002351275645196438,-0.04439845308661461
1666655389.83899593,263733378,1,0.9990094304084778,-0.0005071529885753989,-0.0023757279850542545,-0.044432561844587326
1666655389.87898111,263773363,1,0.9990082383155823,-0.0005005175480619073,-0.0023988550528883934,-0.04445783793926239
1666655389.91898203,263813364,1,0.9990066289901733,-0.0005005457787774503,-0.002429773099720478,-0.044492561370134354
1666655389.95902205,263853404,1,0.999005913734436,-0.0004995185881853104,-0.002442993689328432,-0.04450807720422745
1666655389.97896910,263873351,1,0.9990051984786987,-0.0004957355558872223,-0.0024431177880614996,-0.04452376067638397
1666655389.99899197,263893374,1,0.9990050196647644,-0.00047491496661677957,-0.00246542994864285,-0.04452662542462349
1666655390.03901196,263933394,1,0.9990038275718689,-0.0004557296633720398,-0.002469770610332489,-0.04455379396677017
1666655390.07898402,263973366,1,0.9990026950836182,-0.0004491843283176422,-0.0025037284940481186,-0.04457700625061989
1666655390.11898708,264013369,1,0.9990016222000122,-0.00043136635213159025,-0.0025169469881802797,-0.04460040107369423
1666655390.15898705,264053369,1,0.9990015029907227,-0.00039901709533296525,-0.002515145344659686,-0.04460429772734642
1666655390.17902708,264073409,1,0.999001145362854,-0.0003915858978871256,-0.0025101047940552235,-0.044612497091293335
1666655390.19902802,264093410,1,0.9990009665489197,-0.0003816747048404068,-0.0025191628374159336,-0.04461568221449852
1666655390.23898911,264133371,1,0.9990005493164062,-0.0003651489969342947,-0.0025354207027703524,-0.044624581933021545
1666655390.27901793,264173400,1,0.9989993572235107,-0.0003514273266773671,-0.0025373243261128664,-0.04465089365839958
1666655390.31903291,264213415,1,0.9989977478981018,-0.00034961546771228313,-0.002569368574768305,-0.04468527063727379
1666655390.35898590,264253368,1,0.9989962577819824,-0.0003479119041003287,-0.002592250471934676,-0.044717077165842056
1666655390.37901497,264273397,1,0.9989960193634033,-0.0003429210919421166,-0.0025923624634742737,-0.04472200572490692
1666655390.39897895,264293361,1,0.9989953637123108,-0.00034040590981021523,-0.0026043239049613476,-0.04473656043410301
1666655390.43901706,264333399,1,0.9989973306655884,-0.0003311089240014553,-0.0026335513684898615,-0.044690754264593124
1666655390.47902393,264373406,1,0.9989937543869019,-0.0003421725705265999,-0.0026437134947627783,-0.04477071389555931
1666655390.51899695,264413379,1,0.9989888668060303,-0.0002972849761135876,-0.0026320244651287794,-0.044880032539367676
1666655390.55899596,264453378,1,0.9989870190620422,-0.0003328840248286724,-0.00267825392074883,-0.04491801932454109
1666655390.57901192,264473394,1,0.9989868402481079,-0.00033631117548793554,-0.0026861377991735935,-0.04492156207561493
1666655390.59898806,264493370,1,0.998987078666687,-0.00033292098669335246,-0.0026658372953534126,-0.04491725191473961
1666655390.63901711,264533399,1,0.9989892840385437,-0.0003393154183868319,-0.002663995139300823,-0.044868770986795425
1666655390.67901206,264573394,1,0.9989922046661377,-0.0003833490191027522,-0.002685591345652938,-0.04480179026722908
1666655390.71901989,264613402,1,0.9989928603172302,-0.0003489334776531905,-0.0026994231157004833,-0.044786203652620316
1666655390.75898409,264653366,1,0.9989902973175049,-0.0003525718639139086,-0.0026913341134786606,-0.04484415799379349
1666655390.77902198,264673404,1,0.998989999294281,-0.00034646264975890517,-0.0026939352974295616,-0.044850848615169525
1666655390.79898500,264693367,1,0.9989900588989258,-0.0003375474188942462,-0.00270000915043056,-0.04484925419092178
1666655390.83898592,264733368,1,0.9989902377128601,-0.00030486416653729975,-0.0027306012343615294,-0.04484345018863678
1666655390.87901711,264773399,1,0.9989888072013855,-0.00027387161389924586,-0.002749799285084009,-0.04487452656030655
1666655390.91901493,264813397,1,0.9989921450614929,-0.0001934222673298791,-0.00272533786483109,-0.04480201005935669
1666655390.95902300,264853405,1,0.9989947080612183,-0.0002782101510092616,-0.002756898058578372,-0.04474269598722458
1666655390.97896504,264873347,1,0.9989945292472839,-0.0002881923574022949,-0.0027414709329605103,-0.044747333973646164
1666655390.99898696,264893369,1,0.998992919921875,-9.982347546610981e-05,-0.0027395784854888916,-0.04478361830115318
1666655391.03898597,264933368,1,0.9989932775497437,-0.00039512180956080556,-0.0027216803282499313,-0.044775817543268204
1666655391.07898593,264973368,1,0.9989916086196899,-0.00014776769967284054,-0.002927949419245124,-0.04480145499110222
1666655391.11902308,265013405,1,0.9989922046661377,-0.0005465617286972702,-0.0027995300479233265,-0.04479334130883217
1666655391.15899396,265053376,1,0.9989955425262451,-8.380522194784135e-05,-0.002774213906377554,-0.044723786413669586
1666655391.17898393,265073366,1,0.9989953637123108,-0.00016693495854269713,-0.0027095098048448563,-0.04473148286342621
1666655391.19902110,265093403,1,0.9989970326423645,3.257551361457445e-05,-0.002920647384598851,-0.04468098282814026
1666655391.23898506,265133367,1,0.9990010857582092,-0.0003781804407481104,-0.0026536264922469854,-0.04460573196411133
1666655391.27899694,265173379,1,0.9990043640136719,-0.0001118790460168384,-0.003050565719604492,-0.04450817406177521
1666655391.31896806,265213350,1,0.9990083575248718,-0.0004959204234182835,-0.0028033535927534103,-0.04443221911787987
1666655391.35902905,265253411,1,0.9990090727806091,-0.0003012173983734101,-0.002880120649933815,-0.04441322758793831
1666655391.37898588,265273368,1,0.9990067481994629,-0.00015225699462462217,-0.0029103318229317665,-0.044464193284511566
1666655391.39902997,265293412,1,0.999005138874054,-0.00015077233547344804,-0.002934657037258148,-0.0444984957575798
1666655391.43900609,265333388,1,0.9990078806877136,-0.00013394065899774432,-0.0028730423655360937,-0.044440992176532745
1666655391.47900200,265373384,1,0.9990085959434509,-0.00010077543265651911,-0.002945589367300272,-0.04442053660750389
1666655391.51898599,265413368,1,0.9990096092224121,-0.00030027676257304847,-0.0028637254144996405,-0.04440102353692055
1666655391.55901790,265453400,1,0.9990149140357971,-6.426296022254974e-05,-0.0029887135606259108,-0.04427526146173477
1666655391.57897305,265473355,1,0.9990153312683105,-0.00017989592743106186,-0.0029572516214102507,-0.04426686838269234
1666655391.59900308,265493385,1,0.9990149140357971,-0.0003204107633791864,-0.0029318255838006735,-0.04427817091345787
1666655391.63902092,265533403,1,0.999017059803009,-2.5795687179197557e-05,-0.003020464675500989,-0.04422435536980629
1666655391.67897201,265573354,1,0.9990160465240479,-0.00011466829164419323,-0.0030429596081376076,-0.04424582049250603
1666655391.71898890,265613371,1,0.9990156292915344,-9.612579742679372e-05,-0.0030104315374046564,-0.044256992638111115
1666655391.75898695,265653369,1,0.999017059803009,-0.00010334687249269336,-0.003036751179024577,-0.04422278702259064
1666655391.77900410,265673386,1,0.9990167021751404,-0.00027153422706760466,-0.0030026768799871206,-0.044233277440071106
1666655391.79902291,265693405,1,0.999017059803009,-9.952145774150267e-05,-0.0030171002727001905,-0.044224467128515244
1666655391.83902407,265733406,1,0.9990216493606567,-0.00024966098135337234,-0.0030434606596827507,-0.04411763697862625
1666655391.87903595,265773418,1,0.9990233182907104,-0.00010865326476050541,-0.0030167079530656338,-0.044082317501306534
1666655391.91897798,265813360,1,0.9990237355232239,-7.131454913178459e-05,-0.003089285222813487,-0.04406876116991043
1666655391.95899296,265853375,1,0.9990240931510925,-0.00021127185027580708,-0.003110022284090519,-0.0440586656332016
1666655391.97901893,265873401,1,0.9990227222442627,-8.550922211725265e-05,-0.0030928258784115314,-0.04409075900912285
1666655391.99898696,265893369,1,0.9990212917327881,-7.324915350181982e-05,-0.0031159643549472094,-0.044121574610471725
1666655392.03901911,265933401,1,0.9990234971046448,-0.00022885703947395086,-0.0030995949637144804,-0.04407209903001785
1666655392.07900906,265973391,1,0.9990235567092896,-0.00011713099956978112,-0.0031254440546035767,-0.04406977817416191
1666655392.11901689,266013399,1,0.999024510383606,-0.00011347928375471383,-0.003120024222880602,-0.04404888674616814
1666655392.15898108,266053363,1,0.999026894569397,-2.800591755658388e-05,-0.0031407554633915424,-0.043993208557367325
1666655392.17902303,266073405,1,0.999026358127594,-3.6574135720002232e-06,-0.0031767019536346197,-0.04400312900543213
1666655392.19899702,266093379,1,0.9990270733833313,-0.0002306249807588756,-0.0031665172427892685,-0.04398616403341293
1666655392.23898005,266133362,1,0.9990279674530029,-9.3837283202447e-05,-0.003142894245684147,-0.04396842047572136
1666655392.27901697,266173399,1,0.9990273714065552,-0.0001511231530457735,-0.0032055473420768976,-0.04397737607359886
1666655392.31902909,266213411,1,0.999025821685791,-0.00013564707478508353,-0.003221603110432625,-0.044011518359184265
1666655392.35900402,266253386,1,0.9990254044532776,-7.002613710938022e-05,-0.0032319107558578253,-0.044019684195518494
1666655392.37901902,266273401,1,0.999022901058197,2.465378202032298e-05,-0.0032636395189911127,-0.04407433420419693
1666655392.39899397,266293376,1,0.9990227222442627,-5.260428588371724e-05,-0.003235342213883996,-0.0440804585814476
1666655392.43899107,266333373,1,0.9990260004997253,0.0001488418783992529,-0.0032625929452478886,-0.044004060328006744
1666655392.47902989,266373412,1,0.9990275502204895,4.681811333284713e-06,-0.0033688771072775126,-0.04396145045757294
1666655392.51900697,266413389,1,0.999028205871582,-6.573073915205896e-05,-0.0032764417119324207,-0.043953053653240204
1666655392.55903506,266453417,1,0.9990330338478088,-6.141739140730351e-05,-0.0033223992213606834,-0.04384057596325874
1666655392.57897592,266473358,1,0.9990342855453491,-0.00016382800822611898,-0.0032204955350607634,-0.04381917417049408
1666655392.59897709,266493359,1,0.9990368485450745,0.00022672310296911746,-0.003225595224648714,-0.04375952109694481
1666655392.63898611,266533368,1,0.9990363121032715,0.00014617967826779932,-0.003218952566385269,-0.04377274960279465
1666655392.67899108,266573373,1,0.9990421533584595,0.0004257497494108975,-0.003293555462732911,-0.04363195598125458
1666655392.71901703,266613399,1,0.9990496039390564,0.00017859035870060325,-0.0032767432276159525,-0.04346359893679619
1666655392.75900197,266653384,1,0.999055802822113,-0.00031876633875072,-0.0032087659928947687,-0.04332592710852623
1666655392.77899098,266673373,1,0.9990572929382324,0.0005383571842685342,-0.0031869937665760517,-0.043291106820106506
1666655392.79902911,266693411,1,0.9990618824958801,0.0003144783840980381,-0.003395530628040433,-0.04317113757133484
1666655392.83899903,266733381,1,0.9990692734718323,0.00039664912037551403,-0.003421975299715996,-0.04299617558717728
1666655392.87898803,266773370,1,0.9990791082382202,0.00030869123293086886,-0.0032497129868716,-0.04278196394443512
1666655392.91898799,266813370,1,0.9990886449813843,0.0001739407452987507,-0.00334524386562407,-0.042551714926958084
1666655392.95901799,266853400,1,0.9990999102592468,2.0780844351975247e-05,-0.003244005609303713,-0.04229479655623436
1666655392.97899294,266873375,1,0.9991030693054199,7.2420560172759e-05,-0.003370759543031454,-0.042210277169942856
1666655392.99900508,266893387,1,0.999107301235199,-4.1203442378900945e-05,-0.0032102754339575768,-0.04212283715605736
1666655393.03900599,266933388,1,0.9991177320480347,0.00013354167458601296,-0.003363745752722025,-0.041861869394779205
1666655393.07898998,266973372,1,0.9991316795349121,0.00011297874880256131,-0.003187072230502963,-0.0415419302880764
1666655393.11899090,267013373,1,0.9991434812545776,0.0001278684794669971,-0.002987728687003255,-0.0412716269493103
1666655393.15902305,267053405,1,0.9991598129272461,-0.00021643027139361948,-0.0031627952121198177,-0.04086146131157875
1666655393.17897010,267073352,1,0.9991692304611206,7.559944788226858e-05,-0.003178643761202693,-0.040629126131534576
1666655393.19900489,267093387,1,0.9991799592971802,0.0003843373851850629,-0.003124028444290161,-0.04036648944020271
1666655393.23901796,267133400,1,0.9991950988769531,-0.00025766241014935076,-0.003325743367895484,-0.03997592255473137
1666655393.27900195,267173384,1,0.9992103576660156,0.0002045351138804108,-0.003202540334314108,-0.039602555334568024
1666655393.31898499,267213367,1,0.9992227554321289,-0.00034869235241785645,-0.003199894679710269,-0.03928709030151367
1666655393.35899091,267253373,1,0.9992360472679138,0.00029938650550320745,-0.0030883660074323416,-0.03895799443125725
1666655393.37903500,267273417,1,0.999243438243866,0.00020360930648166686,-0.0029852823354303837,-0.038775913417339325
1666655393.39902806,267293410,1,0.9992517232894897,0.00016130332369357347,-0.0030523380264639854,-0.038556937128305435
1666655393.43903208,267333414,1,0.9992678761482239,1.003725719783688e-05,-0.0029190953355282545,-0.038146551698446274
1666655393.47902012,267373402,1,0.9992836713790894,-3.7611567677231506e-05,-0.0028443168848752975,-0.03773591294884682
1666655393.51899004,267413372,1,0.9993013739585876,-0.00011544969311216846,-0.0029422680381685495,-0.03725695237517357
1666655393.55898595,267453368,1,0.9993138313293457,-3.7697103834943846e-05,-0.0028545837849378586,-0.03692851960659027
1666655393.57900000,267473382,1,0.9993260502815247,-8.43968300614506e-05,-0.0029454040341079235,-0.03658922389149666
1666655393.59898901,267493371,1,0.9993289709091187,3.921170355170034e-05,-0.00296520022675395,-0.03650768846273422
1666655393.63900089,267533383,1,0.9993464946746826,-0.00012612028513103724,-0.0029878064524382353,-0.03602265939116478
1666655393.67899489,267573377,1,0.999360978603363,-0.0004756072594318539,-0.002953212708234787,-0.03561801463365555
1666655393.71902895,267613411,1,0.9993693828582764,0.0007886410458013415,-0.003092379542067647,-0.035363856703042984
1666655393.75897408,267653356,1,0.9993822574615479,0.0002804136020131409,-0.003374639432877302,-0.03498063609004021
1666655393.77900505,267673387,1,0.9993907809257507,-0.0002616670390125364,-0.003217990044504404,-0.03475179150700569
1666655393.79898596,267693368,1,0.9993950724601746,0.0002213841798948124,-0.0030656468588858843,-0.03464174643158913
1666655393.83898091,267733363,1,0.9994129538536072,0.0008082271669991314,-0.00316755217500031,-0.034103285521268845
1666655393.87902689,267773409,1,0.9994235634803772,0.0012600223999470472,-0.002960322890430689,-0.03379654511809349
1666655393.91901708,267813399,1,0.9994384050369263,0.001956760883331299,-0.003040157025679946,-0.033314432948827744
1666655393.95900393,267853386,1,0.9994491338729858,0.003164817811921239,-0.002376182936131954,-0.03295128419995308
1666655393.97901702,267873399,1,0.9994524121284485,0.0036043133586645126,-0.0020160216372460127,-0.03282973915338516
1666655393.99899197,267893374,1,0.9994518160820007,0.004490251652896404,-0.0009839917765930295,-0.03278632089495659
1666655394.03898811,267933370,1,0.9994584918022156,0.005441475193947554,-0.0008015446364879608,-0.03244226798415184
1666655394.07901812,267973400,1,0.9994534254074097,0.006819922477006912,-0.0002827541611623019,-0.03234641253948212
1666655394.11901093,268013393,1,0.9994505047798157,0.007609400898218155,0.0003608988772612065,-0.032259419560432434
1666655394.15901709,268053399,1,0.9994499683380127,0.008323324844241142,0.0006034373072907329,-0.03209535405039787
1666655394.17898607,268073368,1,0.9994419813156128,0.009424656629562378,0.0012342658592388034,-0.03202148154377937
1666655394.19897795,268093360,1,0.9994446039199829,0.008736910298466682,0.0014952531782910228,-0.03212422505021095
1666655394.23899293,268133375,1,0.9994420409202576,0.009299910627305508,0.0016871109837666154,-0.03203559294342995
1666655394.27899194,268173374,1,0.9994304180145264,0.010152091272175312,0.0016884823562577367,-0.0321386344730854
1666655394.31902099,268213403,1,0.9994302988052368,0.009470008313655853,0.00227462500333786,-0.032314736396074295
1666655394.35900998,268253392,1,0.9994310140609741,0.008772284723818302,0.0026140669360756874,-0.03246314078569412
1666655394.37899208,268273374,1,0.9994345903396606,0.00788718368858099,0.002593741286545992,-0.032582007348537445
1666655394.39902806,268293410,1,0.9994380474090576,0.006786779034882784,0.0027635416481643915,-0.0327083058655262
1666655394.43902612,268333408,1,0.9994468092918396,0.003360259812325239,0.0024524538312107325,-0.0329967625439167
1666655394.47898602,268373368,1,0.9994428157806396,0.0013893884606659412,0.0026891848538070917,-0.03324085846543312
1666655394.51898789,268413370,1,0.9994266629219055,-0.0007741792942397296,0.0028302520513534546,-0.03372983634471893
1666655394.55903292,268453415,1,0.9994075894355774,-0.004715567454695702,0.002242011483758688,-0.034018319100141525
1666655394.57898998,268473372,1,0.9993757605552673,-0.008250430226325989,0.0022876523435115814,-0.034274473786354065
1666655394.59899807,268493380,1,0.9993667006492615,-0.008238812908530235,0.0016913404688239098,-0.034574609249830246
1666655394.63901496,268533397,1,0.9993213415145874,-0.011015796102583408,0.0015876158140599728,-0.035114485770463943
1666655394.67897296,268573355,1,0.999281108379364,-0.01311483420431614,0.0013283740263432264,-0.0355452261865139
1666655394.71898603,268613368,1,0.9992639422416687,-0.013367888517677784,0.0017988603794947267,-0.03591200336813927
1666655394.75897193,268653354,1,0.22523930668830872,-0.00639142794534564,0.01173283252865076,0.9742118716239929
1666655394.77898002,268673362,1,0.22549360990524292,-0.006741226185113192,0.009818954393267632,0.9741718173027039
1666655394.79902411,268693406,1,0.22568316757678986,-0.006144301500171423,0.010724791325628757,0.9741223454475403
1666655394.83902693,268733409,1,0.22622717916965485,-0.005066515412181616,0.009374666959047318,0.9740162491798401
1666655394.87901211,268773394,1,0.2261873185634613,-0.00424164580181241,0.0067256842739880085,0.9740513563156128
1666655394.91901994,268813402,1,0.22602109611034393,-0.002690162044018507,0.003477715654298663,0.9741125106811523
1666655394.95898700,268853369,1,0.22644372284412384,-0.0014950400218367577,0.0010087719419971108,0.9740225672721863
1666655394.97903395,268873416,1,0.22680450975894928,-0.001663873321376741,-0.00010913468577200547,0.9739388823509216
1666655394.99901795,268893400,1,0.22698336839675903,-0.0010563747491687536,-0.0012039404828101397,0.9738973379135132
1666655395.03901601,268933398,1,0.2280859798192978,-0.0009589368710294366,-0.0035538803786039352,0.9736340641975403
1666655395.07901907,268973401,1,0.22973349690437317,-0.0005377451307140291,-0.0057149529457092285,0.973236620426178
1666655395.11896992,269013352,1,0.23145489394664764,9.059384319698438e-05,-0.007154024206101894,0.9728193283081055
1666655395.15898490,269053367,1,0.23324544727802277,0.0005215565906837583,-0.008735333569347858,0.9723784923553467
1666655395.17899203,269073374,1,0.23411810398101807,-0.0003920561575796455,-0.009841644205152988,0.9721582531929016
1666655395.19899511,269093377,1,0.23519578576087952,-0.00031890603713691235,-0.009793544188141823,0.97189861536026
1666655395.23902392,269133406,1,0.23709014058113098,-0.0014450805028900504,-0.010847775265574455,0.9714260101318359
1666655395.27901602,269173398,1,0.2385322004556656,-0.0011244439519941807,-0.011094511486589909,0.9710705876350403
1666655395.31902003,269213402,1,0.239982008934021,-0.0007265586173161864,-0.010110446251928806,0.9707244038581848
1666655395.35899711,269253379,1,0.24136389791965485,-0.0008015854400582612,-0.00854977872222662,0.9703966975212097
1666655395.37901902,269273401,1,0.24198554456233978,-0.0010723863961175084,-0.007289217785000801,0.9702518582344055
1666655395.39898896,269293371,1,0.24252337217330933,0.0004985854029655457,-0.005348708014935255,0.9701306819915771
1666655395.43898511,269333367,1,0.2435530573129654,0.0009160161134786904,-0.003857966512441635,0.9698794484138489
1666655395.47902203,269373404,1,0.24419182538986206,0.0017213537357747555,-0.0017721682088449597,0.9697238206863403
1666655395.51901102,269413393,1,0.24431893229484558,0.0025542587973177433,-0.00016574010078329593,0.9696915745735168
1666655395.55902791,269453410,1,0.24463312327861786,0.0028883125633001328,0.0009389478946104646,0.9696109294891357
1666655395.57902694,269473409,1,0.24465176463127136,0.0028193907346576452,0.0022112003061920404,0.9696043729782104
1666655395.59897804,269493360,1,0.24490360915660858,0.0030236185993999243,0.002792581683024764,0.969538688659668
1666655395.63898492,269533367,1,0.24492231011390686,0.0033696466125547886,0.0038223732262849808,0.9695293307304382
1666655395.67896605,269573348,1,0.2446812242269516,0.0037572544533759356,0.005272264592349529,0.9695819616317749
1666655395.71902609,269613408,1,0.24430593848228455,0.003990891855210066,0.006589620374143124,0.9696676135063171
1666655395.75899410,269653376,1,0.24366848170757294,0.004365259315818548,0.006972476840019226,0.9698237180709839
1666655395.77898908,269673371,1,0.24312379956245422,0.004058831837028265,0.008353977464139462,0.969950795173645
1666655395.79902911,269693411,1,0.24281227588653564,0.004817667417228222,0.00789389293640852,0.9700292348861694
1666655395.83896494,269733347,1,0.24187523126602173,0.004507418256253004,0.008614348247647285,0.9702586531639099
1666655395.87898993,269773372,1,0.24075791239738464,0.004545917268842459,0.008977661840617657,0.970533013343811
1666655395.91904211,269813424,1,0.23955309391021729,0.004370330832898617,0.008544697426259518,0.97083580493927
1666655395.95901895,269853401,1,0.238140270113945,0.004602484870702028,0.008861730806529522,0.9711794257164001
1666655395.97898602,269873368,1,0.23733973503112793,0.004333356861025095,0.007255062460899353,0.9713899493217468
1666655395.99902201,269893404,1,0.23670321702957153,0.004604641813784838,0.008513132110238075,0.9715337753295898
1666655396.03901792,269933400,1,0.2353503406047821,0.0043884627521038055,0.008761190809309483,0.9718611836433411
1666655396.07898903,269973371,1,0.2337014079093933,0.0041358801536262035,0.008061549626290798,0.9722661972045898
1666655396.11898494,270013367,1,0.23215064406394958,0.0038742367178201675,0.007351256906986237,0.9726443290710449
1666655396.15902901,270053411,1,0.23036806285381317,0.0029587778262794018,0.007002671714872122,0.9730738997459412
1666655396.17900801,270073390,1,0.2297368347644806,0.0026401993818581104,0.005945018492639065,0.9732310771942139
1666655396.19900703,270093389,1,0.22898267209529877,0.0016444474458694458,0.005928813014179468,0.9734110832214355
1666655396.23902297,270133405,1,0.22749176621437073,0.00029274856206029654,0.005018305499106646,0.9737670421600342
1666655396.27896309,270173345,1,0.2260015308856964,-0.0005539062549360096,0.005099842790514231,0.9741134643554688
1666655396.31898999,270213372,1,0.2246127426624298,-0.0017490634927526116,0.005257800221443176,0.9744323492050171
1666655396.35898495,270253367,1,0.22309733927249908,-0.002995935967192054,0.004912225529551506,0.9747791886329651
1666655396.37898898,270273371,1,0.22224463522434235,-0.0030610118992626667,0.005415066611021757,0.9749711155891418
1666655396.39901805,270293400,1,0.22153107821941376,-0.004067068919539452,0.003577715251594782,0.975138247013092
1666655396.43900800,270333390,1,0.22022201120853424,-0.004515100736171007,0.0024942762684077024,0.9754361510276794
1666655396.47903800,270373420,1,0.21891747415065765,-0.004586880095303059,0.0012873520608991385,0.9757317304611206
1666655396.51898694,270413369,1,0.2177838534116745,-0.005002256482839584,0.0003439288993831724,0.9759841561317444
1666655396.55899096,270453373,1,0.2166423499584198,-0.004943298175930977,-0.0002639201411511749,0.976238489151001
1666655396.57901597,270473398,1,0.216128408908844,-0.004643346183001995,-0.0013112826272845268,0.9763530492782593
1666655396.59901690,270493399,1,0.2156887650489807,-0.0047211358323693275,-0.000866182439494878,0.9764503836631775
1666655396.63902497,270533407,1,0.21501313149929047,-0.004511893726885319,-0.0016239294782280922,0.976599395275116
1666655396.67901802,270573400,1,0.21449978649616241,-0.003608111757785082,-0.0016940534114837646,0.9767159223556519
1666655396.71901488,270613397,1,0.2143133282661438,-0.0026509263552725315,-0.0013834259007126093,0.9767603874206543
1666655396.75898910,270653371,1,0.21424482762813568,-0.0014504848513752222,-0.00110182526987046,0.9767782688140869
1666655396.77902102,270673403,1,0.21428243815898895,-0.0008785612881183624,-0.0017927077133208513,0.9767696857452393
1666655396.79898691,270693369,1,0.21437396109104156,-0.0004417009185999632,-0.0008028053562156856,0.9767512083053589
1666655396.83902192,270733404,1,0.2146071195602417,0.0008043175912462175,-0.00021787390869576484,0.9767001271247864
1666655396.87900805,270773390,1,0.21497993171215057,0.0015350586036220193,-0.0002393380564171821,0.9766172170639038
1666655396.91901588,270813398,1,0.21557855606079102,0.0023399516940116882,-0.00030203041387721896,0.9764836430549622
1666655396.95898700,270853369,1,0.2162957638502121,0.002592136152088642,0.00023927015718072653,0.9763244390487671
1666655396.97901797,270873400,1,0.21668805181980133,0.003064625896513462,-0.00010620710236253217,0.97623610496521
1666655396.99897194,270893354,1,0.21720562875270844,0.0029316293075680733,0.00027302702073939145,0.9761214256286621
1666655397.03898692,270933369,1,0.21810615062713623,0.003257591277360916,0.0005043739220127463,0.9759194850921631
1666655397.07901907,270973401,1,0.2192375659942627,0.0033741011284291744,0.0003469907387625426,0.9756656289100647
1666655397.11900091,271013383,1,0.22042745351791382,0.00400408823043108,-5.783042070106603e-05,0.975395143032074
1666655397.15902591,271053408,1,0.22156922519207,0.004724128171801567,8.082752174232155e-05,0.9751331806182861
1666655397.17902303,271073405,1,0.22226007282733917,0.005503591615706682,0.00039017805829644203,0.9749718308448792
1666655397.19898510,271093367,1,0.22269919514656067,0.005408779252320528,-9.293630864704028e-05,0.9748721718788147
1666655397.23898697,271133369,1,0.22388896346092224,0.00564195029437542,2.6845418688026257e-05,0.9745983481407166
1666655397.27897692,271173359,1,0.22490490972995758,0.005525878630578518,3.235082476749085e-05,0.9743650555610657
1666655397.31901503,271213397,1,0.22601649165153503,0.005169951822608709,2.1273823222145438e-05,0.9741097688674927
1666655397.35897589,271253358,1,0.2269681692123413,0.00448736734688282,0.00020761661289725453,0.9738917946815491
1666655397.37898898,271273371,1,0.22741350531578064,0.003377924207597971,-0.0007399389869533479,0.9737921357154846
1666655397.39902902,271293411,1,0.2279028594493866,0.0033818597439676523,4.646684101317078e-05,0.9736779928207397
1666655397.43898797,271333370,1,0.22873470187187195,0.0026877662166953087,0.00038995224167592824,0.973484992980957
1666655397.47899008,271373372,1,0.22954368591308594,0.0018099260050803423,0.0005096334498375654,0.9732965230941772
1666655397.51902008,271413402,1,0.230285182595253,0.0012283464893698692,0.0008394721080549061,0.9731220602989197
1666655397.55900311,271453385,1,0.23106861114501953,0.0007582356338389218,0.0009618444018997252,0.9729366898536682
1666655397.57898688,271473369,1,0.2314498871564865,0.0005201330641284585,0.0010031546698883176,0.9728461503982544
1666655397.59902000,271493402,1,0.2318016141653061,0.0005557705881074071,0.001413385383784771,0.972761869430542
1666655397.63901901,271533401,1,0.23257040977478027,0.00039265709347091615,0.001644580508582294,0.9725781083106995
1666655397.67898393,271573366,1,0.23321937024593353,0.0007339444709941745,0.0018113512778654695,0.972422182559967
1666655397.71899295,271613375,1,0.23381665349006653,0.0010425831424072385,0.0017833129968494177,0.9722785353660583
1666655397.75901699,271653399,1,0.23423711955547333,0.001103747170418501,0.001862618257291615,0.9721770882606506
1666655397.77899504,271673377,1,0.23453450202941895,0.001312418025918305,0.0019228429300710559,0.9721050262451172
1666655397.79901004,271693392,1,0.23461805284023285,0.0009210042771883309,0.0014169052010402083,0.9720861911773682
1666655397.83901906,271733401,1,0.2349613457918167,0.0006154957809485495,0.0011276421137154102,0.9720038771629333
1666655397.87900305,271773385,1,0.23524361848831177,0.00033250873093493283,0.0016639679670333862,0.971934974193573
1666655397.91898608,271813368,1,0.23557376861572266,0.0003195836616214365,0.0016494450392201543,0.9718550443649292
1666655397.95899010,271853372,1,0.23580412566661835,0.0006131022819317877,0.0019083551596850157,0.9717985391616821
1666655397.97900295,271873385,1,0.23601754009723663,0.000507072196342051,0.0030550675000995398,0.9717438817024231
1666655397.99902701,271893409,1,0.2360994666814804,0.000577757426071912,0.0024975703563541174,0.9717255234718323
1666655398.03900099,271933383,1,0.23634399473667145,0.0007077700574882329,0.002664092928171158,0.9716655611991882
1666655398.07899594,271973378,1,0.23651492595672607,0.0006955473800189793,0.0026541240513324738,0.971623957157135
1666655398.11895990,272013342,1,0.2365826964378357,0.0005249250680208206,0.002741533797234297,0.9716073274612427
1666655398.15898800,272053370,1,0.23662124574184418,0.0005102779250591993,0.0028370236977934837,0.9715976715087891
1666655398.17903090,272073413,1,0.2366219162940979,0.00030898358090780675,0.002599124563857913,0.9715982675552368
1666655398.19897795,272093360,1,0.23671622574329376,0.000569230760447681,0.003208413254469633,0.9715733528137207
1666655398.23902106,272133403,1,0.23676377534866333,0.00040311983320862055,0.003123302012681961,0.9715621471405029
1666655398.27897310,272173355,1,0.23674535751342773,0.0004808138473890722,0.0032523763366043568,0.9715662002563477
1666655398.31901789,272213400,1,0.23673108220100403,0.00036117099807597697,0.0034498723689466715,0.9715690016746521
1666655398.35898209,272253364,1,0.23658400774002075,0.0003513918200042099,0.003591846441850066,0.9716043472290039
1666655398.37901711,272273399,1,0.23643092811107635,-0.00010229727922705933,0.002243937226012349,0.971645712852478
1666655398.39898610,272293368,1,0.2364068180322647,0.00034328061155974865,0.00362190930172801,0.9716473817825317
1666655398.43902111,272333403,1,0.23619942367076874,0.00014158437261357903,0.0036057340912520885,0.9716979265213013
1666655398.47899604,272373378,1,0.2359168976545334,0.00022141802764963359,0.003270558314397931,0.9717677235603333
1666655398.51904702,272413429,1,0.23554202914237976,0.00032374943839386106,0.003189170267432928,0.9718588590621948
1666655398.55897999,272453362,1,0.23519176244735718,0.0005163886235095561,0.0029566423036158085,0.9719443321228027
1666655398.57902098,272473403,1,0.2348923683166504,0.00035013974411413074,0.0015159443719312549,0.972020149230957
1666655398.59898496,272493367,1,0.23476570844650269,0.0007562799146398902,0.0025470557156950235,0.9720483422279358
1666655398.63898706,272533369,1,0.23444800078868866,0.0008785805548541248,0.0029750331304967403,0.9721237421035767
1666655398.67903209,272573414,1,0.23407022655010223,0.0012612424325197935,0.0030898910481482744,0.9722139835357666
1666655398.71902108,272613403,1,0.2337464690208435,0.0014480565441772342,0.0030892444774508476,0.9722915887832642
1666655398.75903106,272653413,1,0.23336490988731384,0.0015006628818809986,0.0029820469208061695,0.9723834991455078
1666655398.77902603,272673408,1,0.23325835168361664,0.0018278646748512983,0.0019137872150167823,0.9724112153053284
1666655398.79898810,272693370,1,0.23313894867897034,0.001831676228903234,0.002709230175241828,0.9724379181861877
1666655398.83898902,272733371,1,0.23289114236831665,0.001943110954016447,0.0031970073468983173,0.9724956154823303
1666655398.87898803,272773370,1,0.2326236367225647,0.002092065056785941,0.0031562906224280596,0.9725594520568848
1666655398.91901994,272813402,1,0.23234328627586365,0.0023556367959827185,0.0032766901422291994,0.9726254940032959
1666655398.95900297,272853385,1,0.2319982796907425,0.0024180796463042498,0.00316033442504704,0.9727080464363098
1666655398.97899103,272873373,1,0.23183675110340118,0.002651610178872943,0.002217189408838749,0.9727485775947571
1666655398.99903202,272893414,1,0.23175229132175446,0.002626382512971759,0.0030516048427671194,0.9727665185928345
1666655399.03898692,272933369,1,0.23155318200588226,0.0031302212737500668,0.002993375528603792,0.9728125929832458
1666655399.07898593,272973368,1,0.2314782589673996,0.0031267458107322454,0.003251364454627037,0.9728296399116516
1666655399.11903811,273013420,1,0.2313351333141327,0.003077126806601882,0.003066974924877286,0.9728644490242004
1666655399.15902305,273053405,1,0.23109030723571777,0.002844373695552349,0.003216206794604659,0.9729228019714355
1666655399.17898607,273073368,1,0.23096171021461487,0.0022133623715490103,0.002192774321883917,0.9729578495025635
1666655399.19899392,273093376,1,0.2309059351682663,0.002694908296689391,0.003354364074766636,0.9729665517807007
1666655399.23900890,273133391,1,0.23075535893440247,0.0028104984667152166,0.003533225739374757,0.9730013012886047
1666655399.27898788,273173370,1,0.23072287440299988,0.002785621676594019,0.0038198591209948063,0.9730080366134644
1666655399.31898808,273213370,1,0.23065374791622162,0.002788005629554391,0.0036117499694228172,0.9730252027511597
1666655399.35900497,273253387,1,0.2305801957845688,0.0027107284404337406,0.003305774414911866,0.9730439186096191
1666655399.37897801,273273360,1,0.23025351762771606,0.0024213967844843864,0.0021877780091017485,0.9731252193450928
1666655399.39902091,273293403,1,0.23032766580581665,0.0026122690178453922,0.003453931538388133,0.9731035232543945
1666655399.43902302,273333405,1,0.23009628057479858,0.0027649523690342903,0.0037175589241087437,0.9731568694114685
1666655399.47899294,273373375,1,0.2298758625984192,0.002612131182104349,0.003765769535675645,0.9732091426849365
1666655399.51898694,273413369,1,0.22972576320171356,0.0025134747847914696,0.0036556092090904713,0.9732452630996704
1666655399.55901504,273453397,1,0.22957050800323486,0.002685585292056203,0.002728688297793269,0.9732844829559326
1666655399.57899404,273473376,1,0.22956137359142303,0.001976015977561474,0.0025892178528010845,0.9732887148857117
1666655399.59902310,273493405,1,0.2296086549758911,0.0024770747404545546,0.0017162002623081207,0.9732783436775208
1666655399.63900590,273533388,1,0.22952130436897278,0.0022831952665001154,0.001379913417622447,0.9732999801635742
1666655399.67900491,273573387,1,0.22946617007255554,0.0024728509597480297,0.0013905108207836747,0.973312497138977
1666655399.71899199,273613374,1,0.22945959866046906,0.0022933597210794687,0.0018331172177568078,0.9733137488365173
1666655399.75898695,273653369,1,0.22950635850429535,0.0017762923380360007,0.0021245877724140882,0.9733031988143921
1666655399.77899694,273673379,1,0.22933101654052734,0.0018946947529911995,0.002681826474145055,0.9733429551124573
1666655399.79898810,273693370,1,0.22954270243644714,0.0015133843990042806,0.0018156913574784994,0.9732957482337952
1666655399.83902192,273733404,1,0.22943097352981567,0.0015148979146033525,0.0015022233128547668,0.9733225703239441
1666655399.87899709,273773379,1,0.229408860206604,0.0014037654036656022,0.0018964222399517894,0.9733272790908813
1666655399.91900301,273813385,1,0.2293223887681961,0.0018356962827965617,0.0026818395126610994,0.9733451008796692
1666655399.95899796,273853380,1,0.22917233407497406,0.002562359906733036,0.005547087639570236,0.9733666777610779
1666655399.97901297,273873395,1,0.2291012406349182,0.0022111209109425545,0.006187169346958399,0.973380446434021
1666655399.99898911,273893371,1,0.22912855446338654,0.0030740108340978622,0.008595599792897701,0.973353385925293
1666655400.03902102,273933403,1,0.22910428047180176,0.003262013429775834,0.011720912531018257,0.9733258485794067
1666655400.07902598,273973408,1,0.22907736897468567,0.004112269263714552,0.014611982740461826,0.9732898473739624
1666655400.11899710,274013379,1,0.22898434102535248,0.005105725023895502,0.018030820414423943,0.9732497334480286
1666655400.15900493,274053387,1,0.22894315421581268,0.0063995178788900375,0.02190081961452961,0.9731723666191101
1666655400.17903709,274073419,1,0.2287258505821228,0.0058712828904390335,0.02343239076435566,0.9731910824775696
1666655400.19898891,274093371,1,0.22889506816864014,0.007185596972703934,0.025656340643763542,0.973086416721344
1666655400.23898697,274133369,1,0.22902023792266846,0.007828392088413239,0.029896490275859833,0.9729309678077698
1666655400.27902198,274173404,1,0.22877904772758484,0.008731268346309662,0.03424763306975365,0.9728365540504456
1666655400.31901503,274213397,1,0.22874179482460022,0.009605718776583672,0.03805563971400261,0.9726955890655518
1666655400.35901594,274253398,1,0.22848303616046906,0.009633418172597885,0.0394260548055172,0.9727015495300293
1666655400.37898993,274273372,1,0.22824622690677643,0.00983500573784113,0.0386369563639164,0.9727867841720581
1666655400.39898396,274293366,1,0.22838692367076874,0.010111878626048565,0.03885994479060173,0.9727420210838318
1666655400.43899012,274333372,1,0.22822247445583344,0.009750432334840298,0.037063684314489365,0.9728544354438782
1666655400.47899890,274373381,1,0.22799095511436462,0.009387391619384289,0.03451753407716751,0.9730059504508972
1666655400.51902509,274413407,1,0.22776542603969574,0.009010761976242065,0.03170119598507881,0.9731581211090088
1666655400.55901408,274453396,1,0.22760117053985596,0.007837953977286816,0.02836427092552185,0.9733096957206726
1666655400.57899690,274473379,1,0.22741813957691193,0.0071342745795845985,0.027573086321353912,0.9733806252479553
1666655400.59902000,274493402,1,0.22741979360580444,0.0062318723648786545,0.023753957822918892,0.973487138748169
1666655400.63897800,274533360,1,0.22726987302303314,0.004900032188743353,0.01775064878165722,0.9736576676368713
1666655400.67898989,274573372,1,0.2270701676607132,0.003471869509667158,0.012008464895188808,0.9737981557846069
1666655400.71899605,274613378,1,0.22692136466503143,0.0018875949317589402,0.006427584681659937,0.9738900661468506
1666655400.75901699,274653399,1,0.22654518485069275,0.0011632926762104034,0.0023493918124586344,0.9739971160888672
1666655400.77899504,274673377,1,0.22641997039318085,0.0003198100603185594,0.001510917441919446,0.9740285277366638
1666655400.79902101,274693403,1,0.22614136338233948,0.0008460424141958356,0.00025452737463638186,0.9740940928459167
1666655400.83901095,274733393,1,0.22580403089523315,0.0008062435663305223,-0.001392762060277164,0.9741714000701904
1666655400.87898588,274773368,1,0.2256712168455124,0.00043311965418979526,-0.002819633577018976,0.9741993546485901
1666655400.91898894,274813371,1,0.225507453083992,-8.475789945805445e-05,-0.003615491557866335,0.9742347002029419
1666655400.95902205,274853404,1,0.22528715431690216,-0.0004071716102771461,-0.004027987830340862,0.9742839932441711
1666655400.97899890,274873381,1,0.22508065402507782,-0.0005137528642080724,-0.005510809365659952,0.9743244051933289
1666655400.99900508,274893387,1,0.22512346506118774,-0.0005824172985740006,-0.004466421436518431,0.9743198156356812
1666655401.03902102,274933403,1,0.22498030960559845,-0.00046160543570294976,-0.004777262452989817,0.9743514657020569
1666655401.07899594,274973378,1,0.22498519718647003,-6.972250412218273e-05,-0.004483196884393692,0.9743518829345703
1666655401.11898589,275013368,1,0.22506572306156158,0.00010895162995439023,-0.004118416924029589,0.9743348956108093
1666655401.15898705,275053369,1,0.22538526356220245,0.00046757314703427255,-0.004093668889254332,0.9742609858512878
1666655401.17901707,275073399,1,0.22551223635673523,0.0008219446172006428,-0.004006501752883196,0.9742317795753479
1666655401.19901705,275093399,1,0.2256648689508438,0.001508138026110828,-0.004596389830112457,0.9741929769515991
1666655401.23900509,275133387,1,0.22589261829853058,0.0037034039851278067,-0.0048280805349349976,0.9741331934928894
1666655401.27901506,275173397,1,0.22609274089336395,0.007003518752753735,-0.004844080191105604,0.9740685820579529
1666655401.31896305,275213345,1,0.22638095915317535,0.010271742939949036,-0.004645346198230982,0.9739735722541809
1666655401.35898900,275253371,1,0.22679373621940613,0.0123299490660429,-0.004492352716624737,0.9738544225692749
1666655401.37900591,275273388,1,0.22712749242782593,0.013213482685387135,-0.004426206462085247,0.9737653136253357
1666655401.39899206,275293374,1,0.22732995450496674,0.013090393505990505,-0.004063799511641264,0.9737213253974915
1666655401.43901706,275333399,1,0.2279037982225418,0.013638271950185299,-0.0037923019845038652,0.9735807776451111
1666655401.47900510,275373387,1,0.228510782122612,0.014347339980304241,-0.003936962690204382,0.9734277129173279
1666655401.51902294,275413405,1,0.22906722128391266,0.014959185384213924,-0.003917663358151913,0.9732877612113953
1666655401.55896211,275453344,1,0.22971025109291077,0.01591513864696026,-0.003816158277913928,0.9731214642524719
1666655401.57901406,275473396,1,0.22991639375686646,0.016887584701180458,-0.0024595323484390974,0.9730607271194458
1666655401.59899807,275493380,1,0.230272114276886,0.01617894507944584,-0.003746771952137351,0.9729845523834229
1666655401.63898706,275533369,1,0.23077137768268585,0.015631353482604027,-0.0034608603455126286,0.972876250743866
1666655401.67902803,275573410,1,0.23136037588119507,0.013249737210571766,-0.002556415507569909,0.9727745056152344
1666655401.71903491,275613417,1,0.231961190700531,0.01031489484012127,-0.002018912462517619,0.9726682305335999
1666655401.75900888,275653391,1,0.23249001801013947,0.007589816115796566,-0.0009797876700758934,0.972568690776825
1666655401.77902102,275673403,1,0.23260487616062164,0.006712126079946756,0.0006921237800270319,0.9725478887557983
1666655401.79896688,275693349,1,0.23287156224250793,0.0054059685207903385,0.00010343622852815315,0.9724924564361572
1666655401.83899903,275733381,1,0.2332441508769989,0.0038706462364643812,0.0009217982878908515,0.9724100828170776
1666655401.87900996,275773392,1,0.23320725560188293,0.0030723370146006346,0.0011675577843561769,0.9724215269088745
1666655401.91900611,275813388,1,0.23330813646316528,0.002272580284625292,0.0021294185426086187,0.9723978638648987
1666655401.95903111,275853413,1,0.23313267529010773,0.0015682061202824116,0.003354493295773864,0.972437858581543
1666655401.97899294,275873375,1,0.23302176594734192,0.0006862442824058235,0.0019704096484929323,0.9724692702293396
1666655401.99899101,275893373,1,0.23305439949035645,0.0008826722041703761,0.003545511746779084,0.9724568128585815
1666655402.03898692,275933369,1,0.23265403509140015,3.7061883631395176e-05,0.0035087859723716974,0.9725532531738281
1666655402.07899809,275973380,1,0.2322070449590683,-0.0003804089210461825,0.0033200676552951336,0.9726606607437134
1666655402.11901999,276013402,1,0.23171070218086243,-0.0002967766486108303,0.0028797227423638105,0.9727804064750671
1666655402.15903091,276053413,1,0.23107537627220154,-0.000897744030226022,0.0016103711677715182,0.9729341268539429
1666655402.17898798,276073370,1,0.23063425719738007,-0.0003447555936872959,0.002473413245752454,0.9730373024940491
1666655402.19901991,276093402,1,0.23043259978294373,-0.0007106113480404019,0.0006427039625123143,0.9730877876281738
1666655402.23898506,276133367,1,0.229582279920578,-0.0005951287457719445,0.0011746726231649518,0.973288357257843
1666655402.27898598,276173368,1,0.2285471260547638,-8.411004819208756e-05,0.0009467568597756326,0.9735323786735535
1666655402.31899405,276213376,1,0.22755219042301178,9.567821689415723e-05,0.0017639955040067434,0.9737643003463745
1666655402.35902190,276253404,1,0.22621284425258636,-3.486389323370531e-05,0.0030426697339862585,0.9740731716156006
1666655402.37899804,276273380,1,0.22540517151355743,0.00039658843888901174,0.0015736951027065516,0.9742637872695923
1666655402.39898992,276293372,1,0.22469088435173035,-0.00033241018536500633,0.0029028209391981363,0.974425733089447
1666655402.43902612,276333408,1,0.22321684658527374,0.00023439934011548758,0.002694716677069664,0.9747650623321533
1666655402.47898102,276373363,1,0.22165118157863617,0.0005054784705862403,0.0021173330023884773,0.9751235842704773
1666655402.51900291,276413385,1,0.21997258067131042,0.0008292163838632405,0.0017634687246754766,0.9755041003227234
1666655402.55897093,276453353,1,0.21831610798835754,0.0008999869460240006,0.002704881364479661,0.9758739471435547
1666655402.57898593,276473368,1,0.21730424463748932,7.063531666062772e-05,0.002407197607681155,0.9761009216308594
1666655402.59902906,276493411,1,0.21639950573444366,0.001296619069762528,0.0027664348017424345,0.9763001203536987
1666655402.63897896,276533361,1,0.21446450054645538,0.0006920102750882506,0.002264718059450388,0.9767289161682129
1666655402.67901111,276573393,1,0.2123994529247284,0.0008049465832300484,0.0023627046030014753,0.977179765701294
1666655402.71898389,276613366,1,0.21027202904224396,0.0005712661659345031,0.0012345106806606054,0.9776419997215271
1666655402.75898695,276653369,1,0.20815113186836243,0.0010465350933372974,0.0012493494432419538,0.978095293045044
1666655402.77902508,276673407,1,0.20700222253799438,0.0012906816555187106,0.0036962360609322786,0.9783326387405396
1666655402.79902411,276693406,1,0.20599626004695892,0.000999763491563499,0.0016239024698734283,0.978550910949707
1666655402.83900499,276733387,1,0.20375898480415344,0.001339817768894136,0.001871789456345141,0.9790183901786804
1666655402.87899494,276773377,1,0.20132791996002197,0.0011499917600303888,0.0025156845804303885,0.9795199632644653
1666655402.91899395,276813376,1,0.19905239343643188,0.0015843153232708573,0.002181412884965539,0.9799851179122925
1666655402.95898700,276853369,1,0.19686812162399292,0.0010613618651404977,0.0015223092632368207,0.9804282188415527
1666655402.97903490,276873417,1,0.19569097459316254,0.0013856507139280438,0.0002369602007092908,0.9806646108627319
1666655402.99898601,276893368,1,0.1945381760597229,0.000838068372104317,0.0009996930602937937,0.9808940887451172
1666655403.03901911,276933401,1,0.19221016764640808,0.0007613927009515464,0.0007045152015052736,0.981353223323822
1666655403.07901001,276973392,1,0.19012093544006348,0.00032544860732741654,-0.0006045581540092826,0.9817604422569275
1666655403.11902905,277013411,1,0.18797728419303894,0.0003386868629604578,-0.002309712115675211,0.982170581817627
1666655403.15898609,277053368,1,0.18600712716579437,-0.0002935772354248911,-0.003916044253855944,0.9825405478477478
1666655403.17902899,277073411,1,0.18484251201152802,0.00021146786457393318,-0.003158383071422577,0.9827630519866943
1666655403.19899893,277093381,1,0.1839991807937622,-0.0004258797562215477,-0.005601092707365751,0.9829103350639343
1666655403.23899508,277133377,1,0.18209093809127808,-0.0003333687491249293,-0.006275228690356016,0.9832615852355957
1666655403.27901793,277173400,1,0.18012744188308716,-0.00033522426383569837,-0.006386425346136093,0.9836224913597107
1666655403.31900311,277213385,1,0.17812222242355347,-0.00021927001944277436,-0.005333051085472107,0.9839938879013062
1666655403.35901308,277253395,1,0.17625056207180023,0.0004377106379251927,-0.003845056053251028,0.9843377470970154
1666655403.37901497,277273397,1,0.17544911801815033,0.00023147340107243508,-0.004725869745016098,0.9844771027565002
1666655403.39896894,277293351,1,0.1746327430009842,0.0006156283197924495,-0.0024528440553694963,0.9846304059028625
1666655403.43896604,277333348,1,0.17297793924808502,0.000550118216779083,-0.0014931446639820933,0.9849244356155396
1666655403.47896791,277373350,1,0.17148998379707336,0.00039469878538511693,-0.0010750953806564212,0.9851852059364319
1666655403.51899791,277413380,1,0.17008064687252045,0.0003810265043284744,-0.0006785442819818854,0.9854298233985901
1666655403.55901790,277453400,1,0.16877295076847076,0.0004319516592659056,-0.000546572613529861,0.9856547117233276
1666655403.57899499,277473377,1,0.16801491379737854,0.00030900220735929906,-0.0015129493549466133,0.9857832193374634
1666655403.59900093,277493383,1,0.16760966181755066,0.0005893103079870343,-8.930476906243712e-05,0.9858532547950745
1666655403.63898492,277533367,1,0.16664160788059235,0.000924756343010813,0.0010180557146668434,0.986016571521759
1666655403.67898703,277573369,1,0.16593417525291443,0.0008910315809771419,0.001554879010654986,0.9861351847648621
1666655403.71903205,277613414,1,0.16511498391628265,0.0010494434973224998,0.0013645925791934133,0.9862728118896484
1666655403.75899601,277653378,1,0.16447529196739197,0.0012621378991752863,0.001546643441542983,0.9863792061805725
1666655403.77899098,277673373,1,0.16404809057712555,0.0010270976927131414,0.00011864575935760513,0.9864518046379089
1666655403.79901600,277693398,1,0.16386130452156067,0.0016311019426211715,0.0016589901642873883,0.9864806532859802
1666655403.83899903,277733381,1,0.1634722352027893,0.0016155436169356108,0.0016826004721224308,0.986545205116272
1666655403.87898493,277773367,1,0.16308686137199402,0.0017455155029892921,0.0004898160696029663,0.9866100549697876
1666655403.91898990,277813372,1,0.16277623176574707,0.0018212009454146028,-0.0013325553154572845,0.9866604208946228
1666655403.95902991,277853412,1,0.16243930160999298,0.0015541287139058113,-0.0039025212172418833,0.9867095947265625
1666655403.97898889,277873371,1,0.16242490708827972,0.0013446059310808778,-0.0038126485887914896,0.986712634563446
1666655403.99900389,277893386,1,0.16227930784225464,0.00110045715700835,-0.006663551088422537,0.9867217540740967
1666655404.03902507,277933407,1,0.16235463321208954,0.00040780933341011405,-0.009452459402382374,0.9866871237754822
1666655404.07898402,277973366,1,0.16244104504585266,-0.0006686208653263748,-0.011986377649009228,0.9866452217102051
1666655404.11899710,278013379,1,0.1624901294708252,-0.0008518187678419054,-0.013446086086332798,0.986618161201477
1666655404.15898991,278053372,1,0.16256047785282135,-0.000780442904215306,-0.01434856466948986,0.9865939617156982
1666655404.17900991,278073392,1,0.16285213828086853,-0.0003611710271798074,-0.012810193933546543,0.9865672588348389
1666655404.19902301,278093405,1,0.162862166762352,-0.0011505510192364454,-0.015495519153773785,0.9865264892578125
1666655404.23900509,278133387,1,0.16314317286014557,-0.0016428935341536999,-0.016897782683372498,0.9864563345909119
1666655404.27899909,278173381,1,0.1633896827697754,-0.0018467665649950504,-0.016979405656456947,0.9864137768745422
1666655404.31898904,278213371,1,0.16374075412750244,-0.0019634957425296307,-0.01695271022617817,0.9863557815551758
1666655404.35898805,278253370,1,0.1642184853553772,-0.0022007538937032223,-0.016922980546951294,0.986276388168335
1666655404.37903190,278273414,1,0.16448932886123657,-0.0017666294006630778,-0.016751741990447044,0.9862350225448608
1666655404.39896703,278293349,1,0.16472381353378296,-0.002548455260694027,-0.017300795763731003,0.9861847162246704
1666655404.43903208,278333414,1,0.16514624655246735,-0.0024511709343641996,-0.017192723229527473,0.9861161708831787
1666655404.47902012,278373402,1,0.1656920462846756,-0.002312556141987443,-0.016805747523903847,0.9860316514968872
1666655404.51899099,278413373,1,0.16626904904842377,-0.002202299190685153,-0.016071708872914314,0.9859470129013062
1666655404.55898809,278453370,1,0.16691376268863678,-0.002219232264906168,-0.014850703068077564,0.9858571290969849
1666655404.57900691,278473389,1,0.1674354523420334,-0.0020946799777448177,-0.015037049539387226,0.9857661128044128
1666655404.59898591,278493368,1,0.16753365099430084,-0.002048320835456252,-0.01440402865409851,0.9857590198516846
1666655404.63901806,278533400,1,0.16815157234668732,-0.0018157503800466657,-0.013986404985189438,0.9856602549552917
1666655404.67902708,278573409,1,0.16883249580860138,-0.001850346801802516,-0.014104447327554226,0.9855421185493469
1666655404.71901393,278613396,1,0.16954167187213898,-0.0018077273853123188,-0.013478267937898636,0.9854291677474976
1666655404.75902104,278653403,1,0.1703302264213562,-0.0012867877958342433,-0.012598381377756596,0.985305666923523
1666655404.77902007,278673402,1,0.17075079679489136,0.00011151233775308356,-0.011640085838735104,0.9852454662322998
1666655404.79898906,278693371,1,0.17110469937324524,0.00019978811906185,-0.010988501831889153,0.9851915240287781
1666655404.83898807,278733370,1,0.17169418931007385,0.0029865119140595198,-0.00886386726051569,0.9851058721542358
