timestamp,TimeUS,DesRoll,Roll,DesPitch,Pitch,DesYaw,Yaw,ErrRP,ErrYaw,AEKF
1679955829.28060102,154909170,0.0,0.68,0.0,-1.42,330.88,330.89,0.0,0.01,3
1679955829.38019705,155008766,0.0,0.68,0.0,-1.42,330.88,330.89,0.0,0.01,3
1679955829.48023415,155108803,0.0,0.68,0.0,-1.42,330.88,330.88,0.0,0.01,3
1679955829.58036518,155208934,0.0,0.68,0.0,-1.42,330.88,330.88,0.0,0.01,3
1679955829.68033910,155308908,0.0,0.68,0.0,-1.42,330.88,330.88,0.0,0.0,3
1679955829.78042912,155408998,0.0,0.68,0.0,-1.42,330.88,330.88,0.0,0.0,3
1679955829.88059902,155509168,0.0,0.68,0.0,-1.42,330.88,330.88,0.0,0.0,3
1679955829.98020911,155608778,0.0,0.6900000000000001,0.0,-1.42,330.88,330.87,0.0,0.01,3
1679955830.08057618,155709145,0.0,0.6900000000000001,0.0,-1.42,330.88,330.87,0.0,0.01,3
1679955830.18049908,155809068,0.0,0.6900000000000001,0.0,-1.42,330.88,330.87,0.0,0.01,3
1679955830.28048205,155909051,0.0,0.6900000000000001,0.0,-1.42,330.88,330.87,0.0,0.01,3
1679955830.38064814,156009217,0.0,0.6900000000000001,0.0,-1.42,330.88,330.86,0.0,0.01,3
1679955830.48051500,156109084,0.0,0.7000000000000001,0.0,-1.42,330.88,330.86,0.0,0.01,3
1679955830.58079410,156209363,0.0,0.7000000000000001,0.0,-1.42,330.88,330.86,0.0,0.01,3
1679955830.68039012,156308959,0.0,0.71,0.0,-1.42,330.88,330.86,0.0,0.01,3
1679955830.78044820,156409017,0.0,0.71,0.0,-1.43,330.88,330.86,0.0,0.0,3
1679955830.88021803,156508787,0.0,0.71,0.0,-1.43,330.88,330.85,0.0,0.0,3
1679955830.98015213,156608721,0.0,0.72,0.0,-1.43,330.88,330.85,0.0,0.0,3
1679955831.08024812,156708817,0.0,0.72,0.0,-1.43,330.88,330.86,0.0,0.0,3
1679955831.18053603,156809105,0.0,0.73,0.0,-1.43,330.88,330.86,0.0,0.0,3
1679955831.28071213,156909281,0.0,0.72,0.0,-1.44,330.85,330.86,0.0,0.0,3
1679955831.38031507,157008884,0.0,0.74,0.0,-1.44,330.84000000000003,330.85,0.0,0.0,3
1679955831.48033619,157108905,0.0,0.74,0.0,-1.44,330.85,330.86,0.0,0.0,3
1679955831.58042908,157208998,0.0,0.74,0.0,-1.45,330.85,330.86,0.0,0.0,3
1679955831.68034816,157308917,0.0,0.75,0.0,-1.46,330.85,330.86,0.0,0.0,3
1679955831.78042507,157408994,0.0,0.76,0.0,-1.46,330.85,330.86,0.0,0.0,3
1679955831.88057899,157509148,0.0,0.76,0.0,-1.46,330.85,330.85,0.0,0.0,3
1679955831.98049617,157609065,0.0,0.76,0.0,-1.46,330.85,330.85,0.0,0.01,3
1679955832.08040905,157708978,0.0,0.77,0.0,-1.46,330.85,330.86,0.0,0.01,3
1679955832.18046904,157809038,0.0,0.78,0.0,-1.47,330.85,330.87,0.0,0.01,3
1679955832.28046203,157909031,0.0,0.77,0.0,-1.47,330.85,330.82,0.0,0.01,3
1679955832.38048720,158009056,0.0,0.79,0.0,-1.47,330.85,330.83,0.0,0.01,3
1679955832.48051500,158109084,0.0,0.78,0.0,-1.47,330.85,330.85,0.0,0.0,3
1679955832.58077812,158209347,0.0,0.76,0.0,-1.44,330.85,330.8,0.0,0.0,3
1679955832.68022609,158308795,0.0,0.72,0.0,-1.36,330.85,330.8,0.0,0.0,3
1679955832.78032613,158408895,0.0,0.73,0.0,-1.33,330.85,330.86,0.0,0.0,3
1679955832.88024616,158508815,0.0,0.7000000000000001,0.0,-1.37,330.85,330.82,0.0,0.01,3
1679955832.98020315,158608772,0.0,0.75,0.0,-1.37,330.85,330.82,0.0,0.01,3
1679955833.08036017,158708929,0.0,0.74,0.0,-1.34,330.85,330.83,0.01,0.0,3
1679955833.18032217,158808891,0.0,0.76,0.0,-1.35,330.85,330.82,0.01,0.0,3
1679955833.28053117,158909100,0.0,0.72,0.0,-1.36,330.85,330.81,0.01,0.01,3
1679955833.38045621,159009025,0.0,0.78,0.0,-1.35,330.85,330.83,0.01,0.01,3
1679955833.48035407,159108923,0.0,0.79,0.0,-1.34,330.85,330.8,0.01,0.01,3
1679955833.58037806,159208947,0.0,0.79,0.0,-1.35,330.85,330.81,0.01,0.01,3
1679955833.68059206,159309161,0.0,0.76,0.0,-1.31,330.85,330.84000000000003,0.01,0.01,3
1679955833.78038001,159408949,0.0,0.61,0.0,-0.98,330.85,330.69,0.01,0.01,3
1679955833.88051701,159509086,0.0,0.47000000000000003,-0.06,-0.34,330.85,330.59000000000003,0.0,0.02,3
1679955833.98053622,159609105,0.0,0.6,-0.81,0.3,330.85,330.5,0.0,0.03,3
1679955834.08057404,159709143,0.0,0.66,-2.23,-0.06,330.85,330.40000000000003,0.01,0.03,3
1679955834.18053603,159809105,0.0,0.3,-3.38,-1.86,330.85,330.3,0.01,0.04,3
1679955834.28057909,159909148,0.0,0.27,-4.21,-3.71,330.85,330.17,0.02,0.03,3
1679955834.38078213,160009351,0.0,0.22,-3.91,-4.57,330.85,330.07,0.02,0.03,3
1679955834.48058820,160109157,0.0,0.13,-2.58,-3.67,330.85,329.94,0.02,0.03,3
1679955834.58068705,160209256,0.0,0.35000000000000003,-1.62,-1.36,330.85,329.83,0.02,0.03,3
1679955834.68050814,160309077,0.0,0.14,-1.12,0.72,330.85,329.7,0.03,0.02,3
1679955834.78031516,160408884,0.0,0.23,-1.49,1.69,330.85,329.59000000000003,0.03,0.02,3
1679955834.88031507,160508884,0.0,0.06,-2.72,1.12,330.85,329.51,0.03,0.02,3
1679955834.98033404,160608903,0.0,-0.14,-3.19,-0.41000000000000003,330.85,329.43,0.03,0.02,3
1679955835.08034706,160708916,0.0,0.19,-3.25,-1.43,330.85,329.32,0.02,0.03,3
1679955835.18039322,160808962,0.0,0.04,-3.69,-1.72,330.85,329.18,0.02,0.03,3
1679955835.28059101,160909160,0.0,-0.05,-4.08,-2.31,330.85,329.09000000000003,0.02,0.03,3
1679955835.38024712,161008816,0.0,0.42,-4.3,-3.04,330.85,329.01,0.02,0.03,3
1679955835.48016810,161108737,0.0,0.16,-4.3,-3.49,330.85,328.95,0.02,0.02,3
1679955835.58031416,161208883,0.0,0.33,-4.09,-3.39,330.85,328.96,0.02,0.02,3
1679955835.68021917,161308788,0.0,0.45,-4.01,-3.0,330.85,328.93,0.04,0.02,3
1679955835.78034616,161408915,0.0,0.55,-4.21,-2.7,330.85,328.95,0.04,0.02,3
1679955835.88033605,161508905,0.0,0.45,-4.72,-3.22,330.85,329.01,0.05,0.01,3
1679955835.98054218,161609111,0.0,0.46,-4.75,-4.1,330.85,329.1,0.05,0.01,3
1679955836.08041215,161708981,0.0,0.8,-4.36,-4.3500000000000005,330.85,329.18,0.06,0.01,3
1679955836.18035412,161808923,0.0,0.65,-3.42,-3.59,330.85,329.28000000000003,0.06,0.02,3
1679955836.28024507,161908814,0.0,0.63,-2.49,-2.2,330.85,329.37,0.05,0.01,3
1679955836.38037801,162008947,0.0,0.14,-2.17,-0.91,330.85,329.48,0.05,0.01,3
1679955836.48025513,162108824,0.0,0.07,-2.37,-0.5,330.85,329.57,0.04,0.02,3
1679955836.58055902,162209128,0.0,0.02,-3.18,-1.03,330.85,329.66,0.04,0.01,3
1679955836.68056107,162309130,0.0,-0.03,-3.97,-2.33,330.85,329.73,0.05,0.02,3
1679955836.78036022,162408929,0.0,-0.08,-4.0,-3.5300000000000002,330.85,329.81,0.05,0.02,3
1679955836.88047600,162509045,0.0,0.09,-3.74,-3.72,330.85,329.89,0.06,0.02,3
1679955836.98053813,162609107,0.0,0.01,-3.39,-3.0,330.85,329.94,0.06,0.02,3
1679955837.08056808,162709137,0.0,-0.21,-2.73,-2.31,330.85,329.99,0.05,0.02,3
1679955837.18048215,162809051,0.0,-0.21,-2.11,-1.42,330.85,330.04,0.05,0.01,3
1679955837.28075910,162909328,0.0,-0.25,-1.83,-0.71,330.85,330.11,0.05,0.01,3
1679955837.38050914,163009078,0.37,-0.4,-1.69,-0.59,330.85,330.17,0.05,0.01,3
1679955837.48021412,163108783,1.44,0.42,-1.6,-0.71,330.85,330.2,0.04,0.01,3
1679955837.58045506,163209024,2.08,1.81,-1.6,-0.72,330.85,330.24,0.04,0.01,3
1679955837.68033719,163308906,2.41,3.04,-1.6,-0.61,330.85,330.22,0.03,0.01,3
1679955837.78041816,163408987,2.2,3.69,-1.5,-0.59,330.85,330.19,0.03,0.02,3
1679955837.88037705,163508946,1.16,2.94,-1.25,-0.48,330.85,330.13,0.03,0.02,3
1679955837.98060322,163609172,0.59,1.3800000000000001,-0.89,-0.24,330.85,330.09000000000003,0.03,0.02,3
1679955838.08022809,163708797,0.3,-0.13,-0.63,0.05,330.85,330.04,0.04,0.04,3
1679955838.18027115,163808840,0.15,-0.44,-0.52,0.3,330.85,329.93,0.04,0.04,3
1679955838.28025723,163908826,0.07,-0.47000000000000003,-0.55,0.22,330.85,329.84000000000003,0.03,0.03,3
1679955838.38023019,164008799,0.04,-0.52,-1.26,-0.21,330.85,329.83,0.03,0.03,3
1679955838.48031712,164108886,0.02,-0.4,-2.15,-1.18,330.85,329.76,0.03,0.03,3
1679955838.58037305,164208942,0.01,-0.07,-2.5,-2.42,330.85,329.75,0.03,0.03,3
1679955838.68036103,164308930,0.0,0.13,-2.43,-2.9,330.85,329.76,0.03,0.03,3
1679955838.78042603,164408995,0.0,0.1,-2.23,-2.68,330.85,329.76,0.03,0.03,3
1679955838.88034606,164508915,0.0,0.16,-2.08,-2.43,330.85,329.79,0.03,0.03,3
1679955838.98024917,164608818,0.0,0.1,-1.8900000000000001,-2.24,330.85,329.8,0.03,0.02,3
1679955839.08057904,164709148,0.0,0.18,-1.74,-1.86,330.85,329.86,0.04,0.02,3
1679955839.18025804,164808827,0.0,0.09,-1.6500000000000001,-1.72,330.85,329.93,0.04,0.02,3
1679955839.28051305,164909082,0.0,0.25,-1.53,-1.67,330.85,329.95,0.07,0.03,3
1679955839.38052917,165009098,0.0,0.3,-1.59,-1.6300000000000001,327.84000000000003,326.94,0.07,0.03,3
1679955839.48051810,165109087,0.0,0.46,-1.59,-1.77,327.84000000000003,327.01,0.07,0.02,3
1679955839.58057618,165209145,0.0,0.55,-1.62,-2.12,327.84000000000003,327.09000000000003,0.07,0.02,3
1679955839.68067503,165309244,0.0,0.8300000000000001,-1.6500000000000001,-2.44,327.84000000000003,327.39,0.06,0.02,3
1679955839.78083420,165409403,0.0,0.72,-1.68,-2.52,327.84000000000003,327.7,0.06,0.02,3
1679955839.88057613,165509145,0.0,0.65,-1.18,-2.31,327.84000000000003,328.07,0.06,0.01,3
1679955839.98059106,165609160,0.0,0.36,-0.6,-1.44,327.84000000000003,328.34000000000003,0.06,0.01,3
1679955840.08060312,165709172,0.0,0.16,-0.3,-0.36,327.84000000000003,328.59000000000003,0.06,0.02,3
1679955840.18051505,165809084,0.0,-0.11,-0.17,0.19,327.84000000000003,328.67,0.06,0.02,3
1679955840.28051805,165909087,0.0,-0.55,-0.66,0.26,327.84000000000003,328.67,0.05,0.01,3
1679955840.38052106,166009090,0.0,-0.52,-1.47,-0.16,327.84000000000003,328.66,0.05,0.01,3
1679955840.48034501,166108914,0.0,-0.6900000000000001,-1.79,-1.2,327.84000000000003,328.78000000000003,0.05,0.01,3
1679955840.58056116,166209130,0.0,-0.5,-1.9100000000000001,-1.9000000000000001,327.84000000000003,328.77,0.05,0.01,3
1679955840.68053222,166309101,0.0,-0.41000000000000003,-1.96,-1.96,327.84000000000003,328.78000000000003,0.04,0.01,3
1679955840.78053808,166409107,0.0,-0.33,-1.99,-1.83,327.84000000000003,328.76,0.04,0.01,3
1679955840.88050318,166509072,-0.29,-0.12,-1.61,-1.62,327.84000000000003,328.6,0.03,0.01,3
1679955840.98047304,166609042,-0.78,-0.71,-1.22,-1.11,327.84000000000003,328.38,0.03,0.02,3
1679955841.08077407,166709343,-1.18,-1.05,-0.99,-0.52,327.84000000000003,328.12,0.03,0.01,3
1679955841.18052602,166809095,-1.47,-1.57,-0.89,-0.48,327.84000000000003,327.81,0.03,0.01,3
1679955841.28033018,166908899,-1.6400000000000001,-2.09,-0.88,-0.7000000000000001,327.84000000000003,327.52,0.03,0.01,3
1679955841.38033509,167008904,-1.73,-2.27,-0.98,-0.8200000000000001,327.84000000000003,327.26,0.03,0.01,3
1679955841.48038721,167108956,-1.78,-2.34,-1.0,-0.99,327.84000000000003,326.96,0.02,0.01,3
1679955841.58046603,167209035,-1.8,-2.39,-1.02,-1.16,327.84000000000003,326.77,0.02,0.01,3
1679955841.68024802,167308817,-1.73,-2.4,-1.11,-1.1300000000000001,327.84000000000003,326.55,0.02,0.01,3
1679955841.78072715,167409296,-1.22,-2.17,-1.29,-1.1400000000000001,327.84000000000003,326.41,0.02,0.01,3
1679955841.88059902,167509168,-0.8200000000000001,-1.33,-1.41,-1.55,327.84000000000003,326.38,0.02,0.01,3
1679955841.98021412,167608783,-0.48,-0.67,-1.48,-1.9100000000000001,327.84000000000003,326.40000000000003,0.02,0.01,3
1679955842.08029914,167708868,-0.28,0.16,-1.69,-2.02,327.84000000000003,326.44,0.02,0.01,3
1679955842.18034220,167808911,-0.19,0.5700000000000001,-1.82,-2.12,327.84000000000003,326.42,0.02,0.01,3
1679955842.28035402,167908923,-0.13,0.34,-1.83,-2.2,327.84000000000003,326.40000000000003,0.02,0.01,3
1679955842.38040209,168008971,-0.1,0.34,-1.71,-1.98,327.84000000000003,326.31,0.02,0.01,3
1679955842.48041320,168108982,-0.08,0.0,-1.6,-1.6500000000000001,327.84000000000003,326.25,0.02,0.01,3
1679955842.58037901,168208948,-0.08,-0.29,-1.6600000000000001,-1.42,327.84000000000003,326.21,0.02,0.01,3
1679955842.68026018,168308829,-0.07,-0.36,-1.7,-1.36,327.84000000000003,326.21,0.01,0.01,3
1679955842.78027821,168408847,-0.04,-0.21,-1.59,-1.48,327.84000000000003,326.24,0.01,0.01,3
1679955842.88052201,168509091,-0.02,-0.44,-1.76,-1.49,327.84000000000003,326.33,0.01,0.01,3
1679955842.98053002,168609099,-0.01,-0.34,-1.92,-1.6500000000000001,327.84000000000003,326.41,0.01,0.01,3
1679955843.08054113,168709110,0.0,-0.08,-1.87,-1.72,327.84000000000003,326.48,0.01,0.01,3
1679955843.18056107,168809130,0.0,-0.14,-1.84,-1.6600000000000001,327.84000000000003,326.56,0.01,0.0,3
1679955843.28060603,168909175,0.0,-0.1,-1.85,-1.67,327.84000000000003,326.65000000000003,0.01,0.0,3
1679955843.38060403,169009173,0.0,-0.03,-2.02,-1.83,327.84000000000003,326.74,0.01,0.0,3
1679955843.48074603,169109315,0.0,-0.04,-2.45,-2.07,327.84000000000003,326.81,0.01,0.01,3
1679955843.58066702,169209236,0.0,-0.12,-2.92,-2.5100000000000002,327.84000000000003,326.89,0.01,0.01,3
1679955843.68051314,169309082,0.0,0.1,-3.22,-3.14,327.84000000000003,326.89,0.01,0.01,3
1679955843.78051615,169409085,0.0,0.16,-3.64,-3.63,327.84000000000003,326.92,0.01,0.02,3
1679955843.88053322,169509102,0.0,-0.08,-3.89,-4.11,327.84000000000003,326.95,0.01,0.02,3
1679955843.98047614,169609045,0.0,0.03,-3.62,-4.3100000000000005,327.84000000000003,326.94,0.01,0.01,3
1679955844.08048820,169709057,0.0,0.19,-3.35,-3.89,327.84000000000003,326.99,0.01,0.02,3
1679955844.18051219,169809081,0.0,0.33,-3.16,-3.39,327.84000000000003,327.04,0.01,0.02,3
1679955844.28072119,169909290,0.0,0.2,-3.0500000000000003,-2.99,327.84000000000003,327.1,0.01,0.02,3
1679955844.38025212,170008821,0.0,0.07,-3.0500000000000003,-2.91,327.84000000000003,327.13,0.01,0.01,3
1679955844.48025918,170108828,0.0,0.09,-3.0700000000000003,-3.0500000000000003,327.84000000000003,327.38,0.01,0.01,3
1679955844.58029819,170208867,0.0,0.09,-2.9,-2.96,327.84000000000003,327.59000000000003,0.01,0.01,3
1679955844.68023515,170308804,0.0,0.15,-2.75,-2.61,327.84000000000003,327.84000000000003,0.01,0.01,3
1679955844.78034115,170408910,0.0,0.12,-2.52,-2.31,327.84000000000003,328.06,0.01,0.01,3
1679955844.88033414,170508903,0.0,0.18,-2.29,-2.07,327.93,328.3,0.01,0.02,3
1679955844.98053122,170609100,0.0,0.3,-2.18,-1.76,327.93,328.5,0.01,0.02,3
1679955845.08040619,170708975,0.0,0.16,-2.12,-1.5,328.07,328.74,0.01,0.02,3
1679955845.18034816,170808917,0.0,0.13,-2.0,-1.54,328.93,328.98,0.01,0.02,3
1679955845.28023601,170908805,0.0,0.3,-1.85,-1.57,329.91,329.38,0.01,0.02,3
1679955845.38018608,171008755,0.0,0.27,-1.7,-1.44,331.39,329.94,0.01,0.02,3
1679955845.48024416,171108813,0.0,0.55,-1.57,-1.12,332.69,330.63,0.01,0.02,3
1679955845.58032513,171208894,0.0,0.35000000000000003,-1.47,-1.19,333.11,331.48,0.01,0.02,3
1679955845.68032503,171308894,0.0,0.42,-1.36,-1.3800000000000001,333.14,332.23,0.01,0.01,3
1679955845.78038502,171408954,0.0,0.42,-1.26,-1.42,333.18,332.81,0.01,0.01,3
1679955845.88054204,171509111,0.0,0.22,-1.19,-1.37,333.18,333.3,0.01,0.02,3
1679955845.98047018,171609039,0.0,-0.06,-1.11,-1.3,333.18,333.69,0.01,0.02,3
1679955846.08063221,171709201,0.0,0.08,-1.02,-1.1300000000000001,333.18,334.02,0.01,0.02,3
1679955846.18058515,171809154,0.0,-0.08,-0.9500000000000001,-1.17,333.18,334.31,0.01,0.01,3
1679955846.28057504,171909144,0.0,0.18,-0.98,-1.07,333.18,334.5,0.01,0.01,3
1679955846.38051009,172009079,0.0,0.33,-0.92,-1.25,333.18,334.63,0.01,0.01,3
1679955846.48051405,172109083,0.0,0.49,-0.75,-1.22,333.18,334.75,0.01,0.01,3
1679955846.58067822,172209247,0.0,0.21,-0.6900000000000001,-0.88,333.18,334.69,0.01,0.01,3
1679955846.68048000,172309049,0.0,-0.05,-0.75,-0.78,333.18,334.62,0.01,0.01,3
1679955846.78052211,172409091,0.0,-0.08,-0.9,-0.9400000000000001,333.18,334.49,0.01,0.02,3
1679955846.88051605,172509085,0.0,0.0,-1.24,-1.07,333.18,334.37,0.01,0.02,3
1679955846.98056221,172609131,0.0,-0.07,-1.56,-1.29,333.18,334.25,0.01,0.02,3
1679955847.08048320,172709052,0.0,-0.33,-1.87,-1.73,333.18,334.13,0.01,0.02,3
1679955847.18079209,172809361,0.0,-0.5,-2.19,-2.0300000000000002,333.18,333.97,0.01,0.02,3
1679955847.28050900,172909078,0.0,0.01,-2.33,-2.4,333.18,333.88,0.01,0.01,3
1679955847.38052821,173009097,0.0,-0.33,-2.46,-2.5300000000000002,333.18,333.8,0.01,0.01,3
1679955847.48054600,173109115,0.0,-0.06,-2.89,-2.61,333.18,333.78000000000003,0.01,0.01,3
1679955847.58061314,173209182,0.0,0.0,-3.33,-3.11,333.18,333.78000000000003,0.01,0.02,3
1679955847.68054008,173309109,0.0,-0.06,-4.16,-3.68,333.18,333.76,0.01,0.02,3
1679955847.78062201,173409191,0.0,-0.21,-4.8100000000000005,-4.38,333.18,333.75,0.01,0.02,3
1679955847.88078403,173509353,0.0,-0.12,-5.0600000000000005,-5.0600000000000005,333.18,333.72,0.01,0.01,3
1679955847.98024821,173608817,0.0,-0.35000000000000003,-5.11,-5.3,333.18,333.68,0.01,0.02,3
1679955848.08018923,173708758,0.0,-0.38,-4.8100000000000005,-5.12,333.18,333.63,0.01,0.02,3
1679955848.18024516,173808814,0.0,-0.54,-4.2,-4.7,333.45,333.6,0.01,0.02,3
1679955848.28022814,173908797,0.03,-0.52,-3.85,-3.72,333.77,333.55,0.02,0.02,3
1679955848.38031912,174008888,0.43,-0.28,-3.42,-3.0700000000000003,333.78000000000003,333.69,0.02,0.02,3
1679955848.48040509,174108974,0.91,0.22,-2.74,-2.59,333.78000000000003,333.81,0.02,0.02,3
1679955848.58059406,174209163,1.16,0.98,-2.43,-1.93,333.78000000000003,333.97,0.02,0.03,3
1679955848.68039823,174308967,1.28,1.47,-2.24,-1.61,333.78000000000003,334.13,0.02,0.03,3
1679955848.78044200,174409011,1.03,1.67,-2.0300000000000002,-1.55,333.78000000000003,334.25,0.02,0.02,3
1679955848.88024020,174508809,0.59,1.07,-1.85,-1.55,333.78000000000003,334.41,0.02,0.02,3
1679955848.98018909,174608758,0.37,0.65,-1.72,-1.52,333.78000000000003,334.54,0.02,0.02,3
1679955849.08025718,174708826,0.44,0.04,-1.6300000000000001,-1.6,333.78000000000003,334.68,0.02,0.02,3
1679955849.18023014,174808799,1.16,-0.01,-1.4000000000000001,-1.56,333.83,334.78000000000003,0.02,0.02,3
1679955849.28031516,174908884,1.6400000000000001,1.12,-1.16,-1.28,333.90000000000003,334.84000000000003,0.02,0.01,3
1679955849.38034201,175008911,1.84,1.68,-1.03,-0.89,334.19,334.81,0.02,0.02,3
1679955849.48037815,175108947,1.98,2.62,-0.93,-0.71,334.21,334.85,0.02,0.03,3
1679955849.58058310,175209152,2.06,2.2800000000000002,-0.84,-0.71,334.21,334.89,0.02,0.02,3
1679955849.68058014,175309149,2.06,2.2800000000000002,-0.76,-0.67,334.21,334.89,0.02,0.02,3
1679955849.78058505,175409154,2.02,2.06,-0.66,-0.51,334.64,334.98,0.02,0.02,3
1679955849.88053203,175509101,1.97,2.05,-0.58,-0.37,335.76,335.14,0.02,0.02,3
1679955849.98046112,175609030,1.86,1.94,-0.58,-0.27,336.8,335.5,0.02,0.02,3
1679955850.08078313,175709352,1.54,1.96,-0.66,-0.28,337.95,336.03000000000003,0.02,0.02,3
1679955850.18036604,175808935,0.85,1.5,-0.75,-0.45,339.74,336.67,0.02,0.02,3
1679955850.28032708,175908896,0.43,0.8,-0.84,-0.74,341.41,337.53000000000003,0.01,0.01,3
1679955850.38034821,176008917,0.22,0.01,-0.9,-0.98,342.22,338.55,0.01,0.01,3
1679955850.48039722,176108966,0.11,0.04,-0.89,-1.19,342.29,339.59000000000003,0.02,0.01,3
1679955850.58065200,176209221,0.05,-0.04,-0.88,-1.3800000000000001,342.29,340.45,0.02,0.01,3
1679955850.68023610,176308805,0.02,-0.11,-0.93,-1.41,342.29,341.15000000000003,0.02,0.01,3
1679955850.78065801,176409227,0.01,-0.01,-1.02,-1.33,342.29,341.79,0.02,0.01,3
1679955850.88050222,176509071,0.0,0.19,-1.01,-1.3,342.29,342.36,0.01,0.01,3
1679955850.98052120,176609090,0.0,-0.2,-0.9400000000000001,-1.22,342.29,342.86,0.01,0.01,3
1679955851.08053207,176709101,0.0,-0.21,-0.87,-1.1,342.29,343.35,0.01,0.01,3
1679955851.18051720,176809086,0.0,-0.31,-1.43,-1.07,342.29,343.72,0.01,0.01,3
1679955851.28051615,176909085,0.0,-0.23,-2.61,-1.49,342.29,344.06,0.01,0.01,3
1679955851.38057709,177009146,0.0,-0.49,-4.72,-3.0700000000000003,342.29,344.35,0.01,0.01,3
1679955851.48080015,177109369,0.0,-0.56,-5.25,-5.34,342.29,344.6,0.01,0.01,3
1679955851.58038902,177208958,0.0,-0.7000000000000001,-4.88,-6.28,342.29,344.75,0.01,0.01,3
1679955851.68051100,177309080,0.0,-0.4,-4.15,-5.3500000000000005,342.29,344.8,0.01,0.01,3
1679955851.78029513,177408864,0.0,-0.2,-3.79,-3.89,342.29,344.78000000000003,0.01,0.01,3
1679955851.88022518,177508794,0.0,-0.18,-2.98,-3.31,342.29,344.67,0.02,0.02,3
1679955851.98031402,177608883,0.0,-0.18,-2.18,-2.7,342.29,344.53000000000003,0.02,0.02,3
1679955852.08035111,177708920,-0.19,-0.24,-1.75,-1.55,342.29,344.37,0.02,0.02,3
1679955852.18037200,177808941,-0.8200000000000001,-0.36,-1.1,-0.86,342.29,344.21,0.02,0.02,3
1679955852.28043318,177909002,-1.43,-1.02,-0.56,-0.36,342.3,344.05,0.03,0.02,3
1679955852.38059616,178009165,-1.6300000000000001,-1.82,-0.28,0.2,342.8,343.88,0.03,0.01,3
1679955852.48057723,178109146,-1.57,-2.12,-0.14,0.44,343.01,343.77,0.02,0.01,3
1679955852.58056307,178209132,-1.12,-1.73,-0.07,0.47000000000000003,343.01,343.7,0.02,0.01,3
1679955852.68075323,178309322,-0.5700000000000001,-0.96,-0.03,0.44,343.01,343.61,0.02,0.02,3
1679955852.78047919,178409048,-0.29,-0.46,-0.01,0.22,343.01,343.51,0.02,0.03,3
1679955852.88046718,178509036,-0.14,0.41000000000000003,0.0,0.33,343.01,343.42,0.02,0.02,3
1679955852.98047209,178609041,-0.07,0.22,0.0,0.26,343.01,343.36,0.02,0.02,3
1679955853.08054614,178709115,-0.03,0.45,0.0,0.04,343.01,343.33,0.01,0.02,3
1679955853.18040705,178808976,-0.01,0.15,-0.19,-0.08,343.01,343.27,0.01,0.02,3
1679955853.28034115,178908910,-0.01,0.21,-0.53,-0.44,343.01,343.25,0.01,0.01,3
1679955853.38024712,179008816,-0.04,-0.27,-0.96,-1.08,343.08,343.21,0.01,0.01,3
1679955853.48018718,179108756,-0.07,-0.62,-1.19,-1.83,343.08,343.23,0.01,0.01,3
1679955853.58034921,179208918,-0.03,-0.51,-1.07,-2.14,343.08,343.15000000000003,0.01,0.02,3
1679955853.68049908,179309068,-0.01,-0.36,-0.8300000000000001,-1.8900000000000001,343.08,343.1,0.01,0.02,3
1679955853.78063107,179409200,-0.01,-0.14,-0.7000000000000001,-1.3,343.08,343.06,0.01,0.01,3
1679955853.88032413,179508893,0.0,0.45,-0.79,-0.8,343.08,342.98,0.01,0.01,3
1679955853.98034406,179608913,0.0,0.2,-0.79,-0.8300000000000001,343.08,342.98,0.01,0.01,3
1679955854.08040309,179708972,0.0,0.42,-0.81,-0.8200000000000001,343.08,342.99,0.01,0.02,3
1679955854.18035913,179808928,0.0,0.14,-1.76,-0.93,343.08,342.98,0.01,0.02,3
1679955854.28025007,179908819,0.0,0.09,-3.5300000000000002,-2.0300000000000002,343.39,342.92,0.01,0.01,3
1679955854.38059521,180009164,-0.03,-0.09,-4.11,-4.37,344.03000000000003,343.0,0.01,0.01,3
1679955854.48049402,180109063,-0.22,-0.27,-3.92,-5.44,344.76,343.18,0.01,0.01,3
1679955854.58061719,180209186,-0.33,-0.04,-3.65,-4.94,344.95,343.5,0.01,0.01,3
1679955854.68053317,180309102,-0.39,-0.1,-3.08,-4.0,345.08,343.75,0.02,0.01,3
1679955854.78059411,180409163,-0.42,-0.12,-2.9,-3.25,345.08,344.04,0.02,0.01,3
1679955854.88053322,180509102,-0.45,-0.38,-3.0700000000000003,-2.88,345.08,344.28000000000003,0.01,0.02,3
1679955854.98057818,180609147,-0.46,-0.34,-3.37,-3.06,345.08,344.52,0.01,0.01,3
1679955855.08060718,180709176,-0.46,0.02,-3.85,-3.46,345.08,344.7,0.02,0.01,3
1679955855.18057108,180809140,-0.42,0.21,-4.17,-4.0600000000000005,345.08,344.89,0.02,0.01,3
1679955855.28081918,180909388,-0.38,0.23,-4.0,-4.41,345.08,345.02,0.01,0.01,3
1679955855.38049817,181009067,-0.34,0.24,-3.62,-4.18,345.08,345.14,0.01,0.01,3
1679955855.48048210,181109051,-0.32,0.3,-3.43,-3.5,345.08,345.25,0.01,0.01,3
1679955855.58053303,181209102,-0.35000000000000003,0.26,-3.83,-3.0,345.08,345.31,0.01,0.01,3
1679955855.68055916,181309128,-0.36,0.19,-4.07,-3.27,345.08,345.36,0.01,0.01,3
1679955855.78056002,181409129,-0.37,-0.15,-4.44,-3.85,345.08,345.33,0.01,0.01,3
1679955855.88038421,181508953,-0.37,-0.15,-4.8500000000000005,-4.21,345.08,345.28000000000003,0.01,0.01,3
1679955855.98042321,181608992,-0.37,-0.34,-5.33,-4.86,345.1,345.18,0.01,0.01,3
1679955856.08024120,181708810,-0.37,-0.2,-5.34,-5.5600000000000005,345.35,345.13,0.01,0.01,3
1679955856.18020105,181808770,-0.37,-0.41000000000000003,-5.16,-5.66,345.49,345.14,0.01,0.01,3
1679955856.28026509,181908834,-0.37,-0.3,-4.59,-5.3,345.5,345.17,0.01,0.01,3
1679955856.38051605,182009085,-0.37,-0.46,-4.3100000000000005,-4.58,345.51,345.18,0.01,0.01,3
1679955856.48035002,182108919,-0.37,-0.16,-4.59,-3.84,345.71,345.19,0.01,0.01,3
1679955856.58037901,182208948,-0.37,-0.48,-4.64,-3.7600000000000002,346.21,345.3,0.01,0.02,3
1679955856.68037510,182308944,-0.37,-0.55,-4.64,-3.95,346.89,345.53000000000003,0.01,0.02,3
1679955856.78043103,182409000,-0.37,-0.25,-4.61,-4.1,347.67,345.81,0.01,0.02,3
1679955856.88035321,182508922,-0.37,-0.23,-4.43,-4.3,348.17,346.26,0.01,0.02,3
1679955856.98026204,182608831,-0.29,-0.37,-4.36,-4.36,348.45,346.7,0.01,0.02,3
1679955857.08058119,182709150,-0.14,-0.11,-4.53,-4.42,348.45,347.11,0.02,0.02,3
1679955857.18025303,182808822,-0.07,0.13,-4.64,-4.6000000000000005,348.45,347.44,0.02,0.03,3
1679955857.28051400,182909083,-0.03,0.35000000000000003,-4.72,-4.78,348.45,347.73,0.02,0.02,3
1679955857.38054705,183009116,-0.01,0.27,-4.73,-4.88,348.45,347.99,0.02,0.02,3
1679955857.48051906,183109088,-0.01,0.18,-4.5200000000000005,-4.83,348.45,348.24,0.02,0.02,3
1679955857.58057404,183209143,0.0,0.25,-4.13,-4.41,348.45,348.46,0.02,0.02,3
1679955857.68058419,183309153,0.0,0.63,-3.8000000000000003,-3.71,348.45,348.63,0.02,0.02,3
1679955857.78079820,183409367,0.0,0.32,-3.52,-3.04,348.45,348.72,0.02,0.02,3
1679955857.88026309,183508832,0.0,0.23,-3.4,-2.77,348.45,348.84000000000003,0.02,0.01,3
1679955857.98054314,183609112,0.0,0.28,-3.4,-2.73,348.45,348.89,0.02,0.01,3
1679955858.08045316,183709022,0.0,0.06,-3.67,-3.0700000000000003,348.45,348.85,0.02,0.01,3
1679955858.18049121,183809060,0.0,-0.09,-3.92,-3.56,348.45,348.78000000000003,0.02,0.01,3
1679955858.28050423,183909073,0.0,-0.28,-3.65,-3.81,348.45,348.7,0.02,0.01,3
1679955858.38047814,184009047,0.0,-0.16,-3.12,-3.2800000000000002,348.45,348.57,0.02,0.01,3
1679955858.48048711,184109056,0.0,-0.31,-2.54,-2.35,348.45,348.37,0.03,0.01,3
1679955858.58066416,184209233,0.0,-0.41000000000000003,-2.2800000000000002,-1.6500000000000001,348.52,348.27,0.03,0.01,3
1679955858.68073201,184309301,0.0,-0.59,-2.46,-1.24,348.52,348.12,0.03,0.02,3
1679955858.78060317,184409172,0.0,-0.66,-2.63,-1.61,348.52,348.01,0.03,0.01,3
1679955858.88016200,184508731,0.0,-0.3,-2.74,-2.2600000000000002,348.7,347.98,0.03,0.02,3
1679955858.98026109,184608830,0.0,0.01,-3.33,-2.86,348.73,348.03000000000003,0.03,0.02,3
1679955859.08024621,184708815,0.0,-0.12,-3.5,-3.5,348.74,348.04,0.02,0.02,3
1679955859.18032622,184808895,0.0,-0.07,-3.2600000000000002,-4.07,349.05,348.06,0.02,0.02,3
1679955859.28034306,184908912,0.0,0.17,-2.75,-3.84,349.27,348.15000000000003,0.03,0.02,3
1679955859.38054419,185009113,0.0,0.15,-2.41,-2.97,349.74,348.33,0.03,0.02,3
1679955859.48041415,185108983,0.0,0.36,-2.12,-2.16,350.05,348.49,0.03,0.02,3
1679955859.58059406,185209163,0.0,0.17,-1.97,-1.75,350.05,348.71,0.03,0.02,3
1679955859.68046808,185309037,0.0,0.12,-1.79,-1.6500000000000001,350.3,348.89,0.02,0.01,3
1679955859.78056002,185409129,0.0,0.26,-1.58,-1.6500000000000001,351.26,349.15000000000003,0.02,0.02,3
1679955859.88048911,185509058,0.0,0.12,-1.51,-1.56,352.2,349.54,0.02,0.02,3
1679955859.98078823,185609357,0.0,0.16,-1.37,-1.51,352.34000000000003,350.12,0.02,0.02,3
1679955860.08053923,185709108,0.0,0.28,-1.04,-1.18,352.34000000000003,350.59000000000003,0.02,0.02,3
1679955860.18057323,185809142,0.0,0.43,-0.7000000000000001,-0.67,352.34000000000003,351.01,0.02,0.01,3
1679955860.28054905,185909118,0.0,0.16,-0.36,-0.36,352.34000000000003,351.43,0.02,0.01,3
1679955860.38041306,186008982,0.0,0.14,-0.18,0.07,352.06,351.82,0.02,0.01,3
1679955860.48041916,186108988,0.0,-0.03,-0.09,0.26,350.93,352.15000000000003,0.02,0.01,3
1679955860.58035922,186208928,0.0,-0.14,-0.04,0.3,349.78000000000003,352.19,0.02,0.01,3
1679955860.68017006,186308739,0.0,0.13,-0.02,0.36,349.48,352.03000000000003,0.02,0.01,3
1679955860.78028107,186408850,0.0,0.27,-0.01,0.37,349.48,351.8,0.02,0.01,3
1679955860.88050508,186509074,0.0,0.06,0.0,0.23,349.48,351.59000000000003,0.02,0.01,3
1679955860.98053122,186609100,0.0,0.03,-0.24,0.2,349.51,351.33,0.02,0.01,3
1679955861.08056617,186709135,0.0,-0.09,-0.52,0.0,349.90000000000003,351.14,0.02,0.01,3
1679955861.18058300,186809152,0.0,-0.22,-0.67,-0.35000000000000003,350.82,350.92,0.02,0.01,3
1679955861.28059721,186909166,-0.13,-0.17,-0.71,-0.51,352.17,350.89,0.03,0.01,3
1679955861.38063407,187009203,-0.4,-0.27,-0.77,-0.6,353.22,351.07,0.03,0.01,3
1679955861.48060107,187109170,-0.61,-0.85,-0.86,-0.92,353.82,351.52,0.03,0.01,3
1679955861.58089614,187209465,-0.8300000000000001,-1.08,-0.97,-1.28,353.89,351.99,0.03,0.02,3
1679955861.68060517,187309174,-0.9400000000000001,-1.26,-1.53,-1.45,353.91,352.5,0.03,0.03,3
1679955861.78030300,187408872,-1.0,-1.25,-1.84,-2.06,353.91,352.88,0.03,0.02,3
1679955861.88028717,187508856,-0.99,-1.1400000000000001,-1.85,-2.49,353.91,353.3,0.02,0.02,3
1679955861.98032713,187608896,-0.99,-1.01,-1.82,-2.38,353.91,353.59000000000003,0.02,0.02,3
1679955862.08035922,187708928,-0.97,-0.8,-1.6400000000000001,-2.11,353.91,353.89,0.02,0.02,3
1679955862.18039417,187808963,-0.79,-0.88,-1.55,-1.84,353.91,354.08,0.02,0.02,3
1679955862.28034401,187908913,-0.72,-0.58,-1.42,-1.72,353.91,354.29,0.02,0.02,3
1679955862.38059402,188009163,-0.6900000000000001,-0.66,-1.28,-1.6500000000000001,353.91,354.41,0.02,0.01,3
1679955862.48057508,188109144,-0.58,-0.22,-1.3,-1.45,353.91,354.48,0.02,0.02,3
1679955862.58064318,188209212,-0.48,-0.06,-1.54,-1.46,353.91,354.57,0.02,0.02,3
1679955862.68047810,188309047,-0.45,-0.16,-1.77,-1.94,353.91,354.59000000000003,0.02,0.02,3
1679955862.78070116,188409270,-0.42,-0.17,-1.82,-2.24,353.91,354.58,0.02,0.02,3
1679955862.88046312,188509032,-0.4,-0.35000000000000003,-1.75,-2.24,353.91,354.48,0.02,0.02,3
1679955862.98047805,188609047,-0.39,-0.47000000000000003,-1.6400000000000001,-1.99,353.91,354.31,0.02,0.02,3
1679955863.08071518,188709284,-0.39,-0.18,-1.6,-1.73,353.91,354.14,0.02,0.03,3
1679955863.18059301,188809162,-0.38,-0.37,-1.73,-1.68,353.91,353.95,0.02,0.03,3
1679955863.28024220,188908811,-0.38,-0.25,-2.2600000000000002,-1.87,353.91,353.78000000000003,0.01,0.02,3
1679955863.38026118,189008830,-0.41000000000000003,-0.14,-2.6,-2.5500000000000003,354.09000000000003,353.61,0.01,0.02,3
1679955863.48026609,189108835,-0.43,-0.19,-2.7800000000000002,-3.17,355.03000000000003,353.51,0.01,0.01,3
1679955863.58033204,189208901,-0.42,-0.29,-2.79,-3.21,355.8,353.58,0.01,0.01,3
1679955863.68030500,189308874,-0.37,-0.24,-2.96,-3.04,355.87,353.76,0.01,0.01,3
1679955863.78037715,189408946,-0.22,-0.13,-3.41,-3.06,355.87,354.01,0.01,0.01,3
1679955863.88052106,189509090,-0.11,-0.31,-4.21,-3.7,355.87,354.12,0.01,0.01,3
1679955863.98039412,189608963,-0.05,-0.1,-4.61,-4.59,355.87,354.35,0.01,0.01,3
1679955864.08061004,189709179,-0.03,-0.15,-4.8500000000000005,-5.1000000000000005,355.87,354.58,0.02,0.01,3
1679955864.18058300,189809152,-0.01,-0.1,-5.01,-5.2,355.87,354.76,0.02,0.01,3
1679955864.28057718,189909146,0.0,0.01,-5.49,-5.32,355.87,355.03000000000003,0.01,0.01,3
1679955864.38049221,190009061,0.0,-0.09,-5.86,-5.75,355.87,355.23,0.01,0.02,3
1679955864.48050904,190109078,0.0,-0.24,-5.64,-6.24,355.87,355.38,0.01,0.01,3
1679955864.58064723,190209216,0.0,-0.24,-5.65,-5.91,355.87,355.55,0.01,0.01,3
1679955864.68052506,190309094,0.0,-0.16,-6.0,-5.61,355.87,355.68,0.02,0.02,3
1679955864.78082705,190409396,0.0,0.04,-6.05,-5.68,355.87,355.85,0.02,0.02,3
1679955864.88045502,190509024,0.0,0.59,-6.01,-5.76,355.87,355.99,0.02,0.02,3
1679955864.98037004,190608939,0.0,0.26,-5.95,-5.68,355.87,356.12,0.02,0.02,3
1679955865.08026123,190708830,0.0,0.53,-5.8500000000000005,-5.59,355.87,356.22,0.02,0.03,3
1679955865.18020010,190808769,0.0,-0.02,-5.75,-5.48,355.87,356.27,0.02,0.02,3
1679955865.28026414,190908833,0.0,-0.4,-5.75,-5.45,355.87,356.33,0.02,0.02,3
1679955865.38019800,191008767,0.0,-0.33,-5.8100000000000005,-5.41,355.87,356.29,0.02,0.02,3
1679955865.48052216,191109091,0.0,-0.16,-5.75,-5.54,355.87,356.3,0.02,0.02,3
1679955865.58051205,191209081,0.0,-0.11,-5.46,-5.62,355.87,356.25,0.02,0.02,3
1679955865.68047118,191309040,0.0,-0.25,-5.14,-5.2700000000000005,355.87,356.12,0.02,0.02,3
1679955865.78058004,191409149,0.0,-0.21,-5.01,-4.72,355.87,355.97,0.02,0.02,3
1679955865.88054109,191509110,0.0,-0.28,-4.98,-4.53,355.87,355.77,0.02,0.02,3
1679955865.98047805,191609047,0.0,-0.23,-5.0,-4.54,355.87,355.55,0.02,0.02,3
1679955866.08053708,191709106,0.0,-0.31,-5.2700000000000005,-4.57,355.87,355.29,0.02,0.01,3
1679955866.18045807,191809027,0.0,-0.24,-5.44,-5.04,355.87,355.09000000000003,0.02,0.02,3
1679955866.28073311,191909302,0.0,0.02,-5.57,-5.28,355.94,354.85,0.02,0.01,3
1679955866.38052821,192009097,0.0,-0.18,-5.41,-5.44,356.44,354.77,0.02,0.01,3
1679955866.48051715,192109086,0.0,-0.34,-5.18,-5.34,356.53000000000003,354.68,0.02,0.02,3
1679955866.58056116,192209130,0.0,-0.08,-4.93,-5.15,356.53000000000003,354.73,0.02,0.01,3
1679955866.68056417,192309133,0.0,-0.42,-4.74,-5.0200000000000005,356.53000000000003,354.76,0.02,0.01,3
1679955866.78062820,192409197,0.0,-0.05,-4.62,-4.7700000000000005,356.53000000000003,354.86,0.02,0.01,3
1679955866.88024521,192508814,0.0,0.27,-4.5200000000000005,-4.62,356.53000000000003,354.97,0.02,0.01,3
1679955866.98025823,192608827,0.0,0.45,-4.5,-4.64,356.53000000000003,355.17,0.02,0.02,3
1679955867.08026600,192708835,0.0,0.55,-4.45,-4.36,356.53000000000003,355.33,0.02,0.01,3
1679955867.18023705,192808806,0.0,0.74,-4.37,-4.22,356.53000000000003,355.54,0.02,0.01,3
1679955867.28030705,192908876,0.0,0.48,-4.29,-4.22,356.53000000000003,355.7,0.02,0.01,3
1679955867.38050723,193009076,-0.07,0.5,-4.23,-4.15,356.53000000000003,355.87,0.02,0.01,3
1679955867.48053312,193109102,-0.45,0.49,-3.92,-3.88,356.53000000000003,356.02,0.01,0.01,3
1679955867.58061409,193209183,-0.91,-0.04,-3.13,-3.6,356.39,356.1,0.01,0.01,3
1679955867.68060613,193309175,-1.17,-0.77,-2.62,-2.73,355.97,356.12,0.01,0.01,3
1679955867.78062010,193409189,-1.37,-1.45,-2.23,-1.8900000000000001,355.97,356.05,0.01,0.01,3
1679955867.88056707,193509136,-1.56,-1.82,-2.0100000000000002,-1.45,355.97,355.83,0.01,0.01,3
1679955867.98049021,193609059,-1.6500000000000001,-1.76,-1.82,-1.51,356.01,355.72,0.01,0.01,3
1679955868.08082223,193709391,-1.6,-1.81,-1.74,-1.8,356.06,355.61,0.01,0.01,3
1679955868.18052912,193809098,-1.45,-1.46,-1.62,-2.02,356.06,355.52,0.01,0.01,3
1679955868.28033614,193908905,-1.26,-1.35,-1.25,-1.6500000000000001,356.06,355.39,0.02,0.01,3
1679955868.38035917,194008928,-1.11,-0.65,-1.0,-0.59,356.06,355.35,0.02,0.01,3
1679955868.48039508,194108964,-0.98,-0.59,-0.62,0.24,356.06,355.32,0.01,0.01,3
1679955868.58046913,194209038,-0.87,-0.47000000000000003,-0.31,0.78,356.06,355.34000000000003,0.01,0.01,3
1679955868.68024015,194308809,-0.8200000000000001,-0.54,-0.16,1.1,356.06,355.45,0.01,0.01,3
1679955868.78032017,194408889,-0.79,-0.61,-0.08,1.05,356.06,355.6,0.01,0.01,3
1679955868.88026500,194508834,-0.77,-0.52,-0.04,0.8,356.06,355.83,0.01,0.01,3
1679955868.98022509,194608794,-0.76,-0.39,-0.02,0.51,356.06,355.99,0.01,0.02,3
1679955869.08072710,194709296,-0.76,0.01,-0.01,0.29,356.06,356.25,0.01,0.02,3
1679955869.18048716,194809056,-0.76,-0.03,0.0,0.19,356.06,356.47,0.01,0.02,3
1679955869.28049707,194909066,-0.6,0.26,0.0,0.3,356.06,356.65000000000003,0.01,0.02,3
1679955869.38054013,195009109,-0.3,0.0,0.0,0.39,356.06,356.78000000000003,0.01,0.02,3
1679955869.48056221,195109131,-0.15,-0.01,0.0,0.45,356.06,356.93,0.01,0.02,3
1679955869.58054805,195209117,-0.08,-0.16,0.0,0.34,356.06,357.0,0.01,0.02,3
1679955869.68053007,195309099,-0.04,0.27,0.0,0.28,356.06,357.12,0.02,0.02,3
1679955869.78049302,195409062,-0.02,0.15,0.0,0.26,356.06,357.14,0.02,0.02,3
1679955869.88073611,195509305,-0.01,-0.37,0.0,0.36,356.06,357.13,0.02,0.02,3
1679955869.98031521,195608884,0.0,-0.36,0.0,0.38,356.06,357.11,0.02,0.01,3
1679955870.08035421,195708923,0.0,-0.49,0.0,0.24,356.06,357.11,0.02,0.01,3
1679955870.18035102,195808920,0.0,-0.7000000000000001,0.0,-0.12,356.06,357.08,0.02,0.01,3
1679955870.28039002,195908959,0.0,-0.42,0.0,-0.5,356.06,357.08,0.02,0.01,3
1679955870.38042617,196008995,0.0,0.0,0.0,-0.51,356.06,357.03000000000003,0.02,0.02,3
1679955870.48027515,196108844,0.0,0.0,0.0,-0.43,356.11,356.95,0.02,0.02,3
1679955870.58071017,196209279,0.0,-0.1,0.0,-0.24,356.51,356.94,0.02,0.01,3
1679955870.68027401,196308843,0.0,-0.14,0.0,-0.05,356.73,356.98,0.02,0.01,3
1679955870.78056622,196409135,0.0,-0.37,0.0,0.05,356.85,357.07,0.02,0.01,3
1679955870.88053107,196509100,0.0,0.02,0.0,-0.02,356.90000000000003,357.19,0.02,0.01,3
1679955870.98059201,196609161,0.0,-0.01,0.0,-0.07,356.93,357.24,0.02,0.02,3
1679955871.08055520,196709124,0.0,-3.06,0.0,-0.11,356.93,357.46,0.02,0.02,3
1679955871.18068600,196809255,0.0,-12.200000000000001,0.0,0.1,356.93,357.51,0.02,0.03,3
1679955871.28061509,196909184,0.0,-23.59,0.0,0.23,356.93,357.72,0.04,0.06,3
1679955871.38059807,197009167,0.0,-30.43,0.0,0.58,356.95,357.59000000000003,0.04,0.08,3
1679955871.48084211,197109411,0.0,-26.68,0.0,0.32,356.96,357.84000000000003,0.06,0.07,3
1679955871.58062410,197209193,0.0,-16.13,0.0,-0.33,356.96,358.17,0.06,0.11,3
1679955871.68023205,197308801,0.0,-7.75,0.0,-1.28,356.96,358.45,0.09,0.14,3
1679955871.78035808,197408927,0.0,-1.27,0.0,-1.77,356.96,358.55,0.09,0.15,3
1679955871.88031816,197508887,0.0,2.59,0.0,-1.58,356.96,358.49,0.11,0.15,3
1679955871.98033905,197608908,0.0,3.9,0.0,-1.17,356.96,358.39,0.11,0.13,3
1679955872.08039808,197708967,0.0,3.63,0.0,-0.48,356.96,358.28000000000003,0.09,0.11,3
1679955872.18064404,197809213,0.0,3.41,0.0,-0.06,356.96,358.14,0.09,0.09,3
1679955872.28057909,197909148,0.0,3.0,0.0,0.1,356.96,357.93,0.09,0.08,3
1679955872.38057899,198009148,0.0,2.57,0.0,0.13,356.96,357.74,0.09,0.07,3
1679955872.48050904,198109078,0.0,2.93,0.0,0.12,356.96,357.63,0.08,0.06,3
1679955872.58052111,198209090,0.0,2.56,0.0,0.11,356.96,357.56,0.08,0.06,3
1679955872.68048501,198309054,0.0,2.58,0.0,0.42,356.96,357.45,0.07,0.06,3
1679955872.78051209,198409081,0.0,2.24,0.0,0.38,356.96,357.43,0.07,0.06,3
1679955872.88048720,198509056,0.0,2.24,0.0,0.33,356.96,357.45,0.07,0.06,3
1679955872.98053312,198609102,0.0,2.54,0.0,0.43,356.96,357.47,0.07,0.06,3
1679955873.08075404,198709323,0.0,2.23,0.0,0.4,356.96,357.47,0.07,0.05,3
1679955873.18025208,198808821,0.0,1.71,0.0,0.36,356.96,357.52,0.07,0.05,3
1679955873.28026319,198908832,0.0,1.47,0.0,0.35000000000000003,356.96,357.58,0.07,0.05,3
1679955873.38027406,199008843,0.0,1.3800000000000001,0.0,0.09,356.96,357.59000000000003,0.07,0.05,3
1679955873.48022699,199108796,0.0,1.24,0.0,-0.1,356.96,357.62,0.06,0.04,3
1679955873.58036900,199208938,0.0,1.95,0.0,-0.23,356.96,357.54,0.06,0.04,3
1679955873.68035722,199308926,0.0,8.61,0.0,-0.62,356.96,357.43,0.06,0.03,3
1679955873.78057909,199409148,0.0,20.01,0.0,-0.73,356.96,357.24,0.06,0.05,3
1679955873.88042116,199508990,0.0,28.59,0.0,-0.53,356.96,357.31,0.07,0.1,3
1679955873.98061514,199609184,0.0,26.09,0.0,0.02,356.96,357.57,0.07,0.13,3
1679955874.08060312,199709172,0.0,18.2,0.0,0.48,356.96,357.63,0.1,0.13,3
1679955874.18057799,199809147,0.0,9.63,0.0,0.79,356.96,357.77,0.1,0.16,3
1679955874.28049207,199909061,0.0,3.06,0.0,0.88,356.96,357.92,0.12,0.17,3
1679955874.38050914,200009078,0.0,-1.09,0.0,0.36,356.96,357.95,0.12,0.17,3
1679955874.48051715,200109086,0.0,-2.44,0.0,-0.26,356.96,357.90000000000003,0.13,0.17,3
1679955874.58060002,200209169,0.0,-2.15,0.0,-0.67,356.96,357.91,0.13,0.14,3
1679955874.68053913,200309108,0.0,-1.75,0.0,-0.62,356.96,357.78000000000003,0.11,0.12,3
1679955874.78044820,200409017,0.0,-1.44,0.0,-0.62,356.96,357.68,0.11,0.1,3
1679955874.88036108,200508930,0.0,-1.1,0.0,-0.64,356.96,357.63,0.1,0.08,3
1679955874.98035312,200608922,0.0,-1.19,0.0,-0.71,356.96,357.58,0.1,0.06,3
1679955875.08029819,200708867,0.0,-0.9500000000000001,0.0,-0.78,356.96,357.55,0.08,0.06,3
1679955875.18025112,200808820,0.0,-1.24,0.0,-0.85,356.96,357.55,0.08,0.05,3
1679955875.28051519,200909084,0.0,-1.76,0.0,-0.87,356.96,357.61,0.08,0.04,3
1679955875.38073111,201009300,0.0,-8.05,0.0,-0.79,356.96,357.74,0.08,0.03,3
1679955875.48049116,201109060,0.0,-19.23,0.0,-0.6900000000000001,356.96,357.75,0.06,0.05,3
1679955875.58053803,201209107,0.0,-30.09,0.0,-0.42,356.96,357.56,0.06,0.08,3
1679955875.68052721,201309096,0.0,-32.15,0.0,-0.48,356.96,357.42,0.1,0.09,3
1679955875.78058720,201409156,0.0,-23.61,0.0,-0.44,356.96,357.38,0.1,0.1,3
1679955875.88047004,201509039,0.0,-14.06,0.0,-0.58,356.96,357.44,0.12,0.13,3
1679955875.98053408,201609103,0.0,-6.29,0.0,-0.84,356.96,357.54,0.12,0.16,3
1679955876.08047819,201709047,0.0,-0.8300000000000001,0.0,-1.11,356.96,357.56,0.14,0.16,3
1679955876.18048120,201809050,0.0,2.34,0.0,-1.17,356.96,357.57,0.14,0.14,3
1679955876.28053617,201909105,0.0,3.23,0.0,-0.96,356.96,357.55,0.14,0.12,3
1679955876.38054204,202009111,0.0,3.12,0.0,-0.56,356.96,357.56,0.14,0.1,3
1679955876.48053122,202109100,0.0,2.9,-0.11,-0.29,356.96,357.55,0.11,0.1,3
1679955876.58060408,202209173,0.0,2.41,-0.06,-0.28,356.96,357.5,0.11,0.09,3
1679955876.68059707,202309166,0.0,2.05,-0.03,-0.39,356.96,357.46,0.1,0.09,3
1679955876.78060102,202409170,0.0,1.75,-0.01,-0.36,356.96,357.42,0.1,0.08,3
1679955876.88056922,202509138,0.0,1.54,0.0,-0.2,356.96,357.34000000000003,0.1,0.08,3
1679955876.98064804,202609217,0.0,1.1,0.0,-0.26,356.96,357.25,0.1,0.06,3
1679955877.08084321,202709412,0.0,0.89,0.0,-0.35000000000000003,357.09000000000003,357.15000000000003,0.08,0.06,3
1679955877.18062806,202809197,0.0,0.74,0.0,-0.39,357.17,357.1,0.08,0.06,3
1679955877.28034210,202908911,0.0,0.72,0.0,-0.27,357.21,357.04,0.07,0.06,3
1679955877.38036013,203008929,0.0,0.54,0.0,-0.33,357.22,357.02,0.07,0.05,3
1679955877.48048306,203109052,0.0,0.39,0.0,-0.27,357.23,357.02,0.06,0.05,3
1679955877.58049417,203209063,0.0,-1.1400000000000001,0.0,-0.21,357.24,357.12,0.06,0.04,3
1679955877.68023515,203308804,0.0,-8.28,-0.6,-0.17,357.24,357.24,0.05,0.05,3
1679955877.78060722,203409176,0.0,-14.64,-2.63,-0.77,357.23,357.17,0.05,0.09,3
1679955877.88048410,203509053,0.0,-11.11,-2.2,-3.16,357.23,357.67,0.07,0.1,3
1679955877.98023415,203608803,0.0,-3.4,-1.12,-4.33,357.24,357.89,0.07,0.09,3
1679955878.08031917,203708888,0.0,1.8,-0.5700000000000001,-2.5300000000000002,357.24,357.94,0.1,0.1,3
1679955878.18033814,203808907,0.0,3.3200000000000003,-0.33,-0.96,357.24,358.06,0.1,0.1,3
1679955878.28036213,203908931,0.0,3.25,-1.27,-0.62,357.23,358.15000000000003,0.11,0.08,3
1679955878.38040304,204008972,0.0,2.84,-3.27,-1.75,357.23,358.1,0.11,0.08,3
1679955878.48040915,204108978,0.0,2.1,-6.0200000000000005,-4.63,357.23,358.01,0.1,0.07,3
1679955878.58035302,204208922,0.0,1.84,-7.21,-8.18,357.23,357.93,0.1,0.08,3
1679955878.68056512,204309134,0.0,1.83,-7.3500000000000005,-9.98,357.23,357.88,0.08,0.09,3
1679955878.78062415,204409193,0.0,1.53,-7.58,-9.34,357.33,357.89,0.08,0.08,3
1679955878.88022614,204508795,0.0,1.3800000000000001,-8.16,-8.72,357.59000000000003,357.92,0.07,0.06,3
1679955878.98047900,204609048,0.0,1.3900000000000001,-8.790000000000001,-8.96,357.64,357.94,0.07,0.05,3
1679955879.08048916,204709058,0.11,1.09,-9.72,-9.82,357.64,357.96,0.07,0.04,3
1679955879.18050003,204809069,0.72,0.9400000000000001,-10.99,-10.83,357.64,357.94,0.07,0.05,3
1679955879.28053117,204909100,1.1300000000000001,1.25,-11.73,-12.08,357.64,357.83,0.07,0.04,3
1679955879.38077402,205009343,1.43,1.93,-11.73,-12.77,357.64,357.71,0.07,0.03,3
1679955879.48058510,205109154,1.82,2.2,-11.13,-12.14,357.64,357.59000000000003,0.07,0.03,3
1679955879.58074617,205209315,2.37,2.5,-10.52,-10.89,357.64,357.54,0.07,0.03,3
1679955879.68049812,205309067,3.08,3.1,-10.43,-9.82,357.64,357.44,0.08,0.02,3
1679955879.78054810,205409117,3.72,3.56,-10.28,-9.41,357.64,357.37,0.08,0.02,3
1679955879.88050604,205509075,4.17,4.59,-10.13,-9.1,357.64,357.36,0.08,0.02,3
1679955879.98051810,205609087,4.4,4.84,-10.03,-8.96,357.64,357.34000000000003,0.08,0.02,3
1679955880.08051920,205709088,4.5,4.95,-10.0,-8.76,357.64,357.28000000000003,0.08,0.02,3
1679955880.18058300,205809152,4.5,4.39,-10.05,-8.86,357.64,357.18,0.08,0.02,3
1679955880.28059316,205909162,4.37,4.36,-10.03,-8.92,357.64,357.06,0.08,0.02,3
1679955880.38078117,206009350,3.98,4.11,-10.15,-9.03,357.64,356.96,0.08,0.02,3
1679955880.48058915,206109158,3.75,3.37,-10.17,-9.31,357.64,356.85,0.07,0.02,3
1679955880.58063316,206209202,3.5,2.93,-10.040000000000001,-9.3,357.64,356.74,0.07,0.02,3
1679955880.68020821,206308777,3.2,2.73,-9.73,-9.120000000000001,357.64,356.65000000000003,0.07,0.02,3
1679955880.78033614,206408905,2.7600000000000002,2.59,-8.8,-8.540000000000001,357.64,356.55,0.07,0.02,3
1679955880.88031912,206508888,2.14,2.13,-8.05,-7.37,357.64,356.47,0.07,0.02,3
1679955880.98034215,206608911,1.85,1.68,-7.61,-6.12,357.64,356.43,0.07,0.03,3
1679955881.08038116,206708950,2.29,0.93,-7.4,-5.6000000000000005,357.64,356.37,0.06,0.03,3
1679955881.18057418,206809143,3.15,1.36,-7.5200000000000005,-5.7700000000000005,357.64,356.3,0.06,0.03,3
1679955881.28024316,206908812,3.45,2.61,-7.53,-6.28,357.64,356.2,0.05,0.04,3
1679955881.38017106,207008740,3.64,4.0,-7.47,-6.41,357.64,356.12,0.05,0.05,3
1679955881.48026204,207108831,3.63,4.23,-7.3,-6.5,357.64,356.1,0.05,0.05,3
1679955881.58032823,207208897,3.46,3.79,-7.19,-6.4,357.64,356.11,0.05,0.05,3
1679955881.68036008,207308929,3.0700000000000003,3.41,-6.97,-6.51,357.64,356.14,0.05,0.04,3
1679955881.78038001,207408949,2.4,3.13,-6.61,-6.59,357.64,356.22,0.05,0.04,3
1679955881.88033414,207508903,1.48,2.17,-6.3100000000000005,-6.2700000000000005,357.64,356.31,0.04,0.04,3
1679955881.98039412,207608963,0.96,0.45,-6.22,-6.0600000000000005,357.64,356.39,0.04,0.04,3
1679955882.08060217,207709171,0.64,-0.28,-6.1000000000000005,-5.98,357.64,356.51,0.04,0.03,3
1679955882.18024015,207808809,0.34,-0.48,-5.7700000000000005,-5.9,357.64,356.61,0.04,0.03,3
1679955882.28050900,207909078,0.17,-0.56,-5.34,-5.58,357.64,356.69,0.03,0.03,3
1679955882.38045120,208009020,0.08,-0.48,-5.29,-5.11,357.64,356.79,0.03,0.03,3
1679955882.48046708,208109036,0.04,-0.61,-5.3100000000000005,-4.87,357.68,356.81,0.03,0.03,3
1679955882.58052206,208209091,0.02,-0.89,-5.24,-5.01,358.01,356.89,0.03,0.03,3
1679955882.68048310,208309052,0.01,-0.56,-5.17,-4.97,358.88,357.03000000000003,0.02,0.03,3
1679955882.78051615,208409085,0.0,-0.38,-5.15,-4.95,359.74,357.34000000000003,0.02,0.02,3
1679955882.88052106,208509090,0.0,-0.17,-5.0200000000000005,-5.11,0.56,357.73,0.02,0.03,3
1679955882.98073411,208609303,0.0,-0.02,-4.93,-5.0200000000000005,1.31,358.29,0.02,0.04,3
1679955883.08055019,208709119,0.0,0.4,-4.82,-4.7700000000000005,1.47,358.84000000000003,0.02,0.03,3
1679955883.18056107,208809130,0.0,0.02,-4.7,-4.74,1.47,359.40000000000003,0.02,0.04,3
1679955883.28061700,208909186,0.0,-0.05,-4.64,-4.61,1.47,359.90000000000003,0.02,0.03,3
1679955883.38051105,209009080,0.0,0.1,-4.5,-4.54,1.47,0.32,0.02,0.02,3
1679955883.48052216,209109091,0.0,0.23,-4.34,-4.49,1.48,0.74,0.03,0.02,3
1679955883.58039021,209208959,0.0,0.24,-4.28,-4.33,1.6300000000000001,1.1400000000000001,0.03,0.02,3
1679955883.68034315,209308912,0.0,0.48,-4.22,-4.29,1.7,1.52,0.03,0.03,3
1679955883.78049111,209409060,0.0,0.36,-3.98,-4.0200000000000005,1.7,1.79,0.03,0.03,3
1679955883.88033509,209508904,0.0,0.37,-3.84,-3.52,1.7,2.04,0.03,0.03,3
1679955883.98023701,209608806,0.0,0.23,-3.81,-3.0,1.7,2.19,0.03,0.02,3
1679955884.08055902,209709128,0.0,-0.03,-3.88,-2.97,1.7,2.27,0.02,0.02,3
1679955884.18049121,209809060,0.0,-0.2,-3.9,-3.17,1.7,2.36,0.02,0.02,3
1679955884.28021002,209908779,0.0,-0.38,-3.7600000000000002,-3.54,1.7,2.36,0.02,0.02,3
1679955884.38030720,210008876,0.0,-0.42,-3.91,-3.65,1.7,2.36,0.02,0.02,3
1679955884.48032212,210108891,0.0,-0.22,-4.1,-3.72,1.7,2.2800000000000002,0.02,0.02,3
1679955884.58039403,210208963,0.0,-0.07,-4.16,-4.0200000000000005,1.7,2.22,0.02,0.01,3
1679955884.68041015,210308979,0.0,-0.07,-4.19,-4.08,1.7,2.13,0.03,0.02,3
1679955884.78039908,210408968,0.0,-0.05,-4.17,-4.21,1.7,1.99,0.03,0.02,3
1679955884.88024211,210508811,0.0,-0.25,-4.24,-4.2,1.7,1.87,0.02,0.02,3
1679955884.98087311,210609442,0.0,-0.15,-4.3100000000000005,-4.32,1.7,1.71,0.02,0.02,3
1679955885.08050108,210709070,0.0,-0.29,-4.23,-4.32,1.7,1.6,0.02,0.02,3
1679955885.18046904,210809038,0.0,-0.51,-4.18,-4.28,1.7,1.45,0.02,0.02,3
1679955885.28048801,210909057,0.0,-0.65,-4.12,-4.17,1.7,1.31,0.02,0.02,3
1679955885.38047910,211009048,0.0,-0.35000000000000003,-4.1,-4.03,1.7,1.16,0.02,0.01,3
1679955885.48050809,211109077,0.0,-0.05,-4.34,-3.97,1.7,1.11,0.02,0.02,3
1679955885.58059001,211209159,0.0,-0.27,-4.55,-4.2700000000000005,1.7,1.1300000000000001,0.02,0.02,3
1679955885.68056321,211309132,-0.08,-0.1,-4.6000000000000005,-4.57,1.7,1.11,0.02,0.02,3
1679955885.78058004,211409149,-1.01,-0.24,-4.47,-4.78,1.7,1.1500000000000001,0.02,0.02,3
1679955885.88083601,211509405,-2.12,-1.18,-4.38,-4.5600000000000005,1.7,1.1500000000000001,0.01,0.02,3
1679955885.98080301,211609372,-2.64,-2.74,-4.19,-4.38,1.7,1.22,0.01,0.02,3
1679955886.08052421,211709093,-2.91,-3.7800000000000002,-3.95,-4.14,1.7,1.27,0.01,0.02,3
1679955886.18052721,211809096,-3.02,-3.86,-3.81,-3.84,1.92,1.32,0.01,0.02,3
1679955886.28051519,211909084,-2.42,-3.7600000000000002,-3.85,-3.66,2.7600000000000002,1.49,0.01,0.03,3
1679955886.38053918,212009108,-2.05,-2.59,-3.75,-3.6,3.43,1.77,0.01,0.03,3
1679955886.48056722,212109136,-1.93,-1.86,-3.71,-3.73,3.48,2.18,0.01,0.03,3
1679955886.58066010,212209229,-1.85,-0.98,-3.69,-3.72,3.48,2.59,0.01,0.02,3
1679955886.68057513,212309144,-1.87,-1.1500000000000001,-3.67,-3.5700000000000003,3.48,2.94,0.02,0.02,3
1679955886.78086305,212409432,-2.36,-1.18,-3.39,-3.16,3.48,3.15,0.02,0.02,3
1679955886.88048601,212509055,-3.5500000000000003,-2.11,-2.8000000000000003,-2.64,3.48,3.36,0.02,0.02,3
1679955886.98023605,212608805,-4.15,-3.45,-2.52,-2.16,3.48,3.5700000000000003,0.02,0.02,3
1679955887.08031607,212708885,-3.72,-4.58,-2.34,-2.0100000000000002,3.48,3.77,0.02,0.01,3
1679955887.18031812,212808887,-2.99,-4.75,-2.35,-2.06,3.48,3.8200000000000003,0.02,0.01,3
1679955887.28034902,212908918,-2.61,-3.46,-2.59,-2.02,3.48,3.84,0.02,0.01,3
1679955887.38038921,213008958,-2.47,-2.74,-3.0300000000000002,-2.36,3.48,3.88,0.02,0.02,3
1679955887.48061299,213109182,-2.45,-2.08,-3.2600000000000002,-3.31,3.48,3.91,0.03,0.02,3
1679955887.58060908,213209178,-2.41,-1.77,-3.27,-3.97,3.48,3.98,0.03,0.02,3
1679955887.68057799,213309147,-2.15,-1.45,-3.2,-4.1,3.48,3.93,0.02,0.02,3
1679955887.78062820,213409197,-1.5,-1.58,-2.9,-3.87,3.48,3.92,0.02,0.02,3
1679955887.88022423,213508793,-0.79,-1.0,-2.58,-3.04,3.48,3.85,0.02,0.02,3
1679955887.98038602,213608955,-0.4,-0.08,-2.2,-2.27,3.48,3.87,0.02,0.02,3
1679955888.08033514,213708904,-0.2,0.21,-1.61,-1.56,3.48,3.86,0.02,0.02,3
1679955888.18033004,213808899,-0.1,0.2,-0.93,-1.02,3.48,3.93,0.02,0.02,3
1679955888.28037810,213908947,-0.05,0.15,-0.47000000000000003,-0.16,3.48,3.89,0.02,0.02,3
1679955888.38059020,214009159,-0.02,0.02,-0.24,0.42,3.48,3.89,0.02,0.01,3
1679955888.48023605,214108805,-0.01,-0.35000000000000003,-0.12,0.48,3.48,3.91,0.02,0.03,3
1679955888.58057213,214209141,0.0,-0.04,-0.06,0.27,3.48,3.89,0.02,0.03,3
1679955888.68046904,214309038,0.0,0.55,-0.03,0.0,3.56,3.9,0.02,0.03,3
1679955888.78053021,214409099,0.0,0.3,-0.01,-0.19,3.73,3.9,0.02,0.02,3
1679955888.88048220,214509051,0.0,0.01,0.0,-0.12,3.81,3.93,0.02,0.03,3
1679955888.98060703,214609176,0.0,-0.05,0.0,0.23,3.86,3.92,0.02,0.02,3
1679955889.08048916,214709058,0.0,0.13,0.0,0.52,3.88,3.97,0.02,0.03,3
1679955889.18054509,214809114,0.0,-0.19,0.0,0.63,3.89,3.99,0.02,0.02,3
1679955889.28074002,214909309,0.0,-3.5300000000000002,0.0,0.6900000000000001,3.89,4.21,0.02,0.02,3
1679955889.38025904,215008828,0.0,-12.81,0.0,0.8200000000000001,3.89,4.3500000000000005,0.02,0.05,3
1679955889.48058510,215109154,0.0,-23.39,0.0,0.9500000000000001,3.89,4.54,0.04,0.08,3
1679955889.58066010,215209229,0.0,-30.17,0.0,1.0,3.9,4.59,0.04,0.11,3
1679955889.68051505,215309084,0.0,-26.080000000000002,0.0,0.9500000000000001,3.9,4.61,0.07,0.1,3
1679955889.78063917,215409208,0.0,-16.21,0.0,0.39,3.9,4.8,0.07,0.13,3
1679955889.88051510,215509084,0.0,-7.3100000000000005,0.0,-0.6900000000000001,3.9,4.93,0.1,0.16,3
1679955889.98055816,215609127,0.0,-0.42,0.0,-1.17,3.9,4.9,0.1,0.17,3
1679955890.08066511,215709234,0.0,3.1,0.0,-1.4000000000000001,3.9,4.8100000000000005,0.11,0.16,3
1679955890.18077803,215809347,0.0,4.3100000000000005,0.0,-0.96,3.9,4.7700000000000005,0.11,0.14,3
1679955890.28025603,215908825,0.0,3.87,0.0,-0.26,3.9,4.7,0.1,0.12,3
1679955890.38025808,216008827,0.0,2.82,0.0,0.3,3.9,4.63,0.1,0.1,3
1679955890.48025322,216108822,0.0,1.99,0.0,0.52,3.9,4.62,0.09,0.1,3
1679955890.58031011,216208879,0.0,1.9000000000000001,0.0,0.39,3.9,4.57,0.09,0.09,3
1679955890.68030906,216308878,0.0,1.6500000000000001,0.0,0.0,3.9,4.51,0.08,0.09,3
1679955890.78037214,216408941,0.0,2.14,0.0,-0.25,3.9,4.46,0.08,0.08,3
1679955890.88034511,216508914,0.0,2.5300000000000002,0.0,-0.38,3.9,4.41,0.07,0.07,3
1679955890.98042202,216608991,0.0,2.62,0.0,-0.47000000000000003,3.9,4.4,0.07,0.06,3
1679955891.08061123,216709180,0.0,2.3000000000000003,0.0,-0.51,3.9,4.3100000000000005,0.07,0.05,3
1679955891.18025422,216808823,0.0,2.22,0.0,-0.45,3.9,4.29,0.07,0.05,3
1679955891.28016901,216908738,0.0,2.41,0.0,-0.41000000000000003,3.9,4.2,0.06,0.05,3
1679955891.38025117,217008820,0.0,2.16,0.0,-0.35000000000000003,3.9,4.11,0.06,0.06,3
1679955891.48051715,217109086,0.0,2.38,0.0,-0.3,3.9,4.07,0.06,0.06,3
1679955891.58066320,217209232,0.0,2.09,0.0,-0.33,3.9,4.01,0.06,0.05,3
1679955891.68048120,217309050,0.0,1.8900000000000001,0.0,-0.45,3.9,3.94,0.05,0.06,3
1679955891.78054214,217409111,0.0,1.79,0.0,-0.36,3.9,3.9,0.05,0.05,3
1679955891.88054705,217509116,0.0,2.18,0.0,-0.29,3.9,3.75,0.05,0.06,3
1679955891.98057914,217609148,0.0,7.87,0.0,-0.31,3.9,3.66,0.05,0.05,3
1679955892.08049202,217709061,0.0,18.36,0.0,-0.29,3.9,3.59,0.05,0.07,3
1679955892.18055105,217809120,0.0,29.060000000000002,0.0,-0.19,3.9,3.64,0.05,0.1,3
1679955892.28046513,217909034,0.0,32.5,0.0,-0.13,3.9,3.94,0.08,0.15,3
1679955892.38049006,218009059,0.0,25.45,0.0,0.16,3.9,4.33,0.08,0.13,3
1679955892.48053217,218109101,0.0,15.47,0.0,0.32,3.9,4.6000000000000005,0.11,0.16,3
1679955892.58060503,218209174,0.0,7.3500000000000005,0.0,0.25,3.9,4.73,0.11,0.18,3
1679955892.68055511,218309124,0.0,1.22,0.0,-0.08,3.9,4.83,0.13,0.19,3
1679955892.78061700,218409186,0.0,-2.31,0.0,-0.42,3.9,4.96,0.13,0.19,3
1679955892.88059902,218509168,0.0,-3.17,0.0,-0.46,3.9,5.12,0.14,0.17,3
1679955892.98060513,218609174,0.0,-2.52,0.0,-0.37,3.9,5.26,0.14,0.14,3
1679955893.08058810,218709157,0.0,-1.79,0.0,-0.17,3.9,5.34,0.11,0.11,3
1679955893.18061900,218809188,0.0,-0.97,0.0,-0.17,3.9,5.36,0.11,0.09,3
1679955893.28083301,218909402,0.0,4.43,0.0,-0.21,3.9,5.3100000000000005,0.1,0.08,3
1679955893.38033009,219008899,0.0,13.99,0.0,-0.29,3.9,5.26,0.1,0.08,3
1679955893.48034620,219108915,0.0,24.25,0.0,-0.21,3.9,5.23,0.1,0.1,3
1679955893.58042407,219208993,0.0,28.1,0.0,-0.43,3.9,5.34,0.1,0.11,3
1679955893.68058920,219309158,0.0,20.25,0.0,-0.35000000000000003,3.9,5.38,0.1,0.11,3
1679955893.78064799,219409217,0.0,10.14,0.0,-0.41000000000000003,3.9,5.3100000000000005,0.1,0.15,3
1679955893.88025308,219508822,0.0,2.45,0.0,-1.0,3.9,5.25,0.12,0.17,3
1679955893.98033309,219608902,0.0,-2.62,0.0,-1.47,3.9,5.28,0.12,0.17,3
1679955894.08025408,219708823,0.0,-4.8,0.0,-1.7,3.9,5.2700000000000005,0.12,0.17,3
1679955894.18022799,219808797,0.0,-5.16,0.0,-1.49,3.9,5.19,0.12,0.15,3
1679955894.28036213,219908931,0.0,-4.46,0.0,-0.9500000000000001,3.9,5.08,0.12,0.12,3
1679955894.38033319,220008902,0.0,-4.15,0.0,-0.37,3.9,4.92,0.12,0.1,3
1679955894.48052716,220109096,0.0,-3.58,0.0,-0.16,3.9,4.79,0.11,0.08,3
1679955894.58044600,220209015,0.0,-3.1,0.0,0.02,3.9,4.57,0.11,0.06,3
1679955894.68054104,220309110,0.0,-2.59,0.0,0.07,3.9,4.45,0.11,0.05,3
1679955894.78058505,220409154,0.0,-2.15,0.0,0.21,3.9,4.34,0.11,0.05,3
1679955894.88051105,220509080,0.0,-2.11,0.0,0.21,3.9,4.22,0.1,0.04,3
1679955894.98047113,220609040,0.0,-1.97,0.0,0.14,3.9,4.07,0.1,0.04,3
1679955895.08048511,220709054,0.0,-1.87,0.0,0.25,3.9,3.93,0.09,0.04,3
1679955895.18049002,220809059,0.0,-2.06,0.0,0.34,3.9,3.79,0.09,0.04,3
1679955895.28048301,220909052,0.0,-2.08,0.0,0.42,3.9,3.67,0.08,0.03,3
1679955895.38050508,221009074,0.0,-5.57,0.0,0.43,3.9,3.71,0.08,0.03,3
1679955895.48054409,221109113,0.0,-15.13,0.0,0.5700000000000001,3.9,3.64,0.07,0.06,3
1679955895.58079219,221209361,0.0,-25.87,0.0,0.71,3.9,3.52,0.07,0.09,3
1679955895.68057919,221309148,0.0,-33.06,0.0,0.55,3.9,3.2800000000000002,0.1,0.11,3
1679955895.78060317,221409172,0.0,-28.72,0.0,0.46,3.9,3.11,0.1,0.1,3
1679955895.88047814,221509047,0.0,-18.93,0.0,-0.01,3.9,3.12,0.11,0.13,3
1679955895.98052120,221609090,0.0,-10.19,0.0,-0.35000000000000003,3.9,3.06,0.11,0.18,3
1679955896.08052611,221709095,0.0,-3.72,0.0,-0.5700000000000001,3.9,3.0100000000000002,0.15,0.18,3
1679955896.18033218,221808901,0.0,0.53,0.0,-0.66,3.9,2.99,0.15,0.16,3
1679955896.28035212,221908921,0.0,1.95,0.0,-0.75,3.9,3.0300000000000002,0.15,0.14,3
1679955896.38047004,222009039,0.0,2.34,0.0,-0.78,3.9,3.11,0.15,0.12,3
1679955896.48041010,222108979,0.0,2.04,0.0,-0.75,3.9,3.17,0.13,0.11,3
1679955896.58025908,222208828,0.0,1.94,0.0,-0.64,3.9,3.25,0.13,0.11,3
1679955896.68058014,222309149,0.0,1.71,0.0,-0.4,3.9,3.33,0.11,0.1,3
1679955896.78064418,222409213,0.0,1.58,0.0,-0.24,3.9,3.42,0.11,0.1,3
1679955896.88022113,222508790,0.0,1.57,0.0,-0.17,3.9,3.45,0.1,0.09,3
1679955896.98033500,222608904,0.0,6.37,0.0,-0.3,3.9,3.47,0.1,0.08,3
1679955897.08035016,222708919,0.0,15.63,0.0,-0.42,3.9,3.5,0.08,0.08,3
1679955897.18035603,222808925,0.0,25.79,0.0,-0.34,3.9,3.63,0.08,0.1,3
1679955897.28038907,222908958,0.0,30.740000000000002,0.0,-0.46,3.9,3.93,0.1,0.12,3
1679955897.38040304,223008972,0.0,24.48,0.0,-0.24,3.9,4.2,0.1,0.11,3
1679955897.48025918,223108828,0.0,15.48,0.0,0.0,3.9,4.43,0.12,0.15,3
1679955897.58036017,223208929,0.0,8.07,0.0,0.06,3.9,4.53,0.12,0.18,3
1679955897.68027115,223308840,0.0,2.71,0.0,-0.08,3.9,4.53,0.15,0.18,3
1679955897.78054810,223409117,0.0,-0.73,0.0,-0.35000000000000003,3.9,4.5200000000000005,0.15,0.17,3
1679955897.88031602,223508885,0.0,-2.16,0.0,-0.74,3.9,4.49,0.14,0.16,3
1679955897.98049521,223609064,0.0,-2.13,0.0,-0.8200000000000001,3.9,4.44,0.14,0.13,3
1679955898.08049107,223709060,0.0,-2.04,0.0,-0.73,3.9,4.32,0.12,0.11,3
1679955898.18054914,223809118,0.0,-1.6600000000000001,0.0,-0.51,3.9,4.22,0.12,0.09,3
1679955898.28056812,223909137,0.0,-2.3000000000000003,0.0,-0.23,3.9,4.2,0.11,0.07,3
1679955898.38054919,224009118,0.0,-8.76,0.0,-0.06,3.9,4.15,0.11,0.07,3
1679955898.48085904,224109428,0.0,-17.900000000000002,0.0,0.11,3.9,3.97,0.09,0.09,3
1679955898.58064103,224209210,0.0,-26.78,0.0,0.17,3.9,3.79,0.09,0.12,3
1679955898.68052220,224309091,0.0,-29.88,0.0,0.06,3.9,3.48,0.11,0.12,3
1679955898.78066611,224409235,0.0,-22.64,0.0,0.02,3.9,3.25,0.11,0.1,3
1679955898.88051915,224509088,0.0,-13.33,0.0,-0.03,3.9,3.17,0.13,0.13,3
1679955898.98055506,224609124,0.0,-5.93,0.0,-0.12,3.9,3.04,0.13,0.16,3
1679955899.08058405,224709153,0.0,-1.02,0.0,-0.25,3.9,3.0100000000000002,0.16,0.17,3
1679955899.18078518,224809354,0.0,1.46,0.0,-0.41000000000000003,3.9,3.02,0.16,0.15,3
1679955899.28025413,224908823,0.0,2.02,0.0,-0.58,3.9,3.06,0.15,0.12,3
1679955899.38031316,225008882,0.0,2.1,0.0,-0.65,3.9,3.12,0.15,0.11,3
1679955899.48025012,225108819,0.0,1.77,0.0,-0.61,3.9,3.2,0.12,0.1,3
1679955899.58032608,225208895,0.0,1.32,0.0,-0.55,3.9,3.31,0.12,0.09,3
1679955899.68031716,225308886,0.0,1.17,0.0,-0.5,3.9,3.41,0.11,0.09,3
1679955899.78039217,225408961,0.0,0.86,0.0,-0.44,3.9,3.59,0.11,0.09,3
1679955899.88037419,225508943,0.0,-3.7600000000000002,0.0,-0.47000000000000003,3.9,3.86,0.09,0.08,3
1679955899.98045301,225609022,0.0,-12.19,0.0,-0.13,3.9,3.87,0.09,0.1,3
1679955900.08060908,225709178,0.0,-20.88,0.0,-0.1,3.9,4.0200000000000005,0.08,0.13,3
1679955900.18024921,225808818,0.0,-26.67,0.0,-0.29,3.9,4.05,0.08,0.14,3
1679955900.28018904,225908758,0.0,-21.75,0.0,-0.46,3.9,4.12,0.09,0.12,3
1679955900.38025403,226008823,0.0,-11.77,0.0,-0.41000000000000003,3.9,4.16,0.09,0.14,3
1679955900.48022413,226108793,0.0,-3.7800000000000002,0.0,-0.49,3.9,4.18,0.12,0.17,3
1679955900.58045912,226209028,0.0,1.12,0.0,-0.58,3.9,4.19,0.12,0.17,3
1679955900.68032813,226308897,0.0,3.7,0.0,-0.71,3.9,4.2,0.12,0.15,3
1679955900.78043413,226409003,0.0,4.4,0.0,-0.72,3.9,4.19,0.12,0.12,3
1679955900.88038421,226508953,0.0,4.21,-0.68,-0.64,3.9,4.21,0.12,0.11,3
1679955900.98059511,226609164,0.0,3.79,-1.44,-0.9400000000000001,3.9,4.16,0.12,0.1,3
1679955901.08058405,226709153,0.0,3.0500000000000003,-2.31,-1.92,3.9,4.09,0.12,0.1,3
1679955901.18053317,226809102,0.0,2.64,-2.9,-2.85,3.9,4.0200000000000005,0.12,0.1,3
1679955901.28045917,226909028,0.0,2.35,-3.41,-3.43,3.9,3.98,0.1,0.1,3
1679955901.38048100,227009050,0.0,1.99,-3.5100000000000002,-3.71,3.9,3.87,0.1,0.09,3
