timestamp,TimeUS,I,Status,GMS,GWk,NSats,HDop,Lat,Lng,Alt,Spd,GCrs,VZ,Yaw,U
1679955829.20000005,154828569,0,3,167047200,2255,15,0.74,42.6881682,-84.49157459999999,276.61,0.006082762498408556,189.4623260498047,-0.06700000166893005,0.0,1
1679955829.40006208,155028631,0,3,167047400,2255,15,0.74,42.6881681,-84.4915747,276.6,0.015620499849319458,219.8055877685547,0.06000000238418579,0.0,1
1679955829.60016012,155228729,0,3,167047600,2255,15,0.74,42.6881681,-84.4915748,276.59000000000003,0.02284732088446617,203.1986083984375,-0.013000000268220901,0.0,1
1679955829.79989910,155428468,0,3,167047800,2255,15,0.74,42.6881681,-84.4915748,276.57,0.009219544939696789,12.528807640075684,0.05100000277161598,0.0,1
1679955829.99997020,155628539,0,3,167048000,2255,15,0.74,42.6881681,-84.49157489999999,276.56,0.018027756363153458,3.1798300743103027,0.07900000363588333,0.0,1
1679955830.20031118,155828880,0,3,167048200,2255,15,0.74,42.688168,-84.49157489999999,276.53000000000003,0.011704700998961926,199.9831085205078,-0.029000001028180122,0.0,1
1679955830.40011811,156028687,0,3,167048400,2255,15,0.74,42.688168,-84.491575,276.52,0.011661904864013195,329.0362548828125,-0.003000000026077032,0.0,1
1679955830.60003114,156228600,0,3,167048600,2255,15,0.74,42.688168,-84.49157509999999,276.49,0.007280109915882349,74.05460357666016,-0.13700000941753387,0.0,1
1679955830.80016923,156428738,0,3,167048800,2255,15,0.74,42.688168,-84.4915752,276.48,0.011313709430396557,45.0,-0.006000000052154064,0.0,1
1679955831.00000310,156628572,0,3,167049000,2255,15,0.74,42.688167899999996,-84.4915752,276.47,0.011704700998961926,109.98310089111328,-0.027000000700354576,0.0,1
1679955831.20023513,156828804,0,3,167049200,2255,15,0.74,42.688167899999996,-84.4915752,276.47,0.025079874321818352,203.49856567382812,0.04400000348687172,0.0,1
1679955831.40054107,157029110,0,3,167049400,2255,15,0.74,42.688167899999996,-84.4915753,276.44,0.005000000353902578,270.0,-0.014000000432133675,0.0,1
1679955831.59991908,157228488,0,3,167049600,2255,15,0.74,42.688167799999995,-84.4915754,276.43,0.0022360680159181356,153.43495178222656,0.06700000166893005,0.0,1
1679955831.79998112,157428550,0,3,167049800,2255,15,0.74,42.688167799999995,-84.4915754,276.42,0.016278821974992752,227.48956298828125,0.12400000542402267,0.0,1
1679955832.00004005,157628609,0,3,167050000,2255,15,0.74,42.688167799999995,-84.4915755,276.39,0.012806249782443047,218.65982055664062,0.021000001579523087,0.0,1
1679955832.20035505,157828924,0,3,167050200,2255,15,0.74,42.6881677,-84.49157559999999,276.38,0.021260293200612068,318.8140869140625,0.05000000074505806,0.0,1
1679955832.40036702,158028936,0,3,167050400,2255,15,0.74,42.6881677,-84.49157559999999,276.37,0.009000000543892384,90.0,0.052000001072883606,0.0,1
1679955832.60025501,158228824,0,3,167050600,2255,15,0.74,42.6881677,-84.49157559999999,276.35,0.014142136089503765,188.13011169433594,0.03100000135600567,0.0,1
1679955832.80051422,158429083,0,3,167050800,2255,15,0.74,42.6881676,-84.4915757,276.33,0.02801785245537758,214.8245086669922,0.024000000208616257,0.0,1
1679955833.00006104,158628630,0,3,167051000,2255,15,0.74,42.6881676,-84.4915757,276.33,0.007280109915882349,105.94538879394531,0.04400000348687172,0.0,1
1679955833.20016503,158828734,0,3,167051200,2255,15,0.74,42.6881676,-84.49157579999999,276.3,0.013416407629847527,116.5650405883789,-0.023000001907348633,0.0,1
1679955833.40026021,159028829,0,3,167051400,2255,15,0.74,42.6881676,-84.49157579999999,276.29,0.022090723738074303,5.194427967071533,0.01600000075995922,0.0,1
1679955833.59998822,159228557,0,3,167051600,2255,15,0.74,42.6881676,-84.4915759,276.28000000000003,0.0036055513191968203,236.3099365234375,0.026000000536441803,0.0,1
1679955833.80004406,159428613,0,3,167051800,2255,15,0.74,42.6881675,-84.4915759,276.26,0.017117243260145187,173.2901611328125,-0.023000001907348633,0.0,1
1679955834.02010202,159648671,0,3,167052000,2255,15,0.74,42.6881674,-84.4915759,276.28000000000003,0.12666885554790497,174.10935974121094,-0.28200000524520874,0.0,1
1679955834.20006704,159828636,0,3,167052200,2255,15,0.74,42.688167199999995,-84.491576,276.33,0.03244996443390846,146.30992126464844,-0.5990000367164612,0.0,1
1679955834.39996409,160028533,0,3,167052400,2255,15,0.74,42.6881671,-84.4915759,276.44,0.07427651435136795,136.63658142089844,-0.5060000419616699,0.0,1
1679955834.60001612,160228585,0,3,167052600,2255,15,0.74,42.688167,-84.491576,276.51,0.10218121111392975,200.03102111816406,-0.3050000071525574,0.0,1
1679955834.80005908,160428628,0,3,167052800,2255,15,0.74,42.6881669,-84.491576,276.57,0.019416488707065582,78.11133575439453,-0.33400002121925354,0.0,1
1679955835.02053022,160649099,0,3,167053000,2255,15,0.74,42.6881669,-84.491576,276.62,0.05894065275788307,75.25643157958984,-0.3630000054836273,0.0,1
1679955835.20020318,160828772,0,3,167053200,2255,15,0.74,42.6881668,-84.491576,276.68,0.061983872205019,190.22216796875,-0.4280000329017639,0.0,1
1679955835.40016818,161028737,0,3,167053400,2255,15,0.74,42.6881667,-84.4915761,276.77,0.10401923209428787,181.10171508789062,-0.44600000977516174,0.0,1
1679955835.60050607,161229075,0,3,167053600,2255,15,0.74,42.6881667,-84.4915761,276.86,0.1333754062652588,4.299862861633301,-0.4620000123977661,0.0,1
1679955835.80013609,161428705,0,3,167053800,2255,15,0.74,42.6881667,-84.4915762,276.95,0.10186265408992767,223.4088592529297,-0.6570000052452087,0.0,1
1679955836.00007415,161628643,0,3,167054000,2255,15,0.75,42.6881668,-84.4915764,277.07,0.18512970209121704,351.3009033203125,-0.6300000548362732,0.0,1
1679955836.20031714,161828886,0,3,167054200,2255,15,0.75,42.6881671,-84.4915765,277.21,0.17418381571769714,357.3675537109375,-0.6880000233650208,0.0,1
1679955836.39998221,162028551,0,3,167054400,2255,15,0.75,42.6881675,-84.4915765,277.32,0.2696145474910736,9.392449378967285,-0.5530000329017639,0.0,1
1679955836.60034609,162228915,0,3,167054600,2255,15,0.75,42.688167799999995,-84.4915765,277.44,0.07038465887308121,22.5572452545166,-0.7800000309944153,0.0,1
1679955836.80040216,162428971,0,3,167054800,2255,15,0.75,42.688168,-84.4915765,277.54,0.2641855478286743,5.430050849914551,-0.6640000343322754,0.0,1
1679955837.00035810,162628927,0,3,167055000,2255,15,0.75,42.688168499999996,-84.4915765,277.67,0.2764633893966675,356.6822204589844,-0.4020000100135803,0.0,1
1679955837.20021105,162828780,0,3,167055200,2255,15,0.75,42.6881689,-84.4915766,277.74,0.18104420602321625,358.7340087890625,-0.41600000858306885,0.0,1
1679955837.40030909,163028878,0,3,167055400,2255,15,0.75,42.6881692,-84.4915767,277.78000000000003,0.22785302996635437,352.6878356933594,-0.2720000147819519,0.0,1
1679955837.60055208,163229121,0,3,167055600,2255,15,0.75,42.688169599999995,-84.49157679999999,277.8,0.22863291203975677,355.73583984375,-0.17100000381469727,0.0,1
1679955837.80007219,163428641,0,3,167055800,2255,15,0.75,42.6881699,-84.4915769,277.81,0.13644413650035858,4.624151229858398,-0.06400000303983688,0.0,1
1679955837.99997306,163628542,0,3,167056000,2255,15,0.75,42.68817,-84.4915769,277.81,0.08628442138433456,57.783451080322266,-0.125,0.0,1
1679955838.20024514,163828814,0,3,167056200,2255,15,0.75,42.6881701,-84.4915767,277.83,0.12722422182559967,69.28582000732422,-0.20500001311302185,0.0,1
1679955838.40005922,164028628,0,3,167056400,2255,15,0.75,42.6881701,-84.4915765,277.87,0.07317103445529938,86.08174133300781,-0.27900001406669617,0.0,1
1679955838.60016108,164228730,0,3,167056600,2255,15,0.75,42.6881701,-84.49157629999999,277.92,0.11403948068618774,88.49256134033203,-0.43800002336502075,0.0,1
1679955838.79996014,164428529,0,3,167056800,2255,15,0.75,42.6881701,-84.4915762,277.99,0.026476405560970306,79.11446380615234,-0.4710000157356262,0.0,1
1679955838.99997807,164628547,0,3,167057000,2255,15,0.75,42.6881699,-84.49157629999999,278.08,0.19797475636005402,199.16714477539062,-0.5750000476837158,0.0,1
1679955839.22014022,164848709,0,3,167057200,2255,15,0.75,42.6881699,-84.4915762,278.21,0.2879756987094879,40.49338912963867,-0.5270000100135803,0.0,1
1679955839.40035200,165028921,0,3,167057400,2255,15,0.75,42.6881701,-84.49157579999999,278.34000000000003,0.1829371601343155,64.41546630859375,-0.6580000519752502,0.0,1
1679955839.60032010,165228889,0,3,167057600,2255,15,0.75,42.688170199999995,-84.49157559999999,278.44,0.08895505219697952,68.91624450683594,-0.5350000262260437,0.0,1
1679955839.80013919,165428708,0,3,167057800,2255,15,0.75,42.6881701,-84.4915754,278.53000000000003,0.09343447536230087,132.39743041992188,-0.5080000162124634,0.0,1
1679955840.00048113,165629050,0,3,167058000,2255,15,0.75,42.6881701,-84.4915753,278.58,0.13674063980579376,55.72885513305664,-0.27300000190734863,0.0,1
1679955840.22014523,165848714,0,3,167058200,2255,15,0.75,42.688170199999995,-84.49157509999999,278.61,0.12625372409820557,86.36705017089844,-0.3660000264644623,0.0,1
1679955840.40012717,166028696,0,3,167058400,2255,15,0.75,42.6881701,-84.4915748,278.64,0.12461540848016739,112.65522766113281,-0.27000001072883606,0.0,1
1679955840.59995604,166228525,0,3,167058600,2255,15,0.75,42.68817,-84.4915747,278.66,0.1258014440536499,126.59661865234375,-0.13300000131130219,0.0,1
1679955840.80021000,166428779,0,3,167058800,2255,15,0.75,42.6881698,-84.49157439999999,278.66,0.152839794754982,132.87889099121094,0.07500000298023224,0.0,1
1679955841.00006509,166628634,0,3,167059000,2255,15,0.75,42.688169599999995,-84.4915742,278.64,0.11603879183530807,128.35134887695312,0.0950000062584877,0.0,1
1679955841.20006418,166828633,0,3,167059200,2255,15,0.75,42.6881694,-84.4915741,278.6,0.1310267150402069,148.73626708984375,0.2120000123977661,0.0,1
1679955841.40035415,167028923,0,3,167059400,2255,15,0.75,42.688169099999996,-84.491574,278.54,0.1402462273836136,169.73167419433594,0.31300002336502075,0.0,1
1679955841.60033321,167228902,0,3,167059600,2255,15,0.75,42.6881688,-84.491574,278.48,0.18378792703151703,185.3073272705078,0.2120000123977661,0.0,1
1679955841.80022216,167428791,0,3,167059800,2255,15,0.75,42.688168399999995,-84.4915742,278.41,0.25997886061668396,201.43309020996094,0.48600003123283386,0.0,1
1679955842.00035214,167628921,0,3,167060000,2255,15,0.75,42.688168,-84.4915745,278.34000000000003,0.19730687141418457,204.87655639648438,0.27900001406669617,0.0,1
1679955842.20045614,167829025,0,3,167060200,2255,15,0.75,42.6881676,-84.4915748,278.27,0.29205822944641113,205.7754364013672,0.2460000067949295,0.0,1
1679955842.39996505,168028534,0,3,167060400,2255,15,0.75,42.6881671,-84.49157509999999,278.22,0.2500639855861664,210.25643920898438,0.27900001406669617,0.0,1
1679955842.60016823,168228737,0,3,167060600,2255,15,0.75,42.6881667,-84.4915754,278.17,0.20441624522209167,207.6932830810547,0.22100001573562622,0.0,1
1679955842.80020905,168428778,0,3,167060800,2255,15,0.75,42.6881664,-84.4915757,278.13,0.18952837586402893,210.0823516845703,0.17000000178813934,0.0,1
1679955843.00031519,168628884,0,3,167061000,2255,15,0.75,42.688165999999995,-84.491576,278.1,0.2065187692642212,209.91696166992188,0.08700000494718552,0.0,1
1679955843.20054817,168829117,0,3,167061200,2255,15,0.75,42.6881657,-84.49157629999999,278.08,0.19856737554073334,206.9521942138672,0.08500000089406967,0.0,1
1679955843.39995503,169028524,0,3,167061400,2255,15,0.75,42.6881653,-84.4915766,278.06,0.20032474398612976,210.2770233154297,0.07900000363588333,0.0,1
1679955843.60000610,169228575,0,3,167061600,2255,15,0.75,42.688165,-84.4915769,278.06,0.2492007315158844,210.37229919433594,0.02500000037252903,0.0,1
1679955843.80008006,169428649,0,3,167061800,2255,15,0.75,42.6881646,-84.4915772,278.05,0.14580124616622925,216.63412475585938,-0.049000002443790436,0.0,1
1679955844.02110219,169649671,0,3,167062000,2255,15,0.75,42.6881644,-84.49157749999999,278.04,0.11490866541862488,238.52316284179688,0.02200000174343586,0.0,1
1679955844.19994903,169828518,0,3,167062200,2255,15,0.75,42.6881643,-84.4915778,278.03000000000003,0.11704700440168381,250.01690673828125,-0.07400000095367432,0.0,1
1679955844.39999008,170028559,0,3,167062400,2255,15,0.75,42.688164199999996,-84.4915781,278.03000000000003,0.12126418203115463,273.78265380859375,-0.058000002056360245,0.0,1
1679955844.60032010,170228889,0,3,167062600,2255,15,0.75,42.6881643,-84.4915785,278.04,0.14224275946617126,291.876220703125,0.0,0.0,1
1679955844.80035305,170428922,0,3,167062800,2255,15,0.75,42.6881644,-84.4915788,278.04,0.13446561992168427,321.3401794433594,-0.07600000500679016,0.0,1
1679955845.00035906,170628928,0,3,167063000,2255,15,0.75,42.6881646,-84.4915791,278.05,0.17321953177452087,322.27008056640625,-0.09200000762939453,0.0,1
1679955845.20018911,170828758,0,3,167063200,2255,15,0.75,42.6881647,-84.49157939999999,278.06,0.1528986692428589,312.34930419921875,-0.07800000160932541,0.0,1
1679955845.40052199,171029091,0,3,167063400,2255,15,0.75,42.6881649,-84.4915798,278.07,0.1506154090166092,314.73101806640625,-0.10100000351667404,0.0,1
1679955845.60024810,171228817,0,3,167063600,2255,15,0.75,42.688165,-84.4915801,278.08,0.1357239931821823,309.3191223144531,-0.06100000441074371,0.0,1
1679955845.80034018,171428909,0,3,167063800,2255,15,0.75,42.6881651,-84.49158039999999,278.08,0.11049434542655945,295.17352294921875,-0.07500000298023224,0.0,1
1679955846.01999021,171648559,0,3,167064000,2255,15,0.75,42.6881651,-84.4915807,278.09000000000003,0.08558621257543564,276.7098388671875,-0.024000000208616257,0.0,1
1679955846.19999409,171828563,0,3,167064200,2255,15,0.75,42.6881651,-84.4915809,278.08,0.07800640910863876,269.2655029296875,0.017000000923871994,0.0,1
1679955846.40005112,172028620,0,3,167064400,2255,15,0.75,42.688165,-84.4915812,278.07,0.10065784305334091,220.97174072265625,-0.021000001579523087,0.0,1
1679955846.60010910,172228678,0,3,167064600,2255,15,0.75,42.688164799999996,-84.4915814,278.06,0.1122942641377449,208.16253662109375,0.06000000238418579,0.0,1
1679955846.80035210,172428921,0,3,167064800,2255,15,0.75,42.6881646,-84.4915815,278.04,0.1273459941148758,193.16323852539062,0.05700000375509262,0.0,1
1679955846.99995208,172628521,0,3,167065000,2255,15,0.75,42.688164199999996,-84.4915817,278.02,0.20930838584899902,194.10263061523438,0.11800000816583633,0.0,1
1679955847.19999909,172828568,0,3,167065200,2255,15,0.75,42.6881638,-84.4915819,277.99,0.18821530044078827,199.8790740966797,0.021000001579523087,0.0,1
1679955847.40007901,173028648,0,3,167065400,2255,15,0.75,42.6881634,-84.4915821,277.97,0.22378785908222198,200.94561767578125,0.1340000033378601,0.0,1
1679955847.60015106,173228720,0,3,167065600,2255,15,0.75,42.6881631,-84.49158229999999,277.95,0.1982952505350113,197.6125946044922,0.07100000232458115,0.0,1
1679955847.79995704,173428526,0,3,167065800,2255,15,0.75,42.6881627,-84.49158249999999,277.92,0.1398177444934845,220.0679168701172,0.06100000441074371,0.0,1
1679955847.99998903,173628558,0,3,167066000,2255,15,0.75,42.6881626,-84.4915829,277.91,0.12298374623060226,259.6951599121094,0.08900000154972076,0.0,1
1679955848.20032406,173828893,0,3,167066200,2255,16,0.75,42.6881626,-84.4915832,277.89,0.14261837303638458,292.2490234375,0.07200000435113907,0.0,1
1679955848.40029812,174028867,0,3,167066400,2255,16,0.75,42.6881627,-84.4915836,277.88,0.21783021092414856,301.865966796875,0.05300000309944153,0.0,1
1679955848.60031700,174228886,0,3,167066600,2255,16,0.75,42.688162999999996,-84.4915841,277.86,0.265241414308548,316.3748474121094,0.08400000631809235,0.0,1
1679955848.80054712,174429116,0,3,167066800,2255,16,0.75,42.6881632,-84.4915846,277.84000000000003,0.2258007973432541,323.2823486328125,-0.01100000087171793,0.0,1
1679955849.00030422,174628873,0,3,167067000,2255,16,0.66,42.688163499999995,-84.491585,277.82,0.21498140692710876,327.3448486328125,-0.04400000348687172,0.0,1
1679955849.20036602,174828935,0,3,167067200,2255,16,0.66,42.6881638,-84.4915853,277.82,0.20773540437221527,326.3864440917969,0.08400000631809235,0.0,1
1679955849.40040803,175028977,0,3,167067400,2255,16,0.66,42.6881641,-84.4915855,277.8,0.16635504364967346,340.6936950683594,0.06400000303983688,0.0,1
1679955849.62000322,175248572,0,3,167067600,2255,16,0.66,42.6881643,-84.4915857,277.78000000000003,0.12041595578193665,348.5034484863281,0.04800000041723251,0.0,1
1679955849.80024219,175428811,0,3,167067800,2255,16,0.66,42.6881644,-84.4915857,277.75,0.0957757830619812,40.34174346923828,0.06400000303983688,0.0,1
1679955850.02122808,175649797,0,3,167068000,2255,16,0.66,42.6881645,-84.4915855,277.73,0.1467514932155609,72.55280303955078,0.021000001579523087,0.0,1
1679955850.22035003,175848919,0,3,167068200,2255,16,0.66,42.6881645,-84.4915851,277.72,0.201357901096344,86.58340454101562,-0.026000000536441803,0.0,1
1679955850.40007615,176028645,0,3,167068400,2255,16,0.66,42.6881644,-84.49158469999999,277.71,0.20554319024085999,100.65390014648438,-0.03100000135600567,0.0,1
1679955850.59994912,176228518,0,3,167068600,2255,16,0.66,42.6881643,-84.49158419999999,277.72,0.2330772578716278,107.73529815673828,0.014000000432133675,0.0,1
1679955850.79999208,176428561,0,3,167068800,2255,16,0.66,42.6881641,-84.49158369999999,277.7,0.24340297281742096,105.97772216796875,0.010000000707805157,0.0,1
1679955851.00010705,176628676,0,3,167069000,2255,16,0.66,42.6881639,-84.4915832,277.69,0.2581937313079834,110.40019989013672,0.10400000214576721,0.0,1
1679955851.20015407,176828723,0,3,167069200,2255,16,0.66,42.6881637,-84.4915827,277.66,0.25776928663253784,112.58566284179688,0.13199999928474426,0.0,1
1679955851.40020013,177028769,0,3,167069400,2255,16,0.66,42.688163499999995,-84.4915821,277.65000000000003,0.2365798056125641,109.50719451904297,0.07500000298023224,0.0,1
1679955851.60017514,177228744,0,3,167069600,2255,16,0.66,42.6881634,-84.49158159999999,277.66,0.2111421376466751,81.83151245117188,0.017000000923871994,0.0,1
1679955851.80032206,177428891,0,3,167069800,2255,16,0.66,42.688163499999995,-84.49158109999999,277.66,0.21888811886310577,77.8686752319336,0.12600000202655792,0.0,1
1679955852.02121305,177649782,0,3,167070000,2255,16,0.66,42.6881637,-84.49158059999999,277.64,0.30714818835258484,42.625038146972656,0.07600000500679016,0.0,1
1679955852.20008612,177828655,0,3,167070200,2255,16,0.66,42.688164,-84.4915801,277.63,0.2581569254398346,51.13222122192383,0.07800000160932541,0.0,1
1679955852.39995408,178028523,0,3,167070400,2255,16,0.66,42.6881643,-84.4915797,277.62,0.22208108007907867,38.418052673339844,0.12300000339746475,0.0,1
1679955852.60023117,178228800,0,3,167070600,2255,16,0.66,42.6881645,-84.49157939999999,277.61,0.16770510375499725,47.174739837646484,-0.015000000596046448,0.0,1
1679955852.80007815,178428647,0,3,167070800,2255,16,0.66,42.6881646,-84.49157919999999,277.6,0.08300603181123734,58.79948425292969,0.04100000113248825,0.0,1
1679955853.02025318,178648822,0,3,167071000,2255,16,0.66,42.6881646,-84.4915791,277.59000000000003,0.08746428042650223,120.96375274658203,0.02800000086426735,0.0,1
1679955853.19996119,178828530,0,3,167071200,2255,16,0.66,42.6881645,-84.4915789,277.59000000000003,0.1434224545955658,147.52879333496094,0.058000002056360245,0.0,1
1679955853.40026808,179028837,0,3,167071400,2255,16,0.66,42.688164199999996,-84.49157869999999,277.58,0.14534443616867065,147.0752716064453,0.020000001415610313,0.0,1
1679955853.60029817,179228867,0,3,167071600,2255,16,0.66,42.688164,-84.4915786,277.58,0.16086019575595856,141.56268310546875,-0.013000000268220901,0.0,1
1679955853.80034423,179428913,0,3,167071800,2255,16,0.66,42.6881637,-84.4915784,277.57,0.13511846959590912,151.7279510498047,0.03400000184774399,0.0,1
1679955854.00061011,179629179,0,3,167072000,2255,16,0.66,42.688163499999995,-84.4915783,277.56,0.12366487830877304,149.91030883789062,-0.021000001579523087,0.0,1
1679955854.20013118,179828700,0,3,167072200,2255,16,0.66,42.6881633,-84.4915781,277.55,0.14115595817565918,157.06790161132812,0.017000000923871994,0.0,1
1679955854.40017104,180028740,0,3,167072400,2255,16,0.66,42.6881631,-84.49157799999999,277.56,0.0974525585770607,141.24835205078125,0.00800000037997961,0.0,1
1679955854.60028410,180228853,0,3,167072600,2255,16,0.66,42.688162899999995,-84.4915779,277.56,0.08220097422599792,126.5910873413086,-0.004000000189989805,0.0,1
1679955854.80064201,180429211,0,3,167072800,2255,16,0.66,42.688162899999995,-84.4915778,277.55,0.07589466869831085,18.434947967529297,0.055000003427267075,0.0,1
1679955854.99997711,180628546,0,3,167073000,2255,16,0.66,42.6881631,-84.4915777,277.54,0.13184840977191925,9.605203628540039,-0.01600000075995922,0.0,1
1679955855.20000219,180828571,0,3,167073200,2255,16,0.66,42.6881633,-84.4915777,277.55,0.17710167169570923,358.0585021972656,-0.03700000047683716,0.0,1
1679955855.40005016,181028619,0,3,167073400,2255,16,0.66,42.6881637,-84.4915778,277.54,0.28102847933769226,359.1844482421875,-0.05400000140070915,0.0,1
1679955855.60012722,181228696,0,3,167073600,2255,16,0.66,42.688164199999996,-84.4915778,277.57,0.2940016984939575,359.80511474609375,-0.07900000363588333,0.0,1
1679955855.80006909,181428638,0,3,167073800,2255,16,0.66,42.688164799999996,-84.4915778,277.58,0.4026574194431305,3.2745468616485596,-0.17100000381469727,0.0,1
1679955856.00031018,181628879,0,3,167074000,2255,16,0.66,42.6881656,-84.4915778,277.6,0.4740169048309326,0.48349717259407043,-0.12300000339746475,0.0,1
1679955856.19999218,181828561,0,3,167074200,2255,16,0.66,42.6881665,-84.4915779,277.61,0.5588148236274719,355.381103515625,-0.11300000548362732,0.0,1
1679955856.40035200,182028921,0,3,167074400,2255,16,0.66,42.6881675,-84.49157799999999,277.65000000000003,0.6620030999183655,359.826904296875,-0.2070000171661377,0.0,1
1679955856.60039306,182228962,0,3,167074600,2255,16,0.66,42.6881687,-84.4915781,277.71,0.7032283544540405,353.71380615234375,-0.2510000169277191,0.0,1
1679955856.80024314,182428812,0,3,167074800,2255,16,0.66,42.6881701,-84.4915784,277.77,0.8130190968513489,355.060791015625,-0.3240000009536743,0.0,1
1679955857.00017405,182628743,0,3,167075000,2255,16,0.66,42.688171499999996,-84.4915786,277.83,0.7650471329689026,352.7913818359375,-0.39100003242492676,0.0,1
1679955857.20021701,182828786,0,3,167075200,2255,16,0.66,42.6881729,-84.4915789,277.89,0.9015564918518066,354.9091491699219,-0.37400001287460327,0.0,1
1679955857.40036011,183028929,0,3,167075400,2255,16,0.66,42.688174499999995,-84.49157919999999,277.95,0.9353079795837402,351.0815124511719,-0.25600001215934753,0.0,1
1679955857.60011911,183228688,0,3,167075600,2255,16,0.66,42.6881762,-84.49157939999999,278.0,0.9990846514701843,359.25445556640625,-0.18900001049041748,0.0,1
1679955857.79996014,183428529,0,3,167075800,2255,16,0.66,42.688178099999995,-84.4915796,278.03000000000003,1.0453957319259644,357.0390625,-0.13900001347064972,0.0,1
1679955858.02122021,183649789,0,3,167076000,2255,16,0.66,42.6881799,-84.4915797,278.06,1.0088459253311157,356.5334777832031,-0.2840000092983246,0.0,1
1679955858.20032406,183828893,0,3,167076200,2255,16,0.66,42.6881817,-84.49157989999999,278.11,1.0800375938415527,0.4774537682533264,-0.2900000214576721,0.0,1
1679955858.40014505,184028714,0,3,167076400,2255,16,0.66,42.688183599999995,-84.49157989999999,278.16,1.0707964897155762,356.6806640625,-0.18000000715255737,0.0,1
1679955858.59995222,184228521,0,3,167076600,2255,16,0.66,42.688185499999996,-84.4915801,278.2,1.0063896179199219,358.40570068359375,-0.34200000762939453,0.0,1
1679955858.80000305,184428572,0,3,167076800,2255,16,0.66,42.688187299999996,-84.4915803,278.28000000000003,1.0210078954696655,356.4061584472656,-0.4410000145435333,0.0,1
1679955859.00037718,184628946,0,3,167077000,2255,16,0.66,42.688189,-84.4915805,278.40000000000003,0.951971709728241,353.0616149902344,-0.597000002861023,0.0,1
1679955859.20024610,184828815,0,3,167077200,2255,16,0.66,42.6881908,-84.4915808,278.5,1.0184777975082397,356.0025634765625,-0.628000020980835,0.0,1
1679955859.41998005,185048549,0,3,167077400,2255,16,0.66,42.6881925,-84.49158109999999,278.59000000000003,0.9829878807067871,353.1641845703125,-0.38200002908706665,0.0,1
1679955859.60057020,185229139,0,3,167077600,2255,16,0.66,42.6881943,-84.4915814,278.64,0.9809633493423462,353.6791687011719,-0.14400000870227814,0.0,1
1679955859.80001402,185428583,0,3,167077800,2255,16,0.66,42.688196,-84.49158159999999,278.69,0.9459049105644226,356.36322021484375,-0.2590000033378601,0.0,1
1679955860.00011802,185628687,0,3,167078000,2255,16,0.66,42.688197599999995,-84.49158179999999,278.7,0.8617111444473267,357.67218017578125,-0.18900001049041748,0.0,1
1679955860.22100401,185849573,0,3,167078200,2255,16,0.66,42.688199,-84.491582,278.73,0.786924421787262,355.9921875,-0.06000000238418579,0.0,1
1679955860.40024614,186028815,0,3,167078400,2255,16,0.66,42.6882004,-84.4915821,278.74,0.7480541467666626,359.3106384277344,-0.18800000846385956,0.0,1
1679955860.60026622,186228835,0,3,167078600,2255,16,0.66,42.6882015,-84.4915822,278.77,0.6127846837043762,357.1002502441406,-0.203000009059906,0.0,1
1679955860.80005908,186428628,0,3,167078800,2255,16,0.66,42.688202499999996,-84.49158229999999,278.8,0.5286397337913513,2.819105863571167,-0.10400000214576721,0.0,1
1679955861.00012207,186628691,0,3,167079000,2255,16,0.66,42.6882034,-84.4915822,278.82,0.45642197132110596,4.523868083953857,-0.21300001442432404,0.0,1
1679955861.20035815,186828927,0,3,167079200,2255,16,0.66,42.688204,-84.4915822,278.87,0.30216553807258606,9.524666786193848,-0.3290000259876251,0.0,1
1679955861.40015221,187028721,0,3,167079400,2255,16,0.66,42.6882044,-84.4915821,278.95,0.2014274150133133,10.584707260131836,-0.2770000100135803,0.0,1
1679955861.60018611,187228755,0,3,167079600,2255,16,0.66,42.6882048,-84.491582,279.0,0.17749649286270142,7.445323944091797,-0.27000001072883606,0.0,1
1679955861.80024219,187428811,0,3,167079800,2255,16,0.66,42.688204999999996,-84.491582,279.04,0.10198038816452026,11.309932708740234,-0.0860000029206276,0.0,1
1679955862.02112007,187649689,0,3,167080000,2255,16,0.66,42.6882052,-84.491582,279.08,0.11648175865411758,344.0545959472656,-0.20100000500679016,0.0,1
1679955862.19995999,187828529,0,3,167080200,2255,16,0.66,42.6882053,-84.4915821,279.11,0.09126883745193481,4.398704528808594,-0.1720000058412552,0.0,1
1679955862.39997816,188028547,0,3,167080400,2255,16,0.66,42.6882054,-84.4915822,279.14,0.06894925981760025,340.51385498046875,-0.07000000029802322,0.0,1
1679955862.60002518,188228594,0,3,167080600,2255,16,0.66,42.688205499999995,-84.49158229999999,279.16,0.048083264380693436,286.9275207519531,-0.017000000923871994,0.0,1
1679955862.80035901,188428928,0,3,167080800,2255,16,0.66,42.688205499999995,-84.4915824,279.16,0.037107955664396286,284.0362548828125,-0.030000001192092896,0.0,1
1679955863.00041509,188628984,0,3,167081000,2255,16,0.66,42.6882054,-84.49158249999999,279.16,0.04162931814789772,204.10223388671875,0.04700000211596489,0.0,1
1679955863.20016503,188828734,0,3,167081200,2255,16,0.66,42.6882053,-84.4915826,279.14,0.039293769747018814,194.7435760498047,0.0690000057220459,0.0,1
1679955863.40023804,189028807,0,3,167081400,2255,16,0.66,42.6882052,-84.4915827,279.12,0.04648656025528908,198.82472229003906,0.03100000135600567,0.0,1
1679955863.60011721,189228686,0,3,167081600,2255,16,0.66,42.6882051,-84.49158279999999,279.12,0.05440588295459747,197.1027374267578,0.15400001406669617,0.0,1
1679955863.80015302,189428722,0,3,167081800,2255,16,0.66,42.688204999999996,-84.49158279999999,279.09000000000003,0.051224999129772186,218.65982055664062,0.10700000822544098,0.0,1
1679955863.99996519,189628534,0,3,167082000,2255,16,0.66,42.688204899999995,-84.49158299999999,279.06,0.05916925147175789,300.4655456542969,0.08900000154972076,0.0,1
1679955864.19999313,189828562,0,3,167082200,2255,16,0.66,42.688204999999996,-84.4915832,279.03000000000003,0.08343260735273361,346.13031005859375,0.07400000095367432,0.0,1
1679955864.40002203,190028591,0,3,167082400,2255,16,0.66,42.6882052,-84.4915833,279.0,0.21985676884651184,349.2522888183594,0.19300000369548798,0.0,1
1679955864.60030508,190228874,0,3,167082600,2255,16,0.66,42.688205599999996,-84.4915834,278.98,0.2783379554748535,352.568603515625,0.20200000703334808,0.0,1
1679955864.80029607,190428865,0,3,167082800,2255,16,0.66,42.688206199999996,-84.49158349999999,278.94,0.38925185799598694,2.061169147491455,0.026000000536441803,0.0,1
1679955865.00054717,190629116,0,3,167083000,2255,16,0.66,42.6882069,-84.49158349999999,278.92,0.4734659492969513,2.5421178340911865,0.17600001394748688,0.0,1
1679955865.19997621,190828545,0,3,167083200,2255,16,0.66,42.6882078,-84.49158349999999,278.89,0.5975366234779358,5.281240463256836,0.03800000250339508,0.0,1
1679955865.40005803,191028627,0,3,167083400,2255,16,0.66,42.6882089,-84.4915834,278.87,0.6921886205673218,4.5574188232421875,0.15000000596046448,0.0,1
1679955865.60013700,191228706,0,3,167083600,2255,16,0.66,42.6882102,-84.4915834,278.83,0.7830517888069153,0.6585431694984436,0.06400000303983688,0.0,1
1679955865.79995108,191428520,0,3,167083800,2255,16,0.66,42.688211599999995,-84.4915834,278.82,0.8227447867393494,2.4381282329559326,0.08000000566244125,0.0,1
1679955866.00026417,191628833,0,3,167084000,2255,16,0.66,42.6882132,-84.4915834,278.81,0.9246372580528259,3.410125732421875,0.06000000238418579,0.0,1
1679955866.20030808,191828877,0,3,167084200,2255,16,0.66,42.6882148,-84.4915834,278.79,0.9655641317367554,1.9585741758346558,-0.04500000178813934,0.0,1
1679955866.40033221,192028901,0,3,167084400,2255,16,0.66,42.6882166,-84.4915833,278.8,1.0547081232070923,3.261190176010132,-0.05000000074505806,0.0,1
1679955866.60035110,192228920,0,3,167084600,2255,16,0.66,42.6882185,-84.4915833,278.8,1.0560232400894165,0.37979599833488464,-0.027000000700354576,0.0,1
1679955866.80016804,192428737,0,3,167084800,2255,16,0.66,42.6882204,-84.4915833,278.79,1.1694656610488892,1.616987705230713,-0.021000001579523087,0.0,1
1679955867.00022602,192628795,0,3,167085000,2255,16,0.66,42.688222499999995,-84.4915833,278.79,1.1832857131958008,1.259045124053955,0.006000000052154064,0.0,1
1679955867.20005322,192828622,0,3,167085200,2255,16,0.66,42.6882247,-84.4915833,278.78000000000003,1.2288991212844849,2.1918468475341797,0.03400000184774399,0.0,1
1679955867.40016913,193028738,0,3,167085400,2255,16,0.66,42.6882269,-84.4915832,278.77,1.2668805122375488,3.1221303939819336,-0.09700000286102295,0.0,1
1679955867.59996009,193228529,0,3,167085600,2255,16,0.66,42.6882291,-84.4915831,278.76,1.26288640499115,4.4961347579956055,0.07700000703334808,0.0,1
1679955867.80025721,193428826,0,3,167085800,2255,16,0.66,42.6882314,-84.4915829,278.75,1.2182496786117554,3.482454538345337,0.07900000363588333,0.0,1
1679955868.00023508,193628804,0,3,167086000,2255,16,0.66,42.688233499999996,-84.49158279999999,278.75,1.2004719972610474,3.677557945251465,0.012000000104308128,0.0,1
1679955868.20024419,193828813,0,3,167086200,2255,16,0.66,42.6882356,-84.4915827,278.72,1.1300110816955566,359.7464904785156,0.07100000232458115,0.0,1
1679955868.40029907,194028868,0,3,167086400,2255,16,0.66,42.6882375,-84.49158279999999,278.71,1.0552507638931274,1.2489043474197388,0.14500001072883606,0.0,1
1679955868.60052705,194229096,0,3,167086600,2255,16,0.66,42.6882393,-84.49158279999999,278.68,0.9631875157356262,358.86968994140625,0.020000001415610313,0.0,1
1679955868.79999900,194428568,0,3,167086800,2255,16,0.66,42.688241,-84.4915829,278.67,0.8636695146560669,357.7438659667969,0.039000000804662704,0.0,1
1679955869.00006604,194628635,0,3,167087000,2255,16,0.66,42.6882424,-84.49158299999999,278.65000000000003,0.7172788977622986,358.4021911621094,0.0020000000949949026,0.0,1
1679955869.20015812,194828727,0,3,167087200,2255,16,0.66,42.6882435,-84.4915831,278.64,0.5761050581932068,358.90594482421875,0.13600000739097595,0.0,1
1679955869.42000222,195048571,0,3,167087400,2255,16,0.66,42.688244499999996,-84.4915831,278.6,0.5075687170028687,5.766755104064941,0.10600000619888306,0.0,1
1679955869.60025120,195228820,0,3,167087600,2255,16,0.66,42.6882452,-84.4915829,278.58,0.36585381627082825,12.63072681427002,0.06599999964237213,0.0,1
1679955869.80030012,195428869,0,3,167087800,2255,16,0.66,42.6882458,-84.4915827,278.56,0.27202942967414856,17.10272789001465,0.1680000126361847,0.0,1
1679955870.02044320,195649012,0,3,167088000,2255,16,0.66,42.6882461,-84.49158249999999,278.52,0.19372402131557465,49.81574249267578,-0.030000001192092896,0.0,1
1679955870.20059919,195829168,0,3,167088200,2255,16,0.66,42.688246199999995,-84.4915821,278.52,0.1634870171546936,75.11373138427734,0.10900000482797623,0.0,1
1679955870.42113400,196049703,0,3,167088400,2255,16,0.66,42.688246199999995,-84.49158179999999,278.48,0.17321951687335968,114.19757080078125,0.10200000554323196,0.0,1
1679955870.60000300,196228572,0,3,167088600,2255,16,0.66,42.6882459,-84.4915814,278.46,0.24035391211509705,128.92039489746094,0.029000001028180122,0.0,1
1679955870.80012608,196428695,0,3,167088800,2255,16,0.66,42.6882455,-84.4915809,278.44,0.3386576771736145,140.15110778808594,0.05000000074505806,0.0,1
1679955871.01997805,196648547,0,3,167089000,2255,16,0.66,42.688244999999995,-84.49158039999999,278.42,0.4082597494125366,146.3877716064453,0.04100000113248825,0.0,1
1679955871.19996905,196828538,0,3,167089200,2255,16,0.66,42.6882442,-84.4915801,278.41,0.46324291825294495,169.17520141601562,0.09800000488758087,0.0,1
1679955871.40023017,197028799,0,3,167089400,2255,16,0.66,42.688243299999996,-84.49158059999999,278.40000000000003,0.741946816444397,221.22952270507812,0.09300000220537186,0.0,1
1679955871.60034323,197228912,0,3,167089600,2255,16,0.66,42.6882422,-84.4915824,278.40000000000003,1.1840709447860718,238.538330078125,-0.19200000166893005,0.0,1
1679955871.80034900,197428918,0,3,167089800,2255,16,0.66,42.688241,-84.4915857,278.43,1.8121567964553833,247.4822998046875,0.058000002056360245,0.0,1
1679955872.00008607,197628655,0,3,167090000,2255,16,0.66,42.688239599999996,-84.4915899,278.42,1.9210375547409058,244.36868286132812,0.08300000429153442,0.0,1
1679955872.19995308,197828522,0,3,167090200,2255,16,0.66,42.688238,-84.49159399999999,278.42,1.833248496055603,240.02252197265625,0.04700000211596489,0.0,1
1679955872.42009211,198048661,0,3,167090400,2255,16,0.66,42.6882364,-84.4915977,278.41,1.6616744995117188,236.8359375,0.0950000062584877,0.0,1
1679955872.60036302,198228932,0,3,167090600,2255,16,0.66,42.688234699999995,-84.4916009,278.38,1.5848438739776611,232.12501525878906,0.20900000631809235,0.0,1
1679955872.80014706,198428716,0,3,167090800,2255,16,0.66,42.6882328,-84.4916038,278.36,1.5863319635391235,226.0982666015625,0.18700000643730164,0.0,1
1679955873.00025606,198628825,0,3,167091000,2255,16,0.66,42.6882307,-84.4916064,278.32,1.496769905090332,218.7076416015625,0.1720000058412552,0.0,1
1679955873.20024800,198828817,0,3,167091200,2255,16,0.66,42.6882285,-84.4916087,278.27,1.5379250049591064,216.13967895507812,0.19300000369548798,0.0,1
1679955873.40030718,199028876,0,3,167091400,2255,16,0.66,42.688226199999995,-84.4916107,278.23,1.518024206161499,209.131591796875,0.14900000393390656,0.0,1
1679955873.60015106,199228720,0,3,167091600,2255,16,0.66,42.688223699999995,-84.4916125,278.19,1.5322353839874268,205.059814453125,0.11700000613927841,0.0,1
1679955873.80008221,199428651,0,3,167091800,2255,16,0.66,42.688221299999995,-84.4916136,278.15000000000003,1.3575935363769531,190.69744873046875,0.17000000178813934,0.0,1
1679955874.00025702,199628826,0,3,167092000,2255,16,0.66,42.6882187,-84.49161339999999,278.14,1.5243809223175049,165.5261688232422,0.14800000190734863,0.0,1
1679955874.20015717,199828726,0,3,167092200,2255,16,0.66,42.688216,-84.4916118,278.11,1.803470253944397,145.59619140625,-0.024000000208616257,0.0,1
1679955874.40023804,200028807,0,3,167092400,2255,16,0.66,42.6882132,-84.4916088,278.14,2.0785229206085205,138.80369567871094,0.030000001192092896,0.0,1
1679955874.60034919,200228918,0,3,167092600,2255,16,0.66,42.6882103,-84.4916052,278.14,2.2302513122558594,135.3269805908203,-0.0860000029206276,0.0,1
1679955874.80022812,200428797,0,3,167092800,2255,16,0.66,42.688207399999996,-84.4916016,278.15000000000003,2.161923885345459,138.4126739501953,0.036000002175569534,0.0,1
1679955875.00027108,200628840,0,3,167093000,2255,16,0.66,42.688204299999995,-84.4915982,278.14,2.198333978652954,141.6495361328125,0.01600000075995922,0.0,1
1679955875.20004702,200828616,0,3,167093200,2255,16,0.66,42.688201199999995,-84.49159499999999,278.15000000000003,2.165914535522461,141.88140869140625,0.010000000707805157,0.0,1
1679955875.40037417,201028943,0,3,167093400,2255,16,0.66,42.688198,-84.4915918,278.15000000000003,2.1890740394592285,143.60122680664062,-0.05000000074505806,0.0,1
1679955875.60034800,201228917,0,3,167093600,2255,16,0.66,42.6881947,-84.49158949999999,278.14,1.997818112373352,160.73973083496094,0.03500000014901161,0.0,1
1679955875.80060720,201429176,0,3,167093800,2255,16,0.66,42.6881913,-84.4915887,278.14,1.8590455055236816,180.4006805419922,-0.11300000548362732,0.0,1
1679955876.02006221,201648631,0,3,167094000,2255,16,0.66,42.688187899999996,-84.49158969999999,278.17,2.1194722652435303,202.43896484375,-0.08300000429153442,0.0,1
1679955876.20006704,201828636,0,3,167094200,2255,16,0.66,42.688184299999996,-84.491592,278.17,2.2075119018554688,206.1239776611328,0.02800000086426735,0.0,1
1679955876.40016818,202028737,0,3,167094400,2255,16,0.66,42.6881807,-84.4915944,278.15000000000003,2.1942408084869385,205.77096557617188,0.010000000707805157,0.0,1
1679955876.59995103,202228520,0,3,167094600,2255,16,0.66,42.688176999999996,-84.4915966,278.16,2.230448007583618,201.3768768310547,-0.006000000052154064,0.0,1
1679955876.79998612,202428555,0,3,167094800,2255,16,0.66,42.6881732,-84.4915984,278.16,2.239988088607788,197.27011108398438,-0.005000000353902578,0.0,1
1679955877.00005412,202628623,0,3,167095000,2255,16,0.66,42.6881693,-84.49159999999999,278.13,2.227066993713379,195.6026153564453,0.03700000047683716,0.0,1
1679955877.20011806,202828687,0,3,167095200,2255,16,0.66,42.6881653,-84.4916014,278.12,2.2322747707366943,193.23318481445312,0.021000001579523087,0.0,1
1679955877.40035820,203028927,0,3,167095400,2255,16,0.66,42.6881613,-84.4916027,278.11,2.261944532394409,191.94085693359375,0.005000000353902578,0.0,1
1679955877.60016322,203228732,0,3,167095600,2255,16,0.66,42.6881573,-84.4916038,278.09000000000003,2.276827812194824,190.73251342773438,0.0010000000474974513,0.0,1
1679955877.80018806,203428757,0,3,167095800,2255,16,0.66,42.6881531,-84.49160529999999,278.09000000000003,2.525388240814209,197.53810119628906,-0.01100000087171793,0.0,1
1679955878.00030708,203628876,0,3,167096000,2255,16,0.66,42.688148999999996,-84.4916071,278.11,2.1721808910369873,198.2431182861328,-0.2900000214576721,0.0,1
1679955878.20038700,203828956,0,3,167096200,2255,16,0.66,42.6881449,-84.4916092,278.14,2.5401358604431152,201.6464385986328,-0.014000000432133675,0.0,1
1679955878.39995313,204028522,0,3,167096400,2255,16,0.66,42.6881408,-84.4916114,278.13,2.3620147705078125,201.1437530517578,0.03100000135600567,0.0,1
1679955878.60025907,204228828,0,3,167096600,2255,16,0.66,42.688136899999996,-84.4916135,278.1,2.2175025939941406,200.20828247070312,0.07200000435113907,0.0,1
1679955878.80031419,204428883,0,3,167096800,2255,16,0.66,42.6881333,-84.4916152,278.09000000000003,1.9871058464050293,199.33767700195312,0.13900001347064972,0.0,1
1679955879.00036407,204628933,0,3,167097000,2255,16,0.66,42.688130099999995,-84.4916167,278.06,1.6984375715255737,199.5017852783203,0.05100000277161598,0.0,1
1679955879.20008612,204828655,0,3,167097200,2255,16,0.66,42.6881274,-84.49161819999999,278.03000000000003,1.4464733600616455,201.1541290283203,0.010000000707805157,0.0,1
1679955879.39995408,205028523,0,3,167097400,2255,16,0.66,42.688125299999996,-84.49161939999999,278.03000000000003,1.104185700416565,206.86672973632812,0.03100000135600567,0.0,1
1679955879.59999919,205228568,0,3,167097600,2255,16,0.66,42.6881237,-84.49162059999999,278.03000000000003,0.8073518872261047,210.0265655517578,0.023000001907348633,0.0,1
1679955879.80032802,205428897,0,3,167097800,2255,16,0.66,42.6881227,-84.4916215,278.03000000000003,0.4778953790664673,218.88450622558594,-0.01100000087171793,0.0,1
1679955880.02108216,205649651,0,3,167098000,2255,16,0.66,42.688122199999995,-84.4916221,278.01,0.19483327865600586,234.1888427734375,-0.1680000126361847,0.0,1
1679955880.19995809,205828527,0,3,167098200,2255,16,0.66,42.688122199999995,-84.4916224,278.02,0.1122942641377449,351.2926330566406,-0.1210000067949295,0.0,1
1679955880.39999318,206028562,0,3,167098400,2255,16,0.66,42.6881225,-84.4916223,278.0,0.3441177308559418,21.12118911743164,-0.05900000408291817,0.0,1
1679955880.60003114,206228600,0,3,167098600,2255,16,0.66,42.6881233,-84.4916219,278.01,0.5735294818878174,28.08423614501953,-0.046000003814697266,0.0,1
1679955880.80034518,206428914,0,3,167098800,2255,16,0.66,42.6881243,-84.4916212,278.01,0.7944236993789673,27.7585391998291,0.029000001028180122,0.0,1
1679955881.00031900,206628888,0,3,167099000,2255,16,0.66,42.6881256,-84.4916203,277.98,0.9116535186767578,27.858060836791992,-0.049000002443790436,0.0,1
1679955881.20012403,206828693,0,3,167099200,2255,16,0.66,42.6881272,-84.4916192,277.98,1.0576626062393188,26.443918228149414,0.0430000014603138,0.0,1
1679955881.40017605,207028745,0,3,167099400,2255,16,0.66,42.688128899999995,-84.4916179,277.97,1.1876405477523804,29.954315185546875,0.1210000067949295,0.0,1
1679955881.60023117,207228800,0,3,167099600,2255,16,0.66,42.688130799999996,-84.4916164,277.94,1.308224081993103,31.369352340698242,-0.014000000432133675,0.0,1
1679955881.80039120,207428960,0,3,167099800,2255,16,0.66,42.6881329,-84.4916147,277.93,1.4437652826309204,32.842525482177734,0.0950000062584877,0.0,1
1679955882.02113318,207649702,0,3,167100000,2255,16,0.66,42.6881351,-84.49161269999999,277.90000000000003,1.5442672967910767,34.73973846435547,0.09600000083446503,0.0,1
1679955882.20024920,207828818,0,3,167100200,2255,16,0.66,42.688137499999996,-84.4916105,277.88,1.6527665853500366,34.07466125488281,0.11100000888109207,0.0,1
1679955882.40031719,208028886,0,3,167100400,2255,16,0.66,42.688139899999996,-84.49160839999999,277.85,1.6672208309173584,31.53545570373535,0.1340000033378601,0.0,1
1679955882.60008216,208228651,0,3,167100600,2255,16,0.66,42.6881425,-84.4916063,277.83,1.6644245386123657,31.312070846557617,0.09800000488758087,0.0,1
1679955882.80007005,208428639,0,3,167100800,2255,16,0.66,42.688145,-84.49160429999999,277.81,1.6544885635375977,29.07478141784668,0.12200000882148743,0.0,1
1679955882.99995303,208628522,0,3,167101000,2255,16,0.66,42.688147699999995,-84.49160239999999,277.77,1.6901767253875732,28.09641456604004,0.12700000405311584,0.0,1
1679955883.19998407,208828553,0,3,167101200,2255,16,0.66,42.6881504,-84.49160049999999,277.77,1.7693018913269043,27.245731353759766,0.125,0.0,1
1679955883.40008521,209028654,0,3,167101400,2255,16,0.66,42.688153199999995,-84.4915986,277.75,1.702123761177063,27.920019149780273,0.13300000131130219,0.0,1
1679955883.60016513,209228734,0,3,167101600,2255,16,0.66,42.6881559,-84.4915966,277.73,1.7581768035888672,28.095487594604492,-0.026000000536441803,0.0,1
1679955883.79995823,209428527,0,3,167101800,2255,16,0.66,42.688158699999995,-84.4915946,277.71,1.7883728742599487,28.341981887817383,0.13199999928474426,0.0,1
1679955884.00016522,209628734,0,3,167102000,2255,16,0.66,42.6881615,-84.4915925,277.69,1.7794036865234375,29.676982879638672,0.11400000751018524,0.0,1
1679955884.20021415,209828783,0,3,167102200,2255,16,0.66,42.6881643,-84.49159039999999,277.66,1.8349707126617432,29.69453239440918,-0.039000000804662704,0.0,1
1679955884.40031004,210028879,0,3,167102400,2255,16,0.66,42.6881671,-84.49158829999999,277.65000000000003,1.7789548635482788,30.168338775634766,0.08900000154972076,0.0,1
1679955884.60056210,210229131,0,3,167102600,2255,16,0.66,42.6881698,-84.49158609999999,277.62,1.8155467510223389,31.440034866333008,0.08300000429153442,0.0,1
1679955884.80017018,210428739,0,3,167102800,2255,16,0.66,42.6881726,-84.4915838,277.58,1.8066351413726807,31.46413803100586,0.12200000882148743,0.0,1
1679955885.00021410,210628783,0,3,167103000,2255,16,0.66,42.6881753,-84.4915815,277.57,1.8127254247665405,31.717248916625977,0.15000000596046448,0.0,1
1679955885.20032907,210828898,0,3,167103200,2255,16,0.66,42.688178199999996,-84.49157919999999,277.54,1.875372290611267,30.612701416015625,0.052000001072883606,0.0,1
1679955885.40012908,211028698,0,3,167103400,2255,16,0.66,42.688181,-84.4915769,277.54,1.865908145904541,30.179073333740234,0.02800000086426735,0.0,1
1679955885.59996200,211228531,0,3,167103600,2255,16,0.66,42.688184,-84.4915747,277.55,1.878218650817871,28.666452407836914,-0.006000000052154064,0.0,1
1679955885.79999804,211428567,0,3,167103800,2255,16,0.66,42.688187,-84.49157249999999,277.55,1.9246104955673218,28.895570755004883,-0.018000001087784767,0.0,1
1679955886.00004721,211628616,0,3,167104000,2255,16,0.66,42.68819,-84.49157029999999,277.55,1.921538233757019,27.591888427734375,-0.06599999964237213,0.0,1
1679955886.20035005,211828919,0,3,167104200,2255,16,0.66,42.6881931,-84.4915682,277.56,1.9213124513626099,24.737648010253906,-0.09400000423192978,0.0,1
1679955886.40007019,212028639,0,3,167104400,2255,16,0.66,42.6881962,-84.4915664,277.57,1.8910804986953735,22.510324478149414,-0.08300000429153442,0.0,1
1679955886.59996319,212228532,0,3,167104600,2255,16,0.66,42.688199399999995,-84.49156479999999,277.6,1.903433084487915,18.882339477539062,-0.024000000208616257,0.0,1
1679955886.80001402,212428583,0,3,167104800,2255,16,0.66,42.6882026,-84.4915633,277.6,1.8613641262054443,18.0261173248291,-0.06800000369548798,0.0,1
1679955887.00008106,212628650,0,3,167105000,2255,16,0.66,42.6882057,-84.491562,277.61,1.7813111543655396,18.42477798461914,-0.06800000369548798,0.0,1
1679955887.20012116,212828690,0,3,167105200,2255,16,0.66,42.6882087,-84.4915608,277.62,1.7683581113815308,14.374151229858398,-0.05300000309944153,0.0,1
1679955887.40019107,213028760,0,3,167105400,2255,16,0.66,42.6882117,-84.49155979999999,277.63,1.6922647953033447,10.48654556274414,0.0560000017285347,0.0,1
1679955887.60018015,213228749,0,3,167105600,2255,16,0.66,42.688214699999996,-84.4915592,277.62,1.6460355520248413,8.489458084106445,-0.014000000432133675,0.0,1
1679955887.80022407,213428793,0,3,167105800,2255,16,0.66,42.6882176,-84.4915587,277.62,1.6357848644256592,6.881722927093506,-0.005000000353902578,0.0,1
1679955888.02008009,213648649,0,3,167106000,2255,16,0.66,42.6882205,-84.4915582,277.62,1.5905462503433228,6.280520915985107,0.07400000095367432,0.0,1
1679955888.20040417,213828973,0,3,167106200,2255,16,0.66,42.6882233,-84.4915578,277.62,1.563624382019043,6.020513534545898,0.030000001192092896,0.0,1
1679955888.40017104,214028740,0,3,167106400,2255,16,0.66,42.6882259,-84.49155739999999,277.61,1.4444186687469482,7.518626689910889,-0.04000000283122063,0.0,1
1679955888.60051918,214229088,0,3,167106600,2255,16,0.66,42.6882285,-84.49155689999999,277.62,1.3791948556900024,7.624840259552002,-0.07300000637769699,0.0,1
1679955888.80010414,214428673,0,3,167106800,2255,16,0.66,42.6882308,-84.4915565,277.62,1.2738591432571411,8.75984001159668,-0.030000001192092896,0.0,1
1679955889.01996422,214648533,0,3,167107000,2255,16,0.66,42.688233,-84.491556,277.62,1.1619936227798462,9.810891151428223,0.027000000700354576,0.0,1
1679955889.19998002,214828549,0,3,167107200,2255,16,0.66,42.6882349,-84.49155549999999,277.61,1.041574239730835,11.407025337219238,-0.01900000125169754,0.0,1
1679955889.40000105,215028570,0,3,167107400,2255,16,0.66,42.688236599999996,-84.4915553,277.62,0.9020050764083862,359.8094482421875,0.006000000052154064,0.0,1
1679955889.60006022,215228629,0,3,167107600,2255,16,0.66,42.6882382,-84.4915559,277.6,1.0009640455245972,326.5321960449219,0.14000000059604645,0.0,1
1679955889.82116222,215449731,0,3,167107800,2255,16,0.66,42.6882397,-84.491558,277.59000000000003,1.400246500968933,306.4034423828125,-0.22800001502037048,0.0,1
1679955890.02119017,215649759,0,3,167108000,2255,16,0.66,42.688241,-84.4915616,277.62,1.95208740234375,291.35992431640625,0.04100000113248825,0.0,1
1679955890.19997120,215828540,0,3,167108200,2255,16,0.66,42.6882422,-84.4915661,277.6,1.9160470962524414,289.5130310058594,0.009000000543892384,0.0,1
1679955890.40021801,216028787,0,3,167108400,2255,16,0.66,42.688243299999996,-84.49157029999999,277.58,1.7417881488800049,288.58056640625,-0.06200000271201134,0.0,1
1679955890.62130713,216249876,0,3,167108600,2255,16,0.66,42.6882442,-84.4915743,277.58,1.6081351041793823,287.1053466796875,-0.04400000348687172,0.0,1
1679955890.80036402,216428933,0,3,167108800,2255,16,0.66,42.688244999999995,-84.4915779,277.58,1.44232177734375,286.34918212890625,-0.04500000178813934,0.0,1
1679955891.00019717,216628766,0,3,167109000,2255,16,0.66,42.688245599999995,-84.4915812,277.57,1.3758419752120972,281.95513916015625,0.015000000596046448,0.0,1
1679955891.20045114,216829020,0,3,167109200,2255,16,0.66,42.688246,-84.4915843,277.56,1.2191083431243896,280.15771484375,-0.04000000283122063,0.0,1
1679955891.40031314,217028882,0,3,167109400,2255,16,0.66,42.688246299999996,-84.49158709999999,277.56,1.0685060024261475,278.77471923828125,0.04400000348687172,0.0,1
1679955891.60035110,217228920,0,3,167109600,2255,16,0.66,42.6882466,-84.49158949999999,277.56,0.9390021562576294,276.481689453125,-0.04100000113248825,0.0,1
1679955891.80035901,217428928,0,3,167109800,2255,16,0.66,42.6882467,-84.4915918,277.58,0.9077142477035522,272.27294921875,0.0010000000474974513,0.0,1
1679955892.02001619,217648585,0,3,167110000,2255,16,0.66,42.6882467,-84.4915939,277.59000000000003,0.757111668586731,269.01617431640625,0.10400000214576721,0.0,1
1679955892.20000100,217828570,0,3,167110200,2255,16,0.66,42.6882466,-84.49159499999999,277.58,0.13122881948947906,240.30926513671875,-0.046000003814697266,0.0,1
1679955892.40006614,218028635,0,3,167110400,2255,16,0.66,42.688246299999996,-84.4915943,277.58,0.707571268081665,107.18011474609375,-0.09700000286102295,0.0,1
1679955892.60018611,218228755,0,3,167110600,2255,16,0.66,42.6882458,-84.4915918,277.61,1.4232091903686523,103.82142639160156,-0.06200000271201134,0.0,1
1679955892.79996014,218428529,0,3,167110800,2255,16,0.66,42.688244999999995,-84.4915881,277.63,1.6872018575668335,105.85675811767578,-0.07100000232458115,0.0,1
1679955892.99999404,218628563,0,3,167111000,2255,16,0.66,42.6882441,-84.4915841,277.65000000000003,1.7304129600524902,107.31451416015625,-0.03700000047683716,0.0,1
1679955893.20012021,218828689,0,3,167111200,2255,16,0.66,42.688243199999995,-84.4915803,277.66,1.6289117336273193,108.13461303710938,-0.06300000101327896,0.0,1
1679955893.42048621,219049055,0,3,167111400,2255,16,0.66,42.6882422,-84.49157629999999,277.67,1.7749967575073242,108.6288833618164,0.05300000309944153,0.0,1
1679955893.60032415,219228893,0,3,167111600,2255,16,0.66,42.6882411,-84.4915718,277.63,2.2136778831481934,107.34629821777344,0.08700000494718552,0.0,1
1679955893.80014205,219428711,0,3,167111800,2255,16,0.66,42.6882397,-84.4915659,277.67,2.8188226222991943,107.25215911865234,-0.35600000619888306,0.0,1
1679955894.02011108,219648680,0,3,167112000,2255,16,0.66,42.6882381,-84.49155879999999,277.73,3.2380850315093994,106.35858154296875,-0.1900000125169754,0.0,1
1679955894.20011210,219828681,0,3,167112200,2255,16,0.66,42.688236599999996,-84.4915513,277.76,3.143998861312866,103.8947982788086,-0.012000000104308128,0.0,1
1679955894.40039015,220028959,0,3,167112400,2255,16,0.66,42.6882352,-84.49154419999999,277.76,2.915921211242676,106.20989227294922,-0.01100000087171793,0.0,1
1679955894.60024905,220228818,0,3,167112600,2255,16,0.66,42.6882337,-84.4915376,277.76,2.737276315689087,106.68721008300781,0.026000000536441803,0.0,1
1679955894.80026913,220428838,0,3,167112800,2255,16,0.66,42.688232199999995,-84.4915315,277.75,2.6035218238830566,108.21920776367188,0.04000000283122063,0.0,1
1679955895.00032806,220628897,0,3,167113000,2255,16,0.66,42.6882307,-84.4915256,277.74,2.473369598388672,110.9410400390625,0.09400000423192978,0.0,1
1679955895.20012903,220828698,0,3,167113200,2255,16,0.66,42.6882291,-84.4915201,277.74,2.4114630222320557,112.55589294433594,0.0690000057220459,0.0,1
1679955895.40009212,221028661,0,3,167113400,2255,16,0.66,42.6882273,-84.49151479999999,277.74,2.329711675643921,114.49686431884766,0.08100000023841858,0.0,1
1679955895.59996510,221228534,0,3,167113600,2255,16,0.66,42.6882255,-84.4915104,277.72,1.8105690479278564,123.37409973144531,0.06800000369548798,0.0,1
1679955895.79999900,221428568,0,3,167113800,2255,16,0.66,42.6882236,-84.49150759999999,277.7,1.3540488481521606,145.95785522460938,0.11000000685453415,0.0,1
1679955896.00011015,221628679,0,3,167114000,2255,15,0.66,42.6882217,-84.4915066,277.71,0.9932094812393188,177.1721649169922,-0.16700001060962677,0.0,1
1679955896.20017219,221828741,0,3,167114200,2255,15,0.66,42.6882199,-84.49150709999999,277.74,1.1108667850494385,202.27073669433594,-0.010000000707805157,0.0,1
1679955896.39996600,222028535,0,3,167114400,2255,16,0.66,42.688218,-84.4915082,277.76,1.1729727983474731,203.46156311035156,-0.02800000086426735,0.0,1
1679955896.60018110,222228750,0,3,167114600,2255,16,0.66,42.688216,-84.49150929999999,277.75,1.1336777210235596,198.35504150390625,-0.024000000208616257,0.0,1
1679955896.80032301,222428892,0,3,167114800,2255,16,0.66,42.688213999999995,-84.4915101,277.75,1.1386773586273193,191.7046661376953,-0.03700000047683716,0.0,1
1679955897.00032210,222628891,0,3,167115000,2255,16,0.66,42.688212,-84.4915106,277.76,1.1309200525283813,190.49517822265625,0.018000001087784767,0.0,1
1679955897.20056319,222829132,0,3,167115200,2255,16,0.66,42.6882099,-84.49151049999999,277.74,1.1960217952728271,162.08010864257812,0.004000000189989805,0.0,1
1679955897.40029812,223028867,0,3,167115400,2255,16,0.66,42.6882077,-84.49150879999999,277.73,1.6351759433746338,140.95712280273438,0.11600000411272049,0.0,1
1679955897.60021305,223228782,0,3,167115600,2255,16,0.66,42.6882053,-84.4915054,277.73,2.245896100997925,128.07411193847656,-0.08400000631809235,0.0,1
1679955897.80032206,223428891,0,3,167115800,2255,16,0.66,42.6882028,-84.4915007,277.77,2.5184381008148193,124.68075561523438,-0.09700000286102295,0.0,1
1679955898.01996517,223648534,0,3,167116000,2255,16,0.66,42.6882002,-84.4914957,277.76,2.519324779510498,124.74980926513672,-0.06100000441074371,0.0,1
1679955898.20036006,223828929,0,3,167116200,2255,16,0.66,42.688197599999995,-84.4914908,277.78000000000003,2.419076919555664,126.00299835205078,-0.039000000804662704,0.0,1
1679955898.40002918,224028598,0,3,167116400,2255,16,0.66,42.688195,-84.4914862,277.77,2.3618640899658203,127.29199981689453,-0.05100000277161598,0.0,1
1679955898.60004520,224228614,0,3,167116600,2255,16,0.66,42.6881924,-84.4914824,277.77,1.920426368713379,140.13330078125,-0.03100000135600567,0.0,1
1679955898.80033708,224428906,0,3,167116800,2255,16,0.66,42.688189699999995,-84.4914804,277.8,1.5676249265670776,162.85963439941406,-0.01100000087171793,0.0,1
1679955899.00009418,224628663,0,3,167117000,2255,16,0.66,42.688187,-84.49148,277.81,1.4935559034347534,183.95443725585938,-0.14900000393390656,0.0,1
1679955899.19995213,224828521,0,3,167117200,2255,16,0.66,42.688184299999996,-84.4914806,277.83,1.5077775716781616,194.91184997558594,-0.06300000101327896,0.0,1
1679955899.40023017,225028799,0,3,167117400,2255,16,0.66,42.6881816,-84.4914816,277.83,1.5623383522033691,194.87237548828125,-0.02500000037252903,0.0,1
1679955899.62130022,225249869,0,3,167117600,2255,16,0.66,42.6881789,-84.4914824,277.84000000000003,1.5450366735458374,190.9317626953125,0.015000000596046448,0.0,1
1679955899.80036616,225428935,0,3,167117800,2255,16,0.66,42.6881761,-84.4914831,277.83,1.5618621110916138,188.91351318359375,-0.039000000804662704,0.0,1
1679955900.02114511,225649714,0,3,167118000,2255,16,0.66,42.688173299999995,-84.49148389999999,277.84000000000003,1.6128896474838257,193.70022583007812,-0.06000000238418579,0.0,1
1679955900.20016503,225828734,0,3,167118200,2255,16,0.66,42.6881704,-84.4914854,277.82,1.7995014190673828,209.05770874023438,0.1080000028014183,0.0,1
1679955900.40031600,226028885,0,3,167118400,2255,16,0.66,42.6881677,-84.4914881,277.83,1.9975765943527222,221.59068298339844,-0.2750000059604645,0.0,1
1679955900.60035920,226228928,0,3,167118600,2255,16,0.66,42.688165,-84.491492,277.87,2.3520545959472656,232.7403564453125,-0.15600000321865082,0.0,1
1679955900.82113409,226449703,0,3,167118800,2255,16,0.66,42.688162399999996,-84.4914964,277.89,2.2686824798583984,230.79588317871094,-0.06000000238418579,0.0,1
1679955901.00027204,226628841,0,3,167119000,2255,16,0.66,42.6881597,-84.4915006,277.91,2.2507777214050293,227.52084350585938,-0.0990000069141388,0.0,1
1679955901.20051312,226829082,0,3,167119200,2255,16,0.66,42.688157,-84.4915044,277.91,2.042907953262329,224.50421142578125,-0.17500001192092896,0.0,1
1679955901.40006208,227028631,0,3,167119400,2255,16,0.66,42.688154399999995,-84.4915078,277.92,2.0022172927856445,222.12548828125,0.03500000014901161,0.0,1
1679955901.62025809,227248827,0,3,167119600,2255,16,0.66,42.6881518,-84.4915109,277.92,1.7963236570358276,220.9368896484375,0.0430000014603138,0.0,1
1679955901.79996014,227428529,0,3,167119800,2255,16,0.66,42.6881494,-84.4915137,277.91,1.7089325189590454,223.5299835205078,0.07200000435113907,0.0,1
1679955902.02116704,227649736,0,3,167120000,2255,16,0.66,42.6881473,-84.4915165,277.91,1.59186851978302,224.16009521484375,0.06000000238418579,0.0,1
1679955902.20030212,227828871,0,3,167120200,2255,16,0.66,42.688145399999996,-84.49151909999999,277.89,1.3733932971954346,229.2222442626953,0.021000001579523087,0.0,1
1679955902.40011120,228028680,0,3,167120400,2255,16,0.66,42.688144,-84.4915216,277.89,1.1842875480651855,236.18917846679688,0.08300000429153442,0.0,1
1679955902.60007119,228228640,0,3,167120600,2255,16,0.66,42.6881431,-84.49152389999999,277.89,0.9731932282447815,245.2783203125,-0.04000000283122063,0.0,1
1679955902.82033205,228448901,0,3,167120800,2255,16,0.66,42.6881425,-84.491526,277.89,0.8664467930793762,258.4825744628906,-0.046000003814697266,0.0,1
1679955903.02128720,228649856,0,3,167121000,2255,16,0.66,42.6881424,-84.491528,277.89,0.8037973046302795,274.7814025878906,-0.004000000189989805,0.0,1
1679955903.22126913,228849838,0,3,167121200,2255,16,0.66,42.6881427,-84.49152989999999,277.87,0.8242117762565613,286.5660705566406,0.03400000184774399,0.0,1
1679955903.42109203,229049661,0,3,167121400,2255,16,0.66,42.6881433,-84.49153179999999,277.88,0.8916827440261841,303.5653076171875,0.0820000022649765,0.0,1
1679955903.62114620,229249715,0,3,167121600,2255,16,0.66,42.6881444,-84.4915336,277.88,0.9969659447669983,312.9270324707031,-0.07400000095367432,0.0,1
1679955903.80016112,229428730,0,3,167121800,2255,16,0.66,42.6881458,-84.4915353,277.89,1.135352373123169,322.19140625,-0.020000001415610313,0.0,1
1679955904.02012515,229648694,0,3,167122000,2255,16,0.66,42.6881476,-84.4915369,277.88,1.2657746076583862,330.255126953125,0.05700000375509262,0.0,1
1679955904.22008514,229848654,0,3,167122200,2255,16,0.66,42.6881497,-84.49153849999999,277.86,1.4259611368179321,334.4952087402344,0.023000001907348633,0.0,1
1679955904.40035415,230028923,0,3,167122400,2255,16,0.66,42.6881522,-84.49153989999999,277.85,1.5343315601348877,337.061279296875,0.05900000408291817,0.0,1
1679955904.60021210,230228781,0,3,167122600,2255,16,0.66,42.6881548,-84.4915414,277.83,1.676378607749939,341.1003112792969,-0.01900000125169754,0.0,1
1679955904.80050015,230429069,0,3,167122800,2255,16,0.66,42.6881578,-84.4915427,277.83,1.7691470384597778,342.90679931640625,0.01900000125169754,0.0,1
1679955905.00034308,230628912,0,3,167123000,2255,16,0.66,42.6881609,-84.4915439,277.82,1.862386703491211,345.1280212402344,0.049000002443790436,0.0,1
1679955905.20017314,230828742,0,3,167123200,2255,16,0.66,42.688164199999996,-84.491545,277.81,1.9658713340759277,348.5871887207031,0.05900000408291817,0.0,1
1679955905.39995623,231028525,0,3,167123400,2255,16,0.66,42.688167799999995,-84.49154589999999,277.8,2.000849962234497,349.9256591796875,0.1810000091791153,0.0,1
1679955905.60000706,231228576,0,3,167123600,2255,16,0.66,42.6881713,-84.4915467,277.78000000000003,2.0468533039093018,351.0622863769531,0.01100000087171793,0.0,1
