timestamp,TimeUS,Lat,Lng,Alt,RelHomeAlt,RelOriginAlt
1679955829.28078914,154909358,42.688169699999996,-84.4915747,277.92999267578125,0.007975522428750992,1.9879754781723022
1679955829.38046813,155009037,42.688169699999996,-84.4915747,277.94000244140625,0.010462228208780289,1.9904621839523315
1679955829.48047018,155109039,42.688169699999996,-84.4915747,277.94000244140625,0.01052958145737648,1.9905295372009277
1679955829.58051801,155209087,42.688169699999996,-84.4915747,277.94000244140625,0.01099640503525734,1.9909963607788086
1679955829.68049121,155309060,42.688169699999996,-84.4915748,277.94000244140625,0.012132111936807632,1.9921320676803589
1679955829.78057313,155409142,42.688169699999996,-84.4915748,277.94000244140625,0.013526622205972672,1.993526577949524
1679955829.88075709,155509326,42.688169699999996,-84.4915748,277.94000244140625,0.013105813413858414,1.9931057691574097
1679955829.98045802,155609027,42.688169699999996,-84.49157489999999,277.94000244140625,0.012908045202493668,1.992908000946045
1679955830.08079720,155709366,42.688169599999995,-84.49157489999999,277.94000244140625,0.010268274694681168,1.9902682304382324
1679955830.18078113,155809350,42.688169599999995,-84.49157489999999,277.92999267578125,0.007730070501565933,1.9877300262451172
1679955830.28073716,155909306,42.688169599999995,-84.491575,277.92999267578125,0.0067326463758945465,1.9867326021194458
1679955830.38092113,156009490,42.688169599999995,-84.491575,277.92999267578125,0.006533686071634293,1.9865336418151855
1679955830.48077917,156109348,42.6881695,-84.49157509999999,277.92999267578125,0.006985608488321304,1.9869855642318726
1679955830.58111000,156209679,42.6881695,-84.49157509999999,277.92999267578125,0.007721368223428726,1.98772132396698
1679955830.68053317,156309102,42.6881695,-84.49157509999999,277.94000244140625,0.012808267027139664,1.992808222770691
1679955830.78059316,156409162,42.6881695,-84.4915752,277.94000244140625,0.017813269048929214,1.9978132247924805
1679955830.88046408,156509033,42.6881694,-84.4915752,277.9499816894531,0.021964851766824722,2.001964807510376
1679955830.98053122,156609100,42.6881694,-84.4915752,277.9499816894531,0.02495652809739113,2.0049564838409424
1679955831.08045721,156709026,42.6881694,-84.4915752,277.9499816894531,0.027834001928567886,2.007833957672119
1679955831.18081307,156809382,42.6881693,-84.4915753,277.9599914550781,0.03052932396531105,2.0105292797088623
1679955831.28092313,156909492,42.6881693,-84.4915753,277.9599914550781,0.03093988075852394,2.010939836502075
1679955831.38047814,157009047,42.6881693,-84.4915753,277.9599914550781,0.030822817236185074,2.0108227729797363
1679955831.48048615,157109055,42.6881692,-84.4915754,277.9599914550781,0.03129393234848976,2.011293888092041
1679955831.58057618,157209145,42.6881692,-84.4915754,277.9599914550781,0.03253084793686867,2.01253080368042
1679955831.68053412,157309103,42.6881692,-84.4915755,277.9599914550781,0.03143388405442238,2.0114338397979736
1679955831.78064013,157409209,42.688169099999996,-84.4915755,277.9599914550781,0.030363623052835464,2.0103635787963867
1679955831.88079500,157509364,42.688169099999996,-84.4915755,277.9499816894531,0.0247691310942173,2.0047690868377686
1679955831.98077917,157609348,42.688169099999996,-84.49157559999999,277.94000244140625,0.019705358892679214,1.9997053146362305
1679955832.08070612,157709275,42.688169099999996,-84.49157559999999,277.94000244140625,0.015273991972208023,1.9952739477157593
1679955832.18072200,157809291,42.688168999999995,-84.4915757,277.94000244140625,0.011562529951334,1.9915624856948853
1679955832.28065014,157909219,42.688168999999995,-84.4915757,277.92999267578125,0.00732523575425148,1.9873251914978027
1679955832.38063717,158009206,42.688168999999995,-84.49157579999999,277.92999267578125,0.004273120313882828,1.984273076057434
1679955832.48065710,158109226,42.688168999999995,-84.49157579999999,277.92999267578125,0.00014680996537208557,1.9801467657089233
1679955832.58095908,158209528,42.688168999999995,-84.49157579999999,277.91998291015625,-0.003713902086019516,1.9762860536575317
1679955832.68046212,158309031,42.688168999999995,-84.49157579999999,277.91998291015625,-0.0076460205018520355,1.9723539352416992
1679955832.78057218,158409141,42.6881689,-84.4915759,277.9100036621094,-0.010687287896871567,1.9693126678466797
1679955832.88046002,158509029,42.6881689,-84.4915759,277.9100036621094,-0.01325434073805809,1.9667456150054932
1679955832.98044109,158609010,42.6881689,-84.491576,277.9100036621094,-0.013886388391256332,1.966113567352295
1679955833.08054113,158709110,42.6881689,-84.491576,277.9100036621094,-0.015799816697835922,1.9642001390457153
1679955833.18047905,158809048,42.6881689,-84.491576,277.9100036621094,-0.016967233270406723,1.9630327224731445
1679955833.28071404,158909283,42.6881689,-84.491576,277.9100036621094,-0.015662726014852524,1.9643372297286987
1679955833.38064122,159009210,42.6881689,-84.4915761,277.9100036621094,-0.014071639627218246,1.965928316116333
1679955833.48056412,159109133,42.6881689,-84.4915761,277.9100036621094,-0.014530356973409653,1.9654695987701416
1679955833.58058810,159209157,42.6881689,-84.4915761,277.9100036621094,-0.014751490205526352,1.965248465538025
1679955833.68081212,159309381,42.6881689,-84.4915761,277.9100036621094,-0.014410432428121567,1.9655895233154297
1679955833.78061223,159409181,42.6881688,-84.4915761,277.9100036621094,-0.010649498552083969,1.9693504571914673
1679955833.88081622,159509385,42.6881688,-84.4915761,277.92999267578125,0.003861609846353531,1.9838615655899048
1679955833.98082399,159609393,42.6881687,-84.491576,277.9599914550781,0.03926664963364601,2.0192666053771973
1679955834.08081317,159709382,42.6881686,-84.491576,278.0199890136719,0.09959465265274048,2.079594612121582
1679955834.18072510,159809294,42.688168499999996,-84.4915759,278.0899963378906,0.16847306489944458,2.148473024368286
1679955834.28072500,159909294,42.688168399999995,-84.4915759,278.1600036621094,0.2336936593055725,2.213693618774414
1679955834.38098001,160009549,42.688168399999995,-84.4915759,278.2200012207031,0.29049330949783325,2.270493268966675
1679955834.48074317,160109312,42.688168499999996,-84.4915759,278.2599792480469,0.3343392014503479,2.3143391609191895
1679955834.58083916,160209408,42.688168499999996,-84.4915759,278.29998779296875,0.37299543619155884,2.3529953956604004
1679955834.68078017,160309349,42.688168499999996,-84.491576,278.3299865722656,0.4016419053077698,2.3816418647766113
1679955834.78052616,160409095,42.688168499999996,-84.491576,278.3500061035156,0.4275885224342346,2.407588481903076
1679955834.88051319,160509082,42.688168399999995,-84.491576,278.3800048828125,0.4511111378669739,2.4311110973358154
1679955834.98049307,160609062,42.688168399999995,-84.491576,278.3999938964844,0.47852832078933716,2.4585282802581787
1679955835.08049512,160709064,42.6881682,-84.491576,278.44000244140625,0.5115454792976379,2.4915454387664795
1679955835.18054223,160809111,42.6881682,-84.4915759,278.4700012207031,0.5475021004676819,2.5275020599365234
1679955835.28073812,160909307,42.6881681,-84.4915759,278.5099792480469,0.589255154132843,2.5692551136016846
1679955835.38049221,161009061,42.6881681,-84.491576,278.55999755859375,0.6329055428504944,2.612905502319336
1679955835.48055601,161109125,42.688168,-84.4915761,278.6099853515625,0.6801250576972961,2.6601250171661377
1679955835.58060122,161209170,42.688168,-84.4915761,278.6499938964844,0.7297399640083313,2.709739923477173
1679955835.68047023,161309039,42.6881681,-84.4915762,278.7099914550781,0.7808018326759338,2.7608017921447754
1679955835.78053308,161409102,42.6881682,-84.4915762,278.7599792480469,0.8316698670387268,2.8116698265075684
1679955835.88048601,161509055,42.6881682,-84.4915764,278.80999755859375,0.8860519528388977,2.8660519123077393
1679955835.98072410,161609293,42.6881682,-84.4915765,278.8699951171875,0.943315327167511,2.9233152866363525
1679955836.08055520,161709124,42.688168399999995,-84.4915766,278.92999267578125,1.0027438402175903,2.982743740081787
1679955836.18056202,161809131,42.6881686,-84.49157679999999,278.989990234375,1.0647119283676147,3.0447118282318115
1679955836.28046823,161909037,42.6881688,-84.4915769,279.04998779296875,1.1298540830612183,3.109853982925415
1679955836.38061404,162009183,42.688168999999995,-84.49157699999999,279.1199951171875,1.199036955833435,3.179036855697632
1679955836.48046422,162109033,42.6881692,-84.4915771,279.19000244140625,1.2695025205612183,3.249502420425415
1679955836.58083820,162209407,42.6881694,-84.4915771,279.2599792480469,1.3380063772201538,3.3180062770843506
1679955836.68083620,162309405,42.688169599999995,-84.4915771,279.3299865722656,1.407218098640442,3.3872179985046387
1679955836.78051209,162409081,42.688169699999996,-84.4915771,279.3999938964844,1.4750336408615112,3.455033540725708
1679955836.88062811,162509197,42.6881699,-84.4915771,279.4700012207031,1.5406779050827026,3.5206778049468994
1679955836.98068500,162609254,42.6881701,-84.4915772,279.5299987792969,1.602429747581482,3.5824296474456787
1679955837.08072305,162709292,42.688170299999996,-84.4915772,279.5799865722656,1.657891869544983,3.6378917694091797
1679955837.18069220,162809261,42.6881706,-84.4915773,279.6300048828125,1.7075968980789185,3.6875967979431152
1679955837.28091216,162909481,42.688170799999995,-84.4915773,279.66998291015625,1.7478653192520142,3.727865219116211
1679955837.38079715,163009366,42.688171,-84.4915774,279.7099914550781,1.7817493677139282,3.761749267578125
1679955837.48047400,163109043,42.6881711,-84.4915774,279.739990234375,1.81039559841156,3.790395498275757
1679955837.58074117,163209310,42.6881712,-84.4915774,279.7599792480469,1.8352891206741333,3.81528902053833
1679955837.68048120,163309050,42.688171399999995,-84.4915774,279.7799987792969,1.8572746515274048,3.8372745513916016
1679955837.78056407,163409133,42.688171499999996,-84.4915773,279.79998779296875,1.8764864206314087,3.8564863204956055
1679955837.88052917,163509098,42.6881717,-84.4915772,279.82000732421875,1.8930965662002563,3.873096466064453
1679955837.98075223,163609321,42.6881718,-84.49157699999999,279.8399963378906,1.9127386808395386,3.8927385807037354
1679955838.08048511,163709054,42.6881719,-84.4915769,279.8599853515625,1.9394837617874146,3.9194836616516113
1679955838.18055320,163809122,42.688172,-84.4915766,279.8999938964844,1.9738608598709106,3.9538607597351074
1679955838.28046322,163909032,42.688172,-84.4915764,279.94000244140625,2.013093948364258,3.993093967437744
1679955838.38049412,164009063,42.688172,-84.4915762,279.97998046875,2.0563278198242188,4.036327838897705
1679955838.48049712,164109066,42.6881719,-84.491576,280.0299987792969,2.104887008666992,4.0848870277404785
1679955838.58054304,164209112,42.6881718,-84.4915759,280.0799865722656,2.158383369445801,4.138383388519287
1679955838.68050313,164309072,42.6881718,-84.49157579999999,280.1399841308594,2.218733310699463,4.198733329772949
1679955838.78058410,164409153,42.6881718,-84.49157559999999,280.2099914550781,2.2837657928466797,4.263765811920166
1679955838.88056421,164509133,42.6881718,-84.49157559999999,280.2799987792969,2.353184700012207,4.333184719085693
1679955838.98047519,164609044,42.6881718,-84.4915755,280.3500061035156,2.426133155822754,4.40613317489624
1679955839.08079314,164709362,42.6881718,-84.4915755,280.41998291015625,2.4992618560791016,4.479261875152588
1679955839.18047714,164809046,42.6881717,-84.4915755,280.5,2.576812267303467,4.556812286376953
1679955839.28076005,164909329,42.6881718,-84.4915754,280.57000732421875,2.64900541305542,4.629005432128906
1679955839.38083816,165009407,42.6881718,-84.4915754,280.6399841308594,2.7158560752868652,4.695856094360352
1679955839.48077703,165109346,42.6881718,-84.4915752,280.6999816894531,2.7744998931884766,4.754499912261963
1679955839.58076715,165209336,42.6881719,-84.49157509999999,280.75,2.8261032104492188,4.806103229522705
1679955839.68085909,165309428,42.6881719,-84.491575,280.7900085449219,2.86893892288208,4.848938941955566
1679955839.78102303,165409592,42.688172,-84.49157489999999,280.8299865722656,2.9064197540283203,4.886419773101807
1679955839.88073111,165509300,42.688172,-84.4915748,280.8699951171875,2.942634105682373,4.922634124755859
1679955839.98079705,165609366,42.688172099999996,-84.4915747,280.8999938964844,2.9745912551879883,4.954591274261475
1679955840.08079720,165709366,42.688172099999996,-84.49157459999999,280.92999267578125,3.000418186187744,4.9804182052612305
1679955840.18080616,165809375,42.688172099999996,-84.4915745,280.9499816894531,3.0221872329711914,5.002187252044678
1679955840.28081512,165909384,42.688172,-84.49157439999999,280.9599914550781,3.0393567085266113,5.019356727600098
1679955840.38079119,166009360,42.6881719,-84.4915743,280.97998046875,3.0545654296875,5.034565448760986
1679955840.48049212,166109061,42.6881718,-84.4915742,280.989990234375,3.0664544105529785,5.046454429626465
1679955840.58070707,166209276,42.6881717,-84.4915741,281.0,3.0731277465820312,5.053127765655518
1679955840.68068314,166309252,42.6881716,-84.491574,281.0,3.0741138458251953,5.054113864898682
1679955840.78071713,166409286,42.688171399999995,-84.491574,281.0,3.0732970237731934,5.05329704284668
1679955840.88073421,166509303,42.6881713,-84.491574,280.989990234375,3.067300796508789,5.047300815582275
1679955840.98074222,166609311,42.6881711,-84.491574,280.97998046875,3.0579233169555664,5.037923336029053
1679955841.08091903,166709488,42.688170899999996,-84.491574,280.9700012207031,3.0451130867004395,5.025113105773926
1679955841.18083310,166809402,42.688170799999995,-84.49157389999999,280.9599914550781,3.030102252960205,5.010102272033691
1679955841.28047204,166909041,42.6881705,-84.49157389999999,280.94000244140625,3.010629653930664,4.99062967300415
1679955841.38049912,167009068,42.688170299999996,-84.49157389999999,280.9100036621094,2.989314079284668,4.969314098358154
1679955841.48054218,167109111,42.6881701,-84.491574,280.8899841308594,2.963559150695801,4.943559169769287
1679955841.58061314,167209182,42.6881698,-84.491574,280.8599853515625,2.9363622665405273,4.916362285614014
1679955841.68047309,167309042,42.6881695,-84.4915742,280.8299865722656,2.9097042083740234,4.88970422744751
1679955841.78087020,167409439,42.6881692,-84.4915743,280.80999755859375,2.8845067024230957,4.864506721496582
1679955841.88078213,167509351,42.6881689,-84.49157439999999,280.7799987792969,2.851166248321533,4.8311662673950195
1679955841.98047018,167609039,42.6881686,-84.4915747,280.739990234375,2.818814754486084,4.79881477355957
1679955842.08049202,167709061,42.688168399999995,-84.49157489999999,280.7099914550781,2.787869930267334,4.76786994934082
1679955842.18049622,167809065,42.6881682,-84.4915752,280.69000244140625,2.760122299194336,4.740122318267822
1679955842.28050613,167909075,42.688168,-84.4915754,280.6600036621094,2.7367377281188965,4.716737747192383
1679955842.38055205,168009121,42.688167799999995,-84.49157559999999,280.6399841308594,2.7182140350341797,4.698214054107666
1679955842.48055911,168109128,42.6881677,-84.49157579999999,280.6300048828125,2.7012829780578613,4.681282997131348
1679955842.58059907,168209168,42.6881675,-84.491576,280.6099853515625,2.6868581771850586,4.666858196258545
1679955842.68053818,168309107,42.6881674,-84.4915761,280.6000061035156,2.673887252807617,4.6538872718811035
1679955842.78048205,168409051,42.688167299999996,-84.49157629999999,280.5899963378906,2.6634268760681152,4.643426895141602
1679955842.88078213,168509351,42.6881671,-84.4915765,280.5799865722656,2.655996322631836,4.635996341705322
1679955842.98083401,168609403,42.688167,-84.4915766,280.5799865722656,2.651764392852783,4.6317644119262695
1679955843.08079219,168709361,42.6881668,-84.49157679999999,280.5799865722656,2.6511950492858887,4.631195068359375
1679955843.18074703,168809316,42.6881667,-84.49157699999999,280.5799865722656,2.651240348815918,4.631240367889404
1679955843.28075600,168909325,42.6881665,-84.4915771,280.57000732421875,2.6493921279907227,4.629392147064209
1679955843.38076210,169009331,42.6881664,-84.4915773,280.57000732421875,2.648543357849121,4.628543376922607
1679955843.48089004,169109459,42.6881662,-84.49157749999999,280.57000732421875,2.6457443237304688,4.625744342803955
1679955843.58083701,169209406,42.688165999999995,-84.4915776,280.57000732421875,2.6452503204345703,4.625250339508057
1679955843.68079209,169309361,42.6881659,-84.4915778,280.57000732421875,2.643812656402588,4.623812675476074
1679955843.78078103,169409350,42.6881658,-84.49157799999999,280.57000732421875,2.6455330848693848,4.625533103942871
1679955843.88089609,169509465,42.6881657,-84.49157819999999,280.57000732421875,2.649444103240967,4.629444122314453
1679955843.98066115,169609230,42.6881656,-84.4915784,280.5799865722656,2.652050495147705,4.632050514221191
1679955844.08063221,169709201,42.6881656,-84.49157869999999,280.5799865722656,2.6536707878112793,4.633670806884766
1679955844.18065500,169809224,42.6881656,-84.4915789,280.5799865722656,2.6571993827819824,4.637199401855469
1679955844.28087115,169909440,42.6881657,-84.4915791,280.5899963378906,2.662564754486084,4.64256477355957
1679955844.38053012,170009099,42.6881657,-84.49157939999999,280.5899963378906,2.6673622131347656,4.647362232208252
1679955844.48054504,170109114,42.6881658,-84.4915796,280.6000061035156,2.6731934547424316,4.653193473815918
1679955844.58060908,170209178,42.6881658,-84.4915798,280.6099853515625,2.680758476257324,4.6607584953308105
1679955844.68049002,170309059,42.6881659,-84.49158,280.6099853515625,2.6856961250305176,4.665696144104004
1679955844.78051901,170409088,42.688165999999995,-84.4915802,280.6199951171875,2.693552017211914,4.6735520362854
1679955844.88048816,170509057,42.688165999999995,-84.4915803,280.6300048828125,2.7030811309814453,4.683081150054932
1679955844.98071623,170609285,42.6881662,-84.4915805,280.6399841308594,2.7135300636291504,4.693530082702637
1679955845.08055019,170709119,42.6881663,-84.49158059999999,280.6499938964844,2.7224502563476562,4.702450275421143
1679955845.18056512,170809134,42.6881664,-84.4915808,280.6600036621094,2.7310266494750977,4.711026668548584
1679955845.28046823,170909037,42.6881665,-84.4915809,280.6600036621094,2.7389707565307617,4.718970775604248
1679955845.38054204,171009111,42.688166599999995,-84.491581,280.66998291015625,2.747147560119629,4.727147579193115
1679955845.48045802,171109027,42.688166599999995,-84.491581,280.67999267578125,2.7549614906311035,4.73496150970459
1679955845.58054304,171209112,42.6881667,-84.49158109999999,280.69000244140625,2.762240409851074,4.7422404289245605
1679955845.68050218,171309071,42.6881667,-84.49158109999999,280.6999816894531,2.7719955444335938,4.75199556350708
1679955845.78054309,171409112,42.6881668,-84.49158109999999,280.7099914550781,2.781031608581543,4.761031627655029
1679955845.88073611,171509305,42.6881668,-84.4915812,280.7099914550781,2.7882046699523926,4.768204689025879
1679955845.98065209,171609221,42.6881668,-84.4915812,280.7200012207031,2.792393207550049,4.772393226623535
1679955846.08078408,171709353,42.6881668,-84.49158129999999,280.7200012207031,2.7943291664123535,4.77432918548584
1679955846.18073702,171809306,42.6881668,-84.49158129999999,280.7200012207031,2.7952775955200195,4.775277614593506
1679955846.28078008,171909349,42.6881668,-84.49158129999999,280.7200012207031,2.794764995574951,4.7747650146484375
1679955846.38079309,172009362,42.6881667,-84.4915814,280.7200012207031,2.7936935424804688,4.773693561553955
1679955846.48077917,172109348,42.688166599999995,-84.4915814,280.7200012207031,2.7917699813842773,4.771770000457764
1679955846.58090115,172209470,42.688166599999995,-84.4915814,280.7099914550781,2.7887940406799316,4.768794059753418
1679955846.68066120,172309230,42.6881665,-84.4915814,280.7099914550781,2.7846670150756836,4.76466703414917
1679955846.78070617,172409275,42.6881663,-84.4915814,280.6999816894531,2.779733180999756,4.759733200073242
1679955846.88067102,172509240,42.6881662,-84.4915814,280.6999816894531,2.772965431213379,4.752965450286865
1679955846.98071313,172609282,42.688165999999995,-84.4915815,280.69000244140625,2.7662758827209473,4.746275901794434
1679955847.08070207,172709271,42.6881658,-84.49158159999999,280.67999267578125,2.756340980529785,4.7363409996032715
1679955847.18095207,172809521,42.6881656,-84.4915817,280.66998291015625,2.7473630905151367,4.727363109588623
1679955847.28079200,172909361,42.6881653,-84.49158179999999,280.66998291015625,2.742190361022949,4.7221903800964355
1679955847.38080621,173009375,42.6881651,-84.4915819,280.6600036621094,2.7376694679260254,4.717669486999512
1679955847.48085308,173109422,42.6881649,-84.4915819,280.6499938964844,2.729983329772949,4.7099833488464355
1679955847.58086705,173209436,42.688164799999996,-84.4915821,280.6499938964844,2.7239813804626465,4.703981399536133
1679955847.68073416,173309303,42.6881646,-84.4915822,280.6399841308594,2.717391014099121,4.697391033172607
1679955847.78077817,173409347,42.6881645,-84.4915824,280.6399841308594,2.711848735809326,4.6918487548828125
1679955847.88097906,173509548,42.6881644,-84.4915826,280.6300048828125,2.708132743835449,4.6881327629089355
1679955847.98048401,173609053,42.6881643,-84.49158279999999,280.6300048828125,2.706212043762207,4.686212062835693
1679955848.08055615,173709125,42.6881644,-84.4915831,280.6300048828125,2.703174114227295,4.683174133300781
1679955848.18045521,173809024,42.6881643,-84.4915834,280.6300048828125,2.7008309364318848,4.680830955505371
1679955848.28047800,173909047,42.6881644,-84.49158369999999,280.6199951171875,2.6986751556396484,4.678675174713135
1679955848.38050723,174009076,42.6881646,-84.491584,280.6199951171875,2.6988277435302734,4.67882776260376
1679955848.48058915,174109158,42.6881647,-84.4915843,280.6300048828125,2.7018003463745117,4.681800365447998
1679955848.58077717,174209346,42.6881649,-84.4915846,280.6300048828125,2.7054004669189453,4.685400485992432
1679955848.68054223,174309111,42.6881651,-84.49158489999999,280.6300048828125,2.7049193382263184,4.684919357299805
1679955848.78058815,174409157,42.6881653,-84.4915851,280.6300048828125,2.7043404579162598,4.684340476989746
1679955848.88053703,174509106,42.688165399999995,-84.4915853,280.6300048828125,2.705247402191162,4.685247421264648
1679955848.98055816,174609127,42.6881656,-84.49158539999999,280.6300048828125,2.7060556411743164,4.686055660247803
1679955849.08046722,174709036,42.6881658,-84.4915855,280.6399841308594,2.7104320526123047,4.690432071685791
1679955849.18048406,174809053,42.688165999999995,-84.4915856,280.6399841308594,2.7174630165100098,4.697463035583496
1679955849.28049111,174909060,42.6881661,-84.4915857,280.6499938964844,2.7226834297180176,4.702683448791504
1679955849.38050008,175009069,42.6881662,-84.4915858,280.6499938964844,2.727940082550049,4.707940101623535
1679955849.48052406,175109093,42.6881664,-84.4915858,280.6600036621094,2.7321157455444336,4.71211576461792
1679955849.58073020,175209299,42.6881665,-84.4915857,280.6600036621094,2.733652114868164,4.71365213394165
1679955849.68073010,175309299,42.688166599999995,-84.4915856,280.6600036621094,2.7318921089172363,4.711892127990723
1679955849.78073907,175409308,42.6881667,-84.4915855,280.6600036621094,2.7303833961486816,4.710383415222168
1679955849.88075519,175509324,42.6881668,-84.4915853,280.6499938964844,2.7295727729797363,4.709572792053223
1679955849.98075104,175609320,42.6881668,-84.4915851,280.6499938964844,2.729729652404785,4.7097296714782715
1679955850.08092999,175709499,42.6881669,-84.49158489999999,280.6600036621094,2.731342315673828,4.7113423347473145
1679955850.18054605,175809115,42.6881669,-84.4915846,280.6600036621094,2.7330946922302246,4.713094711303711
1679955850.28046823,175909037,42.6881669,-84.49158419999999,280.6600036621094,2.7345833778381348,4.714583396911621
1679955850.38050413,176009073,42.6881668,-84.4915839,280.6600036621094,2.7375574111938477,4.717557430267334
1679955850.48055100,176109120,42.6881667,-84.49158349999999,280.6600036621094,2.737973690032959,4.717973709106445
1679955850.58081913,176209388,42.688166599999995,-84.4915832,280.6600036621094,2.738328456878662,4.718328475952148
1679955850.68048620,176309055,42.6881665,-84.49158279999999,280.66998291015625,2.7402162551879883,4.720216274261475
1679955850.78082514,176409394,42.6881664,-84.49158249999999,280.66998291015625,2.741990566253662,4.721990585327148
1679955850.88079405,176509363,42.6881663,-84.4915822,280.66998291015625,2.7448487281799316,4.724848747253418
1679955850.98079705,176609366,42.6881663,-84.4915819,280.67999267578125,2.750424861907959,4.730424880981445
1679955851.08084416,176709413,42.6881661,-84.49158159999999,280.67999267578125,2.750502586364746,4.730502605438232
1679955851.18077302,176809342,42.688165999999995,-84.49158129999999,280.66998291015625,2.7474827766418457,4.727482795715332
1679955851.28069615,176909265,42.6881658,-84.491581,280.66998291015625,2.7433791160583496,4.723379135131836
1679955851.38073421,177009303,42.6881657,-84.4915807,280.66998291015625,2.7428274154663086,4.722827434539795
1679955851.48098421,177109553,42.6881656,-84.4915805,280.66998291015625,2.740900993347168,4.720901012420654
1679955851.58060408,177209173,42.6881655,-84.4915803,280.6600036621094,2.7391767501831055,4.719176769256592
1679955851.68073010,177309299,42.6881656,-84.4915802,280.6600036621094,2.7392101287841797,4.719210147857666
1679955851.78050017,177409069,42.6881657,-84.49158,280.66998291015625,2.7423830032348633,4.72238302230835
1679955851.88048220,177509051,42.6881658,-84.49157989999999,280.66998291015625,2.746181011199951,4.7261810302734375
1679955851.98050117,177609070,42.6881659,-84.4915797,280.66998291015625,2.7490334510803223,4.729033470153809
1679955852.08049822,177709067,42.688165999999995,-84.4915796,280.67999267578125,2.7507948875427246,4.730794906616211
1679955852.18051815,177809087,42.6881662,-84.49157939999999,280.67999267578125,2.7532525062561035,4.73325252532959
1679955852.28061318,177909182,42.6881663,-84.49157919999999,280.67999267578125,2.7548413276672363,4.734841346740723
1679955852.38075805,178009327,42.6881664,-84.4915791,280.67999267578125,2.7546796798706055,4.734679698944092
1679955852.48073101,178109300,42.6881664,-84.4915789,280.67999267578125,2.752389430999756,4.732389450073242
1679955852.58077908,178209348,42.6881664,-84.4915788,280.67999267578125,2.7532730102539062,4.733273029327393
1679955852.68091106,178309480,42.6881664,-84.4915788,280.67999267578125,2.756275177001953,4.7362751960754395
1679955852.78072405,178409293,42.6881663,-84.49157869999999,280.69000244140625,2.7602782249450684,4.740278244018555
1679955852.88071513,178509284,42.6881663,-84.4915786,280.69000244140625,2.7644782066345215,4.744478225708008
1679955852.98065114,178609220,42.6881662,-84.4915785,280.69000244140625,2.7684073448181152,4.748407363891602
1679955853.08073306,178709302,42.688165999999995,-84.4915784,280.6999816894531,2.7708816528320312,4.750881671905518
1679955853.18056107,178809130,42.688165999999995,-84.4915783,280.6999816894531,2.772264003753662,4.752264022827148
1679955853.28055906,178909128,42.6881658,-84.4915783,280.6999816894531,2.77236270904541,4.7523627281188965
1679955853.38052011,179009089,42.6881656,-84.49157819999999,280.6999816894531,2.772883892059326,4.7528839111328125
1679955853.48053622,179109105,42.688165399999995,-84.49157819999999,280.6999816894531,2.77266788482666,4.7526679039001465
1679955853.58060217,179209171,42.6881653,-84.4915781,280.6999816894531,2.7720322608947754,4.752032279968262
1679955853.68076921,179309338,42.6881651,-84.4915781,280.69000244140625,2.7689461708068848,4.748946189880371
1679955853.78085113,179409420,42.6881649,-84.4915781,280.69000244140625,2.7661118507385254,4.746111869812012
1679955853.88048100,179509050,42.688164799999996,-84.4915781,280.69000244140625,2.7663559913635254,4.746356010437012
1679955853.98048615,179609055,42.6881647,-84.49157799999999,280.69000244140625,2.769345283508301,4.749345302581787
1679955854.08055520,179709124,42.6881646,-84.49157799999999,280.6999816894531,2.772432327270508,4.752432346343994
1679955854.18054914,179809118,42.6881644,-84.4915779,280.6999816894531,2.77304744720459,4.753047466278076
1679955854.28046918,179909038,42.6881643,-84.4915778,280.6999816894531,2.773163318634033,4.7531633377075195
1679955854.38085508,180009424,42.688164199999996,-84.4915778,280.6999816894531,2.7751002311706543,4.755100250244141
1679955854.48077106,180109340,42.6881641,-84.4915777,280.6999816894531,2.7766737937927246,4.756673812866211
1679955854.58084416,180209413,42.6881641,-84.4915777,280.6999816894531,2.7780861854553223,4.758086204528809
1679955854.68085003,180309419,42.688164199999996,-84.4915778,280.6999816894531,2.7755446434020996,4.755544662475586
1679955854.78083920,180409408,42.6881643,-84.4915778,280.6999816894531,2.7745399475097656,4.754539966583252
1679955854.88071918,180509288,42.6881644,-84.4915778,280.6999816894531,2.77467679977417,4.754676818847656
1679955854.98072505,180609294,42.6881646,-84.4915779,280.6999816894531,2.7758336067199707,4.755833625793457
1679955855.08076620,180709335,42.6881647,-84.4915779,280.6999816894531,2.779510498046875,4.759510517120361
1679955855.18072009,180809289,42.688164799999996,-84.4915779,280.7099914550781,2.782970428466797,4.762970447540283
1679955855.28096700,180909536,42.688165,-84.4915779,280.7200012207031,2.790632724761963,4.770632743835449
1679955855.38076901,181009338,42.6881653,-84.49157799999999,280.7200012207031,2.799783229827881,4.779783248901367
1679955855.48072720,181109296,42.6881656,-84.49157799999999,280.72998046875,2.806713581085205,4.786713600158691
1679955855.58082700,181209396,42.688165999999995,-84.49157799999999,280.739990234375,2.8146867752075195,4.794686794281006
1679955855.68080807,181309377,42.6881663,-84.49157799999999,280.75,2.82568359375,4.805683612823486
1679955855.78074217,181409311,42.6881667,-84.49157799999999,280.7599792480469,2.8381385803222656,4.818138599395752
1679955855.88053513,181509104,42.6881671,-84.4915781,280.7799987792969,2.8538150787353516,4.833815097808838
1679955855.98057222,181609141,42.6881675,-84.4915781,280.79998779296875,2.8712573051452637,4.85125732421875
1679955856.08047700,181709046,42.688168,-84.49157819999999,280.80999755859375,2.8888602256774902,4.868860244750977
1679955856.18052602,181809095,42.6881686,-84.4915783,280.8299865722656,2.906212329864502,4.886212348937988
1679955856.28046823,181909037,42.6881692,-84.4915784,280.8500061035156,2.922945022583008,4.902945041656494
1679955856.38078213,182009351,42.6881698,-84.4915786,280.8699951171875,2.9420905113220215,4.922090530395508
1679955856.48054218,182109111,42.6881705,-84.49157869999999,280.8899841308594,2.9683117866516113,4.948311805725098
1679955856.58054209,182209111,42.6881712,-84.4915788,280.92999267578125,3.0013937950134277,4.981393814086914
1679955856.68051815,182309087,42.6881719,-84.4915789,280.9599914550781,3.036226272583008,5.016226291656494
1679955856.78057218,182409141,42.688172699999996,-84.491579,281.0,3.0720043182373047,5.052004337310791
1679955856.88057017,182509139,42.6881735,-84.4915791,281.0299987792969,3.109663963317871,5.089663982391357
1679955856.98049021,182609059,42.6881743,-84.49157919999999,281.07000732421875,3.146759510040283,5.1267595291137695
1679955857.08079314,182709362,42.688175099999995,-84.49157939999999,281.1099853515625,3.1835451126098633,5.16354513168335
1679955857.18047214,182809041,42.6881759,-84.4915795,281.1399841308594,3.218759059906006,5.198759078979492
1679955857.28078222,182909351,42.6881767,-84.4915796,281.17999267578125,3.2504754066467285,5.230475425720215
1679955857.38085604,183009425,42.688177599999996,-84.4915798,281.1999816894531,3.2792258262634277,5.259225845336914
1679955857.48078012,183109349,42.6881785,-84.49157989999999,281.22998046875,3.305022716522217,5.285022735595703
1679955857.58075809,183209327,42.6881795,-84.49158,281.2599792480469,3.3309803009033203,5.310980319976807
1679955857.68073416,183309303,42.6881804,-84.49158,281.2799987792969,3.3560900688171387,5.336090087890625
1679955857.78097606,183409545,42.6881814,-84.4915801,281.30999755859375,3.380312919616699,5.3603129386901855
1679955857.88049722,183509066,42.6881823,-84.4915801,281.3299865722656,3.402712345123291,5.382712364196777
1679955857.98075318,183609322,42.6881833,-84.4915801,281.3500061035156,3.425414562225342,5.405414581298828
1679955858.08073211,183709301,42.688184199999995,-84.4915801,281.3800048828125,3.4510879516601562,5.431087970733643
1679955858.18074203,183809311,42.6881852,-84.4915801,281.3999938964844,3.478923797607422,5.458923816680908
1679955858.28075600,183909325,42.688186099999996,-84.4915801,281.42999267578125,3.509838104248047,5.489838123321533
1679955858.38066506,184009234,42.688187,-84.4915801,281.4700012207031,3.544430732727051,5.524430751800537
1679955858.48062921,184109198,42.688188,-84.4915801,281.5099792480469,3.5802664756774902,5.560266494750977
1679955858.58084321,184209412,42.6881889,-84.4915801,281.54998779296875,3.620604991912842,5.600605010986328
1679955858.68087912,184309448,42.688189799999996,-84.4915802,281.5899963378906,3.6673684120178223,5.647368431091309
1679955858.78075910,184409328,42.6881907,-84.4915802,281.6499938964844,3.7200064659118652,5.700006484985352
1679955858.88052917,184509098,42.688191499999995,-84.4915803,281.6999816894531,3.7756423950195312,5.755642414093018
1679955858.98048115,184609050,42.6881923,-84.4915803,281.7599792480469,3.8324952125549316,5.812495231628418
1679955859.08050108,184709070,42.6881931,-84.49158039999999,281.80999755859375,3.887910842895508,5.867910861968994
1679955859.18051910,184809088,42.688193999999996,-84.49158059999999,281.8599853515625,3.9389195442199707,5.918919563293457
1679955859.28048515,184909054,42.6881948,-84.49158059999999,281.9100036621094,3.9870481491088867,5.967048168182373
1679955859.38073707,185009306,42.6881956,-84.4915808,281.9599914550781,4.032437801361084,6.01243782043457
1679955859.48055720,185109126,42.6881965,-84.4915809,282.0,4.0730133056640625,6.053013324737549
1679955859.58074117,185209310,42.6881973,-84.491581,282.0299987792969,4.105119705200195,6.085119724273682
1679955859.68068123,185309250,42.6881981,-84.49158109999999,282.04998779296875,4.125442028045654,6.105442047119141
1679955859.78078508,185409354,42.688198899999996,-84.49158129999999,282.07000732421875,4.141697883605957,6.121697902679443
1679955859.88076115,185509330,42.6881997,-84.4915814,282.0799865722656,4.15506649017334,6.135066509246826
1679955859.98093319,185609502,42.6882004,-84.4915814,282.0899963378906,4.168025016784668,6.148025035858154
1679955860.08084416,185709413,42.6882011,-84.4915815,282.1099853515625,4.180762767791748,6.160762786865234
1679955860.18081307,185809382,42.688201799999995,-84.49158159999999,282.1199951171875,4.194702625274658,6.1747026443481445
1679955860.28072810,185909297,42.688202499999996,-84.49158159999999,282.1300048828125,4.207967758178711,6.187967777252197
1679955860.38057613,186009145,42.688203099999996,-84.49158159999999,282.1499938964844,4.223099231719971,6.203099250793457
1679955860.48058105,186109150,42.6882036,-84.49158159999999,282.16998291015625,4.241641998291016,6.221642017364502
1679955860.58058906,186209158,42.6882041,-84.49158159999999,282.19000244140625,4.261824131011963,6.241824150085449
1679955860.68055701,186309126,42.6882045,-84.49158159999999,282.2099914550781,4.286342144012451,6.2663421630859375
1679955860.78049111,186409060,42.688204899999995,-84.4915815,282.239990234375,4.311617851257324,6.2916178703308105
1679955860.88079000,186509359,42.6882053,-84.4915815,282.2599792480469,4.3336181640625,6.313618183135986
1679955860.98083520,186609404,42.688205599999996,-84.4915814,282.2799987792969,4.359908580780029,6.339908599853516
1679955861.08081222,186709381,42.6882058,-84.49158129999999,282.32000732421875,4.390368938446045,6.370368957519531
1679955861.18076205,186809331,42.688206099999995,-84.4915812,282.3500061035156,4.421688556671143,6.401688575744629
1679955861.28074217,186909311,42.688206199999996,-84.49158109999999,282.3800048828125,4.455862522125244,6.4358625411987305
1679955861.38078904,187009358,42.6882064,-84.491581,282.41998291015625,4.490147113800049,6.470147132873535
1679955861.48075914,187109328,42.6882065,-84.491581,282.4499816894531,4.520787715911865,6.500787734985352
1679955861.58104420,187209613,42.6882065,-84.4915809,282.4700012207031,4.548941135406494,6.5289411544799805
1679955861.68079901,187309368,42.6882066,-84.4915809,282.5,4.575463771820068,6.555463790893555
1679955861.78051114,187409080,42.6882066,-84.491581,282.5299987792969,4.60037899017334,6.580379009246826
1679955861.88048601,187509055,42.6882066,-84.491581,282.5400085449219,4.619894504547119,6.5998945236206055
1679955861.98046923,187609038,42.688206699999995,-84.49158109999999,282.55999755859375,4.638773441314697,6.618773460388184
1679955862.08050418,187709073,42.688206699999995,-84.4915812,282.5799865722656,4.657433986663818,6.637434005737305
1679955862.18054008,187809109,42.688206699999995,-84.49158129999999,282.6000061035156,4.675692081451416,6.655692100524902
1679955862.28053904,187909108,42.688206699999995,-84.4915814,282.6199951171875,4.691539764404297,6.671539783477783
1679955862.38075709,188009326,42.688206699999995,-84.4915814,282.6300048828125,4.703166484832764,6.68316650390625
1679955862.48079419,188109363,42.688206699999995,-84.4915815,282.6399841308594,4.710031509399414,6.6900315284729
1679955862.58084416,188209413,42.688206699999995,-84.4915815,282.6399841308594,4.715234756469727,6.695234775543213
1679955862.68072820,188309297,42.688206699999995,-84.4915815,282.6399841308594,4.716264724731445,6.696264743804932
1679955862.78092718,188409496,42.688206699999995,-84.49158159999999,282.6399841308594,4.715299606323242,6.6952996253967285
1679955862.88064814,188509217,42.6882066,-84.49158159999999,282.6399841308594,4.7120890617370605,6.692089080810547
1679955862.98062801,188609197,42.6882066,-84.4915817,282.6300048828125,4.7079572677612305,6.687957286834717
1679955863.08089209,188709461,42.6882065,-84.4915817,282.6300048828125,4.702151775360107,6.682151794433594
1679955863.18074322,188809312,42.6882065,-84.49158179999999,282.6199951171875,4.696402072906494,6.6764020919799805
1679955863.28048110,188909050,42.6882064,-84.49158179999999,282.6199951171875,4.69038724899292,6.670387268066406
1679955863.38055801,189009127,42.6882063,-84.49158179999999,282.6099853515625,4.683584213256836,6.663584232330322
1679955863.48047709,189109046,42.6882063,-84.49158179999999,282.6000061035156,4.67490816116333,6.654908180236816
1679955863.58054399,189209113,42.688206199999996,-84.49158179999999,282.5899963378906,4.666071891784668,6.646071910858154
1679955863.68048000,189309049,42.688206199999996,-84.49158179999999,282.5799865722656,4.654983997344971,6.634984016418457
1679955863.78052115,189409090,42.688206199999996,-84.4915819,282.57000732421875,4.643825054168701,6.6238250732421875
1679955863.88070607,189509275,42.688206199999996,-84.4915819,282.55999755859375,4.631844997406006,6.611845016479492
1679955863.98054910,189609118,42.688206199999996,-84.491582,282.54998779296875,4.6207499504089355,6.600749969482422
1679955864.08077002,189709339,42.688206199999996,-84.491582,282.5299987792969,4.609335899353027,6.589335918426514
1679955864.18073416,189809303,42.6882063,-84.4915821,282.5199890136719,4.597513198852539,6.577513217926025
1679955864.28080010,189909369,42.6882064,-84.4915822,282.5099792480469,4.586500644683838,6.566500663757324
1679955864.38076019,190009329,42.6882066,-84.4915822,282.5,4.575526714324951,6.5555267333984375
1679955864.48077416,190109343,42.6882069,-84.49158229999999,282.489990234375,4.562069892883301,6.542069911956787
1679955864.58088017,190209449,42.6882072,-84.4915824,282.4700012207031,4.54881477355957,6.528814792633057
1679955864.68078208,190309351,42.6882076,-84.49158249999999,282.4599914550781,4.533288478851318,6.513288497924805
1679955864.78112221,190409691,42.688207999999996,-84.49158249999999,282.44000244140625,4.5199666023254395,6.499966621398926
1679955864.88064504,190509214,42.688208499999995,-84.4915826,282.44000244140625,4.510622024536133,6.490622043609619
1679955864.98058414,190609153,42.688209,-84.4915826,282.42999267578125,4.50255012512207,6.482550144195557
1679955865.08052611,190709095,42.6882095,-84.4915826,282.41998291015625,4.4936909675598145,6.473690986633301
1679955865.18053412,190809103,42.6882101,-84.4915826,282.4100036621094,4.484950542449951,6.4649505615234375
1679955865.28047514,190909044,42.6882107,-84.4915826,282.4100036621094,4.480251789093018,6.460251808166504
1679955865.38043904,191009008,42.6882114,-84.4915826,282.3999938964844,4.476491451263428,6.456491470336914
1679955865.48082709,191109396,42.6882121,-84.49158249999999,282.3999938964844,4.47007417678833,6.450074195861816
1679955865.58077216,191209341,42.688212799999995,-84.49158249999999,282.3899841308594,4.463926315307617,6.4439263343811035
1679955865.68062019,191309189,42.6882136,-84.49158249999999,282.3800048828125,4.458474636077881,6.438474655151367
1679955865.78073406,191409303,42.6882144,-84.49158249999999,282.3800048828125,4.454037189483643,6.434037208557129
1679955865.88069820,191509267,42.688215199999995,-84.4915826,282.3800048828125,4.45121431350708,6.431214332580566
1679955865.98069906,191609268,42.6882161,-84.4915826,282.3800048828125,4.45001220703125,6.430012226104736
1679955866.08075309,191709322,42.6882169,-84.4915826,282.3699951171875,4.446963787078857,6.426963806152344
1679955866.18074012,191809309,42.6882178,-84.4915826,282.3699951171875,4.444717884063721,6.424717903137207
1679955866.28089499,191909464,42.6882187,-84.4915826,282.3699951171875,4.446469783782959,6.426469802856445
1679955866.38083410,192009403,42.6882197,-84.4915826,282.3800048828125,4.450104713439941,6.430104732513428
1679955866.48077822,192109347,42.688220699999995,-84.4915826,282.3800048828125,4.455257892608643,6.435257911682129
1679955866.58074808,192209317,42.6882217,-84.49158249999999,282.3899841308594,4.4620041847229,6.442004203796387
1679955866.68071318,192309282,42.6882227,-84.49158249999999,282.3899841308594,4.46752405166626,6.447524070739746
1679955866.78077602,192409345,42.688223699999995,-84.49158249999999,282.3999938964844,4.474174976348877,6.454174995422363
1679955866.88052511,192509094,42.6882248,-84.4915826,282.4100036621094,4.482816219329834,6.46281623840332
1679955866.98055601,192609125,42.6882259,-84.4915826,282.41998291015625,4.491761684417725,6.471761703491211
1679955867.08047700,192709046,42.688227,-84.49158249999999,282.42999267578125,4.501218318939209,6.481218338012695
1679955867.18049622,192809065,42.688228099999996,-84.49158249999999,282.42999267578125,4.509743690490723,6.489743709564209
1679955867.28049016,192909059,42.688229199999995,-84.4915824,282.44000244140625,4.5155415534973145,6.495541572570801
1679955867.38077402,193009343,42.688230399999995,-84.49158229999999,282.4499816894531,4.522459506988525,6.502459526062012
1679955867.48072410,193109293,42.6882315,-84.49158229999999,282.4599914550781,4.530679702758789,6.510679721832275
1679955867.58077121,193209340,42.6882327,-84.4915822,282.4599914550781,4.539765357971191,6.519765377044678
1679955867.68075323,193309322,42.6882338,-84.491582,282.4700012207031,4.547305583953857,6.527305603027344
1679955867.78076911,193409338,42.6882349,-84.4915819,282.47998046875,4.555854320526123,6.535854339599609
1679955867.88078523,193509354,42.688235999999996,-84.4915819,282.489990234375,4.56176233291626,6.541762351989746
1679955867.98074818,193609317,42.688237,-84.49158179999999,282.489990234375,4.568533420562744,6.5485334396362305
1679955868.08097005,193709539,42.688238,-84.49158179999999,282.5,4.575966835021973,6.555966854095459
1679955868.18084216,193809411,42.688238899999995,-84.49158179999999,282.5099792480469,4.581568717956543,6.561568737030029
1679955868.28048015,193909049,42.6882398,-84.49158179999999,282.5099792480469,4.584335803985596,6.564335823059082
1679955868.38051414,194009083,42.6882407,-84.49158179999999,282.5099792480469,4.588746070861816,6.568746089935303
1679955868.48053908,194109108,42.6882416,-84.4915819,282.5199890136719,4.593355178833008,6.573355197906494
1679955868.58061504,194209184,42.6882424,-84.4915819,282.5199890136719,4.597589492797852,6.577589511871338
1679955868.68048310,194309052,42.6882431,-84.4915819,282.5299987792969,4.600867748260498,6.580867767333984
1679955868.78055620,194409125,42.688243799999995,-84.4915819,282.5299987792969,4.602481365203857,6.582481384277344
1679955868.88048220,194509051,42.688244399999995,-84.491582,282.5199890136719,4.598689556121826,6.5786895751953125
1679955868.98048019,194609049,42.6882449,-84.4915821,282.5099792480469,4.589035511016846,6.569035530090332
1679955869.08093405,194709503,42.6882454,-84.4915821,282.5,4.578414440155029,6.558414459228516
1679955869.18066502,194809234,42.6882459,-84.4915822,282.489990234375,4.567617416381836,6.547617435455322
1679955869.28064108,194909210,42.688246299999996,-84.4915822,282.47998046875,4.554293155670166,6.534293174743652
1679955869.38071704,195009286,42.6882466,-84.4915822,282.4700012207031,4.542598247528076,6.5225982666015625
1679955869.48071218,195109281,42.688246899999996,-84.4915821,282.4599914550781,4.5320611000061035,6.51206111907959
1679955869.58072519,195209294,42.6882472,-84.491582,282.4499816894531,4.522600173950195,6.502600193023682
1679955869.68075013,195309319,42.6882474,-84.49158179999999,282.44000244140625,4.514688014984131,6.494688034057617
1679955869.78077102,195409340,42.688247499999996,-84.49158159999999,282.42999267578125,4.508663654327393,6.488663673400879
1679955869.88090706,195509476,42.6882476,-84.4915814,282.42999267578125,4.501475811004639,6.481475830078125
1679955869.98050213,195609071,42.6882477,-84.4915812,282.41998291015625,4.4950032234191895,6.475003242492676
1679955870.08050704,195709076,42.6882477,-84.491581,282.41998291015625,4.490512371063232,6.470512390136719
1679955870.18049717,195809066,42.6882477,-84.4915808,282.4100036621094,4.486785888671875,6.466785907745361
1679955870.28054214,195909111,42.6882477,-84.49158059999999,282.3999938964844,4.479487895965576,6.4594879150390625
1679955870.38059521,196009164,42.688247499999996,-84.4915803,282.3999938964844,4.470518589019775,6.450518608093262
1679955870.48051000,196109079,42.6882474,-84.4915801,282.3899841308594,4.460829734802246,6.440829753875732
1679955870.58085704,196209426,42.6882472,-84.49157989999999,282.3800048828125,4.451035976409912,6.431035995483398
1679955870.68048620,196309055,42.688246899999996,-84.4915796,282.3699951171875,4.4432759284973145,6.423275947570801
1679955870.78083420,196409403,42.6882467,-84.49157939999999,282.3599853515625,4.435977935791016,6.415977954864502
1679955870.88084817,196509417,42.688246299999996,-84.4915791,282.3500061035156,4.427877426147461,6.407877445220947
1679955870.98083615,196609405,42.688246,-84.4915789,282.3500061035156,4.420938968658447,6.400938987731934
1679955871.08074307,196709312,42.688245599999995,-84.49157869999999,282.3399963378906,4.415028095245361,6.395028114318848
1679955871.18086600,196809435,42.688245099999996,-84.4915786,282.3399963378906,4.411567687988281,6.391567707061768
1679955871.28076410,196909333,42.6882446,-84.4915789,282.3299865722656,4.405692100524902,6.385692119598389
1679955871.38075709,197009326,42.688244,-84.4915795,282.32000732421875,4.395978927612305,6.375978946685791
1679955871.48099518,197109564,42.6882434,-84.49158109999999,282.32000732421875,4.391930103302002,6.371930122375488
1679955871.58082008,197209389,42.688242699999996,-84.4915831,282.32000732421875,4.396527290344238,6.376527309417725
1679955871.68048215,197309051,42.6882419,-84.4915855,282.3399963378906,4.415118217468262,6.395118236541748
1679955871.78053713,197409106,42.6882412,-84.491588,282.3599853515625,4.437195301055908,6.4171953201293945
1679955871.88048220,197509051,42.6882404,-84.49159039999999,282.3800048828125,4.4577860832214355,6.437786102294922
1679955871.98049116,197609060,42.6882397,-84.4915927,282.4100036621094,4.480441093444824,6.4604411125183105
1679955872.08055115,197709120,42.688238999999996,-84.4915948,282.41998291015625,4.497292518615723,6.477292537689209
1679955872.18079805,197809367,42.6882382,-84.4915967,282.42999267578125,4.509788513183594,6.48978853225708
1679955872.28073001,197909299,42.6882373,-84.4915986,282.44000244140625,4.515033721923828,6.4950337409973145
1679955872.38079619,198009365,42.6882364,-84.4916003,282.44000244140625,4.5159807205200195,6.495980739593506
1679955872.48077703,198109346,42.6882355,-84.4916018,282.44000244140625,4.511685371398926,6.491685390472412
1679955872.58078718,198209356,42.6882346,-84.4916033,282.42999267578125,4.503934860229492,6.4839348793029785
1679955872.68073606,198309305,42.6882336,-84.4916047,282.41998291015625,4.493612289428711,6.473612308502197
1679955872.78076816,198409337,42.6882326,-84.49160599999999,282.4100036621094,4.481442928314209,6.461442947387695
1679955872.88064003,198509209,42.6882315,-84.49160719999999,282.3899841308594,4.467952251434326,6.4479522705078125
1679955872.98068023,198609249,42.688230399999995,-84.49160839999999,282.3800048828125,4.457189083099365,6.437189102172852
1679955873.08089805,198709467,42.688229299999996,-84.4916094,282.3699951171875,4.446969032287598,6.426969051361084
1679955873.18048716,198809056,42.688228099999996,-84.49161029999999,282.3599853515625,4.434142589569092,6.414142608642578
1679955873.28054905,198909118,42.688226799999995,-84.4916112,282.3399963378906,4.418631553649902,6.398631572723389
1679955873.38048720,199009056,42.688225599999996,-84.4916121,282.3299865722656,4.403337478637695,6.383337497711182
1679955873.48048520,199109054,42.688224299999995,-84.49161289999999,282.30999755859375,4.386824607849121,6.366824626922607
1679955873.58056116,199209130,42.688223,-84.4916136,282.29998779296875,4.370466709136963,6.350466728210449
1679955873.68050122,199309070,42.6882217,-84.4916142,282.2799987792969,4.356237888336182,6.336237907409668
1679955873.78076720,199409336,42.6882204,-84.4916144,282.2699890136719,4.349575996398926,6.329576015472412
1679955873.88057899,199509148,42.6882191,-84.49161409999999,282.2699890136719,4.345335006713867,6.3253350257873535
1679955873.98076415,199609333,42.688217699999996,-84.49161319999999,282.2799987792969,4.351596355438232,6.331596374511719
1679955874.08075714,199709326,42.688216399999995,-84.49161149999999,282.2799987792969,4.3514790534973145,6.331479072570801
1679955874.18078899,199809358,42.688215,-84.49160959999999,282.2799987792969,4.355705261230469,6.335705280303955
1679955874.28076100,199909330,42.6882136,-84.4916075,282.2799987792969,4.359707355499268,6.339707374572754
1679955874.38077521,200009344,42.688212199999995,-84.49160529999999,282.2900085449219,4.362656593322754,6.34265661239624
1679955874.48081923,200109388,42.6882107,-84.4916032,282.2900085449219,4.366570949554443,6.34657096862793
1679955874.58084011,200209409,42.688209099999995,-84.49160119999999,282.29998779296875,4.3710126876831055,6.351012706756592
1679955874.68072319,200309292,42.6882076,-84.4915994,282.29998779296875,4.375800609588623,6.355800628662109
1679955874.78058815,200409157,42.688206,-84.4915975,282.29998779296875,4.3797287940979,6.359728813171387
1679955874.88058400,200509153,42.6882045,-84.49159569999999,282.30999755859375,4.380273818969727,6.360273838043213
1679955874.98053718,200609106,42.688203,-84.49159399999999,282.30999755859375,4.380679130554199,6.3606791496276855
1679955875.08056116,200709130,42.6882014,-84.4915923,282.30999755859375,4.380735397338867,6.3607354164123535
1679955875.18046308,200809032,42.6881999,-84.4915907,282.30999755859375,4.381374835968018,6.361374855041504
1679955875.28079510,200909364,42.688198299999996,-84.4915891,282.30999755859375,4.381746292114258,6.361746311187744
1679955875.38094807,201009517,42.6881967,-84.4915876,282.30999755859375,4.382874965667725,6.362874984741211
1679955875.48066807,201109237,42.6881951,-84.4915864,282.30999755859375,4.382537364959717,6.362537384033203
1679955875.58072209,201209291,42.6881935,-84.4915855,282.29998779296875,4.375818729400635,6.355818748474121
1679955875.68067408,201309243,42.6881918,-84.4915855,282.29998779296875,4.371982574462891,6.351982593536377
1679955875.78073621,201409305,42.68819,-84.4915862,282.29998779296875,4.37626838684082,6.356268405914307
1679955875.88070416,201509273,42.6881883,-84.4915875,282.30999755859375,4.3846845626831055,6.364684581756592
1679955875.98074317,201609312,42.6881865,-84.49158899999999,282.32000732421875,4.392401695251465,6.372401714324951
1679955876.08075500,201709324,42.6881847,-84.4915906,282.32000732421875,4.395398139953613,6.3753981590271
1679955876.18072104,201809290,42.6881829,-84.49159209999999,282.32000732421875,4.397819995880127,6.377820014953613
1679955876.28083920,201909408,42.6881811,-84.4915934,282.32000732421875,4.39829158782959,6.378291606903076
1679955876.38081312,202009382,42.6881792,-84.4915946,282.32000732421875,4.396992206573486,6.376992225646973
1679955876.48071718,202109286,42.6881774,-84.4915958,282.32000732421875,4.3945441246032715,6.374544143676758
1679955876.58075714,202209326,42.6881755,-84.4915968,282.32000732421875,4.393859386444092,6.373859405517578
1679955876.68074417,202309313,42.6881736,-84.4915977,282.32000732421875,4.39261531829834,6.372615337371826
1679955876.78075409,202409323,42.6881717,-84.4915986,282.32000732421875,4.390432357788086,6.370432376861572
1679955876.88079119,202509360,42.688169699999996,-84.4915994,282.30999755859375,4.38859224319458,6.368592262268066
1679955876.98082519,202609394,42.6881677,-84.4916001,282.30999755859375,4.388195991516113,6.3681960105896
1679955877.08098817,202709557,42.6881657,-84.49160069999999,282.30999755859375,4.386980056762695,6.366980075836182
1679955877.18085003,202809419,42.6881637,-84.4916014,282.30999755859375,4.385900020599365,6.365900039672852
1679955877.28048420,202909053,42.688161699999995,-84.49160189999999,282.30999755859375,4.385479927062988,6.365479946136475
1679955877.38051105,203009080,42.6881596,-84.4916025,282.30999755859375,4.386132717132568,6.366132736206055
1679955877.48065710,203109226,42.6881576,-84.491603,282.30999755859375,4.386592864990234,6.366592884063721
1679955877.58063507,203209204,42.6881555,-84.49160359999999,282.30999755859375,4.387380123138428,6.367380142211914
1679955877.68046403,203309033,42.6881534,-84.4916042,282.32000732421875,4.390050888061523,6.37005090713501
1679955877.78081918,203409388,42.688151399999995,-84.49160499999999,282.32000732421875,4.396817207336426,6.376817226409912
1679955877.88076520,203509334,42.6881492,-84.49160619999999,282.3399963378906,4.410776615142822,6.390776634216309
1679955877.98048401,203609053,42.688147199999996,-84.49160739999999,282.3500061035156,4.420132160186768,6.400132179260254
1679955878.08049822,203709067,42.6881451,-84.4916088,282.3599853515625,4.430811882019043,6.410811901092529
1679955878.18048501,203809054,42.6881432,-84.4916101,282.3599853515625,4.439165115356445,6.419165134429932
1679955878.28050613,203909075,42.6881412,-84.4916113,282.3699951171875,4.440587043762207,6.420587062835693
1679955878.38055205,204009121,42.688139199999995,-84.4916123,282.3599853515625,4.4366044998168945,6.416604518890381
1679955878.48057508,204109144,42.6881372,-84.4916133,282.3500061035156,4.429358005523682,6.409358024597168
1679955878.58059001,204209159,42.6881353,-84.49161409999999,282.3500061035156,4.421785354614258,6.401785373687744
1679955878.68077517,204309344,42.6881335,-84.4916149,282.3399963378906,4.413261413574219,6.393261432647705
1679955878.78080916,204409378,42.6881318,-84.4916157,282.3299865722656,4.405968189239502,6.385968208312988
1679955878.88048601,204509055,42.6881304,-84.4916164,282.32000732421875,4.398160457611084,6.37816047668457
1679955878.98072910,204609298,42.688128999999996,-84.4916171,282.32000732421875,4.392988204956055,6.372988224029541
1679955879.08067203,204709241,42.6881279,-84.49161769999999,282.32000732421875,4.390144348144531,6.370144367218018
1679955879.18064713,204809216,42.6881268,-84.4916183,282.30999755859375,4.387425899505615,6.367425918579102
1679955879.28067207,204909241,42.688125899999996,-84.49161889999999,282.30999755859375,4.385035514831543,6.365035533905029
1679955879.38096809,205009537,42.6881251,-84.49161939999999,282.30999755859375,4.383930683135986,6.363930702209473
1679955879.48073602,205109305,42.688124599999995,-84.49161989999999,282.30999755859375,4.382987022399902,6.362987041473389
1679955879.58090210,205209471,42.6881242,-84.4916203,282.30999755859375,4.382781505584717,6.362781524658203
1679955879.68078804,205309357,42.6881239,-84.4916207,282.30999755859375,4.385239601135254,6.36523962020874
1679955879.78082418,205409393,42.6881238,-84.491621,282.32000732421875,4.390204906463623,6.370204925537109
1679955879.88076210,205509331,42.6881237,-84.4916212,282.32000732421875,4.396749496459961,6.376749515533447
1679955879.98077416,205609343,42.6881238,-84.49162129999999,282.3299865722656,4.402885437011719,6.382885456085205
1679955880.08070302,205709272,42.6881239,-84.49162129999999,282.3399963378906,4.411668300628662,6.391668319702148
1679955880.18073702,205809306,42.688124099999996,-84.4916212,282.3500061035156,4.4223408699035645,6.402340888977051
1679955880.28073907,205909308,42.6881243,-84.4916211,282.3599853515625,4.432045936584473,6.412045955657959
1679955880.38093805,206009507,42.688124699999996,-84.49162079999999,282.3599853515625,4.439417362213135,6.419417381286621
1679955880.48081112,206109380,42.688125199999995,-84.4916205,282.3699951171875,4.445016860961914,6.4250168800354
1679955880.58082223,206209391,42.6881257,-84.49162,282.3800048828125,4.450178623199463,6.430178642272949
1679955880.68047023,206309039,42.6881264,-84.49161959999999,282.3800048828125,4.453173637390137,6.433173656463623
1679955880.78052115,206409090,42.688127099999996,-84.491619,282.3800048828125,4.455774784088135,6.435774803161621
1679955880.88048220,206509051,42.6881279,-84.4916185,282.3800048828125,4.458348751068115,6.438348770141602
1679955880.98048401,206609053,42.6881288,-84.4916178,282.3899841308594,4.4615607261657715,6.441560745239258
1679955881.08052802,206709097,42.6881297,-84.4916172,282.3899841308594,4.466459274291992,6.4464592933654785
1679955881.18072200,206809291,42.6881306,-84.49161649999999,282.3999938964844,4.470419406890869,6.4504194259643555
1679955881.28046417,206909033,42.6881315,-84.4916159,282.3899841308594,4.469569683074951,6.4495697021484375
1679955881.38053823,207009107,42.688132499999995,-84.4916152,282.3899841308594,4.467164516448975,6.447164535522461
1679955881.48047400,207109043,42.6881334,-84.4916144,282.3899841308594,4.461935043334961,6.441935062408447
1679955881.58053517,207209104,42.6881345,-84.4916135,282.3800048828125,4.45870304107666,6.4387030601501465
1679955881.68055916,207309128,42.688135599999995,-84.4916125,282.3800048828125,4.456735610961914,6.4367356300354
1679955881.78052115,207409090,42.6881367,-84.4916114,282.3800048828125,4.453776836395264,6.43377685546875
1679955881.88048601,207509055,42.6881378,-84.49161029999999,282.3699951171875,4.448574066162109,6.428574085235596
1679955881.98054004,207609109,42.688139,-84.4916092,282.3699951171875,4.443187236785889,6.423187255859375
1679955882.08075213,207709321,42.6881402,-84.4916081,282.3599853515625,4.438014984130859,6.418015003204346
1679955882.18046618,207809035,42.6881415,-84.491607,282.3599853515625,4.433907508850098,6.413907527923584
1679955882.28071523,207909284,42.6881427,-84.4916059,282.3599853515625,4.430970668792725,6.410970687866211
1679955882.38073111,208009300,42.688144,-84.4916049,282.3599853515625,4.431231498718262,6.411231517791748
1679955882.48070908,208109278,42.688145299999995,-84.4916039,282.3599853515625,4.431637287139893,6.411637306213379
1679955882.58075619,208209325,42.688146599999996,-84.49160289999999,282.3599853515625,4.434121608734131,6.414121627807617
1679955882.68066216,208309231,42.6881479,-84.49160189999999,282.3599853515625,4.437148094177246,6.417148113250732
