timestamp,TimeUS,C,Q1,Q2,Q3,Q4
1679955829.27974510,154908314,2,0.9713420271873474,0.005790343042463064,-0.008401361294090748,-0.2374669760465622
1679955829.37971210,155008281,2,0.9713453650474548,0.005765007808804512,-0.008367721922695637,-0.23745501041412354
1679955829.47976708,155108336,2,0.9713408946990967,0.005782490596175194,-0.00830763578414917,-0.23747515678405762
1679955829.57974720,155208316,2,0.9713360667228699,0.0058107380755245686,-0.008299783803522587,-0.23749443888664246
1679955829.67976713,155308336,2,0.9713277220726013,0.005744123365730047,-0.008245386183261871,-0.2375321388244629
1679955829.77970600,155408275,2,0.9713260531425476,0.005792608018964529,-0.008247599937021732,-0.23753759264945984
1679955829.87968016,155508249,2,0.9713340997695923,0.0058390358462929726,-0.008220462128520012,-0.2375044971704483
1679955829.97967601,155608245,2,0.9713284373283386,0.0058113946579396725,-0.008216366171836853,-0.23752853274345398
1679955830.07969308,155708262,2,0.9713265299797058,0.005771735683083534,-0.008181797340512276,-0.2375384271144867
1679955830.17975616,155808325,2,0.9713258147239685,0.005756677594035864,-0.008163755759596825,-0.23754243552684784
1679955830.27971411,155908283,2,0.9713184833526611,0.0057478733360767365,-0.00813092477619648,-0.23757357895374298
1679955830.37980103,156008370,2,0.9713229537010193,0.0056867147795856,-0.008095648139715195,-0.23755809664726257
1679955830.47974801,156108317,2,0.9713202118873596,0.005700362846255302,-0.008131949231028557,-0.237567737698555
1679955830.57969308,156208262,2,0.9713196754455566,0.005612772889435291,-0.008098557591438293,-0.23757325112819672
1679955830.67971516,156308284,2,0.9713079333305359,0.005634553264826536,-0.008072914555668831,-0.23762144148349762
1679955830.77967811,156408247,2,0.9713153839111328,0.005559762008488178,-0.00806699600070715,-0.23759308457374573
1679955830.87968707,156508256,2,0.9713184237480164,0.005529770161956549,-0.008052485063672066,-0.2375817447900772
1679955830.97969604,156608265,2,0.9713268280029297,0.005515607073903084,-0.008056613616645336,-0.23754771053791046
1679955831.07975507,156708324,2,0.9713341593742371,0.00549780298024416,-0.00810225959867239,-0.23751643300056458
1679955831.17971110,156808280,2,0.9713376760482788,0.00556343887001276,-0.00803233403712511,-0.23750291764736176
1679955831.27976608,156908335,2,0.9713277816772461,0.005527190864086151,-0.008016485720872879,-0.2375447005033493
1679955831.37974310,157008312,2,0.9713258147239685,0.005601497832685709,-0.00806769821792841,-0.23754936456680298
1679955831.47971821,157108287,2,0.9713407754898071,0.0055589694529771805,-0.008087948895990849,-0.23748844861984253
1679955831.57971501,157208284,2,0.971333384513855,0.005543600767850876,-0.008062082342803478,-0.23751989006996155
1679955831.67968011,157308249,2,0.9713261127471924,0.005564132239669561,-0.008064474910497665,-0.23754918575286865
1679955831.77969122,157408260,2,0.9713383913040161,0.005543184000998735,-0.008013829588890076,-0.23750102519989014
1679955831.87970209,157508271,2,0.9713284373283386,0.0055603813380002975,-0.008036247454583645,-0.23754073679447174
1679955831.97975922,157608328,2,0.9713221192359924,0.0054823909886181355,-0.00804450549185276,-0.23756805062294006
1679955832.07971501,157708284,2,0.9713338017463684,0.005471506156027317,-0.008083897642791271,-0.23751921951770782
1679955832.17981005,157808379,2,0.9713591933250427,0.005410667508840561,-0.008061341010034084,-0.23741741478443146
1679955832.27976608,157908335,2,0.9712742567062378,0.005293708294630051,-0.00801814254373312,-0.23776882886886597
1679955832.37976003,158008329,2,0.9712767004966736,0.00541352666914463,-0.007950665429234505,-0.23775838315486908
1679955832.47972012,158108289,2,0.971326470375061,0.0052467770874500275,-0.007855787873268127,-0.23756180703639984
1679955832.57968521,158208254,2,0.9712200164794922,0.005132056772708893,-0.007532380986958742,-0.2380097210407257
1679955832.67968702,158308256,2,0.9712344408035278,0.004969901405274868,-0.006815791595727205,-0.2379758059978485
1679955832.77968812,158408257,2,0.9713459014892578,0.004987926222383976,-0.006447293795645237,-0.23753049969673157
1679955832.87974906,158508318,2,0.9712598919868469,0.004653994459658861,-0.006831650622189045,-0.23787778615951538
1679955832.97972512,158608294,2,0.9712547659873962,0.005047018639743328,-0.006796393543481827,-0.2378917932510376
1679955833.07976604,158708335,2,0.9712934494018555,0.004875764716416597,-0.0064525483176112175,-0.2377469837665558
1679955833.17975712,158808326,2,0.9712656736373901,0.00493930047377944,-0.0065270038321614265,-0.23785708844661713
1679955833.27976823,158908337,2,0.9712475538253784,0.00480814790353179,-0.006556808017194271,-0.23793303966522217
1679955833.37971807,159008287,2,0.9713008999824524,0.004959119483828545,-0.0063966722227633,-0.23771627247333527
1679955833.47968102,159108250,2,0.9712085127830505,0.005046732723712921,-0.006360792089253664,-0.2380926012992859
1679955833.57969403,159208263,2,0.9712439179420471,0.004911577794700861,-0.006352502852678299,-0.23795132339000702
1679955833.67969418,159308263,2,0.9712764024734497,0.0048689511604607105,-0.005796540528535843,-0.23783370852470398
1679955833.77979016,159408359,2,0.971008837223053,0.004681422840803862,-0.0030229862313717604,-0.23897869884967804
1679955833.87973022,159508299,2,0.9707803726196289,0.0054026017896831036,0.0031182626262307167,-0.2398885190486908
1679955833.97978616,159608355,2,0.9705725908279419,0.006140902638435364,0.008488386869430542,-0.2405807077884674
1679955834.07976007,159708329,2,0.970382034778595,0.0054134889505803585,0.004883169196546078,-0.24146534502506256
1679955834.17976522,159808334,2,0.9701014757156372,0.0013987754937261343,-0.009567191824316978,-0.24250689148902893
1679955834.27971601,159908285,2,0.9695448875427246,-0.004519803915172815,-0.025263933464884758,-0.243565171957016
1679955834.37968612,160008255,2,0.9690895676612854,-0.007493676617741585,-0.03207853436470032,-0.2445000410079956
1679955834.47969818,160108267,2,0.9690546989440918,-0.00604198407381773,-0.024220246821641922,-0.24558068811893463
1679955834.57970309,160208272,2,0.9691657423973083,-0.00047894136514514685,-0.004618172533810139,-0.2463660091161728
1679955834.67976117,160308330,2,0.9688835144042969,0.003351222723722458,0.013440301641821861,-0.24712926149368286
1679955834.77972102,160408290,2,0.9685353636741638,0.004746582824736834,0.02140180766582489,-0.2479085475206375
1679955834.87977815,160508347,2,0.9684226512908936,0.0030659541953355074,0.01681741699576378,-0.2487274408340454
1679955834.97976708,160608336,2,0.9683235883712769,-0.00015676992188673466,0.0039228773675858974,-0.24966779351234436
1679955835.07976317,160708332,2,0.9680002331733704,-0.001650643185712397,-0.00445391982793808,-0.25090429186820984
1679955835.17973018,160808299,2,0.9677180051803589,-0.003105699783191085,-0.006920644082129002,-0.2519212067127228
1679955835.27969003,160908259,2,0.9674403667449951,-0.004162075463682413,-0.01210604328662157,-0.2527751624584198
1679955835.37968206,161008251,2,0.9671506285667419,-0.0040717655792832375,-0.018746748566627502,-0.25347912311553955
1679955835.47969007,161108259,2,0.9669504165649414,-0.005104040261358023,-0.022445539012551308,-0.25392332673072815
1679955835.57976723,161208336,2,0.966937243938446,-0.004717908799648285,-0.02180069498717785,-0.25403717160224915
1679955835.67972207,161308291,2,0.9669981002807617,-0.0029615324456244707,-0.018131162971258163,-0.2541203200817108
1679955835.77976918,161408338,2,0.9670825600624084,-0.0017750001279637218,-0.016359247267246246,-0.2539302110671997
1679955835.87977099,161508340,2,0.9671310782432556,-0.002183026634156704,-0.020322060212492943,-0.2534554898738861
1679955835.97976017,161608329,2,0.9671376943588257,-0.004265273455530405,-0.027923086658120155,-0.25267931818962097
1679955836.07971406,161708283,2,0.9672438502311707,-0.00413648271933198,-0.029999058693647385,-0.2520362138748169
1679955836.17969513,161808264,2,0.9676662683486938,-0.0023976911325007677,-0.023675695061683655,-0.25110894441604614
1679955836.27968502,161908254,2,0.9681013226509094,4.05485370720271e-05,-0.011716857552528381,-0.250284880399704
1679955836.37968516,162008254,2,0.9684305787086487,0.00014114388613961637,-0.0002768582198768854,-0.24928314983844757
1679955836.47974110,162108310,2,0.9686135053634644,-0.00026995345251634717,0.003690848359838128,-0.24854405224323273
1679955836.57972407,162208293,2,0.9688120484352112,-0.003015009919181466,-0.000720256648492068,-0.24777738749980927
1679955836.67977810,162308347,2,0.9688690304756165,-0.006420540623366833,-0.011456076987087727,-0.24722525477409363
1679955836.77975321,162408322,2,0.9688185453414917,-0.008695391938090324,-0.02165122702717781,-0.24667027592658997
1679955836.87976813,162508337,2,0.9689445495605469,-0.008077736012637615,-0.023511458188295364,-0.24602530896663666
1679955836.97972322,162608292,2,0.9691916108131409,-0.006599715445190668,-0.017544126138091087,-0.24559377133846283
1679955837.07968211,162708251,2,0.9694386124610901,-0.0058840857818722725,-0.011238147504627705,-0.24500592052936554
1679955837.17970514,162808274,2,0.9695959091186523,-0.004999086726456881,-0.0038560519460588694,-0.24463006854057312
1679955837.27969718,162908266,2,0.9697543978691101,-0.003637484274804592,0.0021660886704921722,-0.24404600262641907
1679955837.37976718,163008336,2,0.9699264168739319,-0.002798232948407531,0.0035787124652415514,-0.24335594475269318
1679955837.47972322,163108292,2,0.9700014591217041,0.0020176696125417948,0.0009324920829385519,-0.24308882653713226
1679955837.57977104,163208340,2,0.9699339866638184,0.014330857433378696,-0.0021290448494255543,-0.2429366260766983
1679955837.67975521,163308324,2,0.9697152376174927,0.025390351191163063,-0.0037392177619040012,-0.24288630485534668
1679955837.77976513,163408334,2,0.9695186018943787,0.029360948130488396,-0.004487607628107071,-0.24321076273918152
1679955837.87971306,163508282,2,0.9695284962654114,0.024467945098876953,-0.0024649016559123993,-0.24374108016490936
1679955837.97968316,163608252,2,0.9696944952011108,0.010883362963795662,0.002899444429203868,-0.24406090378761292
1679955838.07968402,163708253,2,0.9696249961853027,8.805991819826886e-05,0.008303365670144558,-0.24445535242557526
1679955838.17971110,163808280,2,0.9693928360939026,-0.0033999094739556313,0.011144358664751053,-0.24523815512657166
1679955838.27974701,163908316,2,0.9692023396492004,-0.0036448738537728786,0.010753021575510502,-0.24600395560264587
1679955838.37971902,164008288,2,0.9691219925880432,-0.003515796735882759,0.007105509750545025,-0.24645428359508514
1679955838.47977614,164108345,2,0.9690020680427551,-0.004387026187032461,-0.0017746054800227284,-0.24700725078582764
1679955838.57976413,164208333,2,0.9688406586647034,-0.005545600317418575,-0.012922346591949463,-0.24728532135486603
1679955838.67977500,164308344,2,0.9687857627868652,-0.00470329076051712,-0.017371196299791336,-0.24724528193473816
1679955838.77971101,164408280,2,0.9688337445259094,-0.003042041789740324,-0.015660149976611137,-0.24719776213169098
1679955838.87969017,164508259,2,0.9688759446144104,-0.0021240180358290672,-0.01356130838394165,-0.2471659779548645
1679955838.97968817,164608257,2,0.9689580798149109,-0.0024529611691832542,-0.01152864657342434,-0.24694395065307617
1679955839.07969022,164708259,2,0.9690995812416077,-0.002070097718387842,-0.009006260894238949,-0.24649661779403687
1679955839.17976403,164808333,2,0.9691958427429199,-0.0018125982023775578,-0.00750313326716423,-0.24617037177085876
1679955839.27972317,164908292,2,0.9692676067352295,-0.0015725611010566354,-0.007082045078277588,-0.24590174853801727
1679955839.37977004,165008339,2,0.9692561030387878,-0.0003189871204085648,-0.0068795084953308105,-0.24595767259597778
1679955839.47975016,165108319,2,0.9621559977531433,0.001118803396821022,-0.008813248947262764,-0.272354394197464
1679955839.57976818,165208337,2,0.9622893929481506,0.0017114789225161076,-0.012037810869514942,-0.2717558443546295
1679955839.67971420,165308283,2,0.9627962708473206,0.0016095400787889957,-0.014908961951732635,-0.26981183886528015
1679955839.77968216,165408251,2,0.9633054137229919,0.0010174746857956052,-0.015312506817281246,-0.2679685354232788
1679955839.87968516,165508254,2,0.9636557698249817,0.0015423294389620423,-0.013529256917536259,-0.2667997181415558
1679955839.97968912,165608258,2,0.963949978351593,0.0017441720701754093,-0.00614745169878006,-0.266006737947464
1679955840.07976604,165708335,2,0.9639060497283936,0.00270437472499907,0.003922130446881056,-0.26619988679885864
1679955840.17973804,165808307,2,0.9636108875274658,0.002020488493144512,0.008961673825979233,-0.2671510577201843
1679955840.27977514,165908344,2,0.9631546139717102,0.0005343640805222094,0.010360770858824253,-0.26874804496765137
1679955840.37975717,166008326,2,0.9626984596252441,-0.0019546309486031532,0.006639126688241959,-0.2704879343509674
1679955840.47971821,166108287,2,0.9623683094978333,-0.004961857572197914,-0.0019486043602228165,-0.2716962695121765
1679955840.57971621,166208285,2,0.9618317484855652,-0.005112925078719854,-0.008201858960092068,-0.27347078919410706
1679955840.67969203,166308261,2,0.9614513516426086,-0.0038513264153152704,-0.009147800505161285,-0.2747958302497864
1679955840.77969623,166408265,2,0.9610120058059692,-0.002323830733075738,-0.00820413138717413,-0.2763752341270447
1679955840.87969804,166508267,2,0.9604501724243164,-0.0013077595504000783,-0.006617740262299776,-0.278370201587677
1679955840.97976708,166608336,2,0.9598400592803955,-0.0024649163242429495,-0.001374164130538702,-0.2805335819721222
1679955841.07972312,166708292,2,0.9592094421386719,-0.0059389276430010796,0.004565882962197065,-0.28259703516960144
1679955841.17978215,166808351,2,0.9585332870483398,-0.010436461307108402,0.006491157691925764,-0.2847155034542084
1679955841.27976108,166908330,2,0.9579444527626038,-0.014200595207512379,0.0057890103198587894,-0.2865435481071472
1679955841.37976503,167008334,2,0.95746910572052,-0.016627788543701172,0.0053641581907868385,-0.2880062758922577
1679955841.47972107,167108290,2,0.9570783376693726,-0.017635710537433624,0.004030955024063587,-0.28926414251327515
1679955841.57969809,167208267,2,0.9568529725074768,-0.01805693283677101,0.002923186868429184,-0.28999626636505127
1679955841.67970419,167308273,2,0.9567343592643738,-0.017844917252659798,0.0031673633493483067,-0.2903978228569031
1679955841.77970815,167408277,2,0.956758975982666,-0.015540986321866512,0.0020393021404743195,-0.2904593050479889
1679955841.87977409,167508343,2,0.9569564461708069,-0.010482248850166798,-0.0026991930790245533,-0.2900295853614807
1679955841.97972512,167608294,2,0.9571910500526428,-0.004615367855876684,-0.008060431107878685,-0.28930792212486267
1679955842.07977009,167708339,2,0.9574128985404968,0.00012248623534105718,-0.01027294248342514,-0.28853940963745117
1679955842.17975020,167808319,2,0.9574573636054993,0.001713072881102562,-0.012024519965052605,-0.2883189618587494
1679955842.27977109,167908340,2,0.957512378692627,0.001678194967098534,-0.012703154236078262,-0.28810739517211914
1679955842.37971616,168008285,2,0.9574917554855347,0.00044576931395567954,-0.010351431556046009,-0.2882745862007141
1679955842.47968912,168108258,2,0.9574820399284363,-0.001665304065681994,-0.006435543764382601,-0.2884162664413452
1679955842.57968521,168208254,2,0.9575724601745605,-0.0028088961262255907,-0.0038996415678411722,-0.28815245628356934
1679955842.67969322,168308262,2,0.9576995372772217,-0.003320258343592286,-0.0033041478600353003,-0.28773200511932373
1679955842.77973413,168408303,2,0.9578713774681091,-0.0038177946116775274,-0.004598839208483696,-0.2871352732181549
1679955842.87973118,168508300,2,0.9581319093704224,-0.004430047702044249,-0.004151324741542339,-0.2862628102302551
1679955842.97977901,168608348,2,0.958373486995697,-0.004264660645276308,-0.005623346660286188,-0.2854302227497101
1679955843.07976317,168708332,2,0.958602249622345,-0.002985729370266199,-0.006600489839911461,-0.2846563458442688
1679955843.17979407,168808363,2,0.958848237991333,-0.0019034211291000247,-0.006220940500497818,-0.28384464979171753
1679955843.27972221,168908291,2,0.9590557813644409,-0.0025895358994603157,-0.006322561763226986,-0.28313490748405457
1679955843.37968516,169008254,2,0.9592320322990417,-0.0025120163336396217,-0.007779404055327177,-0.28250154852867126
1679955843.47968411,169108253,2,0.9593759179115295,-0.00331733631901443,-0.009543503634631634,-0.28194984793663025
1679955843.57969618,169208265,2,0.9595184922218323,-0.004719721153378487,-0.013418441638350487,-0.28128620982170105
1679955843.67974901,169308318,2,0.9594539403915405,-0.005297285504639149,-0.01882902719080448,-0.28118598461151123
1679955843.77972507,169408294,2,0.959406316280365,-0.006278129294514656,-0.022890087217092514,-0.28102701902389526
1679955843.87976503,169508334,2,0.959358811378479,-0.0072002895176410675,-0.026682740077376366,-0.2808324992656708
1679955843.97976303,169608332,2,0.9592825770378113,-0.007222894113510847,-0.028630688786506653,-0.28090032935142517
1679955844.07976317,169708332,2,0.9593934416770935,-0.0058197276666760445,-0.025176070630550385,-0.28088533878326416
1679955844.17971516,169808284,2,0.959591805934906,-0.004440866410732269,-0.020885329693555832,-0.2805844247341156
1679955844.27968812,169908257,2,0.9598114490509033,-0.0037356833927333355,-0.01775703951716423,-0.28005850315093994
1679955844.37968421,170008253,2,0.9599820375442505,-0.004096409305930138,-0.01695670560002327,-0.27951768040657043
1679955844.47971010,170108279,2,0.9603573083877563,-0.004282339010387659,-0.017793262377381325,-0.27817073464393616
1679955844.57976818,170208337,2,0.9607633352279663,-0.004818553104996681,-0.017191864550113678,-0.2767942249774933
1679955844.67973208,170308301,2,0.9613252282142639,-0.003707605879753828,-0.014607902616262436,-0.2750031054019928
1679955844.77975416,170408323,2,0.9618340730667114,-0.002743432065472007,-0.011474581435322762,-0.27337896823883057
1679955844.87974906,170508318,2,0.9624271988868713,-0.0016714181983843446,-0.009658843278884888,-0.27136293053627014
1679955844.97976208,170608331,2,0.9629680514335632,-0.0011641213204711676,-0.007090638391673565,-0.2695198357105255
1679955845.07971406,170708283,2,0.9635816812515259,-0.0011042978148907423,-0.004858441650867462,-0.26736772060394287
1679955845.17968702,170808256,2,0.9642242193222046,-0.001402597059495747,-0.005231386050581932,-0.26503267884254456
1679955845.27968717,170908256,2,0.9651623964309692,-0.0009143405477516353,-0.005463994573801756,-0.2615930140018463
1679955845.37969303,171008262,2,0.9664285182952881,0.0007342076860368252,-0.004256230778992176,-0.2568993866443634
1679955845.47975802,171108327,2,0.9680878520011902,0.0022282046265900135,-0.0023971942719072104,-0.25058963894844055
1679955845.57972813,171208297,2,0.9698761105537415,0.002062555868178606,-0.0024891721550375223,-0.24357737600803375
1679955845.67977715,171308346,2,0.9714415669441223,0.0013003272470086813,-0.0038943106774240732,-0.2372434288263321
1679955845.77976203,171408331,2,0.9726328253746033,0.0008092258358374238,-0.004483376629650593,-0.23230284452438354
1679955845.87976313,171508332,2,0.9736478924751282,-0.0003343873249832541,-0.00399420689791441,-0.2280212938785553
1679955845.97972107,171608290,2,0.9744097590446472,-0.000998183386400342,-0.0024196472950279713,-0.22476372122764587
1679955846.07968402,171708253,2,0.9750296473503113,-0.0020478786900639534,-0.0012424474116414785,-0.22206179797649384
1679955846.17968607,171808255,2,0.9755262732505798,-0.0008656476275064051,-0.0011913635535165668,-0.2198779433965683
1679955846.27969217,171908261,2,0.9758514165878296,-0.0002239813911728561,-0.0011259203311055899,-0.21843227744102478
1679955846.37975812,172008327,2,0.9760567545890808,0.0004967537242919207,-0.0025238145608454943,-0.217500701546669
1679955846.47972107,172108290,2,0.9761434197425842,0.0014436092460528016,-0.002806429285556078,-0.21710370481014252
1679955846.57978201,172208351,2,0.9759805798530579,0.0003927794750779867,0.0003619235649239272,-0.21785686910152435
1679955846.67975211,172308321,2,0.9756873846054077,-0.0008139872225001454,0.0021538434084504843,-0.21915486454963684
1679955846.77975607,172408325,2,0.9753050804138184,-0.0023975311778485775,0.0008011626778170466,-0.22084759175777435
1679955846.87971807,172508287,2,0.9748655557632446,-0.0030759251676499844,-0.0004949716385453939,-0.2227722704410553
1679955846.97969007,172608259,2,0.9744497537612915,-0.0037410850636661053,-0.002560276072472334,-0.22455976903438568
1679955847.07968712,172708256,2,0.9739848375320435,-0.004847911186516285,-0.005308407358825207,-0.22649912536144257
1679955847.17970014,172808269,2,0.9735325574874878,-0.005947824101895094,-0.00818457268178463,-0.2283242642879486
1679955847.27975702,172908326,2,0.9731013178825378,-0.005486685782670975,-0.011620898731052876,-0.23001879453659058
1679955847.37972617,173008295,2,0.9727751612663269,-0.0060641588643193245,-0.01287651713937521,-0.23131337761878967
1679955847.47978401,173108353,2,0.9725632071495056,-0.00577794574201107,-0.013897028751671314,-0.2321513593196869
1679955847.57976007,173208329,2,0.9722846746444702,-0.0058306255377829075,-0.018375985324382782,-0.23300398886203766
1679955847.67976713,173308336,2,0.9719923138618469,-0.007169391494244337,-0.02275598980486393,-0.23379845917224884
1679955847.77971816,173408287,2,0.971605658531189,-0.010197954252362251,-0.02843480557203293,-0.23466968536376953
1679955847.87968707,173508256,2,0.9711633920669556,-0.012811283580958843,-0.034268759191036224,-0.2355910837650299
1679955847.97968316,173608252,2,0.9708919525146484,-0.013891414739191532,-0.0358877032995224,-0.23640620708465576
1679955848.07969213,173708261,2,0.9707580208778381,-0.014003463089466095,-0.03415261209011078,-0.23720543086528778
1679955848.17977214,173808341,2,0.9707965850830078,-0.013552425429224968,-0.030420908704400063,-0.23758138716220856
1679955848.27972722,173908296,2,0.9710304141044617,-0.011371220462024212,-0.022653840482234955,-0.2376076877117157
1679955848.37982416,174008393,2,0.9714500308036804,-0.009127347730100155,-0.017041128128767014,-0.23645544052124023
1679955848.47975302,174108322,2,0.9718458652496338,-0.0032958886586129665,-0.014155791141092777,-0.23516882956027985
1679955848.57976007,174208329,2,0.9722573757171631,0.004424508661031723,-0.010202817618846893,-0.23364903032779694
1679955848.67971921,174308288,2,0.9726561307907104,0.00999231357127428,-0.008454132825136185,-0.23188090324401855
1679955848.77968216,174408251,2,0.9729917049407959,0.011094807647168636,-0.008014380931854248,-0.23043394088745117
1679955848.87968516,174508254,2,0.9734545946121216,0.007873346097767353,-0.006754364352673292,-0.2286449819803238
1679955848.97970200,174608271,2,0.9738602638244629,0.0013293706579133868,-0.005371729843318462,-0.22708041965961456
1679955849.07974815,174708317,2,0.9742813110351562,-0.0022899191826581955,-0.005194901023060083,-0.22526364028453827
1679955849.17972517,174808294,2,0.9745576977729797,-0.0017346527893096209,-0.005021224729716778,-0.22407369315624237
1679955849.27977109,174908340,2,0.9747933745384216,0.006210317835211754,-0.004418454132974148,-0.2229793667793274
1679955849.37975121,175008320,2,0.974829912185669,0.014301099814474583,-0.0026679534930735826,-0.22247472405433655
1679955849.47972512,175108294,2,0.9749171733856201,0.01935618929564953,-0.002197396010160446,-0.22171373665332794
1679955849.57971907,175208288,2,0.9750263094902039,0.01894025318324566,-0.0023651872761547565,-0.2212676852941513
1679955849.67968106,175308250,2,0.9750885963439941,0.01812269166111946,-0.0016677120001986623,-0.22106792032718658
1679955849.77969217,175408261,2,0.9751887321472168,0.01692846789956093,0.0002760419447440654,-0.22072681784629822
1679955849.87969208,175508261,2,0.9754837155342102,0.01658853515982628,0.0012650477001443505,-0.21944186091423035
1679955849.97975016,175608319,2,0.9761038422584534,0.015546340495347977,0.0024245986714959145,-0.21673433482646942
1679955850.07973409,175708303,2,0.9769987463951111,0.015382812358438969,0.0022342002484947443,-0.21267762780189514
1679955850.17976904,175808338,2,0.978159487247467,0.012051268480718136,0.0012726307613775134,-0.20750226080417633
1679955850.27976203,175908331,2,0.9796040654182434,0.005087003577500582,0.00021141387696843594,-0.20087294280529022
1679955850.37976408,176008333,2,0.9812001585960388,-0.0012413890799507499,-0.0005905254511162639,-0.19298797845840454
1679955850.47971821,176108287,2,0.9827131032943726,-0.0026468175929039717,-0.002542960224673152,-0.18509869277477264
1679955850.57969213,176208261,2,0.9838851690292358,-0.0024709650315344334,-0.004338497761636972,-0.17873191833496094
1679955850.67968822,176308257,2,0.9848170876502991,-0.0014621269656345248,-0.004624977242201567,-0.17352750897407532
1679955850.77968907,176408258,2,0.9856371283531189,-0.001971313264220953,-0.004264643881469965,-0.16881157457828522
1679955850.87975407,176508323,2,0.9862954020500183,-0.001696576364338398,-0.0041704559698700905,-0.1649276167154312
1679955850.97973013,176608299,2,0.986886203289032,-0.002187792444601655,-0.0031282762065529823,-0.161372572183609
1679955851.07977605,176708345,2,0.9873636960983276,-0.0028805916663259268,-0.0018998925806954503,-0.158433198928833
1679955851.17974901,176808318,2,0.9877411723136902,-0.0033045944292098284,-0.0014762426726520061,-0.1560586839914322
1679955851.27976203,176908331,2,0.9880174994468689,-0.0046548801474273205,-0.005192514508962631,-0.1541844606399536
1679955851.37972021,177008289,2,0.9880412817001343,-0.007353610824793577,-0.018219761550426483,-0.15293258428573608
1679955851.47969222,177108261,2,0.9875509142875671,-0.011114237830042839,-0.03840387985110283,-0.1521340161561966
1679955851.57969618,177208265,2,0.9872459173202515,-0.011868001893162727,-0.04638905078172684,-0.15183128416538239
1679955851.67969012,177308259,2,0.9875526428222656,-0.008769726380705833,-0.03873177245259285,-0.1521928459405899
1679955851.77975821,177408327,2,0.9878455400466919,-0.005629022140055895,-0.02642509713768959,-0.15307261049747467
1679955851.87971902,177508288,2,0.9877426624298096,-0.004629538860172033,-0.0210390817373991,-0.15459737181663513
1679955851.97977901,177608348,2,0.9875771403312683,-0.004608403891324997,-0.015833431854844093,-0.1562672108411789
1679955852.07976913,177708338,2,0.9874268174171448,-0.0033215100411325693,-0.006162398960441351,-0.15792186558246613
1679955852.17976618,177808335,2,0.9872098565101624,-0.003863061312586069,0.00012030947982566431,-0.15937912464141846
1679955852.27971506,177908284,2,0.9869257807731628,-0.008954883553087711,0.005305773112922907,-0.1608390063047409
1679955852.37969017,178008259,2,0.986579954624176,-0.015122966840863228,0.011587143875658512,-0.16216351091861725
1679955852.47968102,178108250,2,0.9863952398300171,-0.01634174957871437,0.013509743846952915,-0.16301791369915009
1679955852.57969403,178208263,2,0.9863423705101013,-0.012724139727652073,0.013281585648655891,-0.16367772221565247
1679955852.67976117,178308330,2,0.9862713813781738,-0.006974922027438879,0.012287743389606476,-0.16452696919441223
1679955852.77971220,178408281,2,0.9861517548561096,-0.0011401373194530606,0.010080576874315739,-0.16553473472595215
1679955852.87977409,178508343,2,0.9860109090805054,0.003927599638700485,0.009544096887111664,-0.1663609743118286
1679955852.97975111,178608320,2,0.9858751893043518,0.005109297577291727,0.00900306086987257,-0.16716131567955017
1679955853.07975817,178708327,2,0.9857536554336548,0.004835528787225485,0.0073603298515081406,-0.16796469688415527
1679955853.17972112,178808290,2,0.9856483340263367,0.0036349939182400703,0.0061948164366185665,-0.16865874826908112
1679955853.27968717,178908256,2,0.985532820224762,0.0012783717829734087,0.003439214313402772,-0.16944509744644165
1679955853.37969208,179008261,2,0.9853832721710205,-0.0028149194549769163,-0.001409481163136661,-0.17032308876514435
1679955853.47969222,179108261,2,0.9852473139762878,-0.005497638136148453,-0.007506973575800657,-0.1708834022283554
1679955853.57977319,179208342,2,0.9850336313247681,-0.00593189150094986,-0.010121414437890053,-0.17196263372898102
1679955853.67972612,179308295,2,0.9849235415458679,-0.004044681321829557,-0.008339126594364643,-0.17274168133735657
1679955853.77977514,179408344,2,0.9848629236221313,-0.0008165618637576699,-0.003937818109989166,-0.17328836023807526
1679955853.87976003,179508329,2,0.9847285747528076,0.0026550337206572294,-0.0003826530883088708,-0.17407581210136414
1679955853.97977519,179608344,2,0.984686553478241,0.00373473740182817,-5.793267337139696e-05,-0.17429423332214355
1679955854.07972503,179708294,2,0.9846487641334534,0.0036085762549191713,-0.00043903905316255987,-0.17450954020023346
1679955854.17968416,179808253,2,0.9846317768096924,0.002255142666399479,-0.0010590220335870981,-0.17462563514709473
1679955854.27969503,179908264,2,0.9844775199890137,-0.0008734229486435652,-0.010228771716356277,-0.17521007359027863
1679955854.37970614,180008275,2,0.9840675592422485,-0.006131632719188929,-0.03029841184616089,-0.17508694529533386
1679955854.47975302,180108322,2,0.9839624762535095,-0.006937458645552397,-0.040060486644506454,-0.17368054389953613
1679955854.57974005,180208309,2,0.9845500588417053,-0.005937150679528713,-0.035424258559942245,-0.17137986421585083
1679955854.67978621,180308355,2,0.9851768612861633,-0.005626829341053963,-0.027582742273807526,-0.16921614110469818
1679955854.77974510,180408314,2,0.9857162833213806,-0.005180825479328632,-0.02065667137503624,-0.16706250607967377
1679955854.87976313,180508332,2,0.9860965013504028,-0.0053554619662463665,-0.017122283577919006,-0.1652025580406189
1679955854.97972417,180608293,2,0.9863962531089783,-0.00515670096501708,-0.01882452517747879,-0.16322220861911774
1679955855.07968307,180708252,2,0.9865894913673401,-0.004092903342097998,-0.02304450236260891,-0.1615344136953354
1679955855.17968416,180808253,2,0.9867199659347534,-0.003498998936265707,-0.02830321714282036,-0.15990737080574036
1679955855.27970219,180908271,2,0.9868519902229309,-0.0033246497623622417,-0.031347017735242844,-0.15852291882038116
1679955855.37973404,181008303,2,0.9871159195899963,-0.0022917415481060743,-0.029400063678622246,-0.15726596117019653
1679955855.47972417,181108293,2,0.9874942302703857,-0.0006199164199642837,-0.023464517667889595,-0.15589778125286102
1679955855.57980704,181208376,2,0.9876903295516968,-5.5667798733338714e-05,-0.019328908994793892,-0.1552230268716812
1679955855.67975020,181308319,2,0.9877622723579407,-0.001999237108975649,-0.021865317597985268,-0.154413640499115
1679955855.77976203,181408331,2,0.9876391887664795,-0.004951565992087126,-0.026205167174339294,-0.15445895493030548
1679955855.87971807,181508287,2,0.987564206123352,-0.006468091160058975,-0.029832947999238968,-0.15422405302524567
1679955855.97969317,181608262,2,0.9873611330986023,-0.007924559526145458,-0.03458433598279953,-0.15446393191814423
1679955856.07969213,181708261,2,0.9871827363967896,-0.00905649084597826,-0.04050055891275406,-0.15410374104976654
1679955856.17970610,181808275,2,0.9872558116912842,-0.00830510538071394,-0.041173484176397324,-0.15349815785884857
1679955856.27976704,181908336,2,0.9875412583351135,-0.0078473761677742,-0.038201697170734406,-0.15245090425014496
1679955856.37972403,182008293,2,0.9879217147827148,-0.007178470492362976,-0.0318387895822525,-0.15147754549980164
1679955856.47976518,182108334,2,0.9883136749267578,-0.006175480782985687,-0.02595151960849762,-0.15008169412612915
1679955856.57975507,182208324,2,0.988603949546814,-0.006342042703181505,-0.024891797453165054,-0.14833194017410278
1679955856.67977500,182308344,2,0.9889787435531616,-0.00668529886752367,-0.02663807012140751,-0.14548781514167786
1679955856.77971220,182408281,2,0.9893728494644165,-0.007075831294059753,-0.028060363605618477,-0.1424916386604309
1679955856.87969017,182508259,2,0.989913821220398,-0.006575681734830141,-0.030179960653185844,-0.1382625252008438
1679955856.97969604,182608265,2,0.9905009269714355,-0.006365825887769461,-0.03039335086941719,-0.13395404815673828
1679955857.07970214,182708271,2,0.9910433888435364,-0.005020723678171635,-0.03090602718293667,-0.12981769442558289
1679955857.17975807,182808327,2,0.9914134740829468,-0.0031089847907423973,-0.033319372683763504,-0.12641003727912903
1679955857.27973509,182908304,2,0.9917767643928528,-0.001474968739785254,-0.035009533166885376,-0.12308922410011292
1679955857.37977600,183008345,2,0.992129921913147,-0.0010917031904682517,-0.03573114424943924,-0.12000109255313873
1679955857.47975707,183108326,2,0.9924739599227905,-0.0008440602687187493,-0.03505744785070419,-0.11732708662748337
1679955857.57972002,183208289,2,0.9928730130195618,-0.0002555808168835938,-0.031611498445272446,-0.1149076595902443
1679955857.67971611,183308285,2,0.9933174848556519,0.0014257273869588971,-0.02597145363688469,-0.11244457215070724
1679955857.77968311,183408252,2,0.993661642074585,0.0016164330299943686,-0.020346470177173615,-0.11054366827011108
1679955857.87968516,183508254,2,0.9939148426055908,0.0009456738480366766,-0.017449188977479935,-0.10875645279884338
1679955857.97969818,183608267,2,0.9940275549888611,0.00016762288578320295,-0.017437227070331573,-0.10772739350795746
1679955858.07977414,183708343,2,0.9939956068992615,-0.0008313632570207119,-0.020282169803977013,-0.10752084851264954
1679955858.17973208,183808301,2,0.9938810467720032,-0.0030690880957990885,-0.02431510016322136,-0.10770251601934433
1679955858.27977419,183908343,2,0.9937805533409119,-0.004116184543818235,-0.026363030076026917,-0.10811208933591843
1679955858.37975907,184008328,2,0.9938341975212097,-0.0032049030996859074,-0.02171942964196205,-0.10868127644062042
1679955858.47976208,184108331,2,0.993863582611084,-0.0035611125640571117,-0.013665233738720417,-0.10970745980739594
1679955858.57971716,184208286,2,0.9938642978668213,-0.003682695096358657,-0.0067236837930977345,-0.11034052073955536
1679955858.67968702,184308256,2,0.9937836527824402,-0.004097319673746824,-0.0038834484294056892,-0.11118510365486145
1679955858.77969623,184408265,2,0.9937101006507874,-0.004272934515029192,-0.006735467351973057,-0.11169859766960144
1679955858.87969112,184508260,2,0.9936356544494629,-0.0031011535320430994,-0.012426000088453293,-0.1119113340973854
1679955858.97977304,184608342,2,0.9935883283615112,-0.0022583671379834414,-0.017776338383555412,-0.11162962764501572
1679955859.07973218,184708301,2,0.99350506067276,-0.0023759989999234676,-0.023413222283124924,-0.11132776737213135
1679955859.17982912,184808398,2,0.9934090971946716,-0.0027326643466949463,-0.02867475338280201,-0.11094427108764648
1679955859.27975202,184908321,2,0.9935601949691772,-0.0008909455500543118,-0.026961520314216614,-0.11004751175642014
1679955859.37976503,185008334,2,0.9939067363739014,0.0008098352118395269,-0.019058499485254288,-0.10856131464242935
1679955859.47971821,185108287,2,0.9941795468330383,0.0015090986853465438,-0.012210085056722164,-0.10703110694885254
1679955859.57968521,185208254,2,0.994430661201477,0.0012184057850390673,-0.008819278329610825,-0.10501598566770554
1679955859.67968702,185308256,2,0.994607150554657,0.0016723922453820705,-0.007855702191591263,-0.10340254753828049
1679955859.77968812,185408257,2,0.9948307275772095,0.0017684013582766056,-0.008191651664674282,-0.10120067000389099
1679955859.87975001,185508319,2,0.9951754212379456,0.0012004167074337602,-0.007587232161313295,-0.09781067818403244
1679955859.97972822,185608297,2,0.9956360459327698,0.0021834135986864567,-0.006735093425959349,-0.09305217862129211
1679955860.07978511,185708354,2,0.9960315823554993,0.003423716640099883,-0.004408365581184626,-0.0888252779841423
1679955860.17974806,185808317,2,0.9963452816009521,0.004059539642184973,-0.00031302834395319223,-0.08532021939754486
1679955860.27976418,185908333,2,0.9966360330581665,0.0034019951708614826,0.0033577627036720514,-0.08181551098823547
1679955860.37972808,186008297,2,0.9968733191490173,0.0025433097034692764,0.006967869121581316,-0.07866727560758591
1679955860.47968912,186108258,2,0.9970577955245972,0.0023894482292234898,0.008795620873570442,-0.07610950618982315
1679955860.57968712,186208256,2,0.9970592260360718,0.0028289116453379393,0.009247980080544949,-0.0760221928358078
1679955860.67969108,186308260,2,0.9969127774238586,0.002974630333483219,0.00988453347235918,-0.07783524692058563
1679955860.77975512,186408324,2,0.9967503547668457,0.002735863672569394,0.009726026095449924,-0.07991635799407959
1679955860.87972307,186508292,2,0.9965812563896179,0.0026038207579404116,0.008739927783608437,-0.0821138322353363
1679955860.97978115,186608350,2,0.996383786201477,0.001617968431673944,0.00849742628633976,-0.08452535420656204
1679955861.07975101,186708320,2,0.9962081909179688,0.0008023342816159129,0.00693625770509243,-0.08672070503234863
1679955861.17979717,186808366,2,0.9960471987724304,0.0004414898285176605,0.0039532422088086605,-0.08873646706342697
1679955861.27971911,186908288,2,0.9959834814071655,-0.00024032579676713794,0.0021468691993504763,-0.08951112627983093
1679955861.37968612,187008255,2,0.9960859417915344,-0.001733787008561194,0.0015687766717746854,-0.0883593037724495
1679955861.47970104,187108270,2,0.9963541626930237,-0.005886032246053219,-0.0006818078109063208,-0.08510732650756836
1679955861.57972121,187208290,2,0.9966397881507874,-0.008276225998997688,-0.0037996135652065277,-0.08140124380588531
1679955861.67976213,187308331,2,0.9969050884246826,-0.009994258172810078,-0.00568694481626153,-0.07776910811662674
1679955861.77972507,187408294,2,0.9970713257789612,-0.011182389222085476,-0.011276827193796635,-0.0748099610209465
1679955861.87976813,187508337,2,0.9972454309463501,-0.011034532450139523,-0.015372919850051403,-0.07171829044818878
1679955861.97976303,187608332,2,0.9974360466003418,-0.00975894182920456,-0.014393939636647701,-0.06941808760166168
1679955862.07977104,187708340,2,0.9976359605789185,-0.008517085574567318,-0.011948351748287678,-0.06713541597127914
1679955862.17971301,187808282,2,0.9977794289588928,-0.0075632501393556595,-0.00980717409402132,-0.06544366478919983
1679955862.27968502,187908254,2,0.9979029893875122,-0.005465428810566664,-0.008827084675431252,-0.06388946622610092
1679955862.37968802,188008257,2,0.9979783892631531,-0.003613353706896305,-0.007860273122787476,-0.06296298652887344
1679955862.47968817,188108257,2,0.9980257153511047,-0.002006947062909603,-0.006374398712068796,-0.06245007365942001
1679955862.57975006,188208319,2,0.998055636882782,-0.0010963503737002611,-0.007062566000968218,-0.06191790848970413
1679955862.67972708,188308296,2,0.9980016946792603,-0.00026454482576809824,-0.011016488075256348,-0.06221848353743553
1679955862.77976418,188408333,2,0.9979411959648132,-0.0012185926316305995,-0.0133360605686903,-0.06272199004888535
1679955862.87974811,188508317,2,0.997881293296814,-0.0024289563298225403,-0.013182669878005981,-0.06366483867168427
1679955862.97976518,188608334,2,0.9978017210960388,-0.0022503396030515432,-0.011169460602104664,-0.06528323888778687
1679955863.07972407,188708293,2,0.9977244138717651,-0.00191208824981004,-0.008911305107176304,-0.06680501997470856
1679955863.17968822,188808257,2,0.9976238012313843,-0.0012489666696637869,-0.00809200294315815,-0.06840874254703522
1679955863.27969813,188908267,2,0.9974929690361023,-0.0014121875865384936,-0.010136316530406475,-0.07002173364162445
1679955863.37970400,189008273,2,0.9972984790802002,-0.0022893683053553104,-0.016173288226127625,-0.07161659002304077
1679955863.47975612,189108325,2,0.9971067905426025,-0.0030248956754803658,-0.021407239139080048,-0.07287381589412689
1679955863.57974911,189208318,2,0.9971281886100769,-0.003456295235082507,-0.022056955844163895,-0.07236636430025101
1679955863.67978811,189308357,2,0.9972801208496094,-0.0028448826633393764,-0.02035711333155632,-0.07078048586845398
1679955863.77975011,189408319,2,0.9974018931388855,-0.0027104441542178392,-0.02027645893394947,-0.06907226145267487
1679955863.87976003,189508329,2,0.9973407983779907,-0.003386838361620903,-0.025795143097639084,-0.06807667762041092
1679955863.97971606,189608285,2,0.9972058534622192,-0.0034939409233629704,-0.0340796634554863,-0.06638438999652863
1679955864.07969022,189708259,2,0.997160792350769,-0.0034844481851905584,-0.0383782796561718,-0.0646941140294075
1679955864.17968512,189808254,2,0.9972278475761414,-0.0019849480595439672,-0.039417482912540436,-0.0630788579583168
1679955864.27969122,189908260,2,0.9973157048225403,-0.0017912192270159721,-0.04051648825407028,-0.060963407158851624
1679955864.37975907,190008328,2,0.9972485899925232,-0.002508241916075349,-0.04409037157893181,-0.059539735317230225
1679955864.47972107,190108290,2,0.9971326589584351,-0.0038326468784362078,-0.04819905757904053,-0.05821157991886139
1679955864.57978010,190208349,2,0.9973294734954834,-0.004056532867252827,-0.045708347111940384,-0.05681765452027321
1679955864.67975807,190308327,2,0.9975431561470032,-0.0017794618615880609,-0.04281215742230415,-0.05542221665382385
1679955864.77977300,190408342,2,0.9976024031639099,0.0006897017010487616,-0.043556418269872665,-0.05377551540732384
1679955864.87972713,190508296,2,0.9976234436035156,0.0023648568894714117,-0.04447059705853462,-0.052576009184122086
1679955864.97969723,190608266,2,0.9977121353149414,0.0020236896816641092,-0.04402397945523262,-0.051266539841890335
1679955865.07969117,190708260,2,0.9977940917015076,0.000893786724191159,-0.04319337382912636,-0.0504036545753479
1679955865.17969108,190808260,2,0.9978468418121338,-0.0019360377918928862,-0.04253411665558815,-0.04988733306527138
1679955865.27975702,190908326,2,0.9979107975959778,-0.0040528965182602406,-0.04158894345164299,-0.04927420988678932
1679955865.37971306,191008282,2,0.9979174137115479,-0.0037618852220475674,-0.0414963960647583,-0.04924166575074196
1679955865.47979903,191108368,2,0.9978740215301514,-0.00330081838183105,-0.04292358458042145,-0.04892945662140846
1679955865.57976413,191208333,2,0.997835099697113,-0.0034813827369362116,-0.0433853417634964,-0.04930196702480316
1679955865.67975903,191308328,2,0.997956395149231,-0.0036250976845622063,-0.04008409008383751,-0.04963046312332153
1679955865.77971220,191408281,2,0.9980904459953308,-0.002829883247613907,-0.03553962707519531,-0.050442177802324295
1679955865.87968922,191508258,2,0.9981144666671753,-0.0023517983499914408,-0.03309539705514908,-0.05163932591676712
1679955865.97970319,191608272,2,0.9980392456054688,-0.001916082575917244,-0.03317997232079506,-0.05303812399506569
1679955866.07970405,191708273,2,0.9979275465011597,-0.001496954937465489,-0.03383836895227432,-0.05471166968345642
1679955866.17976618,191808335,2,0.9977065920829773,-0.0023207904305309057,-0.03766198083758354,-0.05619411543011665
1679955866.27971220,191908281,2,0.9975324869155884,-0.002314188051968813,-0.03994768485426903,-0.057686347514390945
1679955866.37980008,192008369,2,0.9974254369735718,-0.0033486431930214167,-0.0413157194852829,-0.05851780250668526
1679955866.47975302,192108322,2,0.9974654912948608,-0.003731116885319352,-0.04045232757925987,-0.058414775878190994
1679955866.57976508,192208334,2,0.9975886344909668,-0.0030088701751083136,-0.038638826459646225,-0.057574909180402756
1679955866.67972302,192308292,2,0.997685432434082,-0.003235840704292059,-0.036829862743616104,-0.057069081813097
1679955866.77968907,192408258,2,0.9978219270706177,-0.0017833416350185871,-0.03514543175697327,-0.05579432100057602
1679955866.87968516,192508254,2,0.997931957244873,0.0006154516013339162,-0.034443557262420654,-0.05426831170916557
1679955866.97970319,192608272,2,0.9980595707893372,0.0033698289189487696,-0.03386906534433365,-0.05214029550552368
1679955867.07976723,192708336,2,0.9982139468193054,0.004071198403835297,-0.03239919990301132,-0.05002691596746445
1679955867.17972803,192808297,2,0.9983424544334412,0.0056419819593429565,-0.0315093956887722,-0.04782940074801445
1679955867.27977514,192908344,2,0.9984645843505859,0.005291447509080172,-0.030894741415977478,-0.04567323252558708
1679955867.37974906,193008318,2,0.9985889792442322,0.004543926101177931,-0.02906624786555767,-0.04420997202396393
1679955867.47977018,193108339,2,0.9987176656723022,0.002790417755022645,-0.027341963723301888,-0.042516715824604034
1679955867.57971621,193208285,2,0.9988242983818054,-0.0008796986658126116,-0.0246439091861248,-0.04173586145043373
1679955867.67968512,193308254,2,0.9989961981773376,-0.00632471963763237,-0.01685982756316662,-0.0410168319940567
1679955867.77969718,193408266,2,0.9990324974060059,-0.011295362375676632,-0.008783307857811451,-0.04158538952469826
1679955867.87971210,193508281,2,0.9989885687828064,-0.013733429834246635,-0.004960773512721062,-0.04252750799059868
1679955867.97974920,193608318,2,0.9989500045776367,-0.013807526789605618,-0.005794870667159557,-0.04329740256071091
1679955868.07972622,193708295,2,0.9988886713981628,-0.014321385882794857,-0.00886204931885004,-0.04402071610093117
1679955868.17978215,193808351,2,0.9988431334495544,-0.01360801886767149,-0.010708540678024292,-0.04486085847020149
1679955868.27976918,193908338,2,0.9988821744918823,-0.010607107542455196,-0.007144339382648468,-0.04550672322511673
1679955868.37976408,194008333,2,0.9989398717880249,-0.006158960983157158,0.0015032119117677212,-0.04559512808918953
1679955868.47971821,194108287,2,0.9989045858383179,-0.00324619491584599,0.009390922263264656,-0.04572680592536926
1679955868.57968616,194208255,2,0.9988714456558228,-0.003486867528408766,0.013785257935523987,-0.045317307114601135
1679955868.67969203,194308261,2,0.998887836933136,-0.003815833944827318,0.015981676056981087,-0.04419345781207085
1679955868.77968812,194408257,2,0.9989510178565979,-0.004249237943440676,0.015641052275896072,-0.04282654821872711
1679955868.87976408,194508333,2,0.9990522265434265,-0.002864697016775608,0.013850630261003971,-0.04116600751876831
1679955868.97972512,194608294,2,0.9991533756256104,-0.0004719048738479614,0.011377024464309216,-0.03953349217772484
1679955869.07978106,194708350,2,0.9992508292198181,0.00209552189335227,0.009007899090647697,-0.03757947310805321
1679955869.17974615,194808315,2,0.9993130564689636,0.0020501932594925165,0.00843175407499075,-0.03602980077266693
1679955869.27976108,194908330,2,0.9993640780448914,0.002540535992011428,0.009288191795349121,-0.03433265537023544
1679955869.37971902,195008288,2,0.9993983507156372,0.0013393756235018373,0.010808014310896397,-0.03292982652783394
1679955869.47968316,195108252,2,0.9994201064109802,0.001790604437701404,0.01154439989477396,-0.03198422119021416
1679955869.57969522,195208264,2,0.9994598627090454,0.0031560652423650026,0.010066733695566654,-0.031124010682106018
1679955869.67971110,195308280,2,0.9994809627532959,0.004015869460999966,0.009816466830670834,-0.030419882386922836
1679955869.77976322,195408332,2,0.9994980096817017,0.002725570695474744,0.009392141364514828,-0.03013433702290058
1679955869.87971902,195508288,2,0.9995054602622986,0.0004512185405474156,0.009770616888999939,-0.02988569438457489
1679955869.97977614,195608345,2,0.9994971752166748,-0.0027134788688272238,0.009721124544739723,-0.030059155076742172
1679955870.07976913,195708338,2,0.9995065331459045,-0.0037792823277413845,0.00861301925033331,-0.029970882460474968
1679955870.17972302,195808292,2,0.9995058178901672,-0.0038657761178910732,0.0062115248292684555,-0.030571529641747475
1679955870.27971411,195908283,2,0.9995144605636597,-0.002074639778584242,0.0031112979631870985,-0.030932655557990074
1679955870.37968802,196008257,2,0.9994989037513733,1.4444105545408092e-05,0.0023238686844706535,-0.031568679958581924
1679955870.47968912,196108258,2,0.9994677901268005,-0.0002280697226524353,0.002371261129155755,-0.032533615827560425
1679955870.57969308,196208262,2,0.9994493126869202,0.0006872109370306134,0.004508168902248144,-0.032866984605789185
1679955870.67976522,196308334,2,0.9994417428970337,0.00022730686760041863,0.006201406940817833,-0.0328274704515934
1679955870.77972412,196408293,2,0.9994473457336426,0.0003176413010805845,0.007626704405993223,-0.03235256299376488
1679955870.87977505,196508344,2,0.999466061592102,0.00112328736577183,0.006807356141507626,-0.03193679079413414
1679955870.97975802,196608327,2,0.9994795322418213,0.0004904914530925453,0.005827432032674551,-0.031724683940410614
1679955871.07976103,196708330,2,0.9992074966430664,-0.024972736835479736,0.00683713098987937,-0.030233168974518776
1679955871.17971921,196808288,2,0.9939256906509399,-0.10577034950256348,0.00936849508434534,-0.02892472594976425
1679955871.27969718,196908266,2,0.9791255593299866,-0.20104292035102844,0.013508843258023262,-0.026690155267715454
1679955871.37969923,197008268,2,0.9645097255706787,-0.2621629536151886,0.01727689616382122,-0.02632715366780758
1679955871.47971106,197108280,2,0.9731720089912415,-0.22810998558998108,0.014977876096963882,-0.02603389509022236
1679955871.57976317,197208332,2,0.9895950555801392,-0.1415974497795105,0.0059080226346850395,-0.024837607517838478
1679955871.67972016,197308289,2,0.9975320100784302,-0.06602255254983902,-0.003751711454242468,-0.02359726093709469
1679955871.77977300,197408342,2,0.9996393918991089,-0.011098037473857403,-0.008830128237605095,-0.02280166931450367
1679955871.87975621,197508325,2,0.9994634389877319,0.022061051800847054,-0.008040395565330982,-0.02283565141260624
1679955871.97976422,197608333,2,0.9991153478622437,0.03442787006497383,-0.004293875768780708,-0.023764774203300476
1679955872.07971716,197708286,2,0.9991359710693359,0.033300019800662994,0.0016552864108234644,-0.024812355637550354
1679955872.17968321,197808252,2,0.9991833567619324,0.030086398124694824,0.005907820072025061,-0.026316054165363312
1679955872.27968812,197908257,2,0.9992186427116394,0.026751091703772545,0.0072354404255747795,-0.02818063087761402
1679955872.37969422,198008263,2,0.9992057681083679,0.025642182677984238,0.007357930764555931,-0.029599342495203018
1679955872.47974706,198108316,2,0.9991670846939087,0.025504760444164276,0.007486203219741583,-0.03096144273877144
1679955872.57972312,198208292,2,0.9991477131843567,0.024756954982876778,0.007951771840453148,-0.03205743804574013
1679955872.67977023,198308339,2,0.9991592764854431,0.022499866783618927,0.008994551375508308,-0.033069271594285965
1679955872.77974415,198408313,2,0.9991950988769531,0.020129578188061714,0.008946017362177372,-0.03352484479546547
1679955872.87975907,198508328,2,0.999170184135437,0.02116304077208042,0.0089510977268219,-0.033628761768341064
1679955872.97972608,198608295,2,0.999150276184082,0.021684208884835243,0.009990401566028595,-0.03359607979655266
1679955873.07968307,198708252,2,0.9991931915283203,0.01985001005232334,0.00924188643693924,-0.03366857394576073
1679955873.17968917,198808258,2,0.9992572665214539,0.016304470598697662,0.009628990665078163,-0.03356187045574188
1679955873.27970314,198908272,2,0.9993334412574768,0.012337921187281609,0.008817006833851337,-0.03320680186152458
1679955873.37976003,199008329,2,0.9993636012077332,0.011333288624882698,0.006630402989685535,-0.03316532075405121
1679955873.47972322,199108292,2,0.9993700385093689,0.011595457792282104,0.005102200899273157,-0.03315228596329689
1679955873.57977509,199208344,2,0.9992660880088806,0.01729780249297619,0.0035271551460027695,-0.03399420529603958
1679955873.67974901,199308318,2,0.9965460896492004,0.07514022290706635,-0.0011829630238935351,-0.03533292934298515
1679955873.77976418,199408333,2,0.9840888977050781,0.1738143414258957,-0.005605931393802166,-0.03641718998551369
1679955873.87972021,199508289,2,0.9684363007545471,0.24662303924560547,-0.005783820059150457,-0.03570327162742615
1679955873.97969222,199608261,2,0.9731826782226562,0.22739249467849731,-0.0001336369023192674,-0.034757405519485474
1679955874.07971120,199708280,2,0.9871376156806946,0.15586067736148834,0.005635686218738556,-0.035142116248607635
1679955874.17971015,199808279,2,0.9957287311553955,0.08510750532150269,0.011318170465528965,-0.03395382687449455
1679955874.27974820,199908317,2,0.9990075826644897,0.027515582740306854,0.013344239443540573,-0.032383035868406296
1679955874.37972307,200008292,2,0.9994075298309326,-0.008940483443439007,0.00935011450201273,-0.031893372535705566
1679955874.47976422,200108333,2,0.999264657497406,-0.020524170249700546,0.004206077661365271,-0.03211299702525139
1679955874.57976604,200208335,2,0.9992998242378235,-0.01870272122323513,0.0009990979451686144,-0.03239006921648979
1679955874.67976904,200308338,2,0.9993472695350647,-0.013884098269045353,0.0007266213651746511,-0.03334350138902664
1679955874.77971721,200408286,2,0.9993540644645691,-0.011500727385282516,0.0009240235085599124,-0.034034598618745804
1679955874.87968516,200508254,2,0.999356746673584,-0.009463520720601082,0.0006424079765565693,-0.03458539396524429
1679955874.97969508,200608264,2,0.9993545413017273,-0.009263086132705212,-0.0002106584288412705,-0.03470854461193085
1679955875.07969713,200708266,2,0.9993460774421692,-0.00935808289796114,-0.00033499745768494904,-0.034925464540719986
1679955875.17976308,200808332,2,0.9993377327919006,-0.010593598708510399,-0.0008349844720214605,-0.03480147197842598
1679955875.27972603,200908295,2,0.9992901682853699,-0.015700314193964005,-0.0011088280007243156,-0.03422553464770317
1679955875.37976813,201008337,2,0.9970298409461975,-0.069620281457901,0.0005301865749061108,-0.03292698785662651
1679955875.47976303,201108332,2,0.9856837391853333,-0.16536317765712738,0.0046157995238900185,-0.03257742524147034
1679955875.57973003,201208299,2,0.9653932452201843,-0.2585769295692444,0.009509042836725712,-0.032609812915325165
1679955875.67971301,201308282,2,0.9602978229522705,-0.27665984630584717,0.010586719028651714,-0.03428371250629425
1679955875.77968216,201408251,2,0.9782887697219849,-0.2040969282388687,0.008216210640966892,-0.035043150186538696
1679955875.87968516,201508254,2,0.9920046925544739,-0.12110363692045212,0.004663722589612007,-0.03519730642437935
1679955875.97969222,201608261,2,0.9978293776512146,-0.05584796145558357,0.0003913110413122922,-0.03489077463746071
1679955876.07975721,201708326,2,0.9993667006492615,-0.007255170494318008,-0.003338337643072009,-0.0346762053668499
1679955876.17972112,201808290,2,0.9992073178291321,0.01945803128182888,-0.0049804821610450745,-0.034369636327028275
1679955876.27977204,201908341,2,0.999036967754364,0.027355657890439034,-0.0030461736023426056,-0.03416825830936432
1679955876.37975407,202008323,2,0.9990659356117249,0.0267298873513937,6.969409878365695e-05,-0.03395182266831398
1679955876.47977710,202108346,2,0.9991321563720703,0.02456599660217762,0.002830617828294635,-0.033518288284540176
1679955876.57972717,202208296,2,0.9991981387138367,0.021490415558218956,0.0032683315221220255,-0.03362380340695381
1679955876.67969418,202308263,2,0.9992537498474121,0.018664438277482986,0.002309816889464855,-0.033738479018211365
1679955876.77969313,202408262,2,0.999297559261322,0.01581965945661068,0.0027958243153989315,-0.03385734558105469
1679955876.87970018,202508269,2,0.999323308467865,0.012882881797850132,0.0036039152182638645,-0.03426375240087509
1679955876.97975016,202608319,2,0.9993314743041992,0.0105022257193923,0.0032535577192902565,-0.034866414964199066
1679955877.07972813,202708297,2,0.9993327856063843,0.008087730035185814,0.0025286555755883455,-0.03552720323204994
1679955877.17978120,202808350,2,0.9993271231651306,0.006912648677825928,0.002405958715826273,-0.0359407402575016
1679955877.27976322,202908332,2,0.9993244409561157,0.006189909763634205,0.002411774592474103,-0.03614644333720207
1679955877.37976003,203008329,2,0.999325156211853,0.004925725515931845,0.002961548278108239,-0.03627943620085716
1679955877.47971916,203108288,2,0.9993333220481873,0.003672973718494177,0.0035586096346378326,-0.03614972531795502
1679955877.57969522,203208264,2,0.999344527721405,-0.008289509452879429,0.004109182860702276,-0.034999214112758636
1679955877.67970109,203308270,2,0.996730387210846,-0.07312098890542984,0.006396112497895956,-0.03377813845872879
1679955877.77970505,203408274,2,0.9913381934165955,-0.12668955326080322,0.0027120495215058327,-0.03451000526547432
1679955877.87975717,203508326,2,0.9944689869880676,-0.09787388890981674,-0.019961845129728317,-0.03245978057384491
1679955877.97972512,203608294,2,0.9986262917518616,-0.029559094458818436,-0.03166739270091057,-0.0294784028083086
1679955878.07978201,203708351,2,0.9993519186973572,0.015484382398426533,-0.017502103000879288,-0.0273800827562809
1679955878.17976117,203808330,2,0.999207079410553,0.02981015108525753,-0.0034901145845651627,-0.026160413399338722
1679955878.27975702,203908326,2,0.9992548227310181,0.029207924380898476,-0.000553918129298836,-0.02522698976099491
1679955878.37971807,204008287,2,0.999316930770874,0.024551520124077797,-0.01097707450389862,-0.0253449659794569
1679955878.47968912,204108258,2,0.9988422393798828,0.01971878483891487,-0.03553827852010727,-0.025736205279827118
1679955878.57968521,204208254,2,0.9972929358482361,0.015462598763406277,-0.06690498441457748,-0.026294635608792305
1679955878.67969513,204308264,2,0.9961298704147339,0.013042266480624676,-0.08275680989027023,-0.02658042497932911
1679955878.77976918,204408338,2,0.9965713620185852,0.01220900658518076,-0.07741264253854752,-0.02652899920940399
1679955878.87972903,204508298,2,0.9970633387565613,0.011438586749136448,-0.0710219219326973,-0.026263246312737465
1679955878.97977400,204608343,2,0.9968835115432739,0.00944299902766943,-0.07385871559381485,-0.026057876646518707
1679955879.07975602,204708325,2,0.996336817741394,0.007014169357717037,-0.08118200302124023,-0.025947028771042824
1679955879.17972112,204808290,2,0.9956144690513611,0.005941641051322222,-0.08962717652320862,-0.026143508031964302
1679955879.27971816,204908287,2,0.9945064783096313,0.008788757026195526,-0.10085634142160416,-0.026600802317261696
1679955879.37968802,205008257,2,0.9937994480133057,0.012966754846274853,-0.10705627501010895,-0.027082132175564766
1679955879.47968817,205108257,2,0.9942986965179443,0.01612773723900318,-0.10182485729455948,-0.027234874665737152
1679955879.57969809,205208267,2,0.9952808618545532,0.019698742777109146,-0.09093372523784637,-0.02755037695169449
1679955879.67975521,205308324,2,0.9959641098976135,0.02504315972328186,-0.08162129670381546,-0.027681957930326462
1679955879.77972817,205408297,2,0.9961119890213013,0.031102707609534264,-0.0776781439781189,-0.027561945840716362
1679955879.87977409,205508343,2,0.9960845708847046,0.03667272627353668,-0.07579562813043594,-0.026938121765851974
1679955879.97975516,205608324,2,0.9960938096046448,0.04025065153837204,-0.07395636290311813,-0.026597246527671814
1679955880.07976913,205708338,2,0.9961798787117004,0.04003928601741791,-0.07278003543615341,-0.026936113834381104
1679955880.17971420,205808283,2,0.9962148666381836,0.037928737699985504,-0.07323680073022842,-0.027454648166894913
1679955880.27968502,205908254,2,0.9962129592895508,0.035548944026231766,-0.07418319582939148,-0.028157034888863564
1679955880.37969518,206008264,2,0.9962108731269836,0.03245841711759567,-0.07536091655492783,-0.02882888913154602
1679955880.47970104,206108270,2,0.9962127804756165,0.028563594445586205,-0.0766526609659195,-0.02947188727557659
1679955880.57976604,206208335,2,0.996259868144989,0.024647148326039314,-0.07704602926969528,-0.030376911163330078
1679955880.67972422,206308293,2,0.9964196681976318,0.02235746756196022,-0.07541648298501968,-0.0309891439974308
1679955880.77979803,206408367,2,0.9968263506889343,0.020764267072081566,-0.07009653747081757,-0.03150447458028793
1679955880.87975717,206508326,2,0.9975486993789673,0.01831870898604393,-0.0595320425927639,-0.03189023211598396
1679955880.97976923,206608338,2,0.9981953501701355,0.012410304509103298,-0.04904713109135628,-0.03234831616282463
1679955881.07971406,206708283,2,0.9984709024429321,0.007677496876567602,-0.04392404481768608,-0.03267320245504379
1679955881.17968321,206808252,2,0.9983587265014648,0.011454205960035324,-0.045415014028549194,-0.03295574337244034
