timestamp,TimeUS,C,Roll,Pitch,Yaw,VN,VE,VD,dPD,PN,PE,PD,GX,GY,GZ,OH
1679955829.27974510,154908314,2,0.87,-0.77,332.51,-0.021730732172727585,-0.01532405149191618,0.005602060817182064,-0.017477847635746002,-0.3491898477077484,-0.9453117847442627,-1.9778146743774414,-0.21,0.09,0.03,279.17
1679955829.37971210,155008281,2,0.86,-0.77,332.51,-0.020901501178741455,-0.015537768602371216,0.004540180321782827,-0.01815575174987316,-0.34992626309394836,-0.9471225738525391,-1.9795894622802734,-0.21,0.09,0.03,279.17
1679955829.47976708,155108336,2,0.86,-0.76,332.51,-0.020665138959884644,-0.017368754372000694,0.0035682967863976955,-0.0014090185286477208,-0.3509991466999054,-0.9495213031768799,-1.9794719219207764,-0.21,0.09,0.03,279.17
1679955829.57974720,155208316,2,0.87,-0.76,332.51,-0.02078462764620781,-0.01689917966723442,0.003672750201076269,0.006720243487507105,-0.35239964723587036,-0.9519479870796204,-1.979427456855774,-0.21,0.09,0.03,279.17
1679955829.67976713,155308336,2,0.86,-0.76,332.51,-0.02151307463645935,-0.017602456733584404,0.0031105787493288517,-0.0033501239959150553,-0.35422223806381226,-0.9547020792961121,-1.980278730392456,-0.21,0.09,0.03,279.17
1679955829.77970600,155408275,2,0.86,-0.76,332.51,-0.021245548501610756,-0.018084688112139702,0.0020621009171009064,-0.011974525637924671,-0.3562856614589691,-0.9573797583580017,-1.9814324378967285,-0.21,0.09,0.03,279.17
1679955829.87968016,155508249,2,0.87,-0.75,332.51,-0.0202128067612648,-0.017530759796500206,0.0017003308748826385,-0.002010036027058959,-0.35735559463500977,-0.9598121643066406,-1.98121178150177,-0.21,0.09,0.03,279.17
1679955829.97967601,155608245,2,0.87,-0.75,332.51,-0.01856840029358864,-0.018355129286646843,0.0019387529464438558,0.006228941027075052,-0.35822272300720215,-0.9619892239570618,-1.9808835983276367,-0.21,0.09,0.03,279.17
1679955830.07969308,155708262,2,0.86,-0.75,332.51,-0.014363511465489864,-0.016798876225948334,0.0014662041794508696,0.020887088030576706,-0.35782888531684875,-0.9641305804252625,-1.978696584701538,-0.21,0.09,0.03,279.17
1679955830.17975616,155808325,2,0.86,-0.75,332.5,-0.011856875382363796,-0.01489254180341959,0.0026201365981251,0.0316903293132782,-0.3571038246154785,-0.96586674451828,-1.9762097597122192,-0.21,0.09,0.03,279.17
1679955830.27971411,155908283,2,0.86,-0.74,332.5,-0.009605820290744305,-0.01201402023434639,0.002438737777993083,0.01904001086950302,-0.3569895625114441,-0.9674806594848633,-1.9751414060592651,-0.21,0.09,0.03,279.17
1679955830.37980103,156008370,2,0.85,-0.74,332.5,-0.00856886338442564,-0.011083165183663368,0.0026856940239667892,0.003907620441168547,-0.35704177618026733,-0.9687305688858032,-1.9748634099960327,-0.21,0.09,0.03,279.17
1679955830.47974801,156108317,2,0.85,-0.74,332.5,-0.0072449794970452785,-0.009171348065137863,0.0038445531390607357,-0.0050680688582360744,-0.35673487186431885,-0.9703112244606018,-1.975203275680542,-0.21,0.09,0.03,279.17
1679955830.57969308,156208262,2,0.84,-0.74,332.5,-0.00612972816452384,-0.007006087340414524,0.004060865845531225,-0.009399697184562683,-0.356347918510437,-0.9715884923934937,-1.9757359027862549,-0.21,0.09,0.03,279.17
1679955830.67971516,156308284,2,0.84,-0.74,332.5,-0.005123613402247429,-0.005564745515584946,0.002305057132616639,-0.04664020985364914,-0.35617220401763916,-0.9727513790130615,-1.9807473421096802,-0.21,0.09,0.03,279.17
1679955830.77967811,156408247,2,0.8300000000000001,-0.74,332.5,-0.004837311338633299,-0.002973654307425022,0.00043037781142629683,-0.06431376188993454,-0.356086403131485,-0.9734864830970764,-1.9855554103851318,-0.21,0.09,0.03,279.17
1679955830.87968707,156508256,2,0.8300000000000001,-0.74,332.5,-0.003429860807955265,-0.0015529678203165531,-0.0010368279181420803,-0.05215175822377205,-0.3558547794818878,-0.9744324684143066,-1.9895987510681152,-0.21,0.09,0.03,279.17
1679955830.97969604,156608265,2,0.8300000000000001,-0.74,332.5,-0.0012836892856284976,0.0006072944379411638,-0.002560971537604928,-0.03537330403923988,-0.3555358350276947,-0.9750639200210571,-1.9925035238265991,-0.21,0.09,0.03,279.17
1679955831.07975507,156708324,2,0.8300000000000001,-0.75,332.51,-0.0002903550339397043,0.001351725310087204,-0.004427979234606028,-0.02741486020386219,-0.35582152009010315,-0.9757505059242249,-1.9955130815505981,-0.21,0.09,0.03,279.17
1679955831.17971110,156808280,2,0.8300000000000001,-0.74,332.51,-0.0004591042234096676,0.003097211942076683,-0.005107566714286804,-0.026244623586535454,-0.35627949237823486,-0.9761674404144287,-1.9982515573501587,-0.21,0.09,0.03,279.17
1679955831.27976608,156908335,2,0.8300000000000001,-0.74,332.5,-0.00265296408906579,0.0033833927009254694,-0.004459831397980452,-0.007102004252374172,-0.35809341073036194,-0.9776665568351746,-1.998742699623108,-0.21,0.09,0.03,279.17
1679955831.37974310,157008312,2,0.84,-0.74,332.5,-0.004752581473439932,0.0030073896050453186,-0.004442162811756134,0.008719606325030327,-0.3602831959724426,-0.9791760444641113,-1.9985040426254272,-0.21,0.09,0.03,279.17
1679955831.47971821,157108287,2,0.8300000000000001,-0.74,332.51,-0.005243680439889431,0.003419135231524706,-0.003814701922237873,0.005447667092084885,-0.3623262047767639,-0.9814339280128479,-1.9989209175109863,-0.21,0.09,0.03,279.17
1679955831.57971501,157208284,2,0.8300000000000001,-0.74,332.51,-0.006925228517502546,0.0015435077948495746,-0.0029125709552317858,-0.004988168366253376,-0.36424192786216736,-0.9835010766983032,-1.9999083280563354,-0.21,0.09,0.03,279.17
1679955831.67968011,157308249,2,0.8300000000000001,-0.74,332.5,-0.007692534942179918,0.002244210336357355,-0.0017303742934018373,0.010118447244167328,-0.36632826924324036,-0.9862031936645508,-1.9982346296310425,-0.21,0.09,0.03,279.17
1679955831.77969122,157408260,2,0.8300000000000001,-0.74,332.51,-0.00828887615352869,0.001583139062859118,-0.00018827886378858238,0.020296446979045868,-0.36820369958877563,-0.9883080720901489,-1.9967764616012573,-0.21,0.09,0.03,279.17
1679955831.87970209,157508271,2,0.8300000000000001,-0.74,332.51,-0.008651996962726116,0.0006192286382429302,0.0034245597198605537,0.061045918613672256,-0.3704964816570282,-0.9914648532867432,-1.9901189804077148,-0.21,0.09,0.03,279.17
1679955831.97975922,157608328,2,0.8200000000000001,-0.74,332.5,-0.009637240320444107,-0.0007711488287895918,0.0060615818947553635,0.0729701817035675,-0.37258949875831604,-0.9940973520278931,-1.9847254753112793,-0.21,0.09,0.03,279.17
1679955832.07971501,157708284,2,0.8200000000000001,-0.75,332.51,-0.009319201111793518,-0.0009026034385897219,0.007841135375201702,0.05687234178185463,-0.3748798370361328,-0.9976070523262024,-1.9799919128417969,-0.21,0.09,0.03,279.17
1679955832.17981005,157808379,2,0.8200000000000001,-0.75,332.52,-0.010911975987255573,-0.0021601789630949497,0.008121547289192677,0.0443655326962471,-0.3770657181739807,-1.0005210638046265,-1.975827932357788,-0.21,0.09,0.03,279.17
1679955832.27976608,157908335,2,0.8,-0.74,332.48,-0.010242476128041744,-0.003278845688328147,0.011305337771773338,0.045298900455236435,-0.3783162534236908,-1.0045095682144165,-1.9712471961975098,-0.21,0.09,0.03,279.17
1679955832.37976003,158008329,2,0.81,-0.73,332.48,-0.009674145840108395,-0.01084856130182743,0.01104445569217205,0.0365557000041008,-0.37958478927612305,-1.0079481601715088,-1.9678068161010742,-0.21,0.09,0.03,279.17
1679955832.47972012,158108289,2,0.79,-0.73,332.5,-0.008556251414120197,-0.009434713050723076,0.012811411172151566,0.03953877463936806,-0.3807753622531891,-1.0107076168060303,-1.9633207321166992,-0.21,0.09,0.03,279.17
1679955832.57968521,158208254,2,0.77,-0.6900000000000001,332.45,-0.012598281726241112,-0.015675323083996773,0.013426093384623528,0.04242013394832611,-0.3821107745170593,-1.0132838487625122,-1.9589921236038208,-0.21,0.09,0.03,279.17
1679955832.67968702,158308256,2,0.73,-0.62,332.46,-0.01675199158489704,0.016423096880316734,0.010614724829792976,0.03759630024433136,-0.3851127028465271,-1.0149034261703491,-1.9550564289093018,-0.21,0.09,0.03,279.17
1679955832.77968812,158408257,2,0.73,-0.58,332.51,-0.02245076186954975,-0.006648750510066748,0.018788384273648262,0.038411784917116165,-0.38733357191085815,-1.0166511535644531,-1.9514055252075195,-0.21,0.09,0.03,279.17
1679955832.87974906,158508318,2,0.7000000000000001,-0.63,332.47,-0.013300619088113308,-0.008636347949504852,0.012451974675059319,0.02232734113931656,-0.3890882730484009,-1.0205819606781006,-1.9484480619430542,-0.21,0.09,0.03,279.17
1679955832.97972512,158608294,2,0.74,-0.61,332.47,-0.02477189712226391,-0.010815631598234177,0.014985968358814716,0.008431695401668549,-0.3909877836704254,-1.024664282798767,-1.9471120834350586,-0.21,0.09,0.03,279.17
1679955833.07976604,158708335,2,0.71,-0.58,332.48,-0.012798413634300232,-0.004358613397926092,0.019596675410866737,0.008510084822773933,-0.3931717872619629,-1.0269376039505005,-1.945636510848999,-0.21,0.09,0.03,279.17
1679955833.17975712,158808326,2,0.72,-0.59,332.47,-0.023693162947893143,-0.01630229316651821,0.018048934638500214,0.00954451784491539,-0.3947816491127014,-1.0292010307312012,-1.9441750049591064,-0.21,0.09,0.03,279.17
1679955833.27976823,158908337,2,0.71,-0.59,332.46,-0.013055099174380302,-0.025659754872322083,0.01900247111916542,-0.006264881696552038,-0.3959740996360779,-1.0312975645065308,-1.9449001550674438,-0.21,0.09,0.03,279.17
1679955833.37971807,159008287,2,0.72,-0.5700000000000001,332.49,-0.021120397374033928,-0.013362809084355831,0.02270529605448246,-0.012520638294517994,-0.3977877199649811,-1.0325300693511963,-1.945794701576233,-0.21,0.09,0.03,279.17
1679955833.47968102,159108250,2,0.73,-0.5700000000000001,332.44,-0.012666035443544388,-0.02363746240735054,0.024270666763186455,0.0005728250253014266,-0.3995282053947449,-1.033605694770813,-1.9453431367874146,-0.21,0.09,0.03,279.17
1679955833.57969403,159208263,2,0.71,-0.5700000000000001,332.46,-0.004876409657299519,-0.029709096997976303,0.019768239930272102,0.007949619553983212,-0.40076225996017456,-1.034245491027832,-1.9447662830352783,-0.21,0.09,0.03,279.17
1679955833.67969418,159308263,2,0.6900000000000001,-0.51,332.47,-0.018686600029468536,-0.014748184010386467,-0.003488224931061268,-0.014211475849151611,-0.4025292694568634,-1.0360420942306519,-1.9450348615646362,-0.21,0.09,0.03,279.17
1679955833.77979016,159408359,2,0.6,-0.2,332.34000000000003,-0.06026791036128998,0.014612076804041862,-0.06335040926933289,-0.07112418115139008,-0.40761134028434753,-1.0362204313278198,-1.948168158531189,-0.21,0.09,0.03,279.17
1679955833.87973022,159508299,2,0.51,0.49,332.24,-0.07726583629846573,0.03925767168402672,-0.21633443236351013,-0.22369641065597534,-0.4153284430503845,-1.0344107151031494,-1.9619574546813965,-0.21,0.09,0.03,279.17
1679955833.97978616,159608355,2,0.44,1.11,332.16,-0.0926460474729538,0.049288854002952576,-0.43405961990356445,-0.4377307891845703,-0.42404866218566895,-1.0301965475082397,-1.995801568031311,-0.21,0.09,0.03,279.17
1679955834.07976007,159708329,2,0.46,0.6900000000000001,332.05,-0.09571102261543274,0.08008629083633423,-0.5778937935829163,-0.6210142374038696,-0.43567100167274475,-1.0251578092575073,-2.0546226501464844,-0.21,0.09,0.03,279.17
1679955834.17976522,159808334,2,0.42,-1.02,331.92,-0.08710666745901108,0.06760410964488983,-0.6127950549125671,-0.6912212371826172,-0.4479599595069885,-1.0197114944458008,-2.1219096183776855,-0.21,0.09,0.03,279.17
1679955834.27971601,159908285,2,0.2,-2.93,331.79,-0.061508990824222565,0.04930652678012848,-0.5410091876983643,-0.6220634579658508,-0.4559859037399292,-1.017364263534546,-2.1878769397735596,-0.21,0.09,0.03,279.17
1679955834.37968612,160008255,2,0.06,-3.77,331.67,-0.02675567753612995,0.03336654603481293,-0.49510297179222107,-0.5588358044624329,-0.46004101634025574,-1.0167714357376099,-2.2456204891204834,-0.21,0.09,0.03,279.17
1679955834.47969818,160108267,2,0.01,-2.86,331.55,0.0016150755109265447,0.011511056683957577,-0.45599937438964844,-0.4474434554576874,-0.45876604318618774,-1.019352912902832,-2.2905707359313965,-0.21,0.09,0.03,279.17
1679955834.57970309,160208272,2,0.07,-0.52,331.47,0.02198198437690735,-0.012848882004618645,-0.3968300223350525,-0.34061023592948914,-0.4545552730560303,-1.0228770971298218,-2.3298697471618652,-0.21,0.09,0.03,279.17
1679955834.67976117,160308330,2,0.0,1.58,331.38,0.015061382204294205,0.0005858680815435946,-0.37830159068107605,-0.2767433226108551,-0.45461755990982056,-1.0288270711898804,-2.360520601272583,-0.21,0.09,0.03,279.17
1679955834.77972102,160408290,2,-0.08,2.5100000000000002,331.28000000000003,-0.01650240272283554,0.0009523596963845193,-0.3391428589820862,-0.2197740375995636,-0.45756328105926514,-1.0335994958877563,-2.3868248462677,-0.21,0.09,0.03,279.17
1679955834.87977815,160508347,2,-0.13,1.95,331.18,-0.04779888316988945,0.013249268755316734,-0.35283562541007996,-0.26122814416885376,-0.46624818444252014,-1.034711241722107,-2.4139833450317383,-0.21,0.09,0.03,279.17
1679955834.97976708,160608336,2,-0.12,0.43,331.08,-0.07925544679164886,0.03624366223812103,-0.35535362362861633,-0.30215832591056824,-0.4779090881347656,-1.0335514545440674,-2.444000244140625,-0.21,0.09,0.03,279.17
1679955835.07976317,160708332,2,-0.05,-0.54,330.93,-0.09338962286710739,0.03087184578180313,-0.37020742893218994,-0.3507136404514313,-0.4893989861011505,-1.0317000150680542,-2.4790468215942383,-0.21,0.09,0.03,279.17
1679955835.17973018,160808299,2,-0.14,-0.85,330.81,-0.09777941554784775,0.0195185337215662,-0.4235263764858246,-0.40920424461364746,-0.5005344748497009,-1.0300743579864502,-2.516223192214966,-0.21,0.09,0.03,279.17
1679955835.27969003,160908259,2,-0.11,-1.46,330.71,-0.07443713396787643,0.015411359257996082,-0.44560006260871887,-0.40865617990493774,-0.5099137425422668,-1.0324803590774536,-2.5548791885375977,-0.21,0.09,0.03,279.17
1679955835.37968206,161008251,2,0.09,-2.19,330.62,-0.062061917036771774,-0.01532977819442749,-0.4543479084968567,-0.3919388949871063,-0.5174115300178528,-1.036341905593872,-2.594611883163452,-0.21,0.09,0.03,279.17
1679955835.47969007,161108259,2,0.08,-2.63,330.57,-0.04047016054391861,-0.03766490891575813,-0.5107986330986023,-0.4427187442779541,-0.5232618451118469,-1.0434330701828003,-2.6371395587921143,-0.21,0.09,0.03,279.17
1679955835.57976723,161208336,2,0.11,-2.5500000000000003,330.55,-0.02003609761595726,-0.05534611642360687,-0.5250473618507385,-0.45708155632019043,-0.52660071849823,-1.0518678426742554,-2.6827614307403564,-0.21,0.09,0.03,279.17
1679955835.67972207,161308291,2,0.19,-2.09,330.54,0.016111690551042557,-0.06956034898757935,-0.5637562274932861,-0.4940241277217865,-0.5201958417892456,-1.0600829124450684,-2.730680227279663,-0.21,0.09,0.03,279.17
1679955835.77976918,161408338,2,0.27,-1.86,330.57,0.037186041474342346,-0.0852898582816124,-0.5605809688568115,-0.48005199432373047,-0.5106244087219238,-1.068662405014038,-2.778076171875,-0.21,0.09,0.03,279.17
1679955835.87977099,161508340,2,0.34,-2.31,330.62,0.05637795478105545,-0.08627982437610626,-0.5817705392837524,-0.511878490447998,-0.5041905045509338,-1.0801993608474731,-2.8302340507507324,-0.21,0.09,0.03,279.17
1679955835.97976017,161608329,2,0.33,-3.21,330.7,0.09602740406990051,-0.0956486389040947,-0.6090323328971863,-0.5646651983261108,-0.4959067106246948,-1.092228889465332,-2.8851675987243652,-0.21,0.09,0.03,279.17
1679955836.07971406,161708283,2,0.4,-3.44,330.77,0.1285831481218338,-0.1135249137878418,-0.611315131187439,-0.6098559498786926,-0.4787299633026123,-1.1038553714752197,-2.9456183910369873,-0.21,0.1,0.03,279.17
1679955836.17969513,161808264,2,0.41000000000000003,-2.69,330.89,0.15337565541267395,-0.13259905576705933,-0.6185779571533203,-0.6570155620574951,-0.45887231826782227,-1.116144061088562,-3.009021520614624,-0.21,0.1,0.03,279.17
1679955836.27968502,161908254,2,0.34,-1.29,331.0,0.17619554698467255,-0.13868124783039093,-0.5888999104499817,-0.6506137847900391,-0.4344845116138458,-1.1256872415542603,-3.074751377105713,-0.21,0.1,0.03,279.17
1679955836.37968516,162008254,2,0.02,-0.02,331.12,0.18996301293373108,-0.12497881054878235,-0.611899733543396,-0.710838258266449,-0.41025230288505554,-1.135262131690979,-3.145033597946167,-0.21,0.1,0.03,279.17
1679955836.47974110,162108310,2,-0.13,0.4,331.21,0.1822807490825653,-0.09790268540382385,-0.5933631062507629,-0.6987286806106567,-0.3852646052837372,-1.1389440298080444,-3.2141919136047363,-0.21,0.1,0.03,279.17
1679955836.57972407,162208293,2,-0.31,-0.16,331.3,0.16003356873989105,-0.09686066955327988,-0.5929908156394958,-0.6812042593955994,-0.3626311123371124,-1.1424195766448975,-3.2818539142608643,-0.21,0.1,0.03,279.17
1679955836.67977810,162308347,2,-0.38,-1.45,331.37,0.16577306389808655,-0.09464998543262482,-0.5722678899765015,-0.684479296207428,-0.3477608561515808,-1.142416000366211,-3.350829839706421,-0.21,0.09,0.03,279.17
1679955836.77975321,162408322,2,-0.35000000000000003,-2.65,331.43,0.1662900596857071,-0.10207483172416687,-0.5319826602935791,-0.670459508895874,-0.3331916928291321,-1.1441702842712402,-3.419020891189575,-0.21,0.09,0.03,279.17
1679955836.87976813,162508337,2,-0.23,-2.83,331.51,0.18511217832565308,-0.11212760210037231,-0.481067031621933,-0.638715922832489,-0.31233254075050354,-1.1450458765029907,-3.4854543209075928,-0.21,0.09,0.03,279.17
1679955836.97972322,162608292,2,-0.23,-2.13,331.56,0.20525860786437988,-0.10502281039953232,-0.4363953173160553,-0.6132878065109253,-0.29022249579429626,-1.1484354734420776,-3.547816038131714,-0.21,0.09,0.03,279.17
1679955837.07968211,162708251,2,-0.33,-1.41,331.63,0.2173798531293869,-0.1164858415722847,-0.4066726863384247,-0.567724347114563,-0.2635486125946045,-1.1524299383163452,-3.603534460067749,-0.22,0.1,0.03,279.17
1679955837.17970514,162808274,2,-0.44,-0.56,331.68,0.20395493507385254,-0.12080451101064682,-0.3390638828277588,-0.47531065344810486,-0.23769386112689972,-1.1582930088043213,-3.6531710624694824,-0.22,0.1,0.03,279.17
1679955837.27969718,162908266,2,-0.46,0.13,331.74,0.18149136006832123,-0.11637680232524872,-0.24387839436531067,-0.3477103114128113,-0.21616403758525848,-1.1619313955307007,-3.6934759616851807,-0.22,0.09,0.03,279.17
1679955837.37976718,163008336,2,-0.41000000000000003,0.31,331.82,0.1639123111963272,-0.10327966511249542,-0.195852130651474,-0.2857834994792938,-0.19764076173305511,-1.1674151420593262,-3.7266337871551514,-0.21,0.09,0.03,279.17
1679955837.47972322,163108292,2,0.19,0.15,331.86,0.14481063187122345,-0.10035590827465057,-0.18026763200759888,-0.2626188099384308,-0.18139797449111938,-1.1697640419006348,-3.754000663757324,-0.22,0.09,0.03,279.17
1679955837.57977104,163208340,2,1.6500000000000001,0.16,331.87,0.1356799155473709,-0.058984894305467606,-0.11362622678279877,-0.19644692540168762,-0.16693727672100067,-1.1708961725234985,-3.777805805206299,-0.22,0.09,0.03,279.17
1679955837.67975521,163308324,2,2.92,0.29,331.88,0.12675994634628296,-0.01066757645457983,-0.11960994452238083,-0.21269591152668,-0.15122489631175995,-1.1673259735107422,-3.799438953399658,-0.22,0.09,0.03,279.17
1679955837.77976513,163408334,2,3.38,0.31,331.84000000000003,0.1271960586309433,0.01825619302690029,-0.0949556976556778,-0.1806047409772873,-0.13545869290828705,-1.160024881362915,-3.818624496459961,-0.22,0.09,0.03,279.17
1679955837.87971306,163508282,2,2.7800000000000002,0.4,331.78000000000003,0.1421007215976715,0.08573099225759506,-0.09344064444303513,-0.17144793272018433,-0.11981212347745895,-1.1470308303833008,-3.836878776550293,-0.22,0.09,0.03,279.17
1679955837.97968316,163608252,2,1.12,0.62,331.75,0.12594924867153168,0.1119244322180748,-0.12893818318843842,-0.21545980870723724,-0.10522376000881195,-1.1309400796890259,-3.858017921447754,-0.22,0.09,0.03,279.17
1679955838.07968402,163708253,2,-0.22,0.92,331.69,0.09781128913164139,0.15127438306808472,-0.19187231361865997,-0.2963584363460541,-0.09566348791122437,-1.1123305559158325,-3.8850460052490234,-0.22,0.09,0.03,279.17
1679955838.17971110,163808280,2,-0.6900000000000001,1.1400000000000001,331.59000000000003,0.07279816269874573,0.16951467096805573,-0.20432604849338531,-0.33800631761550903,-0.0894813984632492,-1.0926599502563477,-3.9191970825195312,-0.22,0.09,0.03,279.17
1679955838.27974701,163908316,2,-0.7000000000000001,1.09,331.5,0.03235027194023132,0.17632092535495758,-0.2837040424346924,-0.4331139922142029,-0.09014542400836945,-1.0751272439956665,-3.9583487510681152,-0.22,0.09,0.03,279.17
1679955838.37971902,164008288,2,-0.59,0.68,331.45,-0.0003611021675169468,0.16481664776802063,-0.3146945834159851,-0.45237985253334045,-0.0944213941693306,-1.0584173202514648,-4.001097202301025,-0.22,0.09,0.03,279.17
1679955838.47977614,164108345,2,-0.43,-0.32,331.39,-0.017039509490132332,0.17389731109142303,-0.4149966537952423,-0.535395085811615,-0.10245425254106522,-1.0464297533035278,-4.049280166625977,-0.22,0.09,0.03,279.17
1679955838.57976413,164208333,2,-0.24,-1.59,331.36,-0.028083493933081627,0.14715006947517395,-0.4062644839286804,-0.5053837299346924,-0.1111331433057785,-1.0359091758728027,-4.101872444152832,-0.22,0.09,0.03,279.17
1679955838.67977500,164308344,2,-0.02,-2.06,331.36,-0.0236204843968153,0.14488457143306732,-0.5038512945175171,-0.6129806637763977,-0.11818504333496094,-1.027813196182251,-4.16206693649292,-0.22,0.09,0.03,279.17
1679955838.77971101,164408280,2,0.1,-1.82,331.37,-0.007909774780273438,0.11130834370851517,-0.5513880252838135,-0.663164496421814,-0.12319206446409225,-1.020995855331421,-4.227076530456543,-0.22,0.09,0.03,279.17
1679955838.87969017,164508259,2,0.14,-1.56,331.37,0.009435110725462437,0.13108298182487488,-0.6274042725563049,-0.7292614579200745,-0.12484803795814514,-1.018229365348816,-4.2973785400390625,-0.21,0.09,0.03,279.17
1679955838.97968817,164608257,2,0.05,-1.34,331.40000000000003,0.015457972884178162,0.11103744804859161,-0.6555909514427185,-0.7477042078971863,-0.12481894344091415,-1.0159361362457275,-4.370553493499756,-0.21,0.09,0.03,279.17
1679955839.07969022,164708259,2,0.02,-1.05,331.45,0.01300569623708725,0.08494368195533752,-0.6796058416366577,-0.7481202483177185,-0.13062028586864471,-1.018517255783081,-4.445716381072998,-0.21,0.09,0.03,279.17
1679955839.17976403,164808333,2,0.01,-0.88,331.49,0.01271165069192648,0.10567431896924973,-0.7063958644866943,-0.7681254148483276,-0.1367313116788864,-1.02051842212677,-4.524493217468262,-0.21,0.09,0.03,279.17
1679955839.27972317,164908292,2,0.02,-0.8300000000000001,331.52,0.02087993361055851,0.10535445809364319,-0.7078888416290283,-0.7404717803001404,-0.13588760793209076,-1.0180470943450928,-4.599910259246826,-0.21,0.09,0.03,279.17
1679955839.37977004,165008339,2,0.15,-0.77,331.52,0.007632934954017401,0.10268350690603256,-0.6797273755073547,-0.6670339703559875,-0.13220764696598053,-1.0125194787979126,-4.668865203857422,-0.21,0.09,0.03,279.17
1679955839.47975016,165108319,2,0.39,-0.93,328.38,0.01583164371550083,0.10636625438928604,-0.6213085651397705,-0.5901587009429932,-0.1271006464958191,-1.00360107421875,-4.730955123901367,-0.21,0.1,0.03,279.17
1679955839.57976818,165208337,2,0.56,-1.27,328.45,0.013368654064834118,0.12085269391536713,-0.5169029235839844,-0.48426783084869385,-0.12165255844593048,-0.9927704334259033,-4.785674571990967,-0.21,0.09,0.03,279.17
1679955839.67971420,165308283,2,0.63,-1.59,328.68,0.017772089689970016,0.10300502181053162,-0.4571846127510071,-0.4115065932273865,-0.11625199019908905,-0.9830772280693054,-4.831277370452881,-0.21,0.09,0.03,279.17
1679955839.77968216,165408251,2,0.58,-1.6500000000000001,328.90000000000003,0.03806116804480553,0.11796267330646515,-0.43170419335365295,-0.3799046576023102,-0.11031021922826767,-0.9731351137161255,-4.870659351348877,-0.21,0.1,0.03,279.17
1679955839.87968516,165508254,2,0.58,-1.44,329.04,0.05556591972708702,0.12247321754693985,-0.3561955690383911,-0.3236108124256134,-0.10634611546993256,-0.9644965529441833,-4.907253742218018,-0.21,0.1,0.03,279.17
1679955839.97968912,165608258,2,0.38,-0.62,329.14,0.055924687534570694,0.13270817697048187,-0.3340749740600586,-0.334746390581131,-0.10252518951892853,-0.9552128314971924,-4.940552711486816,-0.21,0.1,0.03,279.17
1679955840.07976604,165708335,2,0.17,0.51,329.12,0.047108691185712814,0.14206217229366302,-0.2620756924152374,-0.24771632254123688,-0.09870437532663345,-0.9460440278053284,-4.9670586585998535,-0.21,0.09,0.03,279.17
1679955840.17973804,165808307,2,-0.05,1.05,329.0,0.012094314210116863,0.1558058112859726,-0.24234676361083984,-0.21438737213611603,-0.0962495431303978,-0.935064971446991,-4.989475250244141,-0.21,0.09,0.03,279.17
1679955840.27977514,165908344,2,-0.26,1.16,328.81,-0.015160208567976952,0.1633952111005783,-0.1696864664554596,-0.1412292867898941,-0.09843435138463974,-0.9227355718612671,-5.008010387420654,-0.21,0.09,0.03,279.17
1679955840.37975717,166008326,2,-0.42,0.67,328.61,-0.04706275463104248,0.15975525975227356,-0.15311114490032196,-0.1472480744123459,-0.10493919998407364,-0.9092646241188049,-5.0243000984191895,-0.21,0.09,0.03,279.17
1679955840.47971821,166108287,2,-0.48,-0.36,328.47,-0.05943480506539345,0.17355667054653168,-0.10018954426050186,-0.11197804659605026,-0.1166224405169487,-0.8975054621696472,-5.037522315979004,-0.21,0.09,0.03,279.17
1679955840.57971621,166208285,2,-0.3,-1.06,328.25,-0.08042283356189728,0.17467491328716278,-0.038811326026916504,-0.04834528639912605,-0.12955248355865479,-0.8849340081214905,-5.045263767242432,-0.21,0.09,0.03,279.17
1679955840.67969203,166308261,2,-0.13,-1.12,328.1,-0.08452623337507248,0.1617565155029297,-0.04016152769327164,-0.0369226336479187,-0.14317001402378082,-0.8760486841201782,-5.047940731048584,-0.21,0.09,0.03,279.17
1679955840.77969623,166408265,2,0.0,-0.97,327.91,-0.0877963975071907,0.15553885698318481,0.006240358576178551,0.006049748044461012,-0.15634272992610931,-0.866748034954071,-5.0490851402282715,-0.21,0.09,0.03,279.17
1679955840.87969804,166508267,2,0.06,-0.77,327.67,-0.10875725746154785,0.1502256840467453,0.03411237522959709,0.04859112948179245,-0.17028522491455078,-0.8594351410865784,-5.043948173522949,-0.21,0.09,0.03,279.17
1679955840.97976708,166608336,2,-0.22,-0.23,327.41,-0.1236613541841507,0.13639335334300995,0.06566235423088074,0.09095365554094315,-0.1847710907459259,-0.8513590097427368,-5.035595893859863,-0.21,0.09,0.03,279.17
1679955841.07972312,166708292,2,-0.8,0.3,327.16,-0.13403013348579407,0.14387063682079315,0.11888060718774796,0.14743611216545105,-0.19960732758045197,-0.8451604247093201,-5.02323579788208,-0.21,0.09,0.03,279.17
1679955841.17978215,166808351,2,-1.35,0.37,326.90000000000003,-0.1738288700580597,0.12696868181228638,0.16396091878414154,0.18601292371749878,-0.2164299339056015,-0.8373460173606873,-5.008584499359131,-0.21,0.09,0.03,279.17
1679955841.27976108,166908330,2,-1.74,0.16,326.69,-0.20472800731658936,0.11993785202503204,0.1661849021911621,0.20254088938236237,-0.2372661978006363,-0.8344321846961975,-4.988956451416016,-0.21,0.09,0.03,279.17
1679955841.37976503,167008334,2,-2.0,0.03,326.51,-0.24680018424987793,0.08178547769784927,0.17896360158920288,0.2194058895111084,-0.2614578902721405,-0.8326892852783203,-4.967611312866211,-0.21,0.09,0.03,279.17
1679955841.47972107,167108290,2,-2.06,-0.14,326.36,-0.28587421774864197,0.046655312180519104,0.21344338357448578,0.2689441740512848,-0.2880142629146576,-0.836594820022583,-4.941854000091553,-0.21,0.09,0.03,279.17
1679955841.57969809,167208267,2,-2.07,-0.27,326.28000000000003,-0.29071345925331116,0.04460524767637253,0.22841890156269073,0.28866273164749146,-0.3173108994960785,-0.8428967595100403,-4.9143195152282715,-0.21,0.09,0.03,279.17
1679955841.67970419,167308273,2,-2.06,-0.24,326.23,-0.3219224810600281,-0.0010834966087713838,0.22782433032989502,0.2765703797340393,-0.3473409116268158,-0.8540960550308228,-4.886674404144287,-0.21,0.09,0.03,279.17
1679955841.77970815,167408277,2,-1.77,-0.29,326.22,-0.35576391220092773,-0.042566634714603424,0.23018702864646912,0.2607921361923218,-0.3793002665042877,-0.8674107789993286,-4.860157012939453,-0.21,0.09,0.03,279.17
1679955841.87977409,167508343,2,-1.05,-0.64,326.28000000000003,-0.3637230694293976,-0.060251373797655106,0.229048952460289,0.29079103469848633,-0.4120452105998993,-0.8863006830215454,-4.8282365798950195,-0.21,0.09,0.03,279.17
1679955841.97972512,167608294,2,-0.23,-1.03,326.36,-0.3645745515823364,-0.0947142168879509,0.2366655319929123,0.31874340772628784,-0.44548487663269043,-0.9062092900276184,-4.797488212585449,-0.21,0.09,0.03,279.17
1679955842.07977009,167708339,2,0.35000000000000003,-1.12,326.45,-0.35124748945236206,-0.12214066088199615,0.2308427095413208,0.30233705043792725,-0.47167351841926575,-0.9255977272987366,-4.768625259399414,-0.21,0.09,0.03,279.17
1679955842.17975020,167808319,2,0.58,-1.26,326.47,-0.32782191038131714,-0.11417874693870544,0.22209535539150238,0.27778878808021545,-0.49583888053894043,-0.9440497159957886,-4.7421064376831055,-0.21,0.09,0.03,279.17
1679955842.27977109,167908340,2,0.6,-1.33,326.5,-0.2988753616809845,-0.11001085489988327,0.167123481631279,0.20549868047237396,-0.5172967314720154,-0.9628078937530518,-4.718484401702881,-0.21,0.09,0.03,279.17
1679955842.37971616,168008285,2,0.39,-1.12,326.48,-0.2883468270301819,-0.14510498940944672,0.17017334699630737,0.19307023286819458,-0.5378470420837402,-0.9805482029914856,-4.699787139892578,-0.21,0.09,0.03,279.17
1679955842.47968912,168108258,2,0.02,-0.76,326.47,-0.2707480192184448,-0.13166582584381104,0.10559781640768051,0.13800287246704102,-0.5563684105873108,-0.9991814494132996,-4.681389331817627,-0.21,0.09,0.03,279.17
1679955842.57968521,168208254,2,-0.17,-0.52,326.5,-0.2725263833999634,-0.15126292407512665,0.0950302928686142,0.13827723264694214,-0.575171172618866,-1.0171533823013306,-4.665217399597168,-0.21,0.09,0.03,279.17
1679955842.67969322,168308262,2,-0.25,-0.47000000000000003,326.55,-0.2604813873767853,-0.15135222673416138,0.08648096024990082,0.1326288878917694,-0.592871904373169,-1.0338839292526245,-4.650374412536621,-0.21,0.09,0.03,279.17
1679955842.77973413,168408303,2,-0.26,-0.63,326.62,-0.25772932171821594,-0.1516544073820114,0.05357178673148155,0.09162192791700363,-0.6116990447044373,-1.0500034093856812,-4.638205051422119,-0.21,0.09,0.03,279.17
1679955842.87973118,168508300,2,-0.35000000000000003,-0.6,326.73,-0.25750941038131714,-0.14929549396038055,0.05900309979915619,0.09793828427791595,-0.6291566491127014,-1.0659087896347046,-4.6268630027771,-0.21,0.09,0.03,279.17
1679955842.97977901,168608348,2,-0.28,-0.75,326.83,-0.2486761063337326,-0.14639584720134735,0.02839657850563526,0.05692398175597191,-0.6476417779922485,-1.0820993185043335,-4.619195461273193,-0.21,0.09,0.03,279.17
1679955843.07976317,168708332,2,-0.11,-0.8200000000000001,326.92,-0.2521986663341522,-0.171916663646698,0.004396760370582342,0.016807831823825836,-0.6650219559669495,-1.0976247787475586,-4.614299297332764,-0.21,0.09,0.03,279.17
1679955843.17979407,168808363,2,0.0,-0.74,327.01,-0.24171094596385956,-0.17094972729682922,0.018153421580791473,0.02662835456430912,-0.6831034421920776,-1.1129870414733887,-4.610410213470459,-0.21,0.09,0.03,279.17
1679955843.27972221,168908291,2,-0.07,-0.77,327.1,-0.23442697525024414,-0.15861769020557404,0.02469003014266491,0.04512510076165199,-0.6995479464530945,-1.1269289255142212,-4.60548734664917,-0.21,0.09,0.03,279.17
1679955843.37968516,169008254,2,-0.02,-0.93,327.17,-0.228134423494339,-0.16235791146755219,0.015954969450831413,0.040307506918907166,-0.7164789438247681,-1.1405647993087769,-4.602207183837891,-0.21,0.09,0.03,279.17
1679955843.47968411,169108253,2,-0.05,-1.1500000000000001,327.24,-0.22802439332008362,-0.17576532065868378,-0.019414560869336128,0.007401199080049992,-0.7323601245880127,-1.1537432670593262,-4.599328517913818,-0.21,0.09,0.03,279.17
1679955843.57969618,169208265,2,-0.08,-1.62,327.32,-0.20945319533348083,-0.1835685670375824,-0.0070578837767243385,0.01982622966170311,-0.7485499978065491,-1.1676119565963745,-4.598861217498779,-0.21,0.09,0.03,279.17
1679955843.67974901,169308318,2,0.02,-2.24,327.33,-0.18683739006519318,-0.19353872537612915,-0.014867523685097694,0.013439075089991093,-0.7642769813537598,-1.1836415529251099,-4.59871244430542,-0.21,0.09,0.03,279.17
1679955843.77972507,169408294,2,0.04,-2.71,327.34000000000003,-0.17081257700920105,-0.22570353746414185,-0.052787765860557556,-0.04904336482286453,-0.7788782119750977,-1.2012646198272705,-4.603252410888672,-0.21,0.09,0.03,279.17
1679955843.87976503,169508334,2,0.06,-3.16,327.36,-0.1323946714401245,-0.24034932255744934,-0.08869543671607971,-0.10061941295862198,-0.7870626449584961,-1.2175564765930176,-4.608494281768799,-0.21,0.09,0.03,279.17
1679955843.97976303,169608332,2,0.12,-3.38,327.35,-0.09447510540485382,-0.24602501094341278,-0.08205175399780273,-0.07198543101549149,-0.7927039265632629,-1.2361352443695068,-4.612479209899902,-0.21,0.09,0.03,279.17
1679955844.07976317,169708332,2,0.17,-2.95,327.35,-0.0583215057849884,-0.2657712697982788,-0.07405517250299454,-0.03675508126616478,-0.7943082451820374,-1.2556331157684326,-4.615649700164795,-0.21,0.09,0.03,279.17
1679955844.17971516,169808284,2,0.18,-2.44,327.39,-0.03264693170785904,-0.2885037958621979,-0.0835660845041275,-0.030329851433634758,-0.7921478748321533,-1.2756160497665405,-4.620266914367676,-0.21,0.09,0.03,279.17
1679955844.27968812,169908257,2,0.15,-2.07,327.46,0.006548641249537468,-0.2767931818962097,-0.1340925693511963,-0.09351097047328949,-0.7876261472702026,-1.2939139604568481,-4.626295566558838,-0.21,0.09,0.03,279.17
1679955844.37968421,170008253,2,0.09,-1.99,327.53000000000003,0.01891590654850006,-0.28026697039604187,-0.10087529569864273,-0.05189128965139389,-0.7824210524559021,-1.3146090507507324,-4.631773471832275,-0.21,0.09,0.03,279.17
1679955844.47971010,170108279,2,0.09,-2.09,327.69,0.031059101223945618,-0.3020808696746826,-0.10470352321863174,-0.0494786836206913,-0.7760896682739258,-1.332375407218933,-4.637913227081299,-0.21,0.09,0.03,279.17
1679955844.57976818,170208337,2,0.01,-2.04,327.85,0.06092362478375435,-0.2784211039543152,-0.0997295156121254,-0.055832721292972565,-0.7690067887306213,-1.351227045059204,-4.644862651824951,-0.21,0.09,0.03,279.17
1679955844.67973208,170308301,2,0.05,-1.72,328.07,0.07848837971687317,-0.27292120456695557,-0.11121529340744019,-0.06104476749897003,-0.7601191997528076,-1.3679306507110596,-4.650765895843506,-0.21,0.09,0.03,279.17
1679955844.77975416,170408323,2,0.05,-1.35,328.26,0.09014566242694855,-0.2717806100845337,-0.1465587466955185,-0.10996904224157333,-0.7505122423171997,-1.3858726024627686,-4.659384727478027,-0.21,0.09,0.03,279.17
1679955844.87974906,170508318,2,0.11,-1.11,328.5,0.08458472043275833,-0.27897748351097107,-0.1278633177280426,-0.11194927990436554,-0.7396413683891296,-1.4005054235458374,-4.6705193519592285,-0.21,0.09,0.03,279.17
1679955844.97976208,170608331,2,0.09,-0.81,328.72,0.08966752886772156,-0.26762789487838745,-0.12215512990951538,-0.12262699753046036,-0.7288346886634827,-1.4154325723648071,-4.682301998138428,-0.21,0.09,0.03,279.17
1679955845.07971406,170708283,2,0.02,-0.5700000000000001,328.98,0.07854925841093063,-0.25767502188682556,-0.12633299827575684,-0.11537578701972961,-0.7174820899963379,-1.4267494678497314,-4.692465782165527,-0.21,0.09,0.03,279.17
1679955845.17968702,170808256,2,0.0,-0.62,329.26,0.07310020178556442,-0.25947505235671997,-0.11586541682481766,-0.09624268114566803,-0.7067462801933289,-1.4386588335037231,-4.70206356048584,-0.21,0.09,0.03,279.17
1679955845.27968717,170908256,2,0.06,-0.63,329.66,0.07064630091190338,-0.22293610870838165,-0.08238893002271652,-0.058452729135751724,-0.6971076726913452,-1.4466763734817505,-4.710419178009033,-0.22,0.09,0.03,279.17
1679955845.37969303,171008262,2,0.2,-0.44,330.22,0.07831508666276932,-0.19571156799793243,-0.11821863800287247,-0.09436134248971939,-0.6887333393096924,-1.4551812410354614,-4.71848201751709,-0.22,0.09,0.03,279.17
1679955845.47975802,171108327,2,0.31,-0.2,330.97,0.06054075434803963,-0.18573524057865143,-0.10386569797992706,-0.07514581084251404,-0.6803324222564697,-1.4607648849487305,-4.725142002105713,-0.22,0.09,0.03,279.17
1679955845.57972813,171208297,2,0.29,-0.21,331.8,0.056680042296648026,-0.16180923581123352,-0.09934446215629578,-0.06584133952856064,-0.6731663346290588,-1.4665395021438599,-4.73085355758667,-0.22,0.09,0.03,279.17
1679955845.67977715,171308346,2,0.25,-0.39,332.55,0.03513723611831665,-0.1500154435634613,-0.06609220802783966,-0.0535360686480999,-0.667239785194397,-1.4702742099761963,-4.73767614364624,-0.22,0.09,0.03,279.17
1679955845.77976203,171408331,2,0.2,-0.47000000000000003,333.13,0.024770017713308334,-0.144926980137825,-0.050305403769016266,-0.06468228250741959,-0.6626365184783936,-1.4746127128601074,-4.744980812072754,-0.22,0.09,0.03,279.17
1679955845.87976313,171508332,2,0.06,-0.45,333.63,0.018871914595365524,-0.13702994585037231,-0.0557970330119133,-0.07389627397060394,-0.66048663854599,-1.4789360761642456,-4.7514214515686035,-0.22,0.09,0.03,279.17
1679955845.97972107,171608290,2,-0.04,-0.29,334.02,-0.006491716019809246,-0.12138421088457108,-0.03965616598725319,-0.051825929433107376,-0.6601675152778625,-1.4839457273483276,-4.7554707527160645,-0.22,0.09,0.03,279.17
1679955846.07968402,171708253,2,-0.19,-0.19,334.33,-0.022931255400180817,-0.12465637177228928,-0.013245552778244019,-0.012016481719911098,-0.6619151830673218,-1.4889227151870728,-4.756988048553467,-0.22,0.09,0.03,279.17
1679955846.17968607,171808255,2,-0.06,-0.15,334.59000000000003,-0.04014042019844055,-0.1108912006020546,0.004408147651702166,0.01353029441088438,-0.6657112240791321,-1.4936819076538086,-4.757458686828613,-0.22,0.09,0.03,279.17
1679955846.27969217,171908261,2,0.0,-0.13,334.76,-0.06098403036594391,-0.08039755374193192,-0.013622394762933254,-0.001939954236149788,-0.6718330979347229,-1.4976905584335327,-4.756592750549316,-0.22,0.09,0.03,279.17
1679955846.37975812,172008327,2,0.11,-0.26,334.87,-0.0651780217885971,-0.06353810429573059,0.020709194242954254,0.02690025046467781,-0.6796970367431641,-1.5019259452819824,-4.755224227905273,-0.22,0.09,0.03,279.17
1679955846.47972107,172108290,2,0.23,-0.27,334.92,-0.09251068532466888,-0.0531889870762825,0.045551933348178864,0.041922569274902344,-0.6907241940498352,-1.5049799680709839,-4.753291130065918,-0.22,0.09,0.03,279.17
1679955846.57978201,172208351,2,0.03,0.05,334.83,-0.11339428275823593,-0.044073231518268585,0.058431681245565414,0.04278658702969551,-0.7034935355186462,-1.5079419612884521,-4.7505269050598145,-0.22,0.09,0.03,279.17
1679955846.67975211,172308321,2,-0.14,0.22,334.68,-0.13437779247760773,-0.05003403499722481,0.0369051955640316,0.022786820307374,-0.7187694311141968,-1.5102499723434448,-4.745864391326904,-0.22,0.09,0.03,279.17
1679955846.77975607,172408325,2,-0.28,0.02,334.48,-0.15424558520317078,-0.03942236676812172,0.06498070806264877,0.05328195169568062,-0.7356282472610474,-1.5127171277999878,-4.740413665771484,-0.22,0.09,0.03,279.17
1679955846.87971807,172508287,2,-0.33,-0.13,334.25,-0.18920978903770447,-0.038900818675756454,0.08344819396734238,0.0720105990767479,-0.7554444074630737,-1.514692783355713,-4.734124183654785,-0.22,0.09,0.03,279.17
1679955846.97969007,172608259,2,-0.35000000000000003,-0.38,334.04,-0.18965911865234375,-0.04101095721125603,0.07503470033407211,0.06090725585818291,-0.7767024636268616,-1.5171695947647095,-4.727777004241943,-0.22,0.09,0.03,279.17
1679955847.07968712,172708256,2,-0.4,-0.71,333.81,-0.21182505786418915,-0.04832810163497925,0.07191050797700882,0.06851577013731003,-0.8014901280403137,-1.5211623907089233,-4.719712734222412,-0.22,0.09,0.03,279.17
1679955847.17970014,172808269,2,-0.44,-1.06,333.6,-0.2118149995803833,-0.03313319385051727,0.051393017172813416,0.05162923038005829,-0.8263999819755554,-1.525804042816162,-4.712523937225342,-0.22,0.09,0.03,279.17
1679955847.27975702,172908326,2,-0.3,-1.44,333.40000000000003,-0.2274252474308014,-0.050774313509464264,0.08521442860364914,0.0720004141330719,-0.8504682183265686,-1.5325698852539062,-4.7065510749816895,-0.22,0.09,0.03,279.17
1679955847.37972617,173008295,2,-0.33,-1.59,333.25,-0.2114977240562439,-0.030493613332509995,0.064899742603302,0.04319736734032631,-0.8741925358772278,-1.5401856899261475,-4.701381206512451,-0.22,0.09,0.03,279.17
1679955847.47978401,173108353,2,-0.27,-1.7,333.15000000000003,-0.2083316445350647,-0.0546216182410717,0.0841171070933342,0.08018706738948822,-0.8968331813812256,-1.5499322414398193,-4.69397497177124,-0.22,0.09,0.03,279.17
1679955847.57976007,173208329,2,-0.15,-2.2,333.04,-0.18520861864089966,-0.06381678581237793,0.08576855808496475,0.0908951535820961,-0.9181071519851685,-1.5606416463851929,-4.686922550201416,-0.22,0.09,0.03,279.17
1679955847.67976713,173308336,2,-0.18,-2.72,332.95,-0.17361272871494293,-0.08019799739122391,0.060364458709955215,0.06189641356468201,-0.937179684638977,-1.5732322931289673,-4.680235862731934,-0.22,0.09,0.03,279.17
1679955847.77971816,173408287,2,-0.37,-3.44,332.85,-0.12276594340801239,-0.089787557721138,0.02975190430879593,0.031029867008328438,-0.9532609581947327,-1.587218165397644,-4.674342155456543,-0.22,0.09,0.03,279.17
1679955847.87968707,173508256,2,-0.5,-4.16,332.74,-0.1014520451426506,-0.16034063696861267,0.05156563222408295,0.052167654037475586,-0.9632068276405334,-1.6044498682022095,-4.66964054107666,-0.22,0.1,0.03,279.17
1679955847.97968316,173608252,2,-0.5700000000000001,-4.37,332.65000000000003,-0.061965178698301315,-0.18539859354496002,0.03744642063975334,0.03057192824780941,-0.9683965444564819,-1.624372959136963,-4.666904926300049,-0.22,0.1,0.03,279.17
1679955848.07969213,173708261,2,-0.63,-4.18,332.56,-0.011302209459245205,-0.2124382108449936,0.056628160178661346,0.057710207998752594,-0.9666531085968018,-1.6480571031570435,-4.663569927215576,-0.22,0.1,0.03,279.17
1679955848.17977214,173808341,2,-0.68,-3.75,332.51,0.039813682436943054,-0.23779787123203278,0.020216606557369232,0.027135217562317848,-0.9604734778404236,-1.6746397018432617,-4.661195278167725,-0.22,0.1,0.03,279.17
1679955848.27972722,173908296,2,-0.64,-2.83,332.51,0.06800626963376999,-0.26796239614486694,0.021892471238970757,0.03465528413653374,-0.9495819807052612,-1.7020385265350342,-4.658398151397705,-0.22,0.1,0.03,279.17
1679955848.37982416,174008393,2,-0.55,-2.14,332.65000000000003,0.08996352553367615,-0.2929282486438751,-0.005029875319451094,0.007664642296731472,-0.9365377426147461,-1.7308624982833862,-4.658107280731201,-0.22,0.1,0.03,279.17
1679955848.47975302,174108322,2,0.01,-1.6600000000000001,332.79,0.09522959589958191,-0.3136327564716339,0.010446161963045597,0.008231649175286293,-0.922117292881012,-1.759627103805542,-4.658870220184326,-0.22,0.1,0.03,279.17
1679955848.57976007,174208329,2,0.76,-1.01,332.96,0.11812944710254669,-0.29450398683547974,0.04210755228996277,0.03143740072846413,-0.9074410796165466,-1.7881102561950684,-4.65991735458374,-0.22,0.1,0.03,279.17
1679955848.67971921,174308288,2,1.33,-0.67,333.17,0.12377643585205078,-0.2724188566207886,-0.03348121792078018,-0.03799659013748169,-0.8899655938148499,-1.8116854429244995,-4.660199165344238,-0.22,0.1,0.03,279.17
1679955848.77968216,174408251,2,1.44,-0.6,333.34000000000003,0.12545977532863617,-0.2530268728733063,0.02647632174193859,0.023485004901885986,-0.8722261190414429,-1.833164095878601,-4.661026477813721,-0.22,0.1,0.03,279.17
1679955848.87968516,174508254,2,1.05,-0.54,333.55,0.12278777360916138,-0.2323528379201889,-0.0067779808305203915,-0.02203042060136795,-0.8544067144393921,-1.848389744758606,-4.662500381469727,-0.22,0.1,0.03,279.17
1679955848.97970200,174608271,2,0.28,-0.56,333.74,0.12155115604400635,-0.21359989047050476,0.0008094660588540137,-0.018131207674741745,-0.8373509645462036,-1.8618295192718506,-4.663074016571045,-0.22,0.1,0.03,279.17
1679955849.07974815,174708317,2,-0.12,-0.63,333.96,0.12339241802692413,-0.19349882006645203,0.004304683301597834,-0.044829610735177994,-0.8202992677688599,-1.871042013168335,-4.667644500732422,-0.22,0.1,0.03,279.17
1679955849.17972517,174808294,2,-0.06,-0.6,334.1,0.13017688691616058,-0.16328908503055573,0.010986002162098885,-0.07317300885915756,-0.8047038912773132,-1.8807100057601929,-4.673463344573975,-0.22,0.1,0.03,279.17
1679955849.27977109,174908340,2,0.8,-0.33,334.22,0.12423024326562881,-0.15465685725212097,0.01636362262070179,-0.050392329692840576,-0.7890896797180176,-1.8887836933135986,-4.675963401794434,-0.22,0.1,0.03,279.17
1679955849.37975121,175008320,2,1.6600000000000001,0.06,334.28000000000003,0.12233766168355942,-0.10594159364700317,-0.022853566333651543,-0.06709624081850052,-0.7745278477668762,-1.8959243297576904,-4.679210186004639,-0.22,0.1,0.03,279.17
1679955849.47972512,175108294,2,2.21,0.24,334.38,0.11584341526031494,-0.07900483161211014,0.007252770476043224,-0.03293361887335777,-0.7597222924232483,-1.8962757587432861,-4.682544708251953,-0.23,0.1,0.03,279.17
1679955849.57971907,175208288,2,2.17,0.21,334.43,0.12426167726516724,-0.02896813116967678,0.03750037029385567,0.013997812755405903,-0.7457323670387268,-1.8938034772872925,-4.682387351989746,-0.23,0.1,0.03,279.17
1679955849.67968106,175308250,2,2.06,0.27,334.45,0.10564413666725159,0.013370624743402004,0.020394528284668922,0.01669917441904545,-0.7331070899963379,-1.886797308921814,-4.680232048034668,-0.23,0.1,0.03,279.17
1679955849.77969217,175408261,2,1.8800000000000001,0.45,334.5,0.0991981253027916,0.061594557017087936,0.024244310334324837,0.02719840034842491,-0.7218080163002014,-1.8755297660827637,-4.678792476654053,-0.23,0.1,0.03,279.17
1679955849.87969208,175508261,2,1.82,0.55,334.65000000000003,0.08326651901006699,0.10478940606117249,0.02149168588221073,0.020449459552764893,-0.7136551737785339,-1.858689546585083,-4.677090167999268,-0.23,0.1,0.03,279.17
1679955849.97975016,175608319,2,1.67,0.65,334.97,0.08375772088766098,0.16280460357666016,0.010554629378020763,0.009251294657588005,-0.7068094611167908,-1.8388921022415161,-4.675619602203369,-0.23,0.1,0.03,279.17
1679955850.07973409,175708303,2,1.6600000000000001,0.62,335.44,0.053226809948682785,0.19760870933532715,0.015811758115887642,0.00036630587419494987,-0.7031708359718323,-1.8160161972045898,-4.677273273468018,-0.23,0.1,0.03,279.17
1679955850.17976904,175808338,2,1.32,0.42,336.05,0.0512324795126915,0.23159515857696533,-0.0005354452296160161,-0.03569720312952995,-0.7016094923019409,-1.7902755737304688,-4.6795454025268555,-0.23,0.1,0.03,279.17
1679955850.27976203,175908331,2,0.56,0.14,336.82,0.018555957823991776,0.23658159375190735,0.011333310045301914,-0.026976987719535828,-0.7029322981834412,-1.762033462524414,-4.682953834533691,-0.23,0.1,0.03,279.17
1679955850.37976408,176008333,2,-0.12,-0.09,337.74,-0.008953342214226723,0.2591634690761566,-0.019986577332019806,-0.06256704032421112,-0.7071059942245483,-1.7324804067611694,-4.68749475479126,-0.23,0.1,0.03,279.17
1679955850.47971821,176108287,2,-0.24,-0.34,338.66,-0.01507333293557167,0.2717302143573761,-0.0063477871008217335,-0.03910224884748459,-0.7152217030525208,-1.7047100067138672,-4.690547943115234,-0.23,0.09,0.03,279.17
1679955850.57969213,176208261,2,-0.18,-0.53,339.40000000000003,-0.036558251827955246,0.27278122305870056,0.03885350003838539,0.026378776878118515,-0.7244195938110352,-1.6776463985443115,-4.691701889038086,-0.23,0.09,0.03,279.17
1679955850.67968822,176308257,2,-0.07,-0.55,340.01,-0.044769834727048874,0.28606051206588745,-0.008573047816753387,-0.023356597870588303,-0.7360536456108093,-1.6515650749206543,-4.693685531616211,-0.23,0.09,0.03,279.17
1679955850.77968907,176408258,2,-0.14,-0.51,340.56,-0.04467630386352539,0.27669617533683777,-0.001564563950523734,-0.032133039087057114,-0.7478375434875488,-1.6259244680404663,-4.696265697479248,-0.23,0.09,0.03,279.17
1679955850.87975407,176508323,2,-0.11,-0.5,341.01,-0.07014890760183334,0.2538047730922699,-0.0024411638732999563,-0.03881733864545822,-0.760537326335907,-1.6009281873703003,-4.699432849884033,-0.23,0.09,0.03,279.17
1679955850.97973013,176608299,2,-0.18,-0.39,341.42,-0.07192184776067734,0.27268365025520325,0.0025293875951319933,-0.05866171047091484,-0.7732535600662231,-1.5756218433380127,-4.704525947570801,-0.23,0.09,0.03,279.17
1679955851.07977605,176708345,2,-0.29,-0.26,341.76,-0.0931423157453537,0.26258957386016846,0.012367354705929756,-0.04690570384263992,-0.7878850698471069,-1.551357626914978,-4.707109451293945,-0.23,0.09,0.03,279.17
1679955851.17974901,176808318,2,-0.34,-0.22,342.04,-0.10842525959014893,0.27541646361351013,0.0010317155392840505,-0.01636684313416481,-0.8029860854148865,-1.526684045791626,-4.705875873565674,-0.23,0.09,0.03,279.17
1679955851.27976203,176908331,2,-0.43,-0.67,342.26,-0.10866127163171768,0.2584667503833771,0.012058686465024948,0.03982539474964142,-0.8192678689956665,-1.5026836395263672,-4.70216178894043,-0.22,0.09,0.03,279.17
1679955851.37972021,177008289,2,-0.51,-2.19,342.41,-0.09436419606208801,0.24913252890110016,0.013622374273836613,0.035679347813129425,-0.8340440988540649,-1.4789857864379883,-4.701217174530029,-0.23,0.09,0.03,279.17
1679955851.47969222,177108261,2,-0.59,-4.54,342.5,-0.05338607355952263,0.2190036177635193,0.013170218095183372,0.025205465033650398,-0.8440176248550415,-1.4581903219223022,-4.699499607086182,-0.23,0.1,0.03,279.17
1679955851.57969618,177208265,2,-0.53,-5.46,342.53000000000003,0.007872982881963253,0.22643694281578064,0.0063602193258702755,0.030398614704608917,-0.848068356513977,-1.4395968914031982,-4.697492599487305,-0.23,0.1,0.03,279.17
1679955851.67969012,177308259,2,-0.31,-4.54,342.49,0.06904549896717072,0.19733765721321106,-0.007084553129971027,0.023750394582748413,-0.8408802151679993,-1.4249680042266846,-4.69543981552124,-0.23,0.1,0.03,279.17
1679955851.77975821,177408327,2,-0.17,-3.09,342.38,0.11661508679389954,0.17226620018482208,-0.001989940879866481,-0.003117535263299942,-0.8271638751029968,-1.4120770692825317,-4.697068691253662,-0.23,0.1,0.03,279.17
1679955851.87971902,177508288,2,-0.15,-2.46,342.21,0.15274840593338013,0.13843578100204468,-0.02879149466753006,-0.03629959747195244,-0.8102590441703796,-1.3997700214385986,-4.698070049285889,-0.23,0.1,0.03,279.17
1679955851.97977901,177608348,2,-0.23,-1.87,342.02,0.1614563912153244,0.1450340747833252,-0.013885824009776115,-0.01564699225127697,-0.7914093136787415,-1.3877924680709839,-4.698250770568848,-0.23,0.1,0.03,279.17
1679955852.07976913,177708338,2,-0.26,-0.75,341.82,0.17669494450092316,0.14860209822654724,0.013887055218219757,0.0019383522449061275,-0.7711671590805054,-1.374343991279602,-4.700041770935059,-0.23,0.1,0.03,279.17
1679955852.17976618,177808335,2,-0.43,-0.05,341.65000000000003,0.16337411105632782,0.14092929661273956,0.0002849011216312647,-0.025253059342503548,-0.7508177757263184,-1.359818458557129,-4.702643394470215,-0.23,0.1,0.03,279.17
1679955852.27971506,177908284,2,-1.11,0.43,341.48,0.1385296732187271,0.1309903860092163,0.02311883307993412,-0.0006499883602373302,-0.7354265451431274,-1.3443549871444702,-4.703511714935303,-0.23,0.1,0.03,279.17
1679955852.37969017,178008259,2,-1.92,1.02,341.31,0.08742902427911758,0.10118208080530167,0.02811289019882679,0.02560044825077057,-0.7235996723175049,-1.330071210861206,-4.701331615447998,-0.23,0.1,0.03,279.17
1679955852.47968102,178108250,2,-2.1,1.22,341.2,0.05397064983844757,0.11663484573364258,0.00853633601218462,0.04289713129401207,-0.7160704731941223,-1.3184210062026978,-4.696097373962402,-0.23,0.1,0.03,279.17
1679955852.57969403,178208263,2,-1.68,1.26,341.13,0.00819443166255951,0.1006486713886261,-0.001713487901724875,0.014592573046684265,-0.7128559947013855,-1.3085769414901733,-4.695014953613281,-0.23,0.1,0.03,279.17
1679955852.67976117,178308330,2,-1.02,1.25,341.04,-0.02188709005713463,0.08346214145421982,0.0471101775765419,0.0180976465344429,-0.7143959999084473,-1.300389289855957,-4.696091175079346,-0.23,0.1,0.03,279.17
1679955852.77971220,178408281,2,-0.32,1.11,340.93,-0.06784694641828537,0.08178168535232544,0.004089332651346922,-0.05132830888032913,-0.7196518182754517,-1.2928436994552612,-4.698478698730469,-0.23,0.1,0.03,279.17
1679955852.87977409,178508343,2,0.26,1.1500000000000001,340.84000000000003,-0.10477712005376816,0.09341733157634735,0.04690884053707123,-0.002753111068159342,-0.7273393869400024,-1.2845441102981567,-4.700343608856201,-0.23,0.1,0.03,279.17
1679955852.97975111,178608320,2,0.4,1.11,340.75,-0.12596531212329865,0.12199724465608597,-0.008213924244046211,-0.0439985916018486,-0.7381963729858398,-1.2750725746154785,-4.702085971832275,-0.23,0.1,0.03,279.17
1679955853.07975817,178708327,2,0.4,0.92,340.66,-0.15960967540740967,0.1171964555978775,0.05308184027671814,0.016445469111204147,-0.7516074776649475,-1.264626383781433,-4.702877044677734,-0.23,0.1,0.03,279.17
1679955853.17972112,178808290,2,0.29,0.76,340.58,-0.17592467367649078,0.1323297768831253,0.021177055314183235,-0.013445044867694378,-0.7669802308082581,-1.2529354095458984,-4.702971458435059,-0.23,0.1,0.03,279.17
1679955853.27968717,178908256,2,0.07,0.41000000000000003,340.48,-0.1871677190065384,0.13697411119937897,0.059409257024526596,0.02457747794687748,-0.7848249077796936,-1.2413873672485352,-4.703751564025879,-0.23,0.1,0.03,279.17
1679955853.37969208,179008261,2,-0.29,-0.21,340.38,-0.2208966463804245,0.11339497566223145,0.004632903262972832,-0.04258669912815094,-0.8044829368591309,-1.2296816110610962,-4.70522928237915,-0.23,0.1,0.03,279.17
1679955853.47969222,179108261,2,-0.47000000000000003,-0.9500000000000001,340.32,-0.21686959266662598,0.11485497653484344,0.02740519493818283,-0.015291241928935051,-0.823053240776062,-1.220872163772583,-4.705798149108887,-0.23,0.1,0.03,279.17
1679955853.57977319,179208342,2,-0.47000000000000003,-1.25,340.19,-0.2172131985425949,0.1011015921831131,0.030880745500326157,-0.002347625093534589,-0.8418036699295044,-1.2135652303695679,-4.705516338348389,-0.23,0.1,0.03,279.17
1679955853.67972612,179308295,2,-0.29,-1.02,340.1,-0.20643572509288788,0.09293471276760101,0.040261078625917435,0.026051070541143417,-0.8573827743530273,-1.2079461812973022,-4.703017234802246,-0.23,0.1,0.03,279.17
1679955853.77977514,179408344,2,-0.01,-0.46,340.04,-0.19554969668388367,0.09357509762048721,0.012904671020805836,0.01779269240796566,-0.8724743723869324,-1.2029173374176025,-4.700105667114258,-0.23,0.1,0.03,279.17
1679955853.87976003,179508329,2,0.3,0.0,339.95,-0.21137720346450806,0.06365960836410522,0.012623761780560017,0.004066552501171827,-0.886455774307251,-1.1994284391403198,-4.699952125549316,-0.23,0.1,0.03,279.17
1679955853.97977519,179608344,2,0.42,0.06,339.92,-0.20898555219173431,0.07592690736055374,0.013879700563848019,-0.01817278191447258,-0.9012323617935181,-1.195253849029541,-4.702052116394043,-0.23,0.1,0.03,279.17
1679955854.07972503,179708294,2,0.41000000000000003,0.02,339.89,-0.21805085241794586,0.08577103912830353,0.04819175601005554,-0.0019300448475405574,-0.9156931638717651,-1.1905609369277954,-4.705124855041504,-0.23,0.1,0.03,279.17
1679955854.17968416,179808253,2,0.27,-0.07,339.88,-0.21237000823020935,0.1012769341468811,-0.005080819129943848,-0.034897636622190475,-0.9314501285552979,-1.1848710775375366,-4.705678939819336,-0.23,0.1,0.03,279.17
1679955854.27969503,179908264,2,0.1,-1.17,339.81,-0.2046244591474533,0.08413799852132797,-0.005013768095523119,-0.0042691919952631,-0.9459371566772461,-1.1800785064697266,-4.705530643463135,-0.23,0.1,0.03,279.17
1679955854.37970614,180008275,2,-0.08,-3.54,339.82,-0.16686686873435974,0.0596931092441082,-0.011212730780243874,-0.01175506878644228,-0.958732545375824,-1.175763487815857,-4.706430912017822,-0.23,0.1,0.03,279.17
1679955854.47975302,180108322,2,0.01,-4.66,339.97,-0.12694981694221497,0.03832799568772316,0.015444326214492321,0.009017582051455975,-0.9641645550727844,-1.1742595434188843,-4.707459449768066,-0.23,0.1,0.03,279.17
1679955854.57974005,180208309,2,0.02,-4.11,340.25,-0.06233418732881546,0.025080092251300812,-0.012102377600967884,-0.018643155694007874,-0.9651641845703125,-1.1748672723770142,-4.70808744430542,-0.23,0.1,0.03,279.17
1679955854.67978621,180308355,2,-0.1,-3.22,340.51,-0.0139846196398139,-0.003701307810842991,0.01759231649339199,0.020297866314649582,-0.9585171341896057,-1.1779255867004395,-4.70719575881958,-0.23,0.11,0.03,279.17
1679955854.77974510,180408314,2,-0.18,-2.43,340.76,0.014757690019905567,-0.035659369081258774,0.009448888711631298,0.013708436861634254,-0.9488725662231445,-1.182458519935608,-4.706315994262695,-0.23,0.11,0.03,279.17
1679955854.87976313,180508332,2,-0.28,-2.0300000000000002,340.98,0.05353967472910881,-0.03412849083542824,-0.0445568822324276,-0.04844217374920845,-0.9351962208747864,-1.1880942583084106,-4.705875396728516,-0.23,0.11,0.03,279.17
1679955854.97972417,180608293,2,-0.23,-2.22,341.21,0.0840001255273819,-0.058689363300800323,-0.023847045376896858,-0.014154762960970402,-0.9202111959457397,-1.1942756175994873,-4.706348419189453,-0.23,0.11,0.03,279.17
1679955855.07968307,180708252,2,-0.03,-2.68,341.40000000000003,0.11400143802165985,-0.06743472069501877,-0.04282188042998314,-0.027787789702415466,-0.9011210203170776,-1.1998286247253418,-4.708704948425293,-0.23,0.11,0.03,279.17
1679955855.17968416,180808253,2,0.12,-3.2600000000000002,341.58,0.1474567949771881,-0.08652132749557495,-0.05047566443681717,-0.029389413073658943,-0.8807464241981506,-1.2062679529190063,-4.711112022399902,-0.23,0.11,0.03,279.17
1679955855.27970219,180908271,2,0.19,-3.6,341.74,0.18201586604118347,-0.10186053067445755,-0.09493284672498703,-0.08982405066490173,-0.8542906045913696,-1.212061882019043,-4.71804141998291,-0.23,0.11,0.03,279.17
1679955855.37973404,181008303,2,0.27,-3.36,341.88,0.23314738273620605,-0.09040609747171402,-0.05721568316221237,-0.07318808883428574,-0.8256148099899292,-1.2190237045288086,-4.726354598999023,-0.23,0.11,0.03,279.17
1679955855.47972417,181108293,2,0.34,-2.66,342.04,0.2631681561470032,-0.10479815304279327,-0.10564865916967392,-0.10882216691970825,-0.7895954251289368,-1.2246862649917603,-4.733199119567871,-0.23,0.11,0.03,279.17
1679955855.57980704,181208376,2,0.33,-2.18,342.13,0.2990652918815613,-0.10183707624673843,-0.09379387646913528,-0.08186934143304825,-0.7521128058433533,-1.2311075925827026,-4.741281032562256,-0.23,0.11,0.03,279.17
1679955855.67975020,181308319,2,0.16,-2.5100000000000002,342.22,0.32928407192230225,-0.10216549038887024,-0.11388131976127625,-0.11306296288967133,-0.7123606204986572,-1.234262466430664,-4.752707481384277,-0.23,0.11,0.03,279.17
1679955855.77976203,181408331,2,-0.09,-3.0500000000000003,342.22,0.356123149394989,-0.09398789703845978,-0.13211865723133087,-0.139154851436615,-0.6724277138710022,-1.239014744758606,-4.765054702758789,-0.23,0.11,0.03,279.17
1679955855.87971807,181508287,2,-0.2,-3.49,342.25,0.397121399641037,-0.09780119359493256,-0.12784239649772644,-0.14657826721668243,-0.6269205212593079,-1.241365671157837,-4.780452728271484,-0.23,0.11,0.03,279.17
1679955855.97969317,181608262,2,-0.28,-4.05,342.22,0.44525569677352905,-0.11288955062627792,-0.15973396599292755,-0.18306496739387512,-0.5784369707107544,-1.2453818321228027,-4.797192573547363,-0.23,0.11,0.03,279.17
1679955856.07969213,181708261,2,-0.31,-4.74,342.26,0.4934506118297577,-0.15016856789588928,-0.20730485022068024,-0.21489323675632477,-0.5224828124046326,-1.2500795125961304,-4.814053535461426,-0.24,0.11,0.03,279.17
1679955856.17970610,181808275,2,-0.21,-4.8,342.33,0.5390281081199646,-0.1765230894088745,-0.18601547181606293,-0.16763779520988464,-0.46209970116615295,-1.2574361562728882,-4.8309736251831055,-0.24,0.11,0.03,279.17
1679955856.27976704,181908336,2,-0.22,-4.46,342.45,0.6040811538696289,-0.16319593787193298,-0.2527458965778351,-0.20134443044662476,-0.39399197697639465,-1.266907811164856,-4.8474440574646,-0.24,0.11,0.03,279.17
1679955856.37972403,182008293,2,-0.26,-3.73,342.57,0.6585113406181335,-0.17978757619857788,-0.2595365047454834,-0.20627717673778534,-0.3219881057739258,-1.2788094282150269,-4.866597652435303,-0.24,0.11,0.03,279.17
1679955856.47976518,182108334,2,-0.25,-3.04,342.73,0.7049033045768738,-0.19408367574214935,-0.2657237648963928,-0.23099954426288605,-0.24540139734745026,-1.2871543169021606,-4.8909173011779785,-0.24,0.11,0.03,279.17
1679955856.57975507,182208324,2,-0.29,-2.92,342.94,0.7305631637573242,-0.19494357705116272,-0.34893423318862915,-0.3551087975502014,-0.16609415411949158,-1.2969067096710205,-4.921995639801025,-0.24,0.11,0.03,279.17
