timestamp,TimeUS,I,Status,GMS,GWk,NSats,HDop,Lat,Lng,Alt,Spd,GCrs,VZ,Yaw,U
1666739408.59999990,951666248,0,3,256226600,2233,12,0.85,42.730785499999996,-84.49056449999999,207.1,0.07003571093082428,46.73570251464844,-0.009000000543892384,0.0,1
1666739408.80001283,951866261,0,3,256226800,2233,12,0.85,42.7307856,-84.4905644,207.21,0.05325411260128021,304.286865234375,-0.013000000268220901,0.0,1
1666739409.00001693,952066265,0,3,256227000,2233,12,0.79,42.7307856,-84.4905642,207.3,0.033600594848394394,126.52885437011719,-0.01600000075995922,0.0,1
1666739409.19996190,952266210,0,3,256227200,2233,12,0.79,42.730785499999996,-84.49056399999999,207.41,0.050089918076992035,183.4336395263672,0.08800000697374344,0.0,1
1666739409.39998078,952466229,0,3,256227400,2233,12,0.79,42.730785399999995,-84.4905637,207.45000000000002,0.04965883865952492,115.01688385009766,-0.0950000062584877,0.0,1
1666739409.59995985,952666208,0,3,256227600,2233,11,0.79,42.7307853,-84.4905635,207.5,0.01600000075995922,0.0,-0.049000002443790436,0.0,1
1666739409.79999089,952866239,0,3,256227800,2233,12,0.79,42.7307852,-84.4905634,207.58,0.046529561281204224,208.2173614501953,0.05100000277161598,0.0,1
1666739410.00003386,953066282,0,3,256228000,2233,12,0.79,42.7307851,-84.4905632,207.62,0.0741485059261322,100.09749603271484,0.036000002175569534,0.0,1
1666739410.20000577,953266254,0,3,256228200,2233,11,0.79,42.7307851,-84.4905629,207.58,0.0859883725643158,261.30450439453125,0.003000000026077032,0.0,1
1666739410.40004086,953466289,0,3,256228400,2233,11,0.79,42.730785,-84.49056279999999,207.51,0.03498571366071701,120.96375274658203,0.07800000160932541,0.0,1
1666739410.60005689,953666305,0,3,256228600,2233,12,0.79,42.730785,-84.49056279999999,207.53,0.03606937825679779,313.876708984375,-0.03100000135600567,0.0,1
1666739410.79998374,953866232,0,3,256228800,2233,12,0.79,42.730784799999995,-84.4905629,207.67000000000002,0.005656854715198278,135.0,-0.203000009059906,0.0,1
1666739411.00001693,954066265,0,3,256229000,2233,13,0.75,42.730784899999996,-84.4905625,207.65,0.042059481143951416,118.39302062988281,-0.10100000351667404,0.0,1
1666739411.19998980,954266238,0,3,256229200,2233,13,0.75,42.730785,-84.4905618,207.47,0.024596748873591423,296.5650634765625,-0.13300000131130219,0.0,1
1666739411.40001082,954466259,0,3,256229400,2233,13,0.75,42.730784899999996,-84.49056139999999,207.4,0.10850346088409424,199.93798828125,-0.09800000488758087,0.0,1
1666739411.62000084,954686249,0,3,256229600,2233,13,0.75,42.730784899999996,-84.49056089999999,207.29,0.04477722942829132,336.29736328125,-0.11400000751018524,0.0,1
1666739411.79999375,954866242,0,3,256229800,2233,13,0.75,42.7307852,-84.49055969999999,206.93,0.0723671242594719,78.8453369140625,-0.11500000208616257,0.0,1
1666739411.98038173,955046630,0,3,256230000,2233,13,0.75,42.7307853,-84.4905593,206.88,0.0785493478178978,328.5358581542969,-0.039000000804662704,0.0,1
1666739412.20003176,955266280,0,3,256230200,2233,12,0.75,42.730785399999995,-84.4905588,206.76,0.050219520926475525,257.3474426269531,-0.029000001028180122,0.0,1
1666739412.40003181,955466280,0,3,256230400,2233,13,0.75,42.730785399999995,-84.4905582,206.52,0.06560488045215607,217.568603515625,0.02500000037252903,0.0,1
1666739412.60003281,955666281,0,3,256230600,2233,12,0.75,42.730785399999995,-84.49055779999999,206.39000000000001,0.017464250326156616,103.24050903320312,0.030000001192092896,0.0,1
1666739412.80001473,955866263,0,3,256230800,2233,12,0.75,42.730785399999995,-84.4905574,206.32,0.027202941477298737,162.8972625732422,-0.09400000423192978,0.0,1
1666739413.00000787,956066256,0,3,256231000,2233,12,0.79,42.730785499999996,-84.4905569,206.21,0.02325940877199173,64.53665161132812,-0.09700000286102295,0.0,1
1666739413.20003891,956266287,0,3,256231200,2233,13,0.79,42.730785499999996,-84.49055659999999,206.1,0.032280027866363525,286.189208984375,0.12300000339746475,0.0,1
1666739413.40001273,956466261,0,3,256231400,2233,13,0.79,42.7307856,-84.4905564,205.96,0.18438276648521423,289.31939697265625,-0.005000000353902578,0.0,1
1666739413.60002780,956666276,0,3,256231600,2233,13,0.79,42.7307858,-84.4905562,205.84,0.09167879074811935,333.4349365234375,0.11700000613927841,0.0,1
1666739413.80004478,956866293,0,3,256231800,2233,14,0.79,42.730785999999995,-84.4905557,205.68,0.07224956899881363,265.2363586425781,0.03700000047683716,0.0,1
1666739414.00002575,957066274,0,3,256232000,2233,14,0.68,42.730785999999995,-84.49055539999999,205.58,0.05333854630589485,210.41107177734375,-0.03400000184774399,0.0,1
1666739414.20003676,957266285,0,3,256232200,2233,14,0.68,42.730785999999995,-84.490555,205.49,0.13238202035427094,244.015625,-0.10400000214576721,0.0,1
1666739414.40004277,957466291,0,3,256232400,2233,14,0.68,42.730785999999995,-84.4905545,205.39000000000001,0.10707474499940872,235.27101135253906,-0.34700000286102295,0.0,1
1666739414.60003090,957666279,0,3,256232600,2233,14,0.68,42.7307863,-84.49055349999999,205.32,0.1140175461769104,248.38522338867188,-0.6510000228881836,0.0,1
1666739414.79998779,957866236,0,3,256232800,2233,14,0.68,42.7307868,-84.4905528,205.34,0.17240940034389496,330.4612121582031,-0.734000027179718,0.0,1
1666739415.00001073,958066259,0,3,256233000,2233,13,0.68,42.7307874,-84.4905528,205.33,0.15461565554141998,323.94537353515625,-0.31700000166893005,0.0,1
1666739415.20003486,958266283,0,3,256233200,2233,13,0.68,42.7307876,-84.49055349999999,205.37,0.32517075538635254,250.2276611328125,-0.6030000448226929,0.0,1
1666739415.40002584,958466274,0,3,256233400,2233,14,0.68,42.730787799999995,-84.4905538,205.51,0.31809747219085693,248.0313720703125,-0.6700000166893005,0.0,1
1666739415.60002971,958666278,0,3,256233600,2233,14,0.68,42.730788,-84.490554,205.77,0.1668832004070282,225.4855499267578,-0.7720000147819519,0.0,1
1666739415.80003691,958866285,0,3,256233800,2233,14,0.68,42.7307883,-84.49055369999999,205.92000000000002,0.197800412774086,290.7255554199219,-0.7290000319480896,0.0,1
1666739416.00006890,959066317,0,3,256234000,2233,14,0.68,42.7307888,-84.4905529,206.06,0.18776847422122955,311.3294677734375,-0.46400001645088196,0.0,1
1666739416.20010471,959266353,0,3,256234200,2233,13,0.68,42.7307892,-84.4905508,205.71,0.150332972407341,319.3160400390625,-0.4180000126361847,0.0,1
1666739416.40005374,959466302,0,3,256234400,2233,13,0.68,42.7307889,-84.4905498,205.49,0.0674462765455246,15.478636741638184,-0.5020000338554382,0.0,1
1666739416.60000992,959666258,0,3,256234600,2233,12,0.68,42.7307882,-84.4905486,205.39000000000001,0.038639359176158905,280.4374694824219,-0.41700002551078796,0.0,1
1666739416.79999280,959866241,0,3,256234800,2233,11,0.68,42.7307877,-84.4905478,205.25,0.17488853633403778,332.4093017578125,-0.1940000057220459,0.0,1
1666739416.99999380,960066242,0,3,256235000,2233,12,0.87,42.7307874,-84.4905473,205.05,0.10722873359918594,273.74298095703125,-0.3150000274181366,0.0,1
1666739417.20003271,960266281,0,3,256235200,2233,12,0.87,42.7307858,-84.4905453,204.47,0.035227831453084946,276.5198059082031,-0.1940000057220459,0.0,1
1666739417.40004373,960466292,0,3,256235400,2233,12,0.87,42.7307845,-84.49054389999999,204.18,0.0442831814289093,244.59228515625,-0.11700000613927841,0.0,1
1666739417.60006690,960666315,0,3,256235600,2233,12,0.87,42.730783599999995,-84.49054249999999,203.86,0.2338247299194336,37.70305252075195,-0.05000000074505806,0.0,1
1666739417.80004191,960866290,0,3,256235800,2233,11,0.87,42.7307827,-84.49054079999999,203.52,0.10125710070133209,34.94565963745117,0.06000000238418579,0.0,1
1666739418.00002575,961066274,0,3,256236000,2233,11,0.89,42.7307821,-84.4905393,203.20000000000002,0.1130707785487175,357.9726867675781,0.032999999821186066,0.0,1
1666739418.19998884,961266237,0,3,256236200,2233,11,0.89,42.7307817,-84.49053769999999,202.9,0.15041609108448029,31.682363510131836,-0.09700000286102295,0.0,1
1666739418.40002990,961466278,0,3,256236400,2233,11,0.89,42.7307808,-84.4905357,202.46,0.14748898148536682,355.3331298828125,0.09300000220537186,0.0,1
1666739418.59999871,961666247,0,3,256236600,2233,12,0.89,42.730779999999996,-84.49053359999999,201.99,0.11691450327634811,14.868279457092285,0.21800000965595245,0.0,1
1666739418.78032279,961846571,0,3,256236800,2233,12,0.89,42.730779299999995,-84.4905321,201.76,0.2322455644607544,328.0207824707031,0.20400001108646393,0.0,1
1666739419.00004077,962066289,0,3,256237000,2233,13,0.7000000000000001,42.7307789,-84.4905301,201.47,0.1732974350452423,18.853158950805664,0.08100000023841858,0.0,1
1666739419.20007372,962266322,0,3,256237200,2233,12,0.7000000000000001,42.7307786,-84.4905285,201.23000000000002,0.24068237841129303,25.074417114257812,0.23500001430511475,0.0,1
1666739419.40001774,962466266,0,3,256237400,2233,11,0.7000000000000001,42.730778199999996,-84.49052789999999,201.15,0.14934523403644562,352.303955078125,0.24800001084804535,0.0,1
1666739419.60000086,962666249,0,3,256237600,2233,11,0.7000000000000001,42.7307777,-84.49052739999999,201.12,0.19258765876293182,348.9234619140625,0.13100001215934753,0.0,1
1666739419.80003381,962866282,0,3,256237800,2233,11,0.7000000000000001,42.7307774,-84.49052669999999,200.94,0.4101865589618683,29.502321243286133,0.12600000202655792,0.0,1
1666739420.00002575,963066274,0,3,256238000,2233,11,0.89,42.730776899999995,-84.4905258,200.82,0.19195052981376648,34.60076141357422,0.05900000408291817,0.0,1
1666739420.19998384,963266232,0,3,256238200,2233,11,0.89,42.7307761,-84.4905246,200.99,0.2670823931694031,25.02985191345215,-0.015000000596046448,0.0,1
1666739420.40002990,963466278,0,3,256238400,2233,11,0.89,42.730775699999995,-84.4905236,201.14000000000001,0.24707287549972534,42.21128845214844,-0.11300000548362732,0.0,1
1666739420.59997272,963666221,0,3,256238600,2233,11,0.89,42.7307754,-84.4905224,201.49,0.1156027764081955,37.26639938354492,0.009000000543892384,0.0,1
1666739420.80003071,963866279,0,3,256238800,2233,11,0.89,42.7307754,-84.490522,201.47,0.15654073655605316,17.85622215270996,0.036000002175569534,0.0,1
1666739421.00005293,964066301,0,3,256239000,2233,11,0.89,42.7307756,-84.490521,201.36,0.509124755859375,44.68169021606445,-0.32100000977516174,0.0,1
1666739421.20004272,964266291,0,3,256239200,2233,11,0.89,42.730775699999995,-84.4905204,201.36,0.0998498946428299,29.38901138305664,-0.1600000113248825,0.0,1
1666739421.40005088,964466299,0,3,256239400,2233,11,0.89,42.730775699999995,-84.4905199,201.53,0.30500492453575134,49.52095413208008,-0.19500000774860382,0.0,1
1666739421.60001683,964666265,0,3,256239600,2233,13,0.89,42.730776299999995,-84.4905184,201.88,0.17409193515777588,47.32781219482422,-0.4010000228881836,0.0,1
1666739421.80001187,964866260,0,3,256239800,2233,12,0.89,42.730776999999996,-84.49051639999999,201.97,0.15648643672466278,38.774169921875,-0.34700000286102295,0.0,1
1666739422.00001693,965066265,0,3,256240000,2233,13,0.74,42.7307773,-84.4905153,202.1,0.21148286759853363,59.91907501220703,-0.38100001215934753,0.0,1
1666739422.20003080,965266279,0,3,256240200,2233,12,0.74,42.7307779,-84.4905139,202.06,0.36859869956970215,9.998974800109863,-0.18300001323223114,0.0,1
1666739422.40006185,965466310,0,3,256240400,2233,12,0.74,42.7307779,-84.4905143,202.27,0.2850070297718048,359.5979309082031,-0.2970000207424164,0.0,1
1666739422.59998584,965666234,0,3,256240600,2233,12,0.74,42.7307778,-84.4905136,202.47,0.22978687286376953,23.329551696777344,-0.12400000542402267,0.0,1
1666739422.80000687,965866255,0,3,256240800,2233,12,0.74,42.730778799999996,-84.4905126,202.20000000000002,0.6260359287261963,3.2965941429138184,0.11800000816583633,0.0,1
1666739423.00007272,966066321,0,3,256241000,2233,12,0.87,42.730779299999995,-84.49051229999999,202.29,0.27720028162002563,16.34288215637207,0.05400000140070915,0.0,1
1666739423.20003676,966266285,0,3,256241200,2233,13,0.87,42.730779299999995,-84.4905125,202.48000000000002,0.2250777631998062,22.463211059570312,-0.08400000631809235,0.0,1
1666739423.40004373,966466292,0,3,256241400,2233,13,0.87,42.730779299999995,-84.4905126,202.75,0.22210359573364258,46.45944595336914,-0.09300000220537186,0.0,1
1666739423.59999585,966666244,0,3,256241600,2233,13,0.87,42.7307791,-84.4905115,202.98000000000002,0.2560078203678131,45.94956588745117,-0.15200001001358032,0.0,1
1666739423.79999280,966866241,0,3,256241800,2233,13,0.87,42.7307789,-84.4905105,203.25,0.19446593523025513,23.005155563354492,0.03800000250339508,0.0,1
1666739424.00000072,967066249,0,3,256242000,2233,13,0.74,42.730778699999995,-84.4905103,203.26,0.03023243322968483,214.21571350097656,0.01900000125169754,0.0,1
1666739424.18033171,967246580,0,3,256242200,2233,13,0.74,42.7307791,-84.4905093,203.4,0.14360013604164124,36.790096282958984,0.0690000057220459,0.0,1
1666739424.40005279,967466301,0,3,256242400,2233,13,0.74,42.7307795,-84.4905083,203.53,0.10704205185174942,60.321502685546875,0.07600000500679016,0.0,1
1666739424.60005879,967666307,0,3,256242600,2233,13,0.74,42.7307797,-84.49050749999999,203.6,0.09761660546064377,52.07353591918945,0.1210000067949295,0.0,1
1666739424.79998994,967866238,0,3,256242800,2233,13,0.74,42.7307796,-84.49050679999999,203.59,0.03773592785000801,327.99462890625,0.20100000500679016,0.0,1
1666739425.02001476,968086263,0,3,256243000,2233,13,0.74,42.7307795,-84.490506,203.51,0.0681542381644249,345.55596923828125,0.04000000283122063,0.0,1
1666739425.20002985,968266278,0,3,256243200,2233,12,0.74,42.7307795,-84.4905051,203.4,0.0748131051659584,278.45501708984375,0.15400001406669617,0.0,1
1666739425.40000272,968466251,0,3,256243400,2233,13,0.74,42.7307795,-84.4905039,203.41,0.1137409433722496,330.5050354003906,0.01600000075995922,0.0,1
1666739425.58032179,968646570,0,3,256243600,2233,14,0.74,42.7307792,-84.4905036,203.24,0.14159803092479706,5.267696857452393,0.03100000135600567,0.0,1
1666739425.79999375,968866242,0,3,256243800,2233,14,0.74,42.7307789,-84.4905027,203.16,0.03500000014901161,53.13010025024414,-0.017000000923871994,0.0,1
1666739426.00001073,969066259,0,3,256244000,2233,14,0.68,42.7307786,-84.4905017,203.1,0.14571548998355865,101.07858276367188,0.02500000037252903,0.0,1
1666739426.20006871,969266317,0,3,256244200,2233,13,0.68,42.7307779,-84.49050079999999,203.16,0.15285614132881165,110.68765258789062,-0.0020000000949949026,0.0,1
1666739426.40005279,969466301,0,3,256244400,2233,14,0.68,42.7307778,-84.4904992,203.21,0.18796809017658234,110.55603790283203,0.07700000703334808,0.0,1
1666739426.60001493,969666263,0,3,256244600,2233,14,0.68,42.730778,-84.4904974,203.27,0.3048540949821472,72.04051971435547,0.06599999964237213,0.0,1
1666739426.80002379,969866272,0,3,256244800,2233,14,0.68,42.7307779,-84.4904952,203.26,0.21421952545642853,63.07610321044922,-0.06200000271201134,0.0,1
1666739426.98033476,970046583,0,3,256245000,2233,13,0.68,42.730778199999996,-84.49049269999999,203.41,0.16082288324832916,68.86017608642578,0.15300001204013824,0.0,1
1666739427.20001388,970266262,0,3,256245200,2233,13,0.72,42.7307785,-84.4904909,203.46,0.16404877603054047,1.3971809148788452,-0.006000000052154064,0.0,1
1666739427.40000677,970466255,0,3,256245400,2233,13,0.72,42.7307792,-84.4904893,203.63,0.15341773629188538,27.567203521728516,0.055000003427267075,0.0,1
1666739427.60001087,970666259,0,3,256245600,2233,12,0.72,42.730779899999995,-84.49048789999999,203.87,0.14334923028945923,355.99981689453125,-0.024000000208616257,0.0,1
1666739427.80001593,970866264,0,3,256245800,2233,13,0.72,42.7307804,-84.490487,204.09,0.25700196623802185,343.9627380371094,0.039000000804662704,0.0,1
1666739428.00003791,971066286,0,3,256246000,2233,13,0.72,42.7307808,-84.4904863,204.31,0.3037795424461365,352.2433166503906,-0.015000000596046448,0.0,1
1666739428.20003891,971266287,0,3,256246200,2233,13,0.72,42.7307817,-84.49048549999999,204.53,0.4581364691257477,336.45654296875,-0.1300000101327896,0.0,1
1666739428.40002990,971466278,0,3,256246400,2233,13,0.72,42.7307819,-84.4904856,204.74,0.4790094196796417,309.2389221191406,-0.37800002098083496,0.0,1
1666739428.60004687,971666295,0,3,256246600,2233,13,0.72,42.7307825,-84.4904861,205.08,0.7493870854377747,317.2171325683594,-0.48500001430511475,0.0,1
1666739428.79996490,971866213,0,3,256246800,2233,13,0.72,42.730782999999995,-84.49048669999999,205.37,0.9447041749954224,315.25732421875,-0.08700000494718552,0.0,1
1666739428.99998879,972066237,0,3,256247000,2233,12,0.77,42.7307838,-84.49048839999999,205.57,0.8241808414459229,302.51385498046875,-0.15900000929832458,0.0,1
1666739429.20001674,972266265,0,3,256247200,2233,13,0.77,42.7307845,-84.49049,205.8,1.1096856594085693,303.9048767089844,-0.16700001060962677,0.0,1
1666739429.40002084,972466269,0,3,256247400,2233,13,0.77,42.730786099999996,-84.4904904,205.85,1.0217715501785278,337.50091552734375,-0.2110000103712082,0.0,1
1666739429.59998989,972666238,0,3,256247600,2233,13,0.77,42.7307877,-84.4904897,206.03,0.7610973119735718,14.456185340881348,-0.659000039100647,0.0,1
1666739429.80003381,972866282,0,3,256247800,2233,13,0.77,42.7307887,-84.4904904,206.19,0.9288644194602966,296.6754150390625,0.33400002121925354,0.0,1
1666739430.00004077,973066289,0,3,256248000,2233,13,0.72,42.730789099999996,-84.4904914,206.33,0.49429142475128174,283.81134033203125,0.2770000100135803,0.0,1
1666739430.20005274,973266301,0,3,256248200,2233,13,0.72,42.7307893,-84.4904921,206.25,0.33642980456352234,326.0265197753906,0.26100000739097595,0.0,1
1666739430.40005589,973466304,0,3,256248400,2233,13,0.72,42.730789699999995,-84.4904916,206.15,0.40599754452705383,12.08489990234375,0.12200000882148743,0.0,1
1666739430.60000491,973666253,0,3,256248600,2233,13,0.72,42.7307901,-84.4904907,205.73000000000002,0.22120580077171326,75.33553314208984,0.0010000000474974513,0.0,1
1666739430.79999781,973866246,0,3,256248800,2233,13,0.72,42.730790299999995,-84.4904899,205.54,0.3027936816215515,23.347667694091797,0.18700000643730164,0.0,1
1666739431.00002670,974066275,0,3,256249000,2233,13,0.72,42.730790899999995,-84.4904893,205.48000000000002,0.6527541875839233,40.277591705322266,-0.10900000482797623,0.0,1
1666739431.20000577,974266254,0,3,256249200,2233,14,0.72,42.7307912,-84.49048859999999,205.47,0.36723971366882324,36.02737045288086,0.11600000411272049,0.0,1
1666739431.40002179,974466270,0,3,256249400,2233,12,0.72,42.7307913,-84.4904881,205.52,0.10068763792514801,55.520782470703125,-0.4930000305175781,0.0,1
1666739431.60000992,974666258,0,3,256249600,2233,10,0.72,42.7307905,-84.49048739999999,205.56,0.2788870930671692,58.19061279296875,-0.23900000751018524,0.0,1
1666739431.80002379,974866272,0,3,256249800,2233,12,0.72,42.7307898,-84.4904864,205.31,0.1487581878900528,84.21275329589844,-0.14500001072883606,0.0,1
1666739432.00005579,975066304,0,3,256250000,2233,13,0.7000000000000001,42.730789099999996,-84.4904853,205.05,0.2426685094833374,94.25382995605469,-0.0690000057220459,0.0,1
1666739432.20003676,975266285,0,3,256250200,2233,10,0.7000000000000001,42.7307884,-84.4904852,204.95000000000002,0.11975391954183578,131.27593994140625,0.08800000697374344,0.0,1
1666739432.38037777,975446626,0,3,256250400,2233,11,0.7000000000000001,42.730788,-84.4904849,204.91,0.10944405943155289,192.13133239746094,0.02800000086426735,0.0,1
1666739432.60000777,975666256,0,3,256250600,2233,12,0.7000000000000001,42.7307876,-84.4904846,204.89000000000001,0.08052950352430344,155.0260772705078,-0.17400000989437103,0.0,1
1666739432.79999375,975866242,0,3,256250800,2233,12,0.7000000000000001,42.7307875,-84.4904842,204.98000000000002,0.1511191725730896,194.9558563232422,-0.039000000804662704,0.0,1
1666739433.00001693,976066265,0,3,256251000,2233,11,0.75,42.7307871,-84.49048359999999,205.16,0.12066897004842758,189.54039001464844,0.007000000216066837,0.0,1
1666739433.19999170,976266240,0,3,256251200,2233,11,0.75,42.730786099999996,-84.4904837,205.23000000000002,0.2077113389968872,218.7459716796875,0.013000000268220901,0.0,1
1666739433.40002775,976466276,0,3,256251400,2233,11,0.75,42.7307852,-84.49048379999999,205.31,0.09377100318670273,172.64761352539062,-0.04000000283122063,0.0,1
1666739433.60011077,976666359,0,3,256251600,2233,12,0.75,42.730785,-84.4904832,205.48000000000002,0.07624303549528122,163.228759765625,-0.014000000432133675,0.0,1
1666739433.78033781,976846586,0,3,256251800,2233,12,0.75,42.7307844,-84.49048359999999,205.58,0.13776792585849762,170.8111572265625,0.08700000494718552,0.0,1
1666739434.00009489,977066343,0,3,256252000,2233,12,0.75,42.730783699999996,-84.4904845,205.63,0.23813441395759583,181.92518615722656,-0.05300000309944153,0.0,1
1666739434.20001793,977266266,0,3,256252200,2233,12,0.74,42.7307829,-84.4904858,205.94,0.037947334349155426,198.43495178222656,0.012000000104308128,0.0,1
1666739434.39999580,977466244,0,3,256252400,2233,12,0.74,42.730782399999995,-84.49048549999999,206.32,0.10963577032089233,165.20323181152344,0.05100000277161598,0.0,1
1666739434.59998083,977666229,0,3,256252600,2233,12,0.74,42.7307823,-84.4904852,206.38,0.08930845558643341,145.9540557861328,-0.014000000432133675,0.0,1
1666739434.80000591,977866254,0,3,256252800,2233,11,0.74,42.7307821,-84.4904854,206.25,0.08956003934144974,196.20904541015625,-0.03100000135600567,0.0,1
1666739434.99995375,978066202,0,3,256253000,2233,9,0.85,42.730781799999995,-84.4904863,206.04,0.11201786249876022,181.02304077148438,-0.05100000277161598,0.0,1
1666739435.20002389,978266272,0,3,256253200,2233,10,0.85,42.7307808,-84.4904876,205.81,0.20255617797374725,184.24685668945312,-0.18000000715255737,0.0,1
1666739435.40004277,978466291,0,3,256253400,2233,10,0.85,42.7307798,-84.4904888,205.58,0.10231813788414001,201.80142211914062,-0.03200000151991844,0.0,1
1666739435.60007286,978666321,0,3,256253600,2233,10,0.85,42.7307786,-84.4904897,205.39000000000001,0.03312098979949951,208.88658142089844,-0.07000000029802322,0.0,1
1666739435.80002379,978866272,0,3,256253800,2233,10,0.85,42.7307779,-84.4904899,205.4,0.18002501130104065,203.57472229003906,-0.030000001192092896,0.0,1
1666739436.00002885,979066277,0,3,256254000,2233,11,0.79,42.7307773,-84.4904897,205.45000000000002,0.3551858961582184,162.63633728027344,0.07400000095367432,0.0,1
1666739436.20002174,979266270,0,3,256254200,2233,10,0.79,42.7307767,-84.49048959999999,205.34,0.1755591183900833,184.5739288330078,0.1720000058412552,0.0,1
1666739436.40002084,979466269,0,3,256254400,2233,11,0.79,42.7307765,-84.4904895,205.37,0.22910697758197784,181.75086975097656,-0.00800000037997961,0.0,1
1666739436.59995580,979666204,0,3,256254600,2233,11,0.79,42.7307761,-84.49048909999999,205.41,0.25426167249679565,164.48794555664062,-0.43400001525878906,0.0,1
1666739436.79999375,979866242,0,3,256254800,2233,11,0.79,42.7307756,-84.4904885,205.41,0.37319299578666687,178.15733337402344,-0.17600001394748688,0.0,1
1666739437.00003886,980066287,0,3,256255000,2233,12,0.74,42.7307753,-84.4904885,205.43,0.328283429145813,211.8018798828125,-0.20600001513957977,0.0,1
1666739437.20002890,980266277,0,3,256255200,2233,11,0.74,42.7307752,-84.49048909999999,205.46,0.3692072927951813,223.68309020996094,-0.15800000727176666,0.0,1
1666739437.40003681,980466285,0,3,256255400,2233,11,0.74,42.7307753,-84.4904894,205.63,0.04501111060380936,181.27304077148438,-0.242000013589859,0.0,1
1666739437.60004282,980666291,0,3,256255600,2233,12,0.74,42.7307759,-84.4904899,205.88,0.09558766335248947,222.03176879882812,-0.11600000411272049,0.0,1
1666739437.80001783,980866266,0,3,256255800,2233,12,0.74,42.7307762,-84.49049029999999,205.98000000000002,0.16633100807666779,230.85601806640625,-0.055000003427267075,0.0,1
1666739438.00002289,981066271,0,3,256256000,2233,12,0.74,42.7307766,-84.4904906,206.06,0.12229882180690765,240.08078002929688,-0.032999999821186066,0.0,1
1666739438.19998479,981266233,0,3,256256200,2233,11,0.74,42.730776999999996,-84.4904911,206.13,0.10151847451925278,296.3126525878906,0.0650000050663948,0.0,1
1666739438.39999485,981466243,0,3,256256400,2233,12,0.74,42.7307774,-84.4904916,206.13,0.11141365021467209,241.5947723388672,-0.027000000700354576,0.0,1
1666739438.60000086,981666249,0,3,256256600,2233,12,0.74,42.7307768,-84.490493,206.26,0.05748913064599037,229.93922424316406,0.03700000047683716,0.0,1
1666739438.80001473,981866263,0,3,256256800,2233,12,0.74,42.730776,-84.4904944,206.32,0.0902441218495369,192.8042755126953,-0.07800000160932541,0.0,1
1666739439.00005388,982066302,0,3,256257000,2233,12,0.74,42.730775099999995,-84.4904954,206.32,0.21423353254795074,177.32456970214844,-0.11300000548362732,0.0,1
1666739439.18039489,982246643,0,3,256257200,2233,12,0.74,42.7307746,-84.4904956,206.24,0.15004666149616241,146.41583251953125,-0.04500000178813934,0.0,1
1666739439.40003681,982466285,0,3,256257400,2233,12,0.74,42.7307744,-84.49049579999999,206.15,0.14856985211372375,185.01986694335938,-0.052000001072883606,0.0,1
1666739439.60002685,982666275,0,3,256257600,2233,12,0.74,42.730774499999995,-84.4904957,206.05,0.22441481053829193,79.99201202392578,-0.020000001415610313,0.0,1
1666739439.80000091,982866249,0,3,256257800,2233,12,0.74,42.7307746,-84.4904955,206.0,0.12229882180690765,119.9192123413086,-0.039000000804662704,0.0,1
1666739440.00001478,983066263,0,3,256258000,2233,12,0.74,42.7307748,-84.490495,205.9,0.22014541923999786,65.29756927490234,-0.09000000357627869,0.0,1
1666739440.20004773,983266296,0,3,256258200,2233,12,0.74,42.7307753,-84.4904944,205.91,0.20033971965312958,14.45242691040039,0.10300000756978989,0.0,1
1666739440.39999580,983466244,0,3,256258400,2233,11,0.74,42.7307759,-84.4904945,206.03,0.40880560874938965,12.57441234588623,-0.00800000037997961,0.0,1
1666739440.58036971,983646618,0,3,256258600,2233,11,0.74,42.7307771,-84.4904938,205.96,0.4312366247177124,351.0619201660156,-0.15200001001358032,0.0,1
1666739440.80000877,983866257,0,3,256258800,2233,11,0.74,42.7307783,-84.4904935,205.8,0.5809922814369202,7.516441822052002,-0.004000000189989805,0.0,1
1666739441.00009274,984066341,0,3,256259000,2233,11,0.74,42.7307795,-84.4904924,205.45000000000002,0.7678678631782532,34.86975860595703,-0.10500000417232513,0.0,1
1666739441.20005393,984266302,0,3,256259200,2233,10,0.74,42.7307807,-84.4904914,205.34,0.825465977191925,39.49452209472656,-0.03500000014901161,0.0,1
1666739441.40008879,984466337,0,3,256259400,2233,10,0.74,42.7307813,-84.49049099999999,205.11,0.5053018927574158,21.232891082763672,0.24800001084804535,0.0,1
1666739441.60002279,984666271,0,3,256259600,2233,10,0.74,42.7307821,-84.4904907,205.04,0.5679789185523987,27.01618766784668,0.22800001502037048,0.0,1
1666739441.80001688,984866265,0,3,256259800,2233,10,0.74,42.730782399999995,-84.4904914,204.71,0.18601076304912567,16.876264572143555,0.0560000017285347,0.0,1
1666739441.99999690,985066245,0,3,256260000,2233,11,0.79,42.7307823,-84.4904918,204.3,0.30156922340393066,21.801406860351562,0.13600000739097595,0.0,1
1666739442.20001578,985266264,0,3,256260200,2233,11,0.79,42.7307828,-84.4904916,204.20000000000002,0.34732407331466675,357.5247802734375,0.09000000357627869,0.0,1
1666739442.40002775,985466276,0,3,256260400,2233,10,0.79,42.7307832,-84.49049099999999,204.16,0.3391784429550171,40.21651840209961,-0.07100000232458115,0.0,1
1666739442.60008693,985666335,0,3,256260600,2233,11,0.79,42.730783599999995,-84.49049029999999,204.09,0.11943618208169937,334.7222900390625,0.013000000268220901,0.0,1
1666739442.80003071,985866279,0,3,256260800,2233,11,0.79,42.730784,-84.4904897,204.04,0.09859513491392136,49.52476501464844,-0.08900000154972076,0.0,1
1666739443.00000882,986066257,0,3,256261000,2233,11,0.79,42.730784899999996,-84.4904892,203.96,0.224828839302063,54.047569274902344,0.09000000357627869,0.0,1
1666739443.20003676,986266285,0,3,256261200,2233,12,0.79,42.730785399999995,-84.49048859999999,203.88,0.14154858887195587,23.304887771606445,-0.04500000178813934,0.0,1
1666739443.39999080,986466239,0,3,256261400,2233,12,0.79,42.7307858,-84.4904877,203.75,0.1651574969291687,58.61976623535156,-0.15300001204013824,0.0,1
1666739443.60000777,986666256,0,3,256261600,2233,12,0.79,42.7307865,-84.4904871,203.49,0.28643500804901123,65.67192077636719,-0.19100001454353333,0.0,1
1666739443.80002284,986866271,0,3,256261800,2233,12,0.79,42.730787299999996,-84.4904857,203.02,0.6384512782096863,87.8456802368164,-0.31300002336502075,0.0,1
1666739444.00001788,987066266,0,3,256262000,2233,11,0.79,42.730787299999996,-84.49048429999999,202.65,0.777473509311676,120.1927719116211,-0.2590000033378601,0.0,1
1666739444.20003772,987266286,0,3,256262200,2233,11,0.79,42.7307876,-84.4904837,202.05,0.3732626736164093,14.110701560974121,-0.4440000355243683,0.0,1
1666739444.40003872,987466287,0,3,256262400,2233,12,0.79,42.730788499999996,-84.4904823,202.1,0.8234907984733582,75.15373229980469,-0.550000011920929,0.0,1
1666739444.60003471,987666283,0,3,256262600,2233,12,0.79,42.7307888,-84.490481,202.11,0.21979081630706787,97.31900787353516,-0.8170000314712524,0.0,1
1666739444.80004382,987866292,0,3,256262800,2233,11,0.79,42.7307889,-84.4904804,202.01,0.4838729500770569,77.830810546875,-0.6950000524520874,0.0,1
1666739445.00003791,988066286,0,3,256263000,2233,11,0.79,42.7307889,-84.4904798,202.15,0.5426278710365295,122.43069458007812,-1.1110000610351562,0.0,1
1666739445.20000482,988266253,0,3,256263200,2233,12,0.79,42.7307898,-84.49047999999999,201.99,0.2242431938648224,72.61548614501953,-0.1300000101327896,0.0,1
1666739445.40000677,988466255,0,3,256263400,2233,11,0.79,42.7307906,-84.4904811,201.88,0.42086222767829895,170.42576599121094,-0.328000009059906,0.0,1
1666739445.60012174,988666370,0,3,256263600,2233,11,0.79,42.730790999999996,-84.4904814,201.82,0.3548662066459656,67.98870849609375,0.023000001907348633,0.0,1
1666739445.80000377,988866252,0,3,256263800,2233,11,0.79,42.7307913,-84.4904809,201.89000000000001,0.28475430607795715,50.27171325683594,-0.2880000174045563,0.0,1
1666739446.00004172,989066290,0,3,256264000,2233,11,0.79,42.7307914,-84.4904804,201.96,0.3105173408985138,110.94477081298828,-0.02200000174343586,0.0,1
1666739446.20003581,989266284,0,3,256264200,2233,11,0.79,42.730790899999995,-84.4904801,202.01,0.16502727568149567,242.96914672851562,-0.19100001454353333,0.0,1
1666739446.40006185,989466310,0,3,256264400,2233,12,0.79,42.7307905,-84.4904804,202.24,0.1849459558725357,228.72665405273438,-0.22600001096725464,0.0,1
1666739446.60003281,989666281,0,3,256264600,2233,12,0.79,42.7307901,-84.49048049999999,202.39000000000001,0.3187883496284485,81.1581802368164,-0.2680000066757202,0.0,1
1666739446.80001187,989866260,0,3,256264800,2233,10,0.79,42.7307898,-84.49047999999999,202.53,0.2109241634607315,71.4791488647461,-0.26500001549720764,0.0,1
1666739447.00001788,990066266,0,3,256265000,2233,11,0.79,42.7307893,-84.4904801,202.96,0.2656633257865906,74.49897003173828,-0.22800001502037048,0.0,1
1666739447.20004988,990266298,0,3,256265200,2233,10,0.79,42.7307889,-84.4904801,203.42000000000002,0.2698332965373993,98.31026458740234,-0.10600000619888306,0.0,1
1666739447.40000772,990466256,0,3,256265400,2233,11,0.79,42.7307883,-84.4904808,203.83,0.07970571517944336,66.32946014404297,-0.023000001907348633,0.0,1
1666739447.59996676,990666215,0,3,256265600,2233,9,0.79,42.7307874,-84.4904818,204.33,0.11812705546617508,346.7872619628906,-0.04700000211596489,0.0,1
1666739447.80000091,990866249,0,3,256265800,2233,11,0.79,42.7307865,-84.49048309999999,204.96,0.1925201416015625,222.47389221191406,0.04500000178813934,0.0,1
1666739448.00002074,991066269,0,3,256266000,2233,13,0.74,42.7307858,-84.4904842,205.51,0.10307764261960983,59.703548431396484,0.024000000208616257,0.0,1
1666739448.20004487,991266293,0,3,256266200,2233,12,0.74,42.730784899999996,-84.4904853,205.98000000000002,0.14751271903514862,192.52880859375,0.09300000220537186,0.0,1
1666739448.40004492,991466293,0,3,256266400,2233,13,0.74,42.7307839,-84.4904864,206.53,0.0604400560259819,196.3360595703125,0.40300002694129944,0.0,1
1666739448.59996986,991666218,0,3,256266600,2233,13,0.74,42.7307834,-84.4904861,206.59,0.2357732057571411,132.0775146484375,0.34300002455711365,0.0,1
1666739448.79997492,991866223,0,3,256266800,2233,12,0.74,42.7307831,-84.4904853,206.6,0.21048752963542938,66.47972106933594,0.5760000348091125,0.0,1
1666739449.00000072,992066249,0,3,256267000,2233,12,0.77,42.7307835,-84.49048479999999,206.55,0.24050363898277283,60.3437614440918,0.398000031709671,0.0,1
1666739449.19997287,992266221,0,3,256267200,2233,12,0.77,42.7307833,-84.490484,206.83,0.10012992471456528,171.38433837890625,0.1850000023841858,0.0,1
1666739449.39998794,992466236,0,3,256267400,2233,13,0.77,42.7307829,-84.4904832,207.23000000000002,0.09091755002737045,119.66670989990234,0.1290000081062317,0.0,1
1666739449.60006690,992666315,0,3,256267600,2233,13,0.77,42.7307826,-84.49048259999999,207.52,0.10261579602956772,74.744873046875,0.029000001028180122,0.0,1
1666739449.80000782,992866256,0,3,256267800,2233,13,0.77,42.7307823,-84.4904825,207.59,0.18755532801151276,72.62774658203125,0.11400000751018524,0.0,1
1666739450.00002480,993066273,0,3,256268000,2233,13,0.74,42.7307823,-84.4904825,207.63,0.09160786122083664,53.88065719604492,0.21700000762939453,0.0,1
1666739450.20002389,993266272,0,3,256268200,2233,13,0.74,42.7307826,-84.49048239999999,207.63,0.19136615097522736,103.60053253173828,0.27800002694129944,0.0,1
1666739450.40001178,993466260,0,3,256268400,2233,13,0.74,42.7307827,-84.4904821,207.68,0.1237618699669838,105.94538879394531,0.3680000305175781,0.0,1
1666739450.60001874,993666267,0,3,256268600,2233,13,0.74,42.7307827,-84.4904821,207.85,0.23121635615825653,87.52120971679688,0.3750000298023224,0.0,1
1666739450.79998183,993866230,0,3,256268800,2233,12,0.74,42.7307828,-84.4904822,207.94,0.15367498993873596,51.34019088745117,0.3190000057220459,0.0,1
1666739451.00000978,994066258,0,3,256269000,2233,11,0.79,42.7307833,-84.4904815,207.96,0.022561030462384224,282.80426025390625,0.2850000262260437,0.0,1
1666739451.20000076,994266249,0,3,256269200,2233,12,0.79,42.7307833,-84.4904821,208.01,0.23622235655784607,251.4883575439453,0.3290000259876251,0.0,1
1666739451.38037086,994446619,0,3,256269400,2233,12,0.79,42.7307833,-84.4904822,208.03,0.03106445074081421,183.69139099121094,0.164000004529953,0.0,1
1666739451.60004973,994666298,0,3,256269600,2233,11,0.79,42.7307832,-84.4904821,207.89000000000001,0.15100331604480743,89.62055969238281,0.16900001466274261,0.0,1
1666739451.80001974,994866268,0,3,256269800,2233,12,0.79,42.7307828,-84.4904821,207.78,0.1697586625814438,133.56788635253906,0.1290000081062317,0.0,1
1666739452.00007391,995066322,0,3,256270000,2233,10,0.8300000000000001,42.730782399999995,-84.49048239999999,207.78,0.08683893084526062,215.1541748046875,0.02500000037252903,0.0,1
1666739452.19996285,995266211,0,3,256270200,2233,9,0.8300000000000001,42.730782399999995,-84.4904827,207.74,0.12587693333625793,345.74298095703125,-0.027000000700354576,0.0,1
1666739452.40000677,995466255,0,3,256270400,2233,11,0.8300000000000001,42.7307823,-84.49048259999999,207.62,0.2457336038351059,160.7539520263672,-0.6260000467300415,0.0,1
1666739452.60003090,995666279,0,3,256270600,2233,12,0.8300000000000001,42.7307821,-84.4904825,207.63,0.15340469777584076,322.6819152832031,-0.17800000309944153,0.0,1
1666739452.80001593,995866264,0,3,256270800,2233,11,0.8300000000000001,42.7307823,-84.4904821,207.57,0.2368839532136917,156.3567657470703,-0.20400001108646393,0.0,1
1666739453.00000691,996066255,0,3,256271000,2233,12,0.7000000000000001,42.7307825,-84.4904818,207.61,0.16791963577270508,311.3785095214844,-0.22100001573562622,0.0,1
1666739453.20001793,996266266,0,3,256271200,2233,12,0.7000000000000001,42.7307828,-84.4904815,207.67000000000002,0.14156624674797058,171.46922302246094,-0.25600001215934753,0.0,1
1666739453.40006971,996466318,0,3,256271400,2233,11,0.7000000000000001,42.7307832,-84.49048069999999,207.61,0.12593650817871094,200.44955444335938,-0.1550000011920929,0.0,1
1666739453.60007691,996666325,0,3,256271600,2233,11,0.7000000000000001,42.7307838,-84.4904799,207.57,0.09414882957935333,167.73521423339844,-0.12800000607967377,0.0,1
1666739453.79995775,996866206,0,3,256271800,2233,11,0.7000000000000001,42.7307845,-84.49047879999999,207.51,0.02140093594789505,142.5946502685547,-0.22700001299381256,0.0,1
1666739453.99999690,997066245,0,3,256272000,2233,11,0.74,42.7307853,-84.4904779,207.45000000000002,0.11412712186574936,294.3193054199219,-0.14500001072883606,0.0,1
1666739454.18040085,997246649,0,3,256272200,2233,11,0.74,42.730785999999995,-84.49047709999999,207.44,0.07792945951223373,188.85797119140625,-0.06700000166893005,0.0,1
1666739454.39996886,997466217,0,3,256272400,2233,11,0.74,42.730786699999996,-84.4904761,207.41,0.04726521298289299,186.0724639892578,-0.14400000870227814,0.0,1
1666739454.59999681,997666245,0,3,256272600,2233,11,0.74,42.7307874,-84.4904751,207.39000000000001,0.05000999942421913,268.854248046875,-0.1900000125169754,0.0,1
1666739454.79992771,997866176,0,3,256272800,2233,10,0.74,42.730787899999996,-84.4904742,207.41,0.14785128831863403,156.90316772460938,-0.0950000062584877,0.0,1
1666739454.99997783,998066226,0,3,256273000,2233,10,0.77,42.730788499999996,-84.4904731,207.42000000000002,0.07488658279180527,55.88552474975586,-0.12200000882148743,0.0,1
1666739455.20001483,998266263,0,3,256273200,2233,11,0.77,42.7307894,-84.4904722,207.27,0.02080865204334259,35.217586517333984,-0.04000000283122063,0.0,1
1666739455.40004778,998466296,0,3,256273400,2233,11,0.77,42.730790299999995,-84.4904715,207.08,0.094021275639534,308.0887756347656,0.06100000441074371,0.0,1
1666739455.59998178,998666230,0,3,256273600,2233,11,0.77,42.730790999999996,-84.49047089999999,206.95000000000002,0.01726267673075199,79.99201202392578,-0.03400000184774399,0.0,1
1666739455.80000377,998866252,0,3,256273800,2233,11,0.77,42.7307917,-84.49047,206.8,0.11104054003953934,181.54815673828125,-0.09000000357627869,0.0,1
1666739455.99996781,999066216,0,3,256274000,2233,11,0.77,42.7307925,-84.4904691,206.67000000000002,0.05440588295459747,107.10272216796875,0.04100000113248825,0.0,1
1666739456.19995975,999266208,0,3,256274200,2233,11,0.77,42.730793399999996,-84.4904682,206.51,0.03401470556855202,358.3153076171875,-0.029000001028180122,0.0,1
1666739456.39996171,999466210,0,3,256274400,2233,11,0.77,42.7307942,-84.4904674,206.39000000000001,0.06576474010944366,98.74615478515625,-0.058000002056360245,0.0,1
1666739456.59995294,999666201,0,3,256274600,2233,11,0.77,42.730795099999995,-84.4904664,206.21,0.046861499547958374,50.194427490234375,-0.04000000283122063,0.0,1
1666739456.79994488,999866193,0,3,256274800,2233,11,0.77,42.730796,-84.49046539999999,206.09,0.09608329832553864,87.61405181884766,-0.05000000074505806,0.0,1
1666739456.99998093,1000066229,0,3,256275000,2233,11,0.77,42.7307969,-84.4904645,205.91,0.08354640007019043,168.95904541015625,-0.08700000494718552,0.0,1
1666739457.20002294,1000266271,0,3,256275200,2233,11,0.77,42.7307978,-84.4904636,205.75,0.1124010756611824,23.600187301635742,-0.12000000476837158,0.0,1
1666739457.40003085,1000466279,0,3,256275400,2233,11,0.77,42.730798799999995,-84.4904628,205.57,0.04500000178813934,233.13009643554688,-0.11000000685453415,0.0,1
1666739457.59997892,1000666227,0,3,256275600,2233,11,0.77,42.730799499999996,-84.490462,205.41,0.15363919734954834,174.7718048095703,-0.10400000214576721,0.0,1
1666739457.79998374,1000866232,0,3,256275800,2233,11,0.77,42.7308003,-84.4904612,205.25,0.10580170154571533,36.54497146606445,-0.032999999821186066,0.0,1
1666739457.99994087,1001066189,0,3,256276000,2233,11,0.77,42.730801299999996,-84.49046039999999,205.09,0.14903691411018372,40.10090255737305,-0.023000001907348633,0.0,1
1666739458.19995475,1001266203,0,3,256276200,2233,11,0.77,42.7308023,-84.4904596,204.88,0.196122407913208,11.768288612365723,0.06800000369548798,0.0,1
1666739458.39992476,1001466173,0,3,256276400,2233,11,0.77,42.7308033,-84.490459,204.67000000000002,0.06306346505880356,332.622314453125,0.05900000408291817,0.0,1
1666739458.60001278,1001666261,0,3,256276600,2233,12,0.77,42.7308045,-84.4904579,204.48000000000002,0.046227701008319855,308.8533630371094,0.06300000101327896,0.0,1
1666739458.80002594,1001866274,0,3,256276800,2233,12,0.77,42.7308056,-84.4904569,204.31,0.08704596757888794,227.32781982421875,0.036000002175569534,0.0,1
1666739458.99999285,1002066241,0,3,256277000,2233,12,0.74,42.730806699999995,-84.4904557,204.14000000000001,0.0984073206782341,37.5685920715332,0.0020000000949949026,0.0,1
1666739459.20000672,1002266255,0,3,256277200,2233,12,0.74,42.730807899999995,-84.4904545,203.97,0.014764823019504547,151.69923400878906,0.07200000435113907,0.0,1
1666739459.40001583,1002466264,0,3,256277400,2233,12,0.74,42.730809099999995,-84.4904533,203.76,0.0495176762342453,313.3634338378906,0.03800000250339508,0.0,1
1666739459.58042693,1002646675,0,3,256277600,2233,12,0.74,42.730810299999995,-84.4904522,203.59,0.03342154994606972,231.07244873046875,-0.09300000220537186,0.0,1
1666739459.79999590,1002866244,0,3,256277800,2233,12,0.74,42.7308115,-84.490451,203.4,0.03736308589577675,74.47588348388672,-0.0020000000949949026,0.0,1
1666739459.99994087,1003066189,0,3,256278000,2233,12,0.74,42.7308126,-84.4904497,203.22,0.019723083823919296,30.465545654296875,0.020000001415610313,0.0,1
1666739460.19994783,1003266196,0,3,256278200,2233,12,0.74,42.7308138,-84.49044839999999,203.07,0.06640782952308655,108.43494415283203,0.01600000075995922,0.0,1
1666739460.40002489,1003466273,0,3,256278400,2233,12,0.74,42.7308148,-84.49044719999999,202.85,0.0660984143614769,107.6125717163086,0.0990000069141388,0.0,1
1666739460.60003185,1003666280,0,3,256278600,2233,12,0.74,42.730815799999995,-84.49044599999999,202.68,0.050209563225507736,135.8069305419922,-0.05700000375509262,0.0,1
1666739460.79999971,1003866248,0,3,256278800,2233,12,0.74,42.7308169,-84.4904449,202.52,0.044384684413671494,67.47943115234375,0.046000003814697266,0.0,1
1666739461.00000787,1004066256,0,3,256279000,2233,12,0.74,42.7308178,-84.4904437,202.37,0.04455334320664406,9.039482116699219,0.08400000631809235,0.0,1
1666739461.20001173,1004266260,0,3,256279200,2233,12,0.74,42.7308188,-84.4904426,202.21,0.017117243260145187,353.2901611328125,0.10100000351667404,0.0,1
1666739461.39995790,1004466206,0,3,256279400,2233,12,0.74,42.7308199,-84.49044169999999,202.04,0.13364505767822266,346.587646484375,0.08900000154972076,0.0,1
1666739461.59997177,1004666220,0,3,256279600,2233,12,0.74,42.7308211,-84.49044049999999,201.9,0.0470956489443779,86.34777069091797,0.11300000548362732,0.0,1
1666739461.79995275,1004866201,0,3,256279800,2233,12,0.74,42.730821999999996,-84.49043929999999,201.73000000000002,0.06621933728456497,104.87567138671875,-0.03200000151991844,0.0,1
1666739461.99998283,1005066231,0,3,256280000,2233,12,0.74,42.7308228,-84.4904382,201.6,0.06296825408935547,69.55044555664062,-0.018000001087784767,0.0,1
1666739462.20001578,1005266264,0,3,256280200,2233,12,0.74,42.7308236,-84.4904371,201.44,0.04687216877937317,146.30992126464844,0.01100000087171793,0.0,1
1666739462.40000582,1005466254,0,3,256280400,2233,12,0.74,42.7308246,-84.49043619999999,201.23000000000002,0.0786447748541832,318.60845947265625,0.24300001561641693,0.0,1
1666739462.59994173,1005666190,0,3,256280600,2233,12,0.74,42.730825499999995,-84.4904354,201.04,0.07402702420949936,268.45184326171875,0.02500000037252903,0.0,1
1666739462.80002880,1005866277,0,3,256280800,2233,11,0.74,42.7308263,-84.4904344,200.93,0.037215590476989746,96.17017364501953,0.0430000014603138,0.0,1
1666739463.00000191,1006066250,0,3,256281000,2233,11,0.75,42.7308272,-84.4904332,200.81,0.08405356109142303,87.95458984375,0.06300000101327896,0.0,1
1666739463.19994378,1006266192,0,3,256281200,2233,11,0.75,42.7308282,-84.49043209999999,200.65,0.11621101945638657,326.5834045410156,0.010000000707805157,0.0,1
1666739463.39998984,1006466238,0,3,256281400,2233,11,0.75,42.730829199999995,-84.4904315,200.56,0.24593698978424072,293.22918701171875,0.005000000353902578,0.0,1
1666739463.59999180,1006666240,0,3,256281600,2233,11,0.75,42.730829899999996,-84.49043069999999,200.4,0.204384446144104,135.9911651611328,0.1510000079870224,0.0,1
1666739463.79992676,1006866175,0,3,256281800,2233,11,0.75,42.730830499999996,-84.49042969999999,200.25,0.02280350960791111,15.255117416381836,0.1469999998807907,0.0,1
1666739464.00001383,1007066262,0,3,256282000,2233,12,0.7000000000000001,42.7308314,-84.49042879999999,200.1,0.05565968528389931,252.21612548828125,0.1300000101327896,0.0,1
1666739464.19999981,1007266248,0,3,256282200,2233,12,0.7000000000000001,42.730832,-84.490428,200.03,0.047010637819767,128.08877563476562,0.11300000548362732,0.0,1
1666739464.40004873,1007466297,0,3,256282400,2233,12,0.7000000000000001,42.7308326,-84.4904274,199.97,0.12228655815124512,230.97433471679688,0.08400000631809235,0.0,1
1666739464.59993672,1007666185,0,3,256282600,2233,11,0.7000000000000001,42.730833,-84.4904265,200.08,0.10412012785673141,182.7524871826172,0.026000000536441803,0.0,1
1666739464.79997182,1007866220,0,3,256282800,2233,11,0.7000000000000001,42.730833499999996,-84.4904256,200.13,0.05968249589204788,328.70697021484375,-0.05300000309944153,0.0,1
1666739465.00002980,1008066278,0,3,256283000,2233,11,0.7000000000000001,42.7308339,-84.4904249,200.22,0.12110327184200287,177.6337432861328,0.015000000596046448,0.0,1
1666739465.19998074,1008266229,0,3,256283200,2233,11,0.7000000000000001,42.7308342,-84.4904241,200.33,0.08028075844049454,219.44004821777344,-0.1680000126361847,0.0,1
1666739465.39995289,1008466201,0,3,256283400,2233,11,0.7000000000000001,42.7308345,-84.4904234,200.4,0.0511077344417572,30.5792236328125,-0.14000000059604645,0.0,1
1666739465.59996772,1008666216,0,3,256283600,2233,12,0.7000000000000001,42.7308351,-84.4904229,200.20000000000002,0.06694027781486511,256.1713562011719,-0.1210000067949295,0.0,1
1666739465.79997993,1008866228,0,3,256283800,2233,11,0.7000000000000001,42.730835299999995,-84.4904225,200.26,0.09818350523710251,273.5035400390625,-0.15200001001358032,0.0,1
1666739465.99998975,1009066238,0,3,256284000,2233,11,0.7000000000000001,42.7308356,-84.4904218,200.27,0.19606122374534607,71.56504821777344,-0.2510000169277191,0.0,1
1666739466.19993782,1009266186,0,3,256284200,2233,11,0.7000000000000001,42.7308356,-84.49042109999999,200.4,0.17486567795276642,243.87454223632812,0.023000001907348633,0.0,1
1666739466.38028789,1009446536,0,3,256284400,2233,11,0.7000000000000001,42.730835299999995,-84.49042109999999,200.56,0.3068876266479492,249.7935791015625,-0.09300000220537186,0.0,1
1666739466.60002375,1009666272,0,3,256284600,2233,11,0.7000000000000001,42.730835299999995,-84.4904212,200.62,0.21345961093902588,273.760498046875,-0.12400000542402267,0.0,1
1666739466.79997373,1009866222,0,3,256284800,2233,12,0.7000000000000001,42.730835299999995,-84.4904213,200.65,0.3764306306838989,193.51942443847656,-0.3890000283718109,0.0,1
1666739466.99999475,1010066243,0,3,256285000,2233,13,0.7000000000000001,42.730835299999995,-84.49042109999999,200.61,0.11542097479104996,142.03793334960938,-0.328000009059906,0.0,1
1666739467.19991875,1010266167,0,3,256285200,2233,13,0.7000000000000001,42.7308358,-84.4904205,200.47,0.17501144111156464,34.05326461791992,-0.22200001776218414,0.0,1
1666739467.39994788,1010466196,0,3,256285400,2233,13,0.7000000000000001,42.730836499999995,-84.49042,200.38,0.21023082733154297,22.661792755126953,-0.1680000126361847,0.0,1
1666739467.60001683,1010666265,0,3,256285600,2233,13,0.7000000000000001,42.7308373,-84.4904194,200.23000000000002,0.2697739899158478,39.88714599609375,-0.10900000482797623,0.0,1
1666739467.78029490,1010846543,0,3,256285800,2233,13,0.7000000000000001,42.730838,-84.490419,200.19,0.3395320475101471,356.7920837402344,0.04500000178813934,0.0,1
1666739467.99997377,1011066222,0,3,256286000,2233,13,0.7000000000000001,42.7308387,-84.49041869999999,200.08,0.15795253217220306,48.336334228515625,0.006000000052154064,0.0,1
1666739468.20000982,1011266258,0,3,256286200,2233,13,0.7000000000000001,42.7308387,-84.4904181,199.95000000000002,0.037336308509111404,110.37643432617188,-0.029000001028180122,0.0,1
1666739468.40000772,1011466256,0,3,256286400,2233,14,0.7000000000000001,42.7308387,-84.49041749999999,199.9,0.2624804973602295,82.11685943603516,0.021000001579523087,0.0,1
1666739468.60000086,1011666249,0,3,256286600,2233,14,0.7000000000000001,42.730838899999995,-84.490417,199.93,0.12149485945701599,214.60568237304688,-0.02500000037252903,0.0,1
1666739468.79997993,1011866228,0,3,256286800,2233,14,0.7000000000000001,42.730838999999996,-84.490417,199.89000000000001,0.17168575525283813,261.96429443359375,-0.0690000057220459,0.0,1
1666739468.99993992,1012066188,0,3,256287000,2233,14,0.68,42.7308394,-84.4904167,199.88,0.12814055383205414,34.186119079589844,0.0430000014603138,0.0,1
