timestamp,TimeUS,Lat,Lng,Alt,RelHomeAlt,RelOriginAlt
1666739408.54117393,951607422,42.7307893,-84.49055919999999,277.6399841308594,0.0022426508367061615,-2.1377573013305664
1666739408.58059192,951646840,42.7307893,-84.4905593,277.6399841308594,0.004217710345983505,-2.135782241821289
1666739408.58071876,951646967,42.7307893,-84.4905593,277.6399841308594,0.004217710345983505,-2.135782241821289
1666739408.62033582,951686584,42.7307892,-84.4905594,277.6399841308594,0.006343211978673935,-2.1336567401885986
1666739408.66028285,951726531,42.7307892,-84.4905594,277.6399841308594,0.008540000766515732,-2.131459951400757
1666739408.68078089,951747029,42.7307892,-84.4905594,277.6399841308594,0.009561862796545029,-2.1304380893707275
1666739408.70036793,951766616,42.7307892,-84.49055949999999,277.6499938964844,0.010818805545568466,-2.129181146621704
1666739408.74091172,951807160,42.730789099999996,-84.49055949999999,277.6499938964844,0.012985315173864365,-2.127014636993408
1666739408.78083992,951847088,42.730789099999996,-84.49055949999999,277.6499938964844,0.015360679477453232,-2.1246392726898193
1666739408.78094077,951847189,42.730789099999996,-84.49055949999999,277.6499938964844,0.015360679477453232,-2.1246392726898193
1666739408.82029581,951886544,42.730789099999996,-84.4905596,277.6499938964844,0.01746758446097374,-2.122532367706299
1666739408.86029983,951926548,42.730789099999996,-84.49055969999999,277.6499938964844,0.01963910087943077,-2.120360851287842
1666739408.88099074,951947239,42.730789099999996,-84.49055969999999,277.6600036621094,0.020647134631872177,-2.1193528175354004
1666739408.90035772,951966606,42.730789099999996,-84.49055969999999,277.6600036621094,0.021879997104406357,-2.118119955062866
1666739408.94079971,952007048,42.730789,-84.4905598,277.6600036621094,0.023746337741613388,-2.116253614425659
1666739408.98085475,952047103,42.730789,-84.4905598,277.6600036621094,0.025926675647497177,-2.1140732765197754
1666739408.98095775,952047206,42.730789,-84.4905598,277.6600036621094,0.025926675647497177,-2.1140732765197754
1666739409.02027988,952086528,42.730789,-84.4905599,277.6600036621094,0.02764996513724327,-2.1123499870300293
1666739409.06028581,952126534,42.730789,-84.4905599,277.6600036621094,0.029115047305822372,-2.11088490486145
1666739409.08078289,952147031,42.7307889,-84.4905599,277.6600036621094,0.029729928821325302,-2.1102700233459473
1666739409.10030675,952166555,42.7307889,-84.4905599,277.66998291015625,0.030761804431676865,-2.1092381477355957
1666739409.14073181,952206980,42.7307889,-84.49056,277.66998291015625,0.03211482986807823,-2.1078851222991943
1666739409.18105483,952247303,42.7307889,-84.49056,277.66998291015625,0.03393777832388878,-2.106062173843384
1666739409.18122482,952247473,42.7307889,-84.49056,277.66998291015625,0.03393777832388878,-2.106062173843384
1666739409.22030592,952286554,42.7307889,-84.49056,277.66998291015625,0.03456028923392296,-2.1054396629333496
1666739409.26026583,952326514,42.7307888,-84.4905601,277.66998291015625,0.03466996178030968,-2.105329990386963
1666739409.28083491,952347083,42.7307888,-84.4905601,277.66998291015625,0.03445061668753624,-2.1055493354797363
1666739409.30032086,952366569,42.7307888,-84.4905601,277.66998291015625,0.03505381569266319,-2.1049461364746094
1666739409.34067392,952406922,42.7307887,-84.49056019999999,277.66998291015625,0.03492864593863487,-2.1050713062286377
1666739409.38109589,952447344,42.7307887,-84.49056019999999,277.66998291015625,0.035691823810338974,-2.1043081283569336
1666739409.38116789,952447416,42.7307887,-84.49056019999999,277.66998291015625,0.035691823810338974,-2.1043081283569336
1666739409.42031884,952486567,42.7307887,-84.49056019999999,277.66998291015625,0.03696331009268761,-2.103036642074585
1666739409.46035290,952526601,42.7307886,-84.4905603,277.66998291015625,0.03862103447318077,-2.101378917694092
1666739409.48090577,952547154,42.7307886,-84.4905603,277.66998291015625,0.03935321792960167,-2.100646734237671
1666739409.50028372,952566532,42.7307886,-84.4905603,277.67999267578125,0.04034360870718956,-2.099656343460083
1666739409.54067588,952606924,42.7307886,-84.4905603,277.67999267578125,0.04208358749747276,-2.0979163646698
1666739409.58079481,952647043,42.730788499999996,-84.49056039999999,277.67999267578125,0.04413684830069542,-2.095863103866577
1666739409.58093190,952647180,42.730788499999996,-84.49056039999999,277.67999267578125,0.04413684830069542,-2.095863103866577
1666739409.62031174,952686560,42.730788499999996,-84.49056039999999,277.67999267578125,0.046095456928014755,-2.093904495239258
1666739409.66033387,952726582,42.730788499999996,-84.4905605,277.67999267578125,0.04795035347342491,-2.0920495986938477
1666739409.68087292,952747121,42.730788499999996,-84.4905605,277.67999267578125,0.048831548541784286,-2.0911684036254883
1666739409.70027876,952766527,42.730788499999996,-84.4905605,277.67999267578125,0.049917545169591904,-2.0900824069976807
1666739409.74066877,952806917,42.7307884,-84.4905605,277.69000244140625,0.051591720432043076,-2.0884082317352295
1666739409.78083491,952847083,42.7307884,-84.4905606,277.69000244140625,0.0535176657140255,-2.086482286453247
1666739409.78097773,952847226,42.7307884,-84.4905606,277.69000244140625,0.0535176657140255,-2.086482286453247
1666739409.82035780,952886606,42.7307884,-84.4905606,277.69000244140625,0.05455860123038292,-2.0854413509368896
1666739409.86036777,952926616,42.7307883,-84.4905606,277.69000244140625,0.05523666366934776,-2.084763288497925
1666739409.88105583,952947304,42.7307883,-84.4905607,277.69000244140625,0.05539235100150108,-2.0846076011657715
1666739409.90034890,952966597,42.7307883,-84.4905607,277.69000244140625,0.056115951389074326,-2.0838840007781982
1666739409.94063187,953006880,42.7307883,-84.4905607,277.69000244140625,0.05659421905875206,-2.0834057331085205
1666739409.98082781,953047076,42.7307882,-84.4905608,277.69000244140625,0.05774911865592003,-2.0822508335113525
1666739409.98097086,953047219,42.7307882,-84.4905608,277.69000244140625,0.05774911865592003,-2.0822508335113525
1666739410.02044988,953086698,42.7307882,-84.4905608,277.69000244140625,0.058227624744176865,-2.0817723274230957
1666739410.06037474,953126623,42.7307882,-84.4905608,277.69000244140625,0.05849703773856163,-2.081502914428711
1666739410.08088374,953147132,42.7307881,-84.4905608,277.69000244140625,0.058383550494909286,-2.0816164016723633
1666739410.10031581,953166564,42.7307881,-84.4905608,277.69000244140625,0.05898984894156456,-2.081010103225708
1666739410.14070892,953206957,42.7307881,-84.4905608,277.69000244140625,0.05904325470328331,-2.0809566974639893
1666739410.18076372,953247012,42.7307881,-84.4905608,277.69000244140625,0.05987652763724327,-2.0801234245300293
1666739410.18086672,953247115,42.7307881,-84.4905608,277.69000244140625,0.05987652763724327,-2.0801234245300293
1666739410.22040677,953286655,42.730788,-84.49056089999999,277.6999816894531,0.060237254947423935,-2.0797626972198486
1666739410.26041985,953326668,42.730788,-84.49056089999999,277.6999816894531,0.06044825538992882,-2.0795516967773438
1666739410.28077579,953347024,42.730788,-84.49056089999999,277.6999816894531,0.060344066470861435,-2.079655885696411
1666739410.30033994,953366588,42.730788,-84.49056089999999,277.6999816894531,0.06088146194815636,-2.079118490219116
1666739410.34064674,953406895,42.730787899999996,-84.490561,277.6999816894531,0.060913171619176865,-2.0790867805480957
1666739410.38096070,953447209,42.730787899999996,-84.490561,277.6999816894531,0.06164511665701866,-2.078354835510254
1666739410.38110089,953447349,42.730787899999996,-84.490561,277.6999816894531,0.06164511665701866,-2.078354835510254
1666739410.42028093,953486529,42.730787899999996,-84.490561,277.6999816894531,0.06152781471610069,-2.078472137451172
1666739410.46034288,953526591,42.730787899999996,-84.4905611,277.6999816894531,0.06095966324210167,-2.079040288925171
1666739410.48080277,953547051,42.730787799999995,-84.4905611,277.6999816894531,0.060403671115636826,-2.0795962810516357
1666739410.50032187,953566570,42.730787799999995,-84.4905611,277.6999816894531,0.06069621071219444,-2.079303741455078
1666739410.54067278,953606921,42.730787799999995,-84.4905611,277.6999816894531,0.0600486658513546,-2.079951286315918
1666739410.58088183,953647130,42.730787799999995,-84.4905611,277.6999816894531,0.06031688675284386,-2.0796830654144287
1666739410.58099079,953647239,42.730787799999995,-84.4905611,277.6999816894531,0.06031688675284386,-2.0796830654144287
1666739410.62035084,953686599,42.7307877,-84.4905611,277.6999816894531,0.06065019592642784,-2.0793497562408447
1666739410.66028881,953726537,42.7307877,-84.4905612,277.6999816894531,0.061061467975378036,-2.0789384841918945
1666739410.68083692,953747085,42.7307877,-84.4905612,277.6999816894531,0.061149682849645615,-2.078850269317627
1666739410.70031285,953766561,42.7307877,-84.4905612,277.6999816894531,0.061679448932409286,-2.0783205032348633
1666739410.74073291,953806981,42.7307877,-84.4905612,277.6999816894531,0.061987485736608505,-2.078012466430664
1666739410.78091383,953847162,42.7307877,-84.4905612,277.6999816894531,0.06286129355430603,-2.077138662338257
1666739410.78105283,953847301,42.7307877,-84.4905612,277.6999816894531,0.06286129355430603,-2.077138662338257
1666739410.82031775,953886566,42.7307876,-84.4905613,277.6999816894531,0.06482848525047302,-2.07517147064209
1666739410.86032772,953926576,42.7307876,-84.4905613,277.6999816894531,0.06721696257591248,-2.0727829933166504
1666739410.88098788,953947236,42.7307876,-84.4905613,277.6999816894531,0.06848224997520447,-2.0715177059173584
1666739410.90035582,953966604,42.7307876,-84.4905613,277.6999816894531,0.06959781050682068,-2.070402145385742
1666739410.94074082,954006989,42.7307876,-84.4905613,277.7099914550781,0.07179221510887146,-2.0682077407836914
1666739410.98098373,954047232,42.7307875,-84.4905613,277.7099914550781,0.07385715842247009,-2.0661427974700928
1666739410.98108792,954047336,42.7307875,-84.4905613,277.7099914550781,0.07385715842247009,-2.0661427974700928
1666739411.02032280,954086571,42.7307875,-84.49056139999999,277.7099914550781,0.07624396681785583,-2.063755989074707
1666739411.06029391,954126542,42.7307875,-84.49056139999999,277.7099914550781,0.07877549529075623,-2.0612244606018066
1666739411.08091187,954147160,42.7307875,-84.49056139999999,277.7200012207031,0.080115407705307,-2.059884548187256
1666739411.10029578,954166544,42.7307875,-84.49056139999999,277.7200012207031,0.08124503493309021,-2.0587549209594727
1666739411.14071774,954206966,42.7307874,-84.49056139999999,277.7200012207031,0.08376440405845642,-2.0562355518341064
1666739411.18081689,954247065,42.7307874,-84.49056139999999,277.7200012207031,0.08609780669212341,-2.0539021492004395
1666739411.18095374,954247202,42.7307874,-84.49056139999999,277.7200012207031,0.08609780669212341,-2.0539021492004395
1666739411.22033978,954286588,42.7307874,-84.49056139999999,277.7200012207031,0.08888635039329529,-2.0511136054992676
1666739411.26033974,954326588,42.7307874,-84.49056139999999,277.72998046875,0.09169396758079529,-2.0483059883117676
1666739411.28101683,954347265,42.7307874,-84.49056139999999,277.72998046875,0.09319481253623962,-2.0468051433563232
1666739411.30030990,954366558,42.7307874,-84.49056139999999,277.72998046875,0.09440621733665466,-2.045593738555908
1666739411.34069777,954406946,42.730787299999996,-84.49056139999999,277.72998046875,0.09718784689903259,-2.0428121089935303
1666739411.38100171,954447250,42.730787299999996,-84.49056139999999,277.72998046875,0.09969648718833923,-2.0403034687042236
1666739411.38110375,954447352,42.730787299999996,-84.49056139999999,277.72998046875,0.09969648718833923,-2.0403034687042236
1666739411.42037582,954486624,42.730787299999996,-84.49056139999999,277.739990234375,0.10247668623924255,-2.0375232696533203
1666739411.46036386,954526612,42.730787299999996,-84.49056139999999,277.739990234375,0.10522922873497009,-2.0347707271575928
1666739411.48089290,954547141,42.730787199999995,-84.49056139999999,277.739990234375,0.10672435164451599,-2.033275604248047
1666739411.50034285,954566591,42.730787199999995,-84.49056139999999,277.739990234375,0.1079774796962738,-2.032022476196289
1666739411.54066181,954606910,42.730787199999995,-84.49056139999999,277.75,0.11061415076255798,-2.029385805130005
1666739411.58082771,954647076,42.730787199999995,-84.4905615,277.75,0.11302360892295837,-2.0269763469696045
1666739411.58095789,954647206,42.730787199999995,-84.4905615,277.75,0.11302360892295837,-2.0269763469696045
1666739411.62038994,954686638,42.7307871,-84.4905615,277.75,0.11533531546592712,-2.0246646404266357
1666739411.66039181,954726640,42.7307871,-84.4905615,277.75,0.11826333403587341,-2.0217366218566895
1666739411.68074584,954746994,42.7307871,-84.49056139999999,277.75,0.11982712149620056,-2.0201728343963623
1666739411.70041680,954766665,42.7307871,-84.4905615,277.7599792480469,0.12110957503318787,-2.018890380859375
1666739411.74073172,954806980,42.7307871,-84.49056139999999,277.7599792480469,0.12408885359764099,-2.015911102294922
1666739411.78081584,954847064,42.7307871,-84.49056139999999,277.7599792480469,0.1267755925655365,-2.0132243633270264
1666739411.78092194,954847170,42.7307871,-84.49056139999999,277.7599792480469,0.1267755925655365,-2.0132243633270264
1666739411.82036972,954886618,42.730787,-84.49056139999999,277.7599792480469,0.12998637557029724,-2.0100135803222656
1666739411.86029577,954926544,42.730787,-84.49056139999999,277.7699890136719,0.13342031836509705,-2.006579637527466
1666739411.88105488,954947303,42.730787,-84.4905613,277.7699890136719,0.13524803519248962,-2.0047519207000732
1666739411.90037489,954966623,42.730787,-84.4905613,277.7699890136719,0.13668426871299744,-2.0033156871795654
1666739411.94073272,955006981,42.730787,-84.4905613,277.7799987792969,0.14037904143333435,-1.9996209144592285
1666739411.98091984,955047168,42.730787,-84.4905613,277.7799987792969,0.14355584979057312,-1.9964441061019897
1666739411.98099279,955047241,42.730787,-84.4905613,277.7799987792969,0.14355584979057312,-1.9964441061019897
1666739412.02032185,955086570,42.730787,-84.4905613,277.7799987792969,0.14639827609062195,-1.993601679801941
1666739412.06035376,955126602,42.730787,-84.4905613,277.7799987792969,0.1492227017879486,-1.9907772541046143
1666739412.08082986,955147078,42.730787,-84.4905613,277.7900085449219,0.15067753195762634,-1.9893224239349365
1666739412.10028887,955166537,42.730787,-84.4905613,277.7900085449219,0.151945561170578,-1.9880543947219849
1666739412.14082885,955207077,42.730787,-84.4905612,277.7900085449219,0.15445372462272644,-1.9855462312698364
1666739412.18084693,955247095,42.730787,-84.4905612,277.7900085449219,0.15672370791435242,-1.9832762479782104
1666739412.18094683,955247195,42.730787,-84.4905612,277.7900085449219,0.15672370791435242,-1.9832762479782104
1666739412.22030377,955286552,42.730787,-84.4905612,277.7900085449219,0.1588136851787567,-1.9811862707138062
1666739412.26021886,955326467,42.730787,-84.4905612,277.79998779296875,0.16075381636619568,-1.9792461395263672
1666739412.28081489,955347063,42.730787,-84.4905612,277.79998779296875,0.16169115900993347,-1.9783087968826294
1666739412.30028772,955366536,42.730787,-84.4905612,277.79998779296875,0.16265246272087097,-1.977347493171692
1666739412.34072185,955406970,42.730787,-84.4905611,277.79998779296875,0.16451320052146912,-1.9754867553710938
1666739412.38104677,955447295,42.730787,-84.4905611,277.79998779296875,0.16640695929527283,-1.97359299659729
1666739412.38111687,955447365,42.730787,-84.4905611,277.79998779296875,0.16640695929527283,-1.97359299659729
1666739412.42039371,955486642,42.730787,-84.4905611,277.79998779296875,0.16750475764274597,-1.972495198249817
1666739412.46028090,955526529,42.730787,-84.4905611,277.79998779296875,0.16824206709861755,-1.9717578887939453
1666739412.48085284,955547101,42.730787,-84.4905611,277.79998779296875,0.16852566599845886,-1.971474289894104
1666739412.50028872,955566537,42.730787,-84.490561,277.79998779296875,0.16921362280845642,-1.9707863330841064
1666739412.54086375,955607112,42.730787,-84.490561,277.79998779296875,0.1696304976940155,-1.9703694581985474
1666739412.58092189,955647170,42.730787,-84.490561,277.80999755859375,0.17055365443229675,-1.9694463014602661
1666739412.58102179,955647270,42.730787,-84.490561,277.80999755859375,0.17055365443229675,-1.9694463014602661
1666739412.62036991,955686618,42.7307869,-84.490561,277.80999755859375,0.17108723521232605,-1.9689127206802368
1666739412.66030788,955726556,42.7307869,-84.49056089999999,277.80999755859375,0.17182216048240662,-1.9681777954101562
1666739412.68088889,955747137,42.7307869,-84.49056089999999,277.80999755859375,0.17205724120140076,-1.967942714691162
1666739412.70032072,955766569,42.7307869,-84.49056089999999,277.80999755859375,0.17265042662620544,-1.9673495292663574
1666739412.74071884,955806967,42.7307869,-84.4905608,277.80999755859375,0.17309638857841492,-1.966903567314148
1666739412.78098893,955847237,42.7307869,-84.4905608,277.80999755859375,0.17399916052818298,-1.9660007953643799
1666739412.78110480,955847353,42.7307869,-84.4905608,277.80999755859375,0.17399916052818298,-1.9660007953643799
1666739412.82036877,955886617,42.7307869,-84.4905607,277.80999755859375,0.1751863658428192,-1.9648135900497437
1666739412.86030173,955926550,42.7307869,-84.4905607,277.80999755859375,0.17652949690818787,-1.963470458984375
1666739412.88107681,955947325,42.7307869,-84.4905607,277.80999755859375,0.17710945010185242,-1.9628905057907104
1666739412.90031886,955966567,42.7307869,-84.4905606,277.80999755859375,0.17787203192710876,-1.962127923965454
1666739412.94077992,956007028,42.7307869,-84.4905606,277.80999755859375,0.1791500747203827,-1.9608498811721802
1666739412.98080182,956047050,42.7307869,-84.4905605,277.82000732421875,0.1807020604610443,-1.9592978954315186
1666739412.98101187,956047260,42.7307869,-84.4905605,277.82000732421875,0.1807020604610443,-1.9592978954315186
1666739413.02036691,956086615,42.7307868,-84.4905605,277.82000732421875,0.1827223002910614,-1.9572776556015015
1666739413.06040382,956126652,42.7307868,-84.49056039999999,277.82000732421875,0.18512746691703796,-1.954872488975525
1666739413.08083177,956147080,42.7307868,-84.49056039999999,277.82000732421875,0.18641063570976257,-1.9535893201828003
1666739413.10033774,956166586,42.7307868,-84.4905603,277.82000732421875,0.18755945563316345,-1.9524405002593994
1666739413.14072490,956206973,42.7307868,-84.4905603,277.82000732421875,0.1897108256816864,-1.9502891302108765
1666739413.18080592,956247054,42.7307868,-84.49056019999999,277.8299865722656,0.19172975420951843,-1.9482702016830444
1666739413.18094182,956247190,42.7307868,-84.49056019999999,277.8299865722656,0.19172975420951843,-1.9482702016830444
1666739413.22030187,956286550,42.7307868,-84.4905601,277.8299865722656,0.19268080592155457,-1.9473191499710083
1666739413.26038980,956326638,42.7307868,-84.4905601,277.8299865722656,0.1932954490184784,-1.9467045068740845
1666739413.28081083,956347059,42.7307868,-84.49056,277.8299865722656,0.19352981448173523,-1.9464701414108276
1666739413.30038285,956366631,42.7307868,-84.49056,277.8299865722656,0.19411489367485046,-1.9458850622177124
1666739413.34071493,956406963,42.7307868,-84.49056,277.8299865722656,0.19518360495567322,-1.9448163509368896
1666739413.38115191,956447400,42.7307868,-84.4905599,277.8299865722656,0.19662520289421082,-1.943374752998352
1666739413.38126373,956447512,42.7307868,-84.4905599,277.8299865722656,0.19662520289421082,-1.943374752998352
1666739413.42030478,956486553,42.7307868,-84.4905599,277.8299865722656,0.19787666201591492,-1.942123293876648
1666739413.46041393,956526662,42.7307868,-84.4905598,277.8299865722656,0.19924339652061462,-1.9407565593719482
1666739413.48085475,956547103,42.7307868,-84.4905598,277.8299865722656,0.19995269179344177,-1.940047264099121
1666739413.50044990,956566698,42.7307868,-84.4905598,277.8399963378906,0.2007424533367157,-1.9392575025558472
1666739413.54071593,956606964,42.7307868,-84.4905598,277.8399963378906,0.2025720775127411,-1.9374278783798218
1666739413.58086371,956647112,42.7307868,-84.4905598,277.8399963378906,0.20454642176628113,-1.9354535341262817
1666739413.58096480,956647213,42.7307868,-84.4905598,277.8399963378906,0.20454642176628113,-1.9354535341262817
1666739413.62029791,956686546,42.7307869,-84.49055969999999,277.8399963378906,0.20515701174736023,-1.9348429441452026
1666739413.66034174,956726590,42.7307869,-84.49055969999999,277.8399963378906,0.205501526594162,-1.9344984292984009
1666739413.68089271,956747141,42.7307869,-84.49055969999999,277.8399963378906,0.20553120970726013,-1.9344687461853027
1666739413.70036292,956766611,42.7307869,-84.49055969999999,277.8399963378906,0.20603200793266296,-1.9339679479599
1666739413.74072981,956806978,42.7307869,-84.4905596,277.8399963378906,0.20687362551689148,-1.9331263303756714
1666739413.78089070,956847139,42.7307869,-84.4905596,277.8399963378906,0.20820936560630798,-1.9317905902862549
1666739413.78099489,956847243,42.7307869,-84.4905596,277.8399963378906,0.20820936560630798,-1.9317905902862549
1666739413.82031584,956886564,42.7307869,-84.4905596,277.8399963378906,0.20897313952445984,-1.931026816368103
1666739413.86039591,956926644,42.7307869,-84.49055949999999,277.8399963378906,0.20984813570976257,-1.9301518201828003
1666739413.88105488,956947303,42.7307869,-84.49055949999999,277.8500061035156,0.2102186381816864,-1.9297813177108765
1666739413.90031576,956966564,42.7307869,-84.49055949999999,277.8500061035156,0.21088001132011414,-1.9291199445724487
1666739413.94069982,957006948,42.7307869,-84.4905594,277.8500061035156,0.2128572165966034,-1.9271427392959595
1666739413.98091078,957047159,42.7307869,-84.4905594,277.8500061035156,0.21537873148918152,-1.9246212244033813
1666739413.98104286,957047291,42.7307869,-84.4905594,277.8500061035156,0.21537873148918152,-1.9246212244033813
1666739414.02034783,957086596,42.7307869,-84.4905594,277.8500061035156,0.21917495131492615,-1.9208250045776367
1666739414.06026387,957126512,42.7307869,-84.4905593,277.8599853515625,0.2252870500087738,-1.914712905883789
1666739414.08087587,957147124,42.7307869,-84.4905593,277.8599853515625,0.2292289435863495,-1.9107710123062134
1666739414.10042787,957166676,42.7307869,-84.4905593,277.8699951171875,0.23271247744560242,-1.9072874784469604
1666739414.14072585,957206974,42.7307869,-84.49055919999999,277.8800048828125,0.24505791068077087,-1.894942045211792
1666739414.18090081,957247149,42.7307869,-84.49055919999999,277.8899841308594,0.25804099440574646,-1.8819589614868164
1666739414.18100071,957247249,42.7307869,-84.49055919999999,277.8899841308594,0.25804099440574646,-1.8819589614868164
1666739414.22045684,957286705,42.7307869,-84.49055919999999,277.9100036621094,0.27389582991600037,-1.8661041259765625
1666739414.26032281,957326571,42.7307869,-84.49055919999999,277.92999267578125,0.29331013560295105,-1.8466898202896118
1666739414.28088379,957347132,42.7307869,-84.49055919999999,277.94000244140625,0.3044428527355194,-1.8355571031570435
1666739414.30028772,957366536,42.7307869,-84.49055919999999,277.9499816894531,0.3137609660625458,-1.826238989830017
1666739414.34074783,957406996,42.7307869,-84.49055919999999,277.97998046875,0.3401077687740326,-1.7998921871185303
1666739414.38128591,957447534,42.7307869,-84.49055919999999,278.0,0.365110844373703,-1.7748891115188599
1666739414.38142371,957447672,42.7307869,-84.49055919999999,278.0,0.365110844373703,-1.7748891115188599
1666739414.42040777,957486656,42.7307869,-84.49055919999999,278.0299987792969,0.39253053069114685,-1.747469425201416
1666739414.46034384,957526592,42.7307869,-84.49055919999999,278.05999755859375,0.4241813123226166,-1.7158186435699463
1666739414.48084474,957547093,42.7307869,-84.49055919999999,278.0799865722656,0.4415477216243744,-1.6984522342681885
1666739414.50035191,957566600,42.7307869,-84.49055919999999,278.0899963378906,0.45551905035972595,-1.684480905532837
1666739414.54069686,957606945,42.7307869,-84.49055919999999,278.1300048828125,0.4931376874446869,-1.646862268447876
1666739414.58086991,957647118,42.7307869,-84.49055919999999,278.1600036621094,0.5271865725517273,-1.6128133535385132
1666739414.58104491,957647293,42.7307869,-84.49055919999999,278.1600036621094,0.5271865725517273,-1.6128133535385132
1666739414.62056184,957686810,42.7307869,-84.49055919999999,278.1999816894531,0.5632542967796326,-1.576745629310608
1666739414.66039085,957726639,42.7307869,-84.49055919999999,278.239990234375,0.6020548939704895,-1.537945032119751
1666739414.68084073,957747089,42.7307869,-84.49055919999999,278.2599792480469,0.6227895617485046,-1.5172103643417358
1666739414.70037580,957766624,42.7307869,-84.49055919999999,278.2699890136719,0.6397941708564758,-1.5002057552337646
1666739414.74070883,957806957,42.7307869,-84.49055919999999,278.32000732421875,0.6854986548423767,-1.4545012712478638
1666739414.78084683,957847095,42.7307869,-84.4905591,278.3599853515625,0.7263473868370056,-1.4136525392532349
1666739414.78097272,957847221,42.7307869,-84.4905591,278.3599853515625,0.7263473868370056,-1.4136525392532349
1666739414.82030177,957886550,42.730787,-84.49055899999999,278.4100036621094,0.7719241976737976,-1.3680757284164429
1666739414.86038685,957926635,42.730787,-84.4905589,278.4599914550781,0.8248010277748108,-1.3151988983154297
1666739414.88092589,957947174,42.730787,-84.4905589,278.489990234375,0.8538215756416321,-1.2861783504486084
1666739414.90037990,957966628,42.730787,-84.4905589,278.5099792480469,0.8747045397758484,-1.265295386314392
1666739414.94085693,958007105,42.730787,-84.4905589,278.57000732421875,0.9394930005073547,-1.2005069255828857
1666739414.98082185,958047070,42.7307871,-84.4905588,278.6300048828125,0.9933750033378601,-1.1466249227523804
1666739414.98092389,958047172,42.7307871,-84.4905588,278.6300048828125,0.9933750033378601,-1.1466249227523804
1666739415.02029586,958086544,42.7307871,-84.4905588,278.67999267578125,1.0430617332458496,-1.0969382524490356
1666739415.06048083,958126729,42.7307871,-84.4905587,278.72998046875,1.0915907621383667,-1.0484092235565186
1666739415.08083177,958147080,42.7307871,-84.4905586,278.75,1.1178587675094604,-1.0221412181854248
1666739415.10039186,958166640,42.7307871,-84.4905586,278.7699890136719,1.137418508529663,-1.0025814771652222
1666739415.14070988,958206958,42.7307871,-84.49055849999999,278.80999755859375,1.1791808605194092,-0.9608191251754761
1666739415.18084192,958247090,42.7307871,-84.4905584,278.8500061035156,1.2138924598693848,-0.9261075258255005
1666739415.18094182,958247190,42.7307871,-84.4905584,278.8500061035156,1.2138924598693848,-0.9261075258255005
1666739415.22028589,958286534,42.7307871,-84.4905584,278.8800048828125,1.2440595626831055,-0.895940363407135
1666739415.26038480,958326633,42.730787,-84.49055829999999,278.8999938964844,1.2680203914642334,-0.8719795942306519
1666739415.28084373,958347092,42.730787,-84.49055829999999,278.91998291015625,1.2799972295761108,-0.8600026965141296
1666739415.30046892,958366717,42.730787,-84.49055829999999,278.92999267578125,1.2912756204605103,-0.8487243056297302
1666739415.34063983,958406888,42.730787,-84.49055829999999,278.94000244140625,1.3079100847244263,-0.8320898413658142
1666739415.38098979,958447238,42.730787,-84.4905582,278.9599914550781,1.3246814012527466,-0.8153185248374939
1666739415.38109183,958447340,42.730787,-84.4905582,278.9599914550781,1.3246814012527466,-0.8153185248374939
1666739415.42035770,958486606,42.7307869,-84.4905582,278.97998046875,1.3400377035140991,-0.7999622225761414
1666739415.46031976,958526568,42.7307869,-84.4905582,278.989990234375,1.352806568145752,-0.7871933579444885
1666739415.48107076,958547319,42.7307869,-84.4905582,278.989990234375,1.3582631349563599,-0.7817367911338806
1666739415.50029683,958566545,42.7307869,-84.4905582,279.0,1.3667097091674805,-0.77329021692276
1666739415.54066586,958606914,42.7307869,-84.4905581,279.0099792480469,1.3755534887313843,-0.764446496963501
1666739415.58089972,958647148,42.7307869,-84.4905581,279.0199890136719,1.3879731893539429,-0.7520267963409424
1666739415.58100080,958647249,42.7307869,-84.4905581,279.0199890136719,1.3879731893539429,-0.7520267963409424
1666739415.62073493,958686983,42.7307869,-84.4905581,279.0400085449219,1.4008049964904785,-0.739194929599762
1666739415.66035271,958726601,42.7307869,-84.490558,279.04998779296875,1.4131255149841309,-0.7268744707107544
1666739415.68078494,958747033,42.7307869,-84.490558,279.04998779296875,1.4184050559997559,-0.7215948700904846
1666739415.70028782,958766536,42.7307869,-84.490558,279.05999755859375,1.4263787269592285,-0.7136212587356567
1666739415.74063492,958806883,42.7307868,-84.4905579,279.07000732421875,1.4374858140945435,-0.702514111995697
1666739415.78095293,958847201,42.7307868,-84.4905579,279.0899963378906,1.4518100023269653,-0.6881899833679199
1666739415.78103089,958847279,42.7307868,-84.4905579,279.0899963378906,1.4518100023269653,-0.6881899833679199
1666739415.82038283,958886631,42.7307868,-84.4905579,279.1000061035156,1.4672942161560059,-0.6727057099342346
1666739415.86036372,958926612,42.7307868,-84.49055779999999,279.1199951171875,1.4824804067611694,-0.6575195789337158
1666739415.88108993,958947338,42.7307868,-84.49055779999999,279.1199951171875,1.4894129037857056,-0.6505870223045349
1666739415.90034270,958966591,42.7307868,-84.49055779999999,279.1300048828125,1.4984065294265747,-0.6415934562683105
1666739415.94072390,959006972,42.7307868,-84.49055779999999,279.1499938964844,1.5112406015396118,-0.6287593841552734
1666739415.98087692,959047125,42.7307868,-84.4905577,279.1600036621094,1.5271062850952148,-0.6128937005996704
1666739415.98101974,959047268,42.7307868,-84.4905577,279.1600036621094,1.5271062850952148,-0.6128937005996704
1666739416.02050591,959086754,42.7307868,-84.4905577,279.17999267578125,1.5429747104644775,-0.5970252752304077
1666739416.06035089,959126599,42.7307868,-84.4905576,279.19000244140625,1.5592159032821655,-0.5807840824127197
1666739416.08077788,959147026,42.7307868,-84.4905576,279.1999816894531,1.5667394399642944,-0.5732605457305908
1666739416.10031986,959166568,42.7307868,-84.4905576,279.2099914550781,1.5764412879943848,-0.5635586380958557
1666739416.14072084,959206969,42.7307868,-84.4905576,279.22998046875,1.5900768041610718,-0.5499231219291687
1666739416.18086886,959247117,42.7307868,-84.4905576,279.239990234375,1.6066389083862305,-0.5333610773086548
1666739416.18097687,959247225,42.7307868,-84.4905576,279.239990234375,1.6066389083862305,-0.5333610773086548
1666739416.22037983,959286628,42.7307869,-84.4905575,279.2599792480469,1.622743844985962,-0.5172560811042786
1666739416.26035786,959326606,42.7307869,-84.4905574,279.2699890136719,1.6385136842727661,-0.5014863014221191
1666739416.28079772,959347046,42.7307869,-84.4905574,279.2799987792969,1.645401120185852,-0.49459877610206604
1666739416.30035281,959366601,42.7307869,-84.4905574,279.2900085449219,1.6549633741378784,-0.48503661155700684
1666739416.34069681,959406945,42.730787,-84.49055729999999,279.29998779296875,1.66908860206604,-0.4709113836288452
1666739416.38101482,959447263,42.730787,-84.49055729999999,279.32000732421875,1.6857616901397705,-0.45423829555511475
1666739416.38114071,959447389,42.730787,-84.49055729999999,279.32000732421875,1.6857616901397705,-0.45423829555511475
1666739416.42034292,959486591,42.730787,-84.4905572,279.3399963378906,1.70138418674469,-0.4386157691478729
1666739416.46037483,959526623,42.730787,-84.4905572,279.3500061035156,1.7153583765029907,-0.42464157938957214
1666739416.48083472,959547083,42.7307871,-84.49055709999999,279.3599853515625,1.7211673259735107,-0.41883260011672974
1666739416.50037885,959566627,42.7307871,-84.49055709999999,279.3599853515625,1.7293286323547363,-0.4106713533401489
1666739416.54073477,959606983,42.7307871,-84.490557,279.3699951171875,1.7391700744628906,-0.40082985162734985
1666739416.58080077,959647049,42.7307871,-84.4905569,279.3899841308594,1.7509205341339111,-0.38907936215400696
1666739416.58089781,959647146,42.7307871,-84.4905569,279.3899841308594,1.7509205341339111,-0.38907936215400696
1666739416.62048173,959686730,42.7307871,-84.4905569,279.3999938964844,1.761757493019104,-0.37824246287345886
1666739416.66033983,959726588,42.7307871,-84.4905568,279.4100036621094,1.7713464498519897,-0.36865344643592834
1666739416.68085885,959747107,42.7307871,-84.4905567,279.4100036621094,1.7750428915023804,-0.3649570345878601
1666739416.70039082,959766639,42.7307871,-84.4905567,279.41998291015625,1.781096339225769,-0.35890355706214905
1666739416.74086690,959807115,42.730787199999995,-84.49055659999999,279.41998291015625,1.787968397140503,-0.35203149914741516
1666739416.78089881,959847147,42.730787199999995,-84.4905565,279.42999267578125,1.7969058752059937,-0.3430940508842468
1666739416.78097892,959847227,42.730787199999995,-84.4905565,279.42999267578125,1.7969058752059937,-0.3430940508842468
1666739416.82029080,959886539,42.730787299999996,-84.4905563,279.44000244140625,1.8043639659881592,-0.3356359302997589
1666739416.86033893,959926587,42.730787299999996,-84.4905562,279.4499816894531,1.810449481010437,-0.32955044507980347
1666739416.88101482,959947263,42.730787299999996,-84.4905562,279.4499816894531,1.8124816417694092,-0.3275183439254761
1666739416.90037084,959966619,42.730787299999996,-84.4905562,279.4499816894531,1.8168513774871826,-0.3231485188007355
1666739416.94072986,960006978,42.730787299999996,-84.4905562,279.4599914550781,1.8207062482833862,-0.319293737411499
1666739416.98085570,960047104,42.730787299999996,-84.49055609999999,279.4599914550781,1.8271712064743042,-0.31282874941825867
1666739416.98092675,960047175,42.730787299999996,-84.49055609999999,279.4599914550781,1.8271712064743042,-0.31282874941825867
1666739417.02036691,960086615,42.730787299999996,-84.49055609999999,279.4700012207031,1.833593487739563,-0.3064064085483551
1666739417.06030178,960126550,42.730787299999996,-84.490556,279.4700012207031,1.8398573398590088,-0.3001426160335541
1666739417.08089280,960147141,42.730787299999996,-84.49055589999999,279.47998046875,1.8423619270324707,-0.29763805866241455
1666739417.10044384,960166692,42.730787299999996,-84.49055589999999,279.47998046875,1.8464528322219849,-0.2935471534729004
1666739417.14069486,960206943,42.730787299999996,-84.4905558,279.489990234375,1.8507779836654663,-0.28922200202941895
1666739417.18086171,960247110,42.730787299999996,-84.4905558,279.489990234375,1.8566627502441406,-0.28333720564842224
1666739417.18097091,960247219,42.730787299999996,-84.4905558,279.489990234375,1.8566627502441406,-0.28333720564842224
1666739417.22033882,960286587,42.730787299999996,-84.4905557,279.5,1.861501932144165,-0.27849796414375305
1666739417.26031375,960326562,42.730787199999995,-84.4905556,279.5,1.8657110929489136,-0.2742888629436493
1666739417.28092194,960347170,42.730787199999995,-84.4905556,279.5,1.8670974969863892,-0.2729024291038513
1666739417.30028081,960366529,42.730787199999995,-84.4905556,279.5099792480469,1.8700543642044067,-0.26994559168815613
1666739417.34062386,960406872,42.730787199999995,-84.4905555,279.5099792480469,1.8716800212860107,-0.26831987500190735
1666739417.38113880,960447387,42.7307871,-84.49055539999999,279.5099792480469,1.8747912645339966,-0.2652086615562439
1666739417.38124681,960447495,42.7307871,-84.49055539999999,279.5099792480469,1.8747912645339966,-0.2652086615562439
1666739417.42042875,960486677,42.7307871,-84.4905553,279.5099792480469,1.877791166305542,-0.2622087299823761
1666739417.46038580,960526634,42.730787,-84.4905552,279.5199890136719,1.880704641342163,-0.25929534435272217
1666739417.48081684,960547065,42.730787,-84.4905551,279.5199890136719,1.8816665410995483,-0.25833338499069214
1666739417.50028086,960566529,42.7307869,-84.4905551,279.5199890136719,1.883872151374817,-0.2561277747154236
1666739417.54068184,960606930,42.7307869,-84.490555,279.5199890136719,1.8856234550476074,-0.25437650084495544
1666739417.58099675,960647245,42.7307868,-84.49055489999999,279.5199890136719,1.8886375427246094,-0.2513624429702759
1666739417.58108878,960647337,42.7307868,-84.49055489999999,279.5199890136719,1.8886375427246094,-0.2513624429702759
1666739417.62052679,960686775,42.7307868,-84.49055469999999,279.5299987792969,1.8905959129333496,-0.24940407276153564
1666739417.66034889,960726597,42.730786699999996,-84.4905545,279.5299987792969,1.8916434049606323,-0.24835655093193054
1666739417.68080378,960747052,42.730786699999996,-84.4905544,279.5299987792969,1.8916534185409546,-0.24834652245044708
1666739417.70031571,960766564,42.730786699999996,-84.4905544,279.5299987792969,1.8930197954177856,-0.24698010087013245
1666739417.74069881,960806947,42.730786699999996,-84.4905541,279.5299987792969,1.8931632041931152,-0.24683675169944763
1666739417.78091884,960847167,42.730786599999995,-84.490554,279.5299987792969,1.8945226669311523,-0.24547730386257172
1666739417.78105688,960847305,42.730786599999995,-84.490554,279.5299987792969,1.8945226669311523,-0.24547730386257172
1666739417.82036972,960886618,42.730786599999995,-84.49055369999999,279.5299987792969,1.894792079925537,-0.24520784616470337
1666739417.86037183,960926620,42.7307865,-84.49055349999999,279.5299987792969,1.8948668241500854,-0.24513308703899384
1666739417.88096786,960947216,42.7307865,-84.4905534,279.5299987792969,1.8944168090820312,-0.2455831915140152
1666739417.90035987,960966608,42.7307865,-84.4905533,279.5299987792969,1.8950291872024536,-0.24497073888778687
1666739417.94072890,961006977,42.7307864,-84.4905531,279.5299987792969,1.8942234516143799,-0.24577653408050537
1666739417.98083782,961047086,42.7307864,-84.4905529,279.5299987792969,1.8946208953857422,-0.24537906050682068
1666739417.98100090,961047249,42.7307864,-84.4905529,279.5299987792969,1.8946208953857422,-0.24537906050682068
1666739418.02030492,961086553,42.7307864,-84.4905527,279.5299987792969,1.8943390846252441,-0.24566088616847992
1666739418.06028271,961126531,42.7307863,-84.4905524,279.5299987792969,1.8938509225845337,-0.2461490035057068
1666739418.08079576,961147044,42.7307863,-84.49055229999999,279.5299987792969,1.8932327032089233,-0.24676725268363953
1666739418.10038781,961166636,42.7307863,-84.4905522,279.5299987792969,1.8935701847076416,-0.2464297115802765
1666739418.14079976,961207048,42.7307863,-84.4905519,279.5299987792969,1.893009901046753,-0.24699002504348755
1666739418.18087482,961247123,42.7307862,-84.49055179999999,279.5299987792969,1.8934108018875122,-0.24658910930156708
1666739418.18097782,961247226,42.7307862,-84.49055179999999,279.5299987792969,1.8934108018875122,-0.24658910930156708
1666739418.22030091,961286549,42.7307862,-84.4905515,279.5299987792969,1.893909215927124,-0.24609071016311646
1666739418.26027989,961326528,42.7307862,-84.4905512,279.5299987792969,1.89420485496521,-0.24579504132270813
1666739418.28085780,961347106,42.730786099999996,-84.49055109999999,279.5299987792969,1.89402437210083,-0.24597562849521637
1666739418.30038977,961366638,42.730786099999996,-84.490551,279.5299987792969,1.894507646560669,-0.24549226462841034
1666739418.34071088,961406959,42.730786099999996,-84.4905507,279.5299987792969,1.8944289684295654,-0.24557100236415863
1666739418.38108087,961447329,42.730786099999996,-84.4905505,279.5299987792969,1.8948183059692383,-0.245181605219841
1666739418.38123989,961447488,42.730786099999996,-84.4905505,279.5299987792969,1.8948183059692383,-0.245181605219841
1666739418.42037582,961486624,42.730785999999995,-84.4905503,279.5299987792969,1.8944332599639893,-0.2455666959285736
1666739418.46036291,961526611,42.730785999999995,-84.49055,279.5299987792969,1.893894076347351,-0.2461058646440506
1666739418.48085284,961547101,42.7307859,-84.49054989999999,279.5299987792969,1.893446445465088,-0.2465534657239914
1666739418.50042677,961566675,42.7307859,-84.4905498,279.5299987792969,1.8933850526809692,-0.2466149479150772
1666739418.54075193,961607000,42.7307859,-84.4905495,279.5299987792969,1.8927392959594727,-0.2472606748342514
1666739418.58096671,961647215,42.7307859,-84.4905493,279.5299987792969,1.8925458192825317,-0.24745415151119232
1666739418.58107090,961647319,42.7307859,-84.4905493,279.5299987792969,1.8925458192825317,-0.24745415151119232
1666739418.62043285,961686681,42.7307858,-84.4905491,279.5299987792969,1.8910369873046875,-0.24896292388439178
1666739418.66030073,961726549,42.7307857,-84.4905488,279.5199890136719,1.8890858888626099,-0.2509140968322754
1666739418.68089271,961747141,42.7307857,-84.4905486,279.5199890136719,1.8879696130752563,-0.25203028321266174
1666739418.70036173,961766610,42.7307857,-84.4905485,279.5199890136719,1.8873487710952759,-0.2526511251926422
1666739418.74073577,961806984,42.7307856,-84.4905483,279.5199890136719,1.884979248046875,-0.25502070784568787
1666739418.78092194,961847170,42.7307856,-84.4905481,279.5199890136719,1.883360505104065,-0.2566394805908203
1666739418.78106093,961847309,42.7307856,-84.4905481,279.5199890136719,1.883360505104065,-0.2566394805908203
1666739418.82036376,961886612,42.730785399999995,-84.4905477,279.5099792480469,1.879873275756836,-0.26012665033340454
1666739418.86037993,961926628,42.730785399999995,-84.4905476,279.5099792480469,1.8766194581985474,-0.2633804976940155
1666739418.88115883,961947407,42.7307853,-84.4905474,279.5099792480469,1.8745723962783813,-0.2654275894165039
1666739418.90033388,961966582,42.7307853,-84.4905474,279.5099792480469,1.873609185218811,-0.26639074087142944
1666739418.94069171,962006940,42.7307853,-84.4905471,279.5,1.8698796033859253,-0.2701203227043152
1666739418.98089671,962047145,42.7307853,-84.49054699999999,279.5,1.8671844005584717,-0.2728155851364136
1666739418.98100376,962047252,42.7307853,-84.49054699999999,279.5,1.8671844005584717,-0.2728155851364136
1666739419.02039480,962086643,42.7307853,-84.4905467,279.5,1.8642629384994507,-0.2757369577884674
1666739419.06035972,962126608,42.7307852,-84.4905465,279.5,1.861459732055664,-0.2785401940345764
1666739419.08087587,962147124,42.7307852,-84.49054629999999,279.489990234375,1.8597537279129028,-0.28024616837501526
1666739419.10027575,962166524,42.7307852,-84.4905462,279.489990234375,1.858811855316162,-0.28118810057640076
1666739419.14068174,962206930,42.7307851,-84.490546,279.489990234375,1.8557854890823364,-0.28421443700790405
1666739419.18084884,962247097,42.7307851,-84.49054579999999,279.489990234375,1.8535789251327515,-0.2864210605621338
1666739419.18098283,962247231,42.7307851,-84.49054579999999,279.489990234375,1.8535789251327515,-0.2864210605621338
1666739419.22038388,962286632,42.730785,-84.4905455,279.47998046875,1.8499774932861328,-0.29002246260643005
1666739419.26042080,962326669,42.730785,-84.4905452,279.47998046875,1.8460195064544678,-0.2939804792404175
1666739419.28081274,962347061,42.730785,-84.490545,279.47998046875,1.8438292741775513,-0.2961706221103668
1666739419.30029774,962366546,42.730784899999996,-84.4905449,279.47998046875,1.8425052165985107,-0.29749467968940735
1666739419.34060788,962406856,42.730784899999996,-84.49054459999999,279.4700012207031,1.838416337966919,-0.3015836179256439
1666739419.38109779,962447346,42.730784899999996,-84.49054439999999,279.4700012207031,1.8353755474090576,-0.30462440848350525
1666739419.38118672,962447435,42.730784899999996,-84.49054439999999,279.4700012207031,1.8353755474090576,-0.30462440848350525
1666739419.42041183,962486660,42.730784799999995,-84.4905442,279.4700012207031,1.830700159072876,-0.3092997968196869
1666739419.46042490,962526673,42.730784799999995,-84.49054389999999,279.4599914550781,1.825607180595398,-0.31439274549484253
1666739419.48080873,962547057,42.730784799999995,-84.49054369999999,279.4599914550781,1.822624683380127,-0.3173752427101135
1666739419.50034475,962566593,42.7307847,-84.4905436,279.4599914550781,1.82105553150177,-0.31894436478614807
1666739419.54071975,962606968,42.7307847,-84.49054339999999,279.4499816894531,1.816096305847168,-0.3239036798477173
1666739419.58082891,962647077,42.7307847,-84.49054319999999,279.4499816894531,1.8125568628311157,-0.32744306325912476
1666739419.58090091,962647149,42.7307847,-84.49054319999999,279.4499816894531,1.8125568628311157,-0.32744306325912476
1666739419.62039471,962686643,42.7307846,-84.4905429,279.44000244140625,1.8083722591400146,-0.3316276967525482
1666739419.66030383,962726552,42.7307846,-84.49054269999999,279.44000244140625,1.8040571212768555,-0.3359428644180298
1666739419.68092394,962747172,42.7307845,-84.49054249999999,279.44000244140625,1.801563024520874,-0.33843693137168884
1666739419.70035887,962766607,42.7307845,-84.49054249999999,279.44000244140625,1.80021071434021,-0.3397892117500305
1666739419.74076271,962807011,42.7307845,-84.4905422,279.42999267578125,1.796198844909668,-0.3438011109828949
1666739419.78094077,962847189,42.7307845,-84.4905421,279.42999267578125,1.793595790863037,-0.34640419483184814
1666739419.78107572,962847324,42.7307845,-84.4905421,279.42999267578125,1.793595790863037,-0.34640419483184814
1666739419.82025790,962886506,42.7307844,-84.4905418,279.42999267578125,1.7908358573913574,-0.34916412830352783
1666739419.86033392,962926582,42.7307844,-84.49054149999999,279.41998291015625,1.7882388830184937,-0.3517610728740692
1666739419.88099289,962947241,42.730784299999996,-84.4905414,279.41998291015625,1.7867447137832642,-0.3532552123069763
1666739419.90040874,962966657,42.730784299999996,-84.49054129999999,279.41998291015625,1.7858550548553467,-0.3541449308395386
1666739419.94079089,963007039,42.730784299999996,-84.490541,279.41998291015625,1.7831145524978638,-0.3568853735923767
1666739419.98093271,963047181,42.730784299999996,-84.49054079999999,279.41998291015625,1.7812445163726807,-0.3587553799152374
1666739419.98104382,963047292,42.730784299999996,-84.49054079999999,279.41998291015625,1.7812445163726807,-0.3587553799152374
1666739420.02028871,963086537,42.730784199999995,-84.4905406,279.4100036621094,1.7793570756912231,-0.36064282059669495
1666739420.06028581,963126534,42.7307841,-84.49054029999999,279.4100036621094,1.7776308059692383,-0.3623691201210022
1666739420.08087277,963147121,42.7307841,-84.49054009999999,279.4100036621094,1.776707649230957,-0.36329230666160583
1666739420.10046983,963166718,42.730784,-84.49054009999999,279.4100036621094,1.776071548461914,-0.3639283776283264
1666739420.14075875,963207007,42.730784,-84.4905398,279.4100036621094,1.774429440498352,-0.36557045578956604
1666739420.18089890,963247147,42.7307839,-84.49053959999999,279.4100036621094,1.773203730583191,-0.36679622530937195
1666739420.18101478,963247263,42.7307839,-84.49053959999999,279.4100036621094,1.773203730583191,-0.36679622530937195
1666739420.22035670,963286605,42.7307838,-84.4905394,279.4100036621094,1.77232027053833,-0.3676796555519104
1666739420.26029778,963326546,42.7307838,-84.49053909999999,279.4100036621094,1.7717071771621704,-0.36829274892807007
1666739420.28088880,963347137,42.730783699999996,-84.49053889999999,279.4100036621094,1.771470546722412,-0.36852940917015076
1666739420.30029488,963366543,42.730783699999996,-84.49053889999999,279.4100036621094,1.771277904510498,-0.3687220513820648
1666739420.34073877,963406987,42.730783599999995,-84.4905386,279.4100036621094,1.771071195602417,-0.36892879009246826
1666739420.38103676,963447285,42.7307835,-84.49053839999999,279.4100036621094,1.7709276676177979,-0.3690723180770874
1666739420.38115191,963447400,42.7307835,-84.49053839999999,279.4100036621094,1.7709276676177979,-0.3690723180770874
1666739420.42032886,963486577,42.7307834,-84.4905381,279.4100036621094,1.7713464498519897,-0.36865344643592834
1666739420.46039581,963526644,42.7307834,-84.4905378,279.4100036621094,1.7720924615859985,-0.36790746450424194
1666739420.48089480,963547143,42.7307833,-84.49053769999999,279.4100036621094,1.7725248336791992,-0.36747515201568604
1666739420.50031590,963566564,42.7307833,-84.4905376,279.4100036621094,1.7727551460266113,-0.36724480986595154
1666739420.54063582,963606884,42.7307832,-84.4905373,279.4100036621094,1.7741234302520752,-0.36587655544281006
1666739420.58088875,963647137,42.7307831,-84.4905371,279.4100036621094,1.7751059532165527,-0.36489400267601013
1666739420.58098793,963647236,42.7307831,-84.4905371,279.4100036621094,1.7751059532165527,-0.36489400267601013
1666739420.62039971,963686648,42.730782999999995,-84.4905368,279.4100036621094,1.7760413885116577,-0.36395859718322754
1666739420.66035485,963726603,42.7307829,-84.49053649999999,279.4100036621094,1.7768256664276123,-0.36317431926727295
1666739420.68090272,963747151,42.7307828,-84.4905364,279.4100036621094,1.7773128747940063,-0.36268705129623413
1666739420.70038772,963766636,42.7307828,-84.4905363,279.4100036621094,1.7775079011917114,-0.36249199509620667
1666739420.74068189,963806930,42.7307827,-84.49053599999999,279.4100036621094,1.777898907661438,-0.3621010482311249
1666739420.78078675,963847035,42.7307826,-84.49053579999999,279.4100036621094,1.7780715227127075,-0.36192840337753296
1666739420.78091192,963847160,42.7307826,-84.49053579999999,279.4100036621094,1.7780715227127075,-0.36192840337753296
1666739420.82040691,963886655,42.7307825,-84.4905355,279.4100036621094,1.7779079675674438,-0.362091988325119
1666739420.86042285,963926671,42.730782399999995,-84.4905352,279.4100036621094,1.7778953313827515,-0.362104594707489
1666739420.88108778,963947336,42.7307823,-84.490535,279.4100036621094,1.7779051065444946,-0.3620948791503906
1666739420.90032578,963966574,42.7307823,-84.4905349,279.4100036621094,1.7779072523117065,-0.3620927333831787
1666739420.94081879,964007067,42.7307822,-84.49053459999999,279.4100036621094,1.7781898975372314,-0.36181002855300903
1666739420.98081183,964047060,42.7307821,-84.4905344,279.4100036621094,1.7784359455108643,-0.361564040184021
1666739420.98093891,964047187,42.7307821,-84.4905344,279.4100036621094,1.7784359455108643,-0.361564040184021
1666739421.02032781,964086576,42.730782,-84.49053409999999,279.41998291015625,1.781078577041626,-0.3589213788509369
1666739421.06043577,964126684,42.730782,-84.4905338,279.41998291015625,1.7846601009368896,-0.3553398549556732
1666739421.08077693,964147025,42.7307819,-84.49053359999999,279.41998291015625,1.7869056463241577,-0.35309433937072754
1666739421.10036373,964166612,42.7307819,-84.4905335,279.41998291015625,1.788455605506897,-0.3515443205833435
1666739421.14072084,964206969,42.7307819,-84.4905331,279.42999267578125,1.7937073707580566,-0.3462926149368286
1666739421.18083072,964247079,42.730781799999995,-84.49053289999999,279.42999267578125,1.7984564304351807,-0.3415434658527374
1666739421.18093085,964247179,42.730781799999995,-84.49053289999999,279.42999267578125,1.7984564304351807,-0.3415434658527374
1666739421.22037983,964286628,42.730781799999995,-84.4905326,279.44000244140625,1.804233431816101,-0.3357664942741394
1666739421.26038384,964326632,42.7307817,-84.49053219999999,279.4499816894531,1.8103978633880615,-0.32960209250450134
1666739421.28110170,964347350,42.7307816,-84.4905321,279.4499816894531,1.8138723373413086,-0.3261276185512543
1666739421.30036092,964366609,42.7307816,-84.4905319,279.4499816894531,1.816475749015808,-0.32352414727211
1666739421.34077287,964407021,42.7307816,-84.4905316,279.4599914550781,1.8239080905914307,-0.3160918653011322
1666739421.38106084,964447309,42.7307815,-84.4905314,279.4700012207031,1.8307746648788452,-0.30922532081604004
1666739421.38124180,964447490,42.7307815,-84.4905314,279.4700012207031,1.8307746648788452,-0.30922532081604004
1666739421.42034674,964486595,42.7307815,-84.49053099999999,279.4700012207031,1.8388257026672363,-0.30117422342300415
1666739421.46032691,964526575,42.7307814,-84.4905307,279.47998046875,1.8475260734558105,-0.29247382283210754
1666739421.48080873,964547057,42.7307814,-84.49053049999999,279.489990234375,1.8524525165557861,-0.2875474691390991
1666739421.50037193,964566620,42.7307814,-84.4905304,279.489990234375,1.8566856384277344,-0.2833143472671509
1666739421.54069972,964606948,42.7307813,-84.4905301,279.5,1.867000937461853,-0.27299898862838745
1666739421.58085990,964647108,42.7307813,-84.49052979999999,279.5099792480469,1.8768486976623535,-0.26315128803253174
1666739421.58096075,964647209,42.7307813,-84.49052979999999,279.5099792480469,1.8768486976623535,-0.26315128803253174
1666739421.62031388,964686562,42.730781199999996,-84.4905295,279.5199890136719,1.888149619102478,-0.25185027718544006
1666739421.66029692,964726545,42.730781199999996,-84.49052909999999,279.5299987792969,1.8995481729507446,-0.24045178294181824
1666739421.68087482,964747123,42.730781199999996,-84.490529,279.5400085449219,1.9057782888412476,-0.2342216968536377
1666739421.70034480,964766593,42.7307811,-84.49052879999999,279.54998779296875,1.9109429121017456,-0.22905705869197845
1666739421.74075079,964806999,42.7307811,-84.4905285,279.55999755859375,1.9225037097930908,-0.21749620139598846
1666739421.78109789,964847346,42.7307811,-84.4905283,279.57000732421875,1.9332355260849,-0.20676440000534058
1666739421.78122377,964847472,42.7307811,-84.4905283,279.57000732421875,1.9332355260849,-0.20676440000534058
1666739421.82033372,964886582,42.730781,-84.490528,279.5799865722656,1.945178508758545,-0.19482146203517914
1666739421.86030793,964926556,42.730781,-84.4905276,279.5899963378906,1.9578344821929932,-0.1821654886007309
1666739421.88106179,964947310,42.730781,-84.4905275,279.6000061035156,1.9645657539367676,-0.1754341721534729
1666739421.90038681,964966635,42.730781,-84.49052739999999,279.6099853515625,1.9703524112701416,-0.16964754462242126
1666739421.94072890,965006977,42.7307809,-84.490527,279.6199951171875,1.9831122159957886,-0.1568877249956131
1666739421.98088288,965047131,42.7307809,-84.4905268,279.6300048828125,1.9949162006378174,-0.1450837105512619
1666739421.98100185,965047250,42.7307809,-84.4905268,279.6300048828125,1.9949162006378174,-0.1450837105512619
1666739422.02037978,965086628,42.7307809,-84.4905265,279.6399841308594,2.007347822189331,-0.13265222311019897
1666739422.06034279,965126591,42.7307809,-84.49052619999999,279.6499938964844,2.0196781158447266,-0.12032191455364227
1666739422.08084488,965147093,42.7307809,-84.490526,279.6600036621094,2.026008367538452,-0.11399168521165848
1666739422.10029483,965166543,42.7307808,-84.4905259,279.66998291015625,2.0314342975616455,-0.1085655614733696
1666739422.14073992,965206988,42.7307808,-84.4905256,279.67999267578125,2.0437257289886475,-0.0962742492556572
1666739422.18084788,965247096,42.7307808,-84.4905253,279.69000244140625,2.054638147354126,-0.08536169677972794
1666739422.18099093,965247239,42.7307808,-84.4905253,279.69000244140625,2.054638147354126,-0.08536169677972794
1666739422.22035885,965286607,42.7307808,-84.49052499999999,279.6999816894531,2.0644283294677734,-0.07557161897420883
1666739422.26036572,965326614,42.7307808,-84.4905248,279.7099914550781,2.073220729827881,-0.06677911430597305
1666739422.28115082,965347399,42.7307808,-84.4905246,279.7099914550781,2.077448844909668,-0.06255105882883072
1666739422.30034471,965366593,42.7307808,-84.49052449999999,279.7200012207031,2.08125901222229,-0.05874084308743477
1666739422.34065485,965406903,42.7307809,-84.4905242,279.7200012207031,2.088142156600952,-0.051857903599739075
1666739422.38114381,965447392,42.7307809,-84.490524,279.72998046875,2.0941457748413086,-0.04585406556725502
1666739422.38121581,965447464,42.7307809,-84.490524,279.72998046875,2.0941457748413086,-0.04585406556725502
1666739422.42039585,965486644,42.7307809,-84.4905237,279.739990234375,2.100508213043213,-0.0394916795194149
1666739422.46041083,965526659,42.7307809,-84.4905235,279.739990234375,2.1066672801971436,-0.033332690596580505
1666739422.48091578,965547164,42.730781,-84.49052329999999,279.739990234375,2.10972261428833,-0.03027728572487831
1666739422.50036478,965566613,42.730781,-84.4905232,279.75,2.1123499870300293,-0.027650021016597748
1666739422.54063487,965606883,42.730781,-84.490523,279.75,2.1172733306884766,-0.022726599127054214
1666739422.58081484,965647063,42.7307811,-84.4905228,279.7599792480469,2.1215052604675293,-0.018494613468647003
1666739422.58089375,965647142,42.7307811,-84.4905228,279.7599792480469,2.1215052604675293,-0.018494613468647003
1666739422.62052083,965686769,42.7307811,-84.49052259999999,279.7599792480469,2.1251220703125,-0.014877807348966599
1666739422.66039371,965726642,42.7307811,-84.4905223,279.7599792480469,2.1281559467315674,-0.011844083666801453
1666739422.68089986,965747148,42.7307811,-84.4905222,279.7599792480469,2.1296231746673584,-0.01037678960710764
1666739422.70035577,965766604,42.7307811,-84.49052209999999,279.7699890136719,2.130958080291748,-0.009041757322847843
1666739422.74069881,965806947,42.7307811,-84.49052189999999,279.7699890136719,2.1334896087646484,-0.006510432809591293
1666739422.78084588,965847094,42.7307811,-84.4905217,279.7699890136719,2.1358156204223633,-0.004184212535619736
1666739422.78094792,965847196,42.7307811,-84.4905217,279.7699890136719,2.1358156204223633,-0.004184212535619736
1666739422.82039380,965886642,42.730781199999996,-84.4905215,279.7699890136719,2.137103319168091,-0.0028966276440769434
1666739422.86036086,965926609,42.730781199999996,-84.4905213,279.7699890136719,2.138096809387207,-0.0019032323034480214
1666739422.88094878,965947197,42.7307813,-84.49052119999999,279.7699890136719,2.1383821964263916,-0.0016178525984287262
1666739422.90030384,965966552,42.7307813,-84.4905211,279.7699890136719,2.138914108276367,-0.0010857285233214498
1666739422.94069982,966006948,42.7307814,-84.49052089999999,279.7699890136719,2.1391422748565674,-0.0008577251574024558
1666739422.98087883,966047127,42.7307814,-84.49052069999999,279.7699890136719,2.139432191848755,-0.0005678191082552075
1666739422.98098087,966047229,42.7307814,-84.49052069999999,279.7699890136719,2.139432191848755,-0.0005678191082552075
1666739423.02028084,966086529,42.7307815,-84.4905205,279.7699890136719,2.1392924785614014,-0.0007074246532283723
1666739423.06029177,966126540,42.7307815,-84.4905203,279.7699890136719,2.13893985748291,-0.0010601733811199665
1666739423.08083272,966147081,42.7307816,-84.49052019999999,279.7699890136719,2.1385340690612793,-0.0014658989384770393
1666739423.10028076,966166529,42.7307816,-84.49052019999999,279.7699890136719,2.1385498046875,-0.0014500708784908056
1666739423.14081573,966207064,42.7307816,-84.49051999999999,279.7699890136719,2.13683819770813,-0.003161816159263253
1666739423.18087482,966247123,42.7307817,-84.4905199,279.7699890136719,2.1356523036956787,-0.004347766283899546
1666739423.18098593,966247234,42.7307817,-84.4905199,279.7699890136719,2.1356523036956787,-0.004347766283899546
1666739423.22036982,966286618,42.7307817,-84.4905197,279.7699890136719,2.1350276470184326,-0.004972213413566351
1666739423.26028585,966326534,42.730781799999995,-84.49051949999999,279.7699890136719,2.1350133419036865,-0.004986684303730726
1666739423.28102589,966347274,42.730781799999995,-84.49051949999999,279.7699890136719,2.1348745822906494,-0.0051254816353321075
1666739423.30035090,966366599,42.730781799999995,-84.4905194,279.7699890136719,2.134864330291748,-0.005135740619152784
1666739423.34068394,966406932,42.7307819,-84.4905193,279.7699890136719,2.1347544193267822,-0.005245498847216368
1666739423.38105989,966447308,42.730782,-84.4905191,279.7699890136719,2.134615182876587,-0.005384761840105057
1666739423.38115287,966447401,42.730782,-84.4905191,279.7699890136719,2.134615182876587,-0.005384761840105057
1666739423.42033482,966486583,42.730782,-84.49051899999999,279.7699890136719,2.134819984436035,-0.005180019419640303
1666739423.46037483,966526623,42.7307821,-84.49051879999999,279.7699890136719,2.1348934173583984,-0.005106630269438028
1666739423.48087192,966547120,42.7307821,-84.4905187,279.7699890136719,2.1350810527801514,-0.004918989725410938
1666739423.50036192,966566610,42.7307821,-84.4905187,279.7699890136719,2.1348795890808105,-0.00512026296928525
1666739423.54070973,966606958,42.7307822,-84.4905185,279.7699890136719,2.133878707885742,-0.006121170241385698
1666739423.58099985,966647248,42.7307823,-84.4905184,279.7699890136719,2.132863759994507,-0.007136248052120209
