timestamp,TimeUS,C,Q1,Q2,Q3,Q4
1666739408.53964281,951605891,1,0.9756388664245605,0.008914335630834103,0.0013481893111020327,0.2191973477602005
1666739408.57961488,951645863,1,0.97564697265625,0.008934693410992622,0.0013495038729161024,0.21916043758392334
1666739408.61960292,951685851,1,0.9756583571434021,0.008963292464613914,0.0013600701931864023,0.2191087007522583
1666739408.65963674,951725885,1,0.9756649732589722,0.008996021933853626,0.0013559631770476699,0.21907787024974823
1666739408.67957377,951745822,1,0.9756713509559631,0.00901846680790186,0.0013563924003392458,0.2190483808517456
1666739408.69962573,951765874,1,0.975675642490387,0.009047230705618858,0.0013586063869297504,0.21902815997600555
1666739408.73963571,951805884,1,0.9756794571876526,0.00909064244478941,0.001349490019492805,0.2190093994140625
1666739408.77960873,951845857,1,0.975686252117157,0.009115939028561115,0.001336590270511806,0.21897828578948975
1666739408.81957674,951885825,1,0.9756839871406555,0.00913623534142971,0.0013050268171355128,0.21898764371871948
1666739408.85960579,951925854,1,0.9756845235824585,0.009167559444904327,0.0012679800856858492,0.21898406744003296
1666739408.87962985,951945878,1,0.9756877422332764,0.009189887903630733,0.001260956283658743,0.21896903216838837
1666739408.89962673,951965875,1,0.9756925106048584,0.00921169575303793,0.0012453917879611254,0.21894679963588715
1666739408.93965077,952005899,1,0.9756995439529419,0.009258105419576168,0.0012484705075621605,0.21891361474990845
1666739408.97962880,952045877,1,0.9757077097892761,0.009301586076617241,0.001240394078195095,0.2188752442598343
1666739409.01960683,952085855,1,0.9757206439971924,0.00933816283941269,0.001241544377990067,0.21881596744060516
1666739409.05960894,952125857,1,0.9757264852523804,0.009364208206534386,0.001218456425704062,0.21878919005393982
1666739409.07964683,952145895,1,0.9757285714149475,0.009387184865772724,0.001202359446324408,0.21877874433994293
1666739409.09960675,952165855,1,0.9757291674613953,0.009388157166540623,0.0011964448494836688,0.21877627074718475
1666739409.13961792,952205866,1,0.9757283926010132,0.009412952698767185,0.0011796855833381414,0.2187785655260086
1666739409.17961192,952245860,1,0.9757252335548401,0.009442172013223171,0.0011743465438485146,0.2187916338443756
1666739409.21962571,952285874,1,0.9757266044616699,0.00948190875351429,0.0011731181293725967,0.21878370642662048
1666739409.25960875,952325857,1,0.9757270216941833,0.009531567804515362,0.0011551633942872286,0.21877987682819366
1666739409.27959871,952345847,1,0.9757282137870789,0.009557632729411125,0.001159033621661365,0.21877318620681763
1666739409.29962087,952365869,1,0.975728452205658,0.009566252119839191,0.0011612412054091692,0.21877190470695496
1666739409.33959985,952405848,1,0.9757364392280579,0.009561167098581791,0.0011850724695250392,0.21873633563518524
1666739409.37962174,952445870,1,0.9757448434829712,0.009566755965352058,0.0011718306923285127,0.2186986356973648
1666739409.41963577,952485884,1,0.9757518172264099,0.00957553368061781,0.0011761944042518735,0.21866704523563385
1666739409.45961094,952525859,1,0.9757615923881531,0.009631572291254997,0.0011782714864239097,0.21862103044986725
1666739409.47963881,952545887,1,0.9757629632949829,0.00964843574911356,0.0011754421284422278,0.21861429512500763
1666739409.49957681,952565825,1,0.9757642149925232,0.009656323119997978,0.0011712269624695182,0.21860826015472412
1666739409.53961182,952605860,1,0.9757723212242126,0.00968997273594141,0.0011720312759280205,0.2185705602169037
1666739409.57963276,952645881,1,0.9757776260375977,0.009679640643298626,0.0011733613209798932,0.21854723989963531
1666739409.61960387,952685852,1,0.9757871031761169,0.009678290225565434,0.001164605375379324,0.21850520372390747
1666739409.65963387,952725882,1,0.9758025407791138,0.009699155576527119,0.001152892131358385,0.21843531727790833
1666739409.67960286,952745851,1,0.9758091568946838,0.009700672701001167,0.0011448407312855124,0.2184058576822281
1666739409.69959784,952765846,1,0.9758170247077942,0.009727893397212029,0.001153633464127779,0.2183692306280136
1666739409.73962092,952805869,1,0.9758301377296448,0.009748116135597229,0.0011349060805514455,0.2183099389076233
1666739409.77960086,952845849,1,0.975836992263794,0.009741337969899178,0.001130671938881278,0.2182796746492386
1666739409.81963491,952885883,1,0.9758384823799133,0.009748794138431549,0.0011410497827455401,0.21827244758605957
1666739409.85962176,952925870,1,0.9758392572402954,0.009738362394273281,0.0011382891098037362,0.2182697206735611
1666739409.87960792,952945856,1,0.9758418798446655,0.009740314446389675,0.0011217707069590688,0.21825799345970154
1666739409.89963579,952965884,1,0.9758453369140625,0.009745681658387184,0.001107049291022122,0.21824222803115845
1666739409.93960690,953005855,1,0.9758511185646057,0.009782630018889904,0.0011100138071924448,0.21821463108062744
1666739409.97959971,953045848,1,0.9758625626564026,0.009804588742554188,0.0010942546650767326,0.21816261112689972
1666739410.01958179,953085830,1,0.9758703112602234,0.009829630143940449,0.0010834068525582552,0.21812701225280762
1666739410.05963278,953125881,1,0.9758756756782532,0.009842431172728539,0.0010645559523254633,0.2181023210287094
1666739410.07961273,953145861,1,0.9758799076080322,0.009858142584562302,0.0010425690561532974,0.21808280050754547
1666739410.09959793,953165846,1,0.9758817553520203,0.009870138019323349,0.0010264235315844417,0.2180740386247635
1666739410.13963079,953205879,1,0.9758847951889038,0.009886694140732288,0.0010237529641017318,0.21805985271930695
1666739410.17960882,953245857,1,0.9758866429328918,0.00991117861121893,0.001004764693789184,0.2180505245923996
1666739410.21958780,953285836,1,0.9758927822113037,0.009943285025656223,0.0010085898684337735,0.21802154183387756
1666739410.25960183,953325850,1,0.9759007692337036,0.009968562051653862,0.0010165186831727624,0.21798455715179443
1666739410.27959991,953345848,1,0.9759005904197693,0.009972171857953072,0.0010222509736195207,0.2179853320121765
1666739410.29962873,953365877,1,0.9759073257446289,0.00996793620288372,0.0010207713348791003,0.21795526146888733
1666739410.33962679,953405875,1,0.9759149551391602,0.009956374764442444,0.0010086866095662117,0.21792179346084595
1666739410.37960172,953445850,1,0.975925624370575,0.009940537624061108,0.001006702077575028,0.2178746610879898
1666739410.41961789,953485866,1,0.9759286046028137,0.009938408620655537,0.000999637064523995,0.2178613245487213
1666739410.45960975,953525858,1,0.975935161113739,0.009973562322556973,0.0009834404336288571,0.2178303748369217
1666739410.47963285,953545881,1,0.9759368300437927,0.009984135627746582,0.0009754780912771821,0.21782264113426208
1666739410.49963188,953565880,1,0.9759378433227539,0.009997575543820858,0.0009817059617489576,0.21781741082668304
1666739410.53962278,953605871,1,0.975942075252533,0.009998783469200134,0.0010021087946370244,0.21779826283454895
1666739410.57965088,953645899,1,0.9759470820426941,0.009999675676226616,0.0010050946148112416,0.21777570247650146
1666739410.61960983,953685858,1,0.9759566187858582,0.010031353682279587,0.0010024069342762232,0.2177315056324005
1666739410.65958881,953725837,1,0.9759635925292969,0.010039599612355232,0.000990103930234909,0.2177000343799591
1666739410.67960286,953745851,1,0.9759654998779297,0.010043537244200706,0.0009912563255056739,0.21769118309020996
1666739410.69960690,953765855,1,0.9759678840637207,0.01005621999502182,0.0009945695055648685,0.21767990291118622
1666739410.73962975,953805878,1,0.9759736657142639,0.01006314530968666,0.000983048346824944,0.21765373647212982
1666739410.77962875,953845877,1,0.9759767055511475,0.01008779276162386,0.000982327968813479,0.21763911843299866
1666739410.81962776,953885876,1,0.9759803414344788,0.010091460309922695,0.0009772824123501778,0.21762245893478394
1666739410.85959673,953925845,1,0.9759811162948608,0.010086257942020893,0.0009664651588536799,0.21761929988861084
1666739410.87961078,953945859,1,0.9759837985038757,0.010089248418807983,0.0009731833124533296,0.21760714054107666
1666739410.89959788,953965846,1,0.9759883880615234,0.010085105895996094,0.0009687524288892746,0.2175869196653366
1666739410.93963790,954005886,1,0.9759941697120667,0.010088302195072174,0.0009637651382945478,0.21756063401699066
1666739410.97965693,954045905,1,0.9760075211524963,0.010091261006891727,0.0009773151250556111,0.21750056743621826
1666739411.01963973,954085888,1,0.9760133028030396,0.010079137980937958,0.0009822536958381534,0.21747513115406036
1666739411.05962181,954125870,1,0.9760152101516724,0.010086646303534508,0.000982666271738708,0.21746642887592316
1666739411.07963371,954145882,1,0.9760162234306335,0.0100892698392272,0.0009690835722722113,0.2174617201089859
1666739411.09961581,954165864,1,0.976019561290741,0.010094266384840012,0.0009606946259737015,0.2174464911222458
1666739411.13960385,954205852,1,0.9760189652442932,0.010094946250319481,0.0009508156799711287,0.2174493372440338
1666739411.17965484,954245903,1,0.9760167002677917,0.010096363723278046,0.0009252691525034606,0.217459574341774
1666739411.21961474,954285863,1,0.9760206937789917,0.01011435966938734,0.0009308849694207311,0.21744057536125183
1666739411.25965285,954325901,1,0.9760242104530334,0.010136142373085022,0.0009094797424040735,0.21742406487464905
1666739411.27959585,954345844,1,0.9760311245918274,0.010140076279640198,0.0009179761982522905,0.2173926681280136
1666739411.29959679,954365845,1,0.9760323762893677,0.010119748301804066,0.0009042135206982493,0.21738815307617188
1666739411.33960390,954405852,1,0.9760427474975586,0.010135778225958347,0.0008824493852443993,0.21734073758125305
1666739411.37958193,954445830,1,0.9760632514953613,0.01010983157902956,0.0008994635427370667,0.21724985539913177
1666739411.41963887,954485887,1,0.9760728478431702,0.010131164453923702,0.0008841911912895739,0.21720579266548157
1666739411.45963383,954525882,1,0.9760584831237793,0.010095455683767796,0.0008719500619918108,0.2172721028327942
1666739411.47961187,954545860,1,0.9760454893112183,0.010060892440378666,0.0008679005550220609,0.21733200550079346
1666739411.49962378,954565872,1,0.9760306477546692,0.010058709420263767,0.0008516107918694615,0.21739894151687622
1666739411.53960276,954605851,1,0.9759983420372009,0.01007167249917984,0.0008771428256295621,0.2175431102514267
1666739411.57962680,954645875,1,0.9759747385978699,0.010074391029775143,0.0009181109489873052,0.21764874458312988
1666739411.61960793,954685856,1,0.9759913682937622,0.010124118998646736,0.0009183132206089795,0.21757185459136963
1666739411.65963078,954725879,1,0.9760329127311707,0.010103121399879456,0.0009074629051610827,0.2173863798379898
1666739411.67959380,954745842,1,0.9760569334030151,0.010054423473775387,0.0009139717440120876,0.21728083491325378
1666739411.69962192,954765870,1,0.9760677814483643,0.009931198321282864,0.0009258289937861264,0.21723762154579163
1666739411.73963690,954805885,1,0.9760528802871704,0.009587986394762993,0.0008496702066622674,0.21732035279273987
1666739411.77960682,954845855,1,0.9760051369667053,0.00931207649409771,0.0007770652882754803,0.21754701435565948
1666739411.81959987,954885848,1,0.9759523868560791,0.009494862519204617,0.0007646193262189627,0.2177756130695343
1666739411.85965776,954925906,1,0.9759414196014404,0.009518573060631752,0.0008345726528204978,0.21782352030277252
1666739411.87960672,954945855,1,0.975925862789154,0.00953270960599184,0.0008383899112232029,0.21789255738258362
1666739411.89962792,954965876,1,0.9759140610694885,0.01002865843474865,0.0007505385437980294,0.21792343258857727
1666739411.93963075,955005879,1,0.9759339690208435,0.009577102027833462,0.0007028573891147971,0.21785461902618408
1666739411.97965479,955045903,1,0.9759185314178467,0.009946764446794987,0.0010494106682017446,0.21790581941604614
1666739412.01962781,955085876,1,0.975893497467041,0.009394914843142033,0.0008419077494181693,0.2180432379245758
1666739412.05959678,955125845,1,0.9757967591285706,0.009820493869483471,0.0007871541893109679,0.21845725178718567
1666739412.07963586,955145884,1,0.9757561087608337,0.009784151799976826,0.0006499701994471252,0.21864093840122223
1666739412.09963894,955165887,1,0.9757182002067566,0.009788583032786846,0.0006911832024343312,0.21880961954593658
1666739412.13964772,955205896,1,0.9756428599357605,0.010115601122379303,0.0008145914762280881,0.21913018822669983
1666739412.17964888,955245897,1,0.9755856990814209,0.0097381342202425,0.0005784817622043192,0.21940229833126068
1666739412.21960473,955285853,1,0.9755606651306152,0.00984164047986269,0.0008761174394749105,0.2195080816745758
1666739412.25959086,955325839,1,0.9755126237869263,0.009831422939896584,0.0007330002845264971,0.21972233057022095
1666739412.27960491,955345853,1,0.9755106568336487,0.009870683774352074,0.0006569651886820793,0.21972967684268951
1666739412.29960680,955365855,1,0.9755145907402039,0.009601597674190998,0.000713386049028486,0.21972396969795227
1666739412.33964872,955405897,1,0.9754692912101746,0.009415200911462307,0.0006578483735211194,0.21993321180343628
1666739412.37965178,955445900,1,0.9753984808921814,0.009490267373621464,0.000675399845931679,0.22024357318878174
1666739412.41964078,955485889,1,0.9753339886665344,0.009791778400540352,0.0007575889467261732,0.22051569819450378
1666739412.45959282,955525841,1,0.9752525687217712,0.009816356003284454,0.0007619576063007116,0.22087448835372925
1666739412.47960973,955545858,1,0.9752580523490906,0.009561046957969666,0.000726367172319442,0.220861554145813
1666739412.49960685,955565855,1,0.975253164768219,0.009726179763674736,0.0008001663954928517,0.22087569534778595
1666739412.53961182,955605860,1,0.9752023220062256,0.009416218847036362,0.0006414734525606036,0.22111378610134125
1666739412.57962680,955645875,1,0.9752116799354553,0.009571944363415241,0.0007707668701186776,0.22106556594371796
1666739412.61962271,955685871,1,0.9751687049865723,0.00971519947052002,0.0007828299421817064,0.2212488204240799
1666739412.65963888,955725887,1,0.9751361012458801,0.009730570018291473,0.0007195931975729764,0.2213919460773468
1666739412.67964077,955745889,1,0.9750794172286987,0.009696277789771557,0.0007596465875394642,0.22164286673069
1666739412.69959688,955765845,1,0.9750431776046753,0.00978058110922575,0.0006744835409335792,0.22179868817329407
1666739412.73959184,955805840,1,0.975001335144043,0.009781964123249054,0.0008406278793700039,0.22198200225830078
1666739412.77960777,955845856,1,0.974931538105011,0.009418870322406292,0.0006791799096390605,0.222304567694664
1666739412.81961894,955885867,1,0.9749201536178589,0.009275035001337528,0.0005911875050514936,0.22236065566539764
1666739412.85962677,955925875,1,0.974881112575531,0.009516200982034206,0.000702693301718682,0.22252130508422852
1666739412.87960172,955945850,1,0.9748602509498596,0.009511313401162624,0.0006219470524229109,0.2226131558418274
1666739412.89960575,955965854,1,0.9748443365097046,0.0096233319491148,0.000880085863173008,0.22267715632915497
1666739412.93962884,956005877,1,0.9748340249061584,0.009412366896867752,0.0005778574850410223,0.22273242473602295
1666739412.97958088,956045829,1,0.9747797250747681,0.009716280736029148,0.0009123838972300291,0.22295571863651276
1666739413.01963782,956085886,1,0.974702000617981,0.009725222364068031,0.0008462280966341496,0.2232951670885086
1666739413.05964684,956125895,1,0.9746306538581848,0.009622139856219292,0.0007608829764649272,0.2236110419034958
1666739413.07960486,956145853,1,0.9745940566062927,0.009487605653703213,0.0008471249602735043,0.2237759828567505
1666739413.09963584,956165884,1,0.9745616912841797,0.00992192979902029,0.0008778290939517319,0.22389793395996094
1666739413.13961887,956205867,1,0.9745221138000488,0.009730983525514603,0.0007778990548104048,0.2240789830684662
1666739413.17961979,956245868,1,0.97446608543396,0.00952543318271637,0.0007060393691062927,0.22433146834373474
1666739413.21959686,956285845,1,0.9744129776954651,0.009789817966520786,0.0007128575816750526,0.22455061972141266
1666739413.25964093,956325889,1,0.9743579030036926,0.009604043327271938,0.0007879294571466744,0.22479720413684845
1666739413.27961588,956345864,1,0.9742871522903442,0.009283320978283882,0.0006661213701590896,0.22511766850948334
1666739413.29963279,956365881,1,0.9742484092712402,0.010013284161686897,0.000693857844453305,0.22525376081466675
1666739413.33963680,956405885,1,0.9741726517677307,0.009619977325201035,0.0007435462321154773,0.22559815645217896
1666739413.37960887,956445857,1,0.9740951061248779,0.009893632493913174,0.0006591995479539037,0.22592124342918396
1666739413.41959286,956485841,1,0.9739903807640076,0.00936455000191927,0.0005747438408434391,0.22639502584934235
1666739413.45961785,956525866,1,0.9739042520523071,0.009176943451166153,0.0007231810013763607,0.22677239775657654
1666739413.47962189,956545870,1,0.9738898873329163,0.009540321305394173,0.0007992173195816576,0.22681887447834015
1666739413.49963975,956565888,1,0.9738427996635437,0.00942133367061615,0.0008911527111195028,0.22702567279338837
1666739413.53961182,956605860,1,0.973801851272583,0.009737350046634674,0.0008129987982101738,0.2271881401538849
1666739413.57963371,956645882,1,0.9737260341644287,0.009648468345403671,0.0009434155654162169,0.2275162786245346
1666739413.61960387,956685852,1,0.9735696315765381,0.009379412978887558,0.0007477492326870561,0.22819651663303375
1666739413.65962386,956725872,1,0.973453164100647,0.009809878654778004,0.0009216606267727911,0.22867409884929657
1666739413.67961884,956745867,1,0.9734236598014832,0.009676428511738777,0.0008963296422734857,0.22880542278289795
1666739413.69965172,956765900,1,0.9733786582946777,0.00965634174644947,0.0008260337635874748,0.22899790108203888
1666739413.73961592,956805864,1,0.9732791781425476,0.009484734386205673,0.0009779592510312796,0.22942684590816498
1666739413.77964687,956845895,1,0.9731909036636353,0.009365443140268326,0.00086571229621768,0.22980637848377228
1666739413.81961083,956885859,1,0.9731341600418091,0.009447561576962471,0.0012405839515849948,0.2300414890050888
1666739413.85960484,956925853,1,0.9730344414710999,0.009525530971586704,0.001483564730733633,0.2304583340883255
1666739413.87964272,956945891,1,0.972986102104187,0.009579382836818695,0.0013906722888350487,0.2306606024503708
1666739413.89961886,956965867,1,0.9729927778244019,0.00994599238038063,0.0013546720147132874,0.23061731457710266
1666739413.93964386,957005892,1,0.9728941917419434,0.009089339524507523,0.0011400640942156315,0.23106908798217773
1666739413.97964978,957045898,1,0.9728360772132874,0.009102748706936836,0.0014199772849678993,0.23131175339221954
1666739414.01963782,957085886,1,0.9727892875671387,0.007730553392320871,0.0018762839026749134,0.23155507445335388
1666739414.05960083,957125849,1,0.9727965593338013,0.006763169076293707,0.002623309614136815,0.23154757916927338
1666739414.07963991,957145888,1,0.9727805852890015,0.005142559297382832,0.0022990661673247814,0.23165962100028992
1666739414.09961677,957165865,1,0.9728190302848816,0.004394942428916693,0.0029749495442956686,0.23150578141212463
1666739414.13961077,957205859,1,0.9727827310562134,0.0018303098622709513,0.002973065013065934,0.2316928505897522
1666739414.17963481,957245883,1,0.9728068709373474,-7.490067218896002e-05,0.0027467075269669294,0.23160149157047272
1666739414.21963286,957285881,1,0.9728235006332397,-0.0024247642140835524,0.002319131977856159,0.23152369260787964
1666739414.25963688,957325885,1,0.9728698134422302,-0.003595968009904027,0.0016537156188860536,0.23131927847862244
1666739414.27964783,957345896,1,0.9728886485099792,-0.002199724316596985,0.0013329299399629235,0.23125962913036346
1666739414.29959774,957365846,1,0.9729092717170715,-0.002744325203821063,0.0013878671452403069,0.23116692900657654
1666739414.33959293,957405841,1,0.972935140132904,-0.0030022761784493923,-5.161010994925164e-05,0.23105892539024353
1666739414.37961078,957445859,1,0.9730013012886047,-0.0034194448962807655,-0.001357266679406166,0.23077021539211273
1666739414.41964984,957485898,1,0.9730240106582642,-0.0037227668799459934,-0.0031842852476984262,0.23065179586410522
1666739414.45964885,957525897,1,0.9730801582336426,-0.0027512148953974247,-0.0044438187032938,0.23040755093097687
1666739414.47961283,957545861,1,0.9731301069259644,-0.0031245246063917875,-0.004232131876051426,0.23019592463970184
1666739414.49962592,957565874,1,0.9731041789054871,-0.002656847471371293,-0.005330357234925032,0.23028840124607086
1666739414.53961492,957605863,1,0.22937658429145813,-0.006343684159219265,-0.005830917041748762,0.9732996225357056
1666739414.57958484,957645833,1,0.22981184720993042,-0.006267271004617214,-0.004691302310675383,0.9732035994529724
1666739414.61964679,957685895,1,0.23031401634216309,-0.006286213640123606,-0.003954704850912094,0.9730880260467529
1666739414.65964484,957725893,1,0.23140040040016174,-0.005518879275768995,-0.004338947590440512,0.9728332757949829
1666739414.67959881,957745847,1,0.23164622485637665,-0.0058597722090780735,-0.005169185344129801,0.9727687239646912
1666739414.69963980,957765888,1,0.23230743408203125,-0.004817968234419823,-0.005109061952680349,0.9726170301437378
1666739414.73960376,957805852,1,0.23348481953144073,-0.0038963083643466234,-0.004593694116920233,0.972341775894165
1666739414.77958179,957845830,1,0.23486381769180298,-0.002853600075468421,-0.0032972206827253103,0.9720184803009033
1666739414.81961083,957885859,1,0.23633253574371338,-0.0015769324963912368,0.00018956721760332584,0.971670925617218
1666739414.85964274,957925891,1,0.23729494214057922,3.959515379392542e-05,0.0043533602729439735,0.9714279174804688
1666739414.87959170,957945840,1,0.23794473707675934,0.001514096395112574,0.008085282519459724,0.9712438583374023
1666739414.89964175,957965890,1,0.23845063149929047,0.0016493182629346848,0.008578212931752205,0.9711153507232666
1666739414.93965793,958005906,1,0.23942796885967255,0.0031886466313153505,0.011951586231589317,0.9708353281021118
1666739414.97960687,958045855,1,0.2400774508714676,0.004545270930975676,0.015863418579101562,0.9706134796142578
1666739415.01958871,958085837,1,0.24073031544685364,0.0052874390967190266,0.018269995227456093,0.9704056978225708
1666739415.05961871,958125867,1,0.24141201376914978,0.005455625709146261,0.018790287896990776,0.97022545337677
1666739415.07961988,958145868,1,0.2418310046195984,0.0057781534269452095,0.019609732553362846,0.9701030254364014
1666739415.09963989,958165888,1,0.24219344556331635,0.005992880556732416,0.01973666623234749,0.9700087308883667
1666739415.13962889,958205877,1,0.24284447729587555,0.006725475192070007,0.02024455927312374,0.9698306322097778
1666739415.17961788,958245866,1,0.24354669451713562,0.006807134952396154,0.019604673609137535,0.9696671366691589
1666739415.21961975,958285868,1,0.24415941536426544,0.006303134839981794,0.017936160787940025,0.969548761844635
1666739415.25959373,958325842,1,0.24451754987239838,0.005592891480773687,0.015099046751856804,0.9695111513137817
1666739415.27962279,958345871,1,0.24459558725357056,0.005005111452192068,0.01209420058876276,0.9695368409156799
1666739415.29961181,958365860,1,0.24481350183486938,0.0046946085058152676,0.011128793470561504,0.9694949388504028
1666739415.33962893,958405877,1,0.24510075151920319,0.004103792831301689,0.007958171889185905,0.9694562554359436
1666739415.37961888,958445867,1,0.2451106458902359,0.0037345129530876875,0.0050338273867964745,0.9694748520851135
1666739415.41963673,958485885,1,0.2454027682542801,0.003283669473603368,0.003271079156547785,0.9694101214408875
1666739415.45962191,958525870,1,0.24555662274360657,0.002311637159436941,0.002632297808304429,0.9693759083747864
1666739415.47963285,958545881,1,0.24566753208637238,0.0017996642272919416,0.0015383800491690636,0.9693512320518494
1666739415.49961782,958565866,1,0.24586759507656097,0.0014235416892915964,0.0017401025397703052,0.9693008065223694
1666739415.53963971,958605888,1,0.2461676299571991,0.0006624964880757034,0.0010032448917627335,0.9692265391349792
1666739415.57963777,958645886,1,0.24649760127067566,0.00010702752479119226,0.0008862074464559555,0.9691429734230042
1666739415.61965394,958685902,1,0.24699249863624573,-0.000533566577360034,0.0008165854378603399,0.9690169095993042
1666739415.65959883,958725847,1,0.24765582382678986,-0.0013087666593492031,0.0006782621494494379,0.9688469767570496
1666739415.67963672,958745885,1,0.24802125990390778,-0.0016714988742023706,0.0009318168740719557,0.9687526822090149
1666739415.69961572,958765864,1,0.2484518438577652,-0.00191007019020617,0.0013583917170763016,0.9686414003372192
1666739415.73959684,958805845,1,0.24929732084274292,-0.002029634779319167,0.0023462253157049417,0.968421995639801
1666739415.77964187,958845890,1,0.25008463859558105,-0.0019305608002468944,0.004562071058899164,0.96821129322052
1666739415.81964779,958885896,1,0.2510486841201782,-0.0014181097503751516,0.006668363697826862,0.9679504632949829
1666739415.85965276,958925901,1,0.2518463432788849,-0.0007128921570256352,0.008878330700099468,0.9677262306213379
1666739415.87958288,958945831,1,0.25227993726730347,-0.0004229575570207089,0.010106481611728668,0.9676014184951782
1666739415.89958882,958965837,1,0.2527032196521759,0.0002523365255910903,0.011233880184590816,0.9674785733222961
1666739415.93961287,959005861,1,0.2534649968147278,0.001339260837994516,0.0123423021286726,0.9672648906707764
1666739415.97960687,959045855,1,0.2541738748550415,0.002427472500130534,0.012533723376691341,0.9670742750167847
1666739416.01964593,959085894,1,0.254830002784729,0.0032408423721790314,0.0125889852643013,0.966898500919342
1666739416.05961680,959125865,1,0.25551533699035645,0.0034394829999655485,0.012637132778763771,0.9667162895202637
1666739416.07961679,959145865,1,0.25574034452438354,0.003218031721189618,0.012791204266250134,0.9666555523872375
1666739416.09964085,959165889,1,0.2561226785182953,0.003377550048753619,0.012816213071346283,0.9665534496307373
1666739416.13960671,959205855,1,0.2568359673023224,0.0031424518674612045,0.012941351160407066,0.966363251209259
1666739416.17961884,959245867,1,0.25725096464157104,0.0029013273306190968,0.013044660910964012,0.9662522077560425
1666739416.21960974,959285858,1,0.2579041123390198,0.002881612628698349,0.012260482646524906,0.9660884141921997
1666739416.25964284,959325891,1,0.25819000601768494,0.0032639182172715664,0.011543678119778633,0.9660196900367737
1666739416.27961278,959345861,1,0.25834882259368896,0.0031584841199219227,0.010989749804139137,0.965984046459198
1666739416.29958773,959365836,1,0.2585257291793823,0.003483766922727227,0.010690276511013508,0.965938925743103
1666739416.33960986,959405858,1,0.25860974192619324,0.0037308356259018183,0.00952105037868023,0.96592777967453
1666739416.37960887,959445857,1,0.25853800773620605,0.0034250901080667973,0.008741796016693115,0.9659554362297058
1666739416.41959882,959485847,1,0.25842225551605225,0.0030143402982503176,0.008328739553689957,0.9659914374351501
1666739416.45965385,959525902,1,0.2581935226917267,0.002933777868747711,0.008300608955323696,0.9660531282424927
1666739416.47959471,959545843,1,0.25798657536506653,0.0035933388862758875,0.00907407607883215,0.966099202632904
1666739416.49962282,959565871,1,0.2579253613948822,0.0033128107897937298,0.009805617853999138,0.9661093950271606
1666739416.53963780,959605886,1,0.25759124755859375,0.0037586786784231663,0.011674754321575165,0.9661761522293091
1666739416.57959580,959645844,1,0.25725656747817993,0.0043908897787332535,0.013332665897905827,0.966241180896759
1666739416.61958981,959685838,1,0.25701090693473816,0.004796598572283983,0.015092480927705765,0.9662787318229675
1666739416.65960693,959725855,1,0.25682809948921204,0.005036047659814358,0.015950031578540802,0.9663123488426208
1666739416.67962193,959745870,1,0.2567511200904846,0.005669322330504656,0.01607011817395687,0.9663273096084595
1666739416.69963384,959765882,1,0.25665515661239624,0.00537143787369132,0.01644827239215374,0.9663481712341309
1666739416.73963571,959805884,1,0.25663354992866516,0.005531781818717718,0.016455870121717453,0.9663528203964233
1666739416.77961874,959845867,1,0.2565231919288635,0.0055148424580693245,0.015875233337283134,0.9663919806480408
1666739416.81960392,959885852,1,0.25667503476142883,0.0053067379631102085,0.015878574922680855,0.9663527607917786
1666739416.85959387,959925842,1,0.25656020641326904,0.0057688262313604355,0.017057187855243683,0.9663605093955994
1666739416.87964272,959945891,1,0.2565767467021942,0.0065183076076209545,0.017860809341073036,0.9663368463516235
1666739416.89960575,959965854,1,0.25645992159843445,0.005970999598503113,0.017550507560372353,0.9663770794868469
1666739416.93965483,960005903,1,0.2564120590686798,0.006115089636296034,0.018752025440335274,0.9663662910461426
1666739416.97960973,960045858,1,0.2562140226364136,0.006151632871478796,0.018645357340574265,0.9664206504821777
1666739417.01964378,960085892,1,0.2560988962650299,0.005905566271394491,0.018361590802669525,0.9664581418037415
1666739417.05960274,960125851,1,0.2559785842895508,0.005382244940847158,0.018091723322868347,0.9664981365203857
1666739417.07962871,960145877,1,0.25596410036087036,0.005627993959933519,0.01868748851120472,0.9664892554283142
1666739417.09960079,960165849,1,0.25590893626213074,0.004987758118659258,0.01771346852183342,0.9665257334709167
1666739417.13964581,960205894,1,0.2557816505432129,0.005213158205151558,0.01762296073138714,0.966559886932373
1666739417.17962193,960245870,1,0.2556763291358948,0.0054013594053685665,0.01788807474076748,0.9665818214416504
1666739417.21959686,960285845,1,0.25557640194892883,0.005573773290961981,0.01794789917767048,0.9666061997413635
1666739417.25960279,960325851,1,0.25531265139579773,0.005823825020343065,0.01783648505806923,0.9666764736175537
1666739417.27963281,960345881,1,0.2552933394908905,0.005822333972901106,0.0186313409358263,0.966666579246521
1666739417.29961991,960365868,1,0.2551407814025879,0.005599562078714371,0.016668833792209625,0.9667440056800842
1666739417.33960772,960405856,1,0.2550497055053711,0.006120610516518354,0.014034770429134369,0.9668067097663879
1666739417.37965584,960445904,1,0.2549174726009369,0.0068614427000284195,0.009660846553742886,0.9668902158737183
1666739417.41963673,960485885,1,0.2548750936985016,0.008192571811378002,0.005262593273073435,0.9669249653816223
1666739417.45963287,960525881,1,0.25468680262565613,0.009805059991776943,0.00151864904910326,0.9669727087020874
1666739417.47965980,960545908,1,0.2547769248485565,0.010103666223585606,0.0007158154039643705,0.9669467806816101
1666739417.49961686,960565865,1,0.2544805705547333,0.010204246267676353,-0.0013707684120163321,0.9670230746269226
1666739417.53961682,960605865,1,0.2545199692249298,0.00898022297769785,-0.002470056526362896,0.9670226573944092
1666739417.57961392,960645862,1,0.254459947347641,0.006997636053711176,-0.003784958040341735,0.9670506119728088
1666739417.61963892,960685887,1,0.25454938411712646,0.005115281790494919,-0.0033144268672913313,0.9670405387878418
1666739417.65963292,960725881,1,0.25464189052581787,0.003563780803233385,-0.002361581427976489,0.9670259952545166
1666739417.67959571,960745844,1,0.254763662815094,0.0029494264163076878,-0.0018825901206582785,0.9669970273971558
1666739417.69963384,960765882,1,0.25483569502830505,0.002574042184278369,-0.001995506463572383,0.966978907585144
1666739417.73961091,960805859,1,0.2549397945404053,0.001913899672217667,-0.0024292641319334507,0.9669519662857056
1666739417.77959681,960845845,1,0.2552057206630707,0.001500224112533033,-0.0026397795882076025,0.9668819904327393
1666739417.81960773,960885856,1,0.25547343492507935,0.0014822790399193764,-0.0027379433158785105,0.9668110609054565
1666739417.85963392,960925882,1,0.2556837499141693,0.0014538830146193504,-0.0022664121352136135,0.9667567014694214
1666739417.87961793,960945866,1,0.2557796537876129,0.0011748532997444272,-0.0016159593360498548,0.9667330384254456
1666739417.89961886,960965867,1,0.25592005252838135,0.0013064537197351456,-0.0012427030596882105,0.9666962623596191
1666739417.93963075,961005879,1,0.256197065114975,0.0008566087926737964,-0.0004347416397649795,0.9666240811347961
1666739417.97960472,961045853,1,0.2564559578895569,0.0005128348129801452,0.0006337797385640442,0.9665555953979492
1666739418.01961970,961085868,1,0.2566983103752136,0.00040168740088120103,0.0011408987920731306,0.9664908051490784
1666739418.05965376,961125902,1,0.25690674781799316,-5.781817890238017e-06,0.0019574614707380533,0.9664342403411865
1666739418.07958984,961145838,1,0.2569279670715332,-0.000423651363234967,0.001106550102122128,0.9664298295974731
1666739418.09963775,961165886,1,0.2571679353713989,-0.000225013165618293,0.0023191606160253286,0.9663639068603516
1666739418.13959694,961205845,1,0.2574363052845001,-0.00015512810205109417,0.0032730738166719675,0.9662896990776062
1666739418.17960382,961245852,1,0.2576923668384552,0.0005668135709129274,0.004588505253195763,0.966215968132019
1666739418.21962285,961285871,1,0.2578975558280945,0.0013337719719856977,0.005892853252589703,0.9661533832550049
1666739418.25959992,961325848,1,0.2580758035182953,0.0018241900252178311,0.006999206263571978,0.9660975933074951
1666739418.27963781,961345886,1,0.25815489888191223,0.0015012247022241354,0.006559728644788265,0.9660801291465759
1666739418.29963875,961365887,1,0.2581517994403839,0.0021443169098347425,0.0071408809162676334,0.966075599193573
1666739418.33963680,961405885,1,0.25819435715675354,0.001967069460079074,0.006777195725589991,0.9660671949386597
1666739418.37964082,961445889,1,0.2583562731742859,0.0015881393337622285,0.006663263309746981,0.9660254120826721
1666739418.41960382,961485852,1,0.25852397084236145,0.0012118415907025337,0.005846815183758736,0.9659863710403442
1666739418.45960474,961525853,1,0.2586307227611542,0.0013088998384773731,0.005746231414377689,0.965958297252655
1666739418.47961092,961545859,1,0.25877371430397034,0.002192782238125801,0.00698377238586545,0.9659102559089661
1666739418.49961686,961565865,1,0.25877058506011963,0.0012810262851417065,0.006271288730204105,0.9659175872802734
1666739418.53964782,961605896,1,0.2587713599205017,0.0015415833331644535,0.007529262453317642,0.9659080505371094
1666739418.57962680,961645875,1,0.25884339213371277,0.002264317823573947,0.009282941929996014,0.965872049331665
1666739418.61964393,961685892,1,0.25883349776268005,0.0025066013913601637,0.010302284732460976,0.9658637642860413
1666739418.65961480,961725863,1,0.258827269077301,0.0024856883101165295,0.011253079399466515,0.9658548831939697
1666739418.67962980,961745878,1,0.2586936950683594,0.002684276085346937,0.010724639520049095,0.9658961296081543
1666739418.69961691,961765865,1,0.2587684988975525,0.002476334571838379,0.011094227433204651,0.9658724665641785
1666739418.73961282,961805861,1,0.2586870491504669,0.002717304043471813,0.011098317801952362,0.9658936262130737
1666739418.77962780,961845876,1,0.25839945673942566,0.002615787321701646,0.011179973371326923,0.9659699201583862
1666739418.81960177,961885850,1,0.25836092233657837,0.00249038590118289,0.011125008575618267,0.9659811854362488
1666739418.85963893,961925887,1,0.2580317556858063,0.0027434038929641247,0.011386694386601448,0.9660654664039612
1666739418.87965775,961945906,1,0.2579146921634674,0.0022845338098704815,0.010456874966621399,0.9661083817481995
1666739418.89961672,961965865,1,0.25791582465171814,0.002567730378359556,0.011339557357132435,0.9660974144935608
1666739418.93961477,962005863,1,0.2576538026332855,0.0025322320871055126,0.011940617114305496,0.9661601781845093
1666739418.97963572,962045884,1,0.257487952709198,0.0022971462458372116,0.011366519145667553,0.9662119150161743
1666739419.01963282,962085881,1,0.25720712542533875,0.002339153317734599,0.01098559144884348,0.9662910103797913
1666739419.05964375,962125892,1,0.25700265169143677,0.0020321335177868605,0.010217735543847084,0.9663545489311218
1666739419.07961178,962145860,1,0.25696584582328796,0.002031527226790786,0.009879160672426224,0.9663678407669067
1666739419.09959793,962165846,1,0.25673505663871765,0.001805372885428369,0.00931546650826931,0.9664352536201477
1666739419.13959289,962205841,1,0.25664010643959045,0.001425249269232154,0.007999318651854992,0.966472864151001
1666739419.17961073,962245859,1,0.2563513517379761,0.0010138265788555145,0.0069258129224181175,0.9665583372116089
1666739419.21963382,962285882,1,0.25626370310783386,0.0009497645660303533,0.006318182684481144,0.9665858149528503
1666739419.25962973,962325878,1,0.25605642795562744,0.0008182261371985078,0.005635520443320274,0.9666450619697571
1666739419.27959490,962345843,1,0.2561776638031006,0.0010928742121905088,0.006797249894589186,0.9666051864624023
1666739419.29965281,962365901,1,0.2559375464916229,0.001085760653950274,0.005495340097695589,0.9666770696640015
1666739419.33958578,962405834,1,0.2558324933052063,0.0014053024351596832,0.005771195515990257,0.9667028784751892
1666739419.37960577,962445854,1,0.25570958852767944,0.0018119106534868479,0.006407984998077154,0.9667307138442993
1666739419.41962290,962485871,1,0.25554579496383667,0.002437143586575985,0.007039893418550491,0.9667682647705078
1666739419.45964074,962525889,1,0.2552590072154999,0.003069161670282483,0.007244802080094814,0.9668406844139099
1666739419.47960591,962545854,1,0.25516781210899353,0.0018619904294610023,0.0070628211833536625,0.9668691754341125
1666739419.49961877,962565867,1,0.25515666604042053,0.0032987685408443213,0.007790189702063799,0.9668627381324768
1666739419.53963780,962605886,1,0.25503048300743103,0.0033550765365362167,0.008189242333173752,0.9668925404548645
1666739419.57961583,962645864,1,0.2549404501914978,0.003818049794062972,0.00944560021162033,0.9669030904769897
1666739419.61960793,962685856,1,0.2550036609172821,0.0038145100697875023,0.009840017184615135,0.9668824672698975
1666739419.65969491,962725943,1,0.254984050989151,0.0040120286867022514,0.01071750558912754,0.9668775200843811
1666739419.67960382,962745852,1,0.25470298528671265,0.004176017828285694,0.010580643080174923,0.9669524431228638
1666739419.69963789,962765886,1,0.2548068165779114,0.0037013988476246595,0.01087107602506876,0.9669237732887268
1666739419.73959494,962805843,1,0.25473159551620483,0.003900887444615364,0.011824463494122028,0.9669316411018372
1666739419.77964592,962845894,1,0.25463277101516724,0.003954567946493626,0.01262545958161354,0.9669473171234131
1666739419.81959176,962885840,1,0.25474172830581665,0.00442048255354166,0.014241209253668785,0.9668941497802734
1666739419.85961175,962925860,1,0.25452902913093567,0.0051375203765928745,0.01660369709134102,0.9669089317321777
1666739419.87963676,962945885,1,0.2544494569301605,0.005725238937884569,0.01890307106077671,0.9668843746185303
1666739419.89964676,962965895,1,0.2544272243976593,0.005943985655903816,0.019374778494238853,0.9668795466423035
1666739419.93963981,963005888,1,0.2543022930622101,0.006378168240189552,0.021412326022982597,0.966866672039032
1666739419.97964573,963045894,1,0.25421881675720215,0.006320053245872259,0.02218629978597164,0.9668715596199036
1666739420.01960683,963085855,1,0.2540963292121887,0.0062482054345309734,0.021190369501709938,0.9669265747070312
1666739420.05962181,963125870,1,0.2541094720363617,0.005646576173603535,0.019584931433200836,0.9669606685638428
1666739420.07964873,963145897,1,0.25400272011756897,0.005666726268827915,0.019155489280819893,0.9669972062110901
1666739420.09961176,963165860,1,0.2539582848548889,0.004635551944375038,0.016802923753857613,0.9670581221580505
1666739420.13963985,963205888,1,0.2539883553981781,0.004214330110698938,0.01484574843198061,0.9670841693878174
1666739420.17963171,963245880,1,0.2539270222187042,0.004024420864880085,0.013172646053135395,0.9671252965927124
1666739420.21963692,963285885,1,0.253980427980423,0.004167268518358469,0.012959988787770271,0.9671135544776917
1666739420.25958776,963325836,1,0.25388380885124207,0.003976922016590834,0.012439871206879616,0.9671465754508972
1666739420.27960777,963345856,1,0.2537866532802582,0.0035846729297190905,0.011675103567540646,0.9671831130981445
1666739420.29962373,963365872,1,0.25392448902130127,0.004090680740773678,0.012699595652520657,0.967132031917572
1666739420.33961082,963405859,1,0.2539430856704712,0.004054900258779526,0.01228349469602108,0.9671326875686646
1666739420.37963772,963445886,1,0.25385355949401855,0.004058163613080978,0.011678127571940422,0.967163622379303
1666739420.41961479,963485863,1,0.2537209689617157,0.003878719173371792,0.011056093499064445,0.9672064781188965
1666739420.45966887,963525917,1,0.25357213616371155,0.003442312590777874,0.010165135376155376,0.9672569632530212
1666739420.47964191,963545890,1,0.2534816265106201,0.002840416505932808,0.008450290188193321,0.9672991037368774
1666739420.49961686,963565865,1,0.2534339129924774,0.0029706840869039297,0.009342232719063759,0.9673030376434326
1666739420.53958178,963605830,1,0.25337257981300354,0.0026384987868368626,0.008479216136038303,0.9673280119895935
1666739420.57960677,963645855,1,0.25324150919914246,0.002364702755585313,0.007964696735143661,0.96736741065979
1666739420.61962581,963685874,1,0.25328049063682556,0.002251503523439169,0.007702636532485485,0.9673596024513245
1666739420.65964580,963725894,1,0.2532644271850586,0.0022611042950302362,0.007862867787480354,0.9673625230789185
1666739420.67961383,963745862,1,0.2534381151199341,0.0026857368648052216,0.00835567619651556,0.9673117995262146
1666739420.69961572,963765864,1,0.25336867570877075,0.002257948275655508,0.00788162276148796,0.967335045337677
1666739420.73958993,963805838,1,0.2534501254558563,0.0024702802766114473,0.008192193694412708,0.9673106074333191
1666739420.77960873,963845857,1,0.25358518958091736,0.0024342716205865145,0.00837414525449276,0.9672737717628479
1666739420.81964374,963885892,1,0.25366804003715515,0.00228139478713274,0.008479692041873932,0.9672514796257019
1666739420.85965872,963925907,1,0.2538262605667114,0.0019541862420737743,0.008037249557673931,0.9672144651412964
1666739420.87960291,963945851,1,0.2537970244884491,0.0019836449064314365,0.007824835367500782,0.9672238230705261
1666739420.89963794,963965886,1,0.2538854479789734,0.0015559199964627624,0.006903668399900198,0.9672083854675293
1666739420.93960476,964005853,1,0.2540392279624939,0.0009308805456385016,0.005197233986109495,0.9671794772148132
1666739420.97958493,964045833,1,0.25411397218704224,0.0006336914957500994,0.0038344161584973335,0.9671664834022522
1666739421.01960492,964085853,1,0.2543330192565918,8.380072540603578e-05,0.002457125810906291,0.9671135544776917
1666739421.05964375,964125892,1,0.2544877231121063,-0.0003314381465315819,0.0014759744517505169,0.9670748114585876
1666739421.07959580,964145844,1,0.25452014803886414,-0.0003678899956867099,-1.5684690879425034e-05,0.9670674204826355
1666739421.09963775,964165886,1,0.25461724400520325,-0.0006615461315959692,0.0008179625147022307,0.9670413136482239
1666739421.13963890,964205887,1,0.2547215223312378,-0.0011468215379863977,-0.00012473830429371446,0.9670137763023376
1666739421.17958283,964245831,1,0.2549057900905609,-0.0013242713175714016,-0.0005989611381664872,0.9669647812843323
1666739421.21967483,964285923,1,0.25509801506996155,-0.0016080514760687947,-0.001007445971481502,0.9669133424758911
1666739421.25962377,964325872,1,0.25523847341537476,-0.001563867786899209,-0.001091373385861516,0.9668762683868408
1666739421.27959991,964345848,1,0.25531426072120667,-0.0010709705529734492,-2.4465871319989674e-05,0.9668575525283813
1666739421.29964089,964365889,1,0.25536781549453735,-0.0014195737894624472,-0.0005905447178520262,0.966842770576477
1666739421.33960485,964405853,1,0.2555782198905945,-0.001321084680967033,4.92377694172319e-05,0.9667874574661255
1666739421.37963891,964445887,1,0.2557406425476074,-0.0013509748969227076,0.00014781122445128858,0.9667444825172424
1666739421.41960692,964485855,1,0.2557729184627533,-0.0013364343903958797,0.0008850728045217693,0.9667355418205261
1666739421.45961690,964525865,1,0.25580328702926636,-0.0016052217688411474,0.0006629997515119612,0.9667273163795471
1666739421.47963977,964545888,1,0.25586506724357605,-0.000829649914521724,0.0009073783294297755,0.966711699962616
1666739421.49960375,964565852,1,0.255894273519516,-0.0016842250479385257,0.0006189531413838267,0.9667031168937683
1666739421.53963280,964605881,1,0.25594109296798706,-0.0015590377151966095,0.0003961935581173748,0.9666910171508789
1666739421.57960582,964645854,1,0.2560676634311676,-0.0016258496325463057,0.0003113278653472662,0.9666574597358704
1666739421.61964488,964685893,1,0.25615233182907104,-0.0013420726172626019,0.0004373720148578286,0.9666354060173035
1666739421.65961981,964725868,1,0.2563209533691406,-0.0010374742560088634,0.0005867888685315847,0.9665910005569458
1666739421.67961884,964745867,1,0.25627601146698,-0.0014026900753378868,-0.00018184697546530515,0.966602623462677
1666739421.69958091,964765829,1,0.2564030885696411,-0.0008277843007817864,0.0008517521200701594,0.966569185256958
1666739421.73963380,964805882,1,0.25654053688049316,-0.000888905837200582,0.0011209620861336589,0.9665324091911316
1666739421.77962589,964845874,1,0.25656479597091675,-0.0014244257472455502,0.0009280912345275283,0.9665255546569824
1666739421.81964779,964885896,1,0.2567030191421509,-0.0015763563569635153,0.0010553657775744796,0.9664884805679321
1666739421.85961771,964925866,1,0.256742924451828,-0.0018587815575301647,0.00048285117372870445,0.9664778113365173
1666739421.87964582,964945894,1,0.2568695843219757,-0.0009954858105629683,0.002046999055892229,0.9664434194564819
1666739421.89961791,964965866,1,0.25686973333358765,-0.0014863400720059872,0.0006110487156547606,0.9664446711540222
1666739421.93960571,965005854,1,0.25694262981414795,-0.0009831424104049802,0.00047105943667702377,0.9664260149002075
1666739421.97964191,965045890,1,0.2570110857486725,-0.00035522013786248863,0.0013719371054321527,0.9664074182510376
1666739422.01962972,965085878,1,0.25708362460136414,0.0002469699829816818,0.0037290630862116814,0.9663819074630737
1666739422.05963492,965125883,1,0.25697389245033264,0.00045880014658905566,0.005477227736264467,0.9664027094841003
1666739422.07963777,965145886,1,0.2569199204444885,0.0008750935667194426,0.005486004054546356,0.9664167165756226
1666739422.09960175,965165850,1,0.256931871175766,0.0008591130026616156,0.006842585746198893,0.966404914855957
1666739422.13961983,965205868,1,0.25697362422943115,0.001340569811873138,0.00675300182774663,0.9663938879966736
1666739422.17961693,965245865,1,0.2569948136806488,0.0014698143349960446,0.006506646983325481,0.9663897752761841
1666739422.21960974,965285858,1,0.2569349408149719,0.001127848168835044,0.005217183381319046,0.9664139747619629
1666739422.25963473,965325883,1,0.2569887340068817,0.0014221504097804427,0.004653987009078264,0.9664021730422974
1666739422.27960491,965345853,1,0.25677141547203064,0.0010509826242923737,0.003065196331590414,0.9664667248725891
1666739422.29964280,965365891,1,0.2567943334579468,0.0006917524733580649,0.003354837419465184,0.9664599895477295
1666739422.33960271,965405851,1,0.25675347447395325,0.0002242162445327267,0.0022727891337126493,0.9664742350578308
1666739422.37961173,965445860,1,0.25663745403289795,0.000691942113917321,0.001984428381547332,0.9665054678916931
1666739422.41964388,965485892,1,0.25663134455680847,0.0011300924234092236,0.0025227332953363657,0.9665054082870483
1666739422.45963192,965525880,1,0.25658172369003296,0.0010386946378275752,0.003142848378047347,0.9665168523788452
1666739422.47961283,965545861,1,0.2567070722579956,0.0011868721339851618,0.004706982057541609,0.9664770364761353
1666739422.49964190,965565890,1,0.2566182613372803,0.0012196883326396346,0.0038279378786683083,0.9665045142173767
1666739422.53959584,965605844,1,0.25666651129722595,0.0012651723809540272,0.005011478904634714,0.9664862155914307
1666739422.57960272,965645851,1,0.25665006041526794,0.0008280381443910301,0.005843327846378088,0.966486394405365
1666739422.61958194,965685830,1,0.2567843794822693,0.0006904891924932599,0.006589685566723347,0.9664459824562073
1666739422.65964770,965725896,1,0.25667431950569153,0.0013574525946751237,0.007139765657484531,0.9664706587791443
1666739422.67961693,965745865,1,0.2565810978412628,0.0012199889170005918,0.0077298772521317005,0.9664910435676575
1666739422.69962978,965765878,1,0.25669485330581665,0.0019730294588953257,0.008475654758512974,0.9664533138275146
1666739422.73963284,965805881,1,0.25662940740585327,0.0024777697399258614,0.010770225897431374,0.9664466977119446
1666739422.77958679,965845835,1,0.2565532922744751,0.0036461304407566786,0.014577246271073818,0.9664132595062256
1666739422.81958079,965885829,1,0.25656789541244507,0.004235849715769291,0.017547868192195892,0.9663575887680054
1666739422.85960984,965925858,1,0.2563420236110687,0.00425246637314558,0.02064485475420952,0.9663562774658203
1666739422.87960792,965945856,1,0.2562652826309204,0.004310614429414272,0.02127857320010662,0.9663626551628113
1666739422.89960384,965965852,1,0.25622284412384033,0.0035146137233823538,0.02347911149263382,0.9663261771202087
1666739422.93963289,966005881,1,0.255996435880661,0.0027700746431946754,0.02575506828725338,0.9663305878639221
1666739422.97963476,966045883,1,0.25576403737068176,0.0009490514639765024,0.026339326053857803,0.9663798809051514
1666739423.01958680,966085835,1,0.2556598484516144,-0.0017136485548689961,0.025856368243694305,0.9664194583892822
1666739423.05959177,966125840,1,0.2554214894771576,-0.00467675318941474,0.024156469851732254,0.9665166735649109
1666739423.07964182,966145890,1,0.25525185465812683,-0.006579897366464138,0.02237592451274395,0.9665932655334473
1666739423.09957886,966165827,1,0.25515589118003845,-0.007749850396066904,0.022677436470985413,0.9666028618812561
1666739423.13962293,966205871,1,0.25481078028678894,-0.011376343667507172,0.021319149062037468,0.9666889309883118
1666739423.17965078,966245899,1,0.25460463762283325,-0.01442214846611023,0.02022480219602585,0.9667261242866516
1666739423.21961379,966285862,1,0.2543262839317322,-0.01663358137011528,0.019043099135160446,0.9667878746986389
1666739423.25961590,966325864,1,0.25412824749946594,-0.017921000719070435,0.01804376021027565,0.9668360948562622
1666739423.27963090,966345879,1,0.2541802227497101,-0.01811343804001808,0.017795126885175705,0.9668234586715698
1666739423.29959893,966365847,1,0.2538451552391052,-0.01920670084655285,0.015817321836948395,0.966924786567688
1666739423.33963490,966405883,1,0.2536449432373047,-0.020562078803777695,0.013394602574408054,0.9669860601425171
1666739423.37965083,966445899,1,0.2534046769142151,-0.02143806219100952,0.011003605090081692,0.9670602083206177
1666739423.41962481,966485873,1,0.2531340420246124,-0.02124783582985401,0.009157754480838776,0.9671545028686523
1666739423.45961094,966525859,1,0.2529051601886749,-0.02075009047985077,0.008441542275249958,0.9672316908836365
1666739423.47961473,966545863,1,0.2528291642665863,-0.01981893740594387,0.009393885731697083,0.967262327671051
1666739423.49961686,966565865,1,0.25268441438674927,-0.019807634875178337,0.008699188008904457,0.9673068523406982
1666739423.53960586,966605854,1,0.2526114583015442,-0.01874587871134281,0.009391500614583492,0.9673405885696411
1666739423.57964873,966645897,1,0.2525087893009186,-0.017516912892460823,0.009500913321971893,0.9673893451690674
1666739423.61969090,966685939,1,0.252371221780777,-0.015462297014892101,0.010087965056300163,0.9674543738365173
1666739423.65964174,966725890,1,0.25212740898132324,-0.012487624771893024,0.010394592769443989,0.9675576090812683
1666739423.67964578,966745894,1,0.25191977620124817,-0.011091900058090687,0.00978445541113615,0.9676350951194763
1666739423.69957876,966765827,1,0.2521858215332031,-0.008440118283033371,0.011473353020846844,0.9675740003585815
1666739423.73961473,966805863,1,0.25205907225608826,-0.0045031295157969,0.012841563671827316,0.9676161408424377
1666739423.77962589,966845874,1,0.25207221508026123,-0.0012356111546978354,0.014301862567663193,0.9676019549369812
1666739423.81962180,966885870,1,0.2520677447319031,0.0013166135177016258,0.01600029319524765,0.9675763845443726
1666739423.85961390,966925862,1,0.2520231306552887,0.0030483626760542393,0.01759883016347885,0.967556357383728
1666739423.87959790,966945846,1,0.25206127762794495,0.004088285379111767,0.018313635140657425,0.9675293564796448
1666739423.89964390,966965892,1,0.2520197033882141,0.0038771801628172398,0.018511168658733368,0.9675372838973999
1666739423.93962383,967005872,1,0.2521034777164459,0.003641522489488125,0.018654992803931236,0.9675136208534241
1666739423.97959781,967045846,1,0.2522242069244385,0.0031074348371475935,0.01827196590602398,0.9674913287162781
1666739424.01960778,967085856,1,0.2523360848426819,0.0025898830499500036,0.017117884010076523,0.9674847722053528
1666739424.05961585,967125864,1,0.2524106502532959,0.0012670735595747828,0.016089415177702904,0.9674856066703796
1666739424.07963681,967145885,1,0.25259387493133545,0.0009407384204678237,0.016651511192321777,0.9674286246299744
1666739424.09963584,967165884,1,0.2526439428329468,-0.0015476761618629098,0.014174371026456356,0.9674542546272278
1666739424.13961792,967205866,1,0.25272199511528015,-0.0051799556240439415,0.011848044581711292,0.9674525260925293
1666739424.17961788,967245866,1,0.25288283824920654,-0.009570405818521976,0.009609767235815525,0.9674018621444702
1666739424.21962380,967285872,1,0.253002792596817,-0.013645200058817863,0.007671840023249388,0.9673389196395874
1666739424.25963974,967325888,1,0.25330817699432373,-0.0171730387955904,0.006322469562292099,0.9672125577926636
1666739424.27962184,967345870,1,0.25322389602661133,-0.018492314964532852,0.006233862601220608,0.9672108292579651
1666739424.29964471,967365893,1,0.2534117102622986,-0.01881425268948078,0.0058732409961521626,0.9671577215194702
1666739424.33963585,967405884,1,0.2536832392215729,-0.019671106711030006,0.005811531562358141,0.9670698642730713
1666739424.37960792,967445856,1,0.25376492738723755,-0.02028038538992405,0.005831790156662464,0.967035710811615
1666739424.41961789,967485866,1,0.2540126442909241,-0.021074362099170685,0.005316553637385368,0.9669566750526428
1666739424.45959783,967525846,1,0.2541557550430298,-0.02129063569009304,0.004566703923046589,0.9669181704521179
1666739424.47962189,967545870,1,0.2543177008628845,-0.020593715831637383,0.0048225452192127705,0.9668894410133362
1666739424.49964976,967565898,1,0.254189670085907,-0.020749200135469437,0.00405707024037838,0.9669232964515686
1666739424.53961277,967605861,1,0.2543236017227173,-0.019544873386621475,0.0030046217143535614,0.9669169783592224
1666739424.57965088,967645899,1,0.25449156761169434,-0.01773880049586296,0.0021891684737056494,0.9669098258018494
1666739424.61960578,967685854,1,0.2546285092830658,-0.01564623974263668,0.0024932394735515118,0.9669091701507568
1666739424.65961671,967725865,1,0.2547568678855896,-0.013618887402117252,0.0024251120630651712,0.9669061899185181
1666739424.67962074,967745869,1,0.2548289895057678,-0.012738357298076153,0.0031681274995207787,0.9668970108032227
1666739424.69961476,967765863,1,0.25498560070991516,-0.011094908230006695,0.002816766733303666,0.9668771028518677
1666739424.73961473,967805863,1,0.25507432222366333,-0.007963973097503185,0.0021696146577596664,0.9668862223625183
1666739424.77961087,967845859,1,0.255292683839798,-0.0046354299411177635,0.002156095579266548,0.9668502807617188
1666739424.81963682,967885885,1,0.25554358959198,-0.0014829094288870692,0.001698786742053926,0.9667949080467224
1666739424.85961676,967925865,1,0.25576651096343994,0.000790866557508707,0.0016371445963159204,0.9667368531227112
1666739424.87965584,967945904,1,0.2556939125061035,0.0014463001862168312,0.00022341347357723862,0.9667567014694214
1666739424.89962077,967965869,1,0.25583726167678833,0.0023258058354258537,0.0010126519482582808,0.9667165279388428
1666739424.93969774,968005946,1,0.2559490203857422,0.003205580171197653,0.0010720806894823909,0.9666844010353088
1666739424.97963572,968045884,1,0.25599297881126404,0.003459359286352992,0.0016382415778934956,0.9666710495948792
1666739425.01963687,968085885,1,0.2560533285140991,0.0035627586767077446,0.0016981709050014615,0.9666545987129211
1666739425.05960584,968125854,1,0.2561379373073578,0.004020835272967815,0.001219077268615365,0.9666311144828796
1666739425.07963586,968145884,1,0.2563859522342682,0.004358644597232342,0.0021903500892221928,0.9665621519088745
1666739425.09961486,968165863,1,0.2563765347003937,0.004331228323280811,0.0009776519145816565,0.966566801071167
1666739425.13961482,968205863,1,0.2564941942691803,0.004051256459206343,0.0011087878374382854,0.9665366411209106
1666739425.17964172,968245890,1,0.25679001212120056,0.0035653673112392426,0.0011229364899918437,0.9664599895477295
1666739425.21963191,968285880,1,0.25695881247520447,0.003708329051733017,0.001290133805014193,0.9664143919944763
1666739425.25961781,968325866,1,0.25722387433052063,0.003773624775931239,0.0018914068350568414,0.9663426280021667
1666739425.27966475,968345913,1,0.25712302327156067,0.003230118425562978,0.0013007422676309943,0.9663724303245544
1666739425.29960871,968365857,1,0.25730931758880615,0.003334378357976675,0.002187771024182439,0.9663208723068237
1666739425.33961487,968405863,1,0.25741612911224365,0.0031654536724090576,0.0027935004327446222,0.9662914276123047
1666739425.37960792,968445856,1,0.2574852406978607,0.0032184096053242683,0.004457405768334866,0.9662665724754333
1666739425.41964483,968485893,1,0.25754880905151367,0.003601339878514409,0.0076106758788228035,0.9662286043167114
1666739425.45963788,968525886,1,0.2577471137046814,0.00542361568659544,0.014264414086937904,0.9660918712615967
1666739425.47961688,968545865,1,0.2575509548187256,0.005495843943208456,0.01710693910717964,0.9660976529121399
1666739425.49964380,968565892,1,0.25767451524734497,0.007536439690738916,0.023310795426368713,0.96592116355896
1666739425.53962588,968605874,1,0.25764554738998413,0.00921439379453659,0.03123258613049984,0.9656906127929688
1666739425.57960582,968645854,1,0.2574889659881592,0.010371625423431396,0.03808823227882385,0.965474545955658
1666739425.61957884,968685827,1,0.2574578821659088,0.010848237201571465,0.04190361127257347,0.9653195738792419
1666739425.65963578,968725884,1,0.2573021650314331,0.011410566046833992,0.043234359472990036,0.9652959108352661
1666739425.67961884,968745867,1,0.2572513818740845,0.011931265704333782,0.04326295852661133,0.9653018712997437
1666739425.69960570,968765854,1,0.2573980689048767,0.011694805696606636,0.04371577873826027,0.965245246887207
1666739425.73963380,968805882,1,0.2574383318424225,0.011410468257963657,0.041816968470811844,0.9653220176696777
1666739425.77962279,968845871,1,0.2572871148586273,0.01036566961556673,0.03955947607755661,0.9654693007469177
1666739425.81960177,968885850,1,0.25708743929862976,0.009130924940109253,0.0367472842335701,0.9656460881233215
1666739425.85963893,968925887,1,0.25700393319129944,0.007868032902479172,0.0335598960518837,0.9657953977584839
1666739425.87959886,968945847,1,0.2567833662033081,0.00897945836186409,0.0334344245493412,0.9658487439155579
1666739425.89964771,968965896,1,0.256818562746048,0.007158697582781315,0.03062010556459427,0.9659479260444641
1666739425.93961787,969005866,1,0.2568611204624176,0.006672122050076723,0.02842564694583416,0.9660071730613708
1666739425.97960687,969045855,1,0.2565899193286896,0.006295390427112579,0.026645682752132416,0.9661324620246887
1666739426.01960683,969085855,1,0.256357878446579,0.006109497509896755,0.024969708174467087,0.9662400484085083
1666739426.05958390,969125832,1,0.255904883146286,0.006164470221847296,0.023289097473025322,0.9664017558097839
1666739426.07965374,969145902,1,0.25571566820144653,0.004887867718935013,0.021799514070153236,0.9664938449859619
1666739426.09964275,969165891,1,0.2557850778102875,0.005769262555986643,0.021376021206378937,0.9664800763130188
1666739426.13963580,969205884,1,0.25551578402519226,0.004744832403957844,0.018811460584402084,0.9666101932525635
