timestamp,TimeUS,C,Roll,Pitch,Yaw,VN,VE,VD,dPD,PN,PE,PD,GX,GY,GZ,OH
1666739408.53964281,951605891,1,1.03,-0.07,25.32,-0.0350346677005291,-0.15361379086971283,-0.09637001156806946,-0.04040798917412758,-6.991204738616943,-15.282195091247559,2.0739448070526123,0.5700000000000001,-0.14,-0.23,279.72
1666739408.57961488,951645863,1,1.03,-0.07,25.310000000000002,-0.034773971885442734,-0.1517728567123413,-0.09646325558423996,-0.04583970457315445,-6.994462490081787,-15.287501335144043,2.071841239929199,0.5700000000000001,-0.14,-0.23,279.72
1666739408.61960292,951685851,1,1.03,-0.07,25.310000000000002,-0.034021761268377304,-0.14959324896335602,-0.09618823230266571,-0.05137486383318901,-6.997602462768555,-15.292266845703125,2.069715976715088,0.5700000000000001,-0.14,-0.23,279.72
1666739408.65963674,951725885,1,1.03,-0.07,25.310000000000002,-0.03285125643014908,-0.14724332094192505,-0.09603241086006165,-0.05393221601843834,-7.000738143920898,-15.296124458312988,2.0676143169403076,0.5700000000000001,-0.14,-0.23,279.72
1666739408.67957377,951745822,1,1.04,-0.07,25.3,-0.03239380195736885,-0.1456662267446518,-0.09599300473928452,-0.0556657575070858,-7.002461910247803,-15.297835350036621,2.066653251647949,0.5700000000000001,-0.14,-0.23,279.72
1666739408.69962573,951765874,1,1.04,-0.07,25.3,-0.031967051327228546,-0.14466314017772675,-0.09606611728668213,-0.05686021223664284,-7.0035881996154785,-15.300108909606934,2.0652015209198,0.5700000000000001,-0.14,-0.23,279.72
1666739408.73963571,951805884,1,1.05,-0.07,25.3,-0.03165670111775398,-0.1420687735080719,-0.09587549418210983,-0.06089963763952255,-7.006170749664307,-15.304068565368652,2.0625898838043213,0.5700000000000001,-0.14,-0.23,279.72
1666739408.77960873,951845857,1,1.05,-0.07,25.29,-0.03106391429901123,-0.13906413316726685,-0.09598521143198013,-0.065153568983078,-7.0088396072387695,-15.307340621948242,2.0603458881378174,0.5700000000000001,-0.14,-0.23,279.72
1666739408.81957674,951885825,1,1.05,-0.08,25.29,-0.030376674607396126,-0.1362161934375763,-0.09517482668161392,-0.06616652756929398,-7.011439323425293,-15.311890602111816,2.0580852031707764,0.5700000000000001,-0.14,-0.23,279.72
1666739408.85960579,951925854,1,1.05,-0.08,25.29,-0.029425209388136864,-0.133863165974617,-0.09483025223016739,-0.06290525943040848,-7.014009952545166,-15.316628456115723,2.0557806491851807,0.5700000000000001,-0.14,-0.23,279.72
1666739408.87962985,951945878,1,1.05,-0.08,25.29,-0.028649533167481422,-0.13274504244327545,-0.09501730650663376,-0.06252939999103546,-7.015384197235107,-15.31883430480957,2.0547642707824707,0.5700000000000001,-0.14,-0.23,279.72
1666739408.89962673,951965875,1,1.06,-0.09,25.29,-0.028204696252942085,-0.13198454678058624,-0.09495561569929123,-0.06193866953253746,-7.016314506530762,-15.321242332458496,2.053276777267456,0.5700000000000001,-0.14,-0.23,279.72
1666739408.93965077,952005899,1,1.06,-0.09,25.29,-0.02684897743165493,-0.13075707852840424,-0.09529352188110352,-0.06268755346536636,-7.018385410308838,-15.325822830200195,2.050753593444824,0.5700000000000001,-0.14,-0.23,279.72
1666739408.97962880,952045877,1,1.07,-0.09,25.28,-0.025893857702612877,-0.12843933701515198,-0.09512031078338623,-0.06308644264936447,-7.020448684692383,-15.32996654510498,2.0486059188842773,0.5700000000000001,-0.14,-0.23,279.72
1666739409.01960683,952085855,1,1.07,-0.09,25.27,-0.02517397329211235,-0.12577174603939056,-0.09462942183017731,-0.0621720552444458,-7.023434162139893,-15.33353328704834,2.0465211868286133,0.5700000000000001,-0.14,-0.23,279.72
1666739409.05960894,952125857,1,1.07,-0.09,25.27,-0.025023577734827995,-0.12291649729013443,-0.09415187686681747,-0.05387027934193611,-7.026737213134766,-15.336596488952637,2.0447499752044678,0.5700000000000001,-0.14,-0.23,279.72
1666739409.07964683,952145895,1,1.07,-0.1,25.27,-0.024972975254058838,-0.12132067233324051,-0.09406480938196182,-0.05079250410199165,-7.028589248657227,-15.337836265563965,2.044055700302124,0.5700000000000001,-0.14,-0.23,279.72
1666739409.09960675,952165855,1,1.07,-0.1,25.27,-0.02446150965988636,-0.12058009207248688,-0.0942087396979332,-0.04826543107628822,-7.0297112464904785,-15.339668273925781,2.0427298545837402,0.5700000000000001,-0.14,-0.23,279.72
1666739409.13961792,952205866,1,1.08,-0.1,25.27,-0.02405298687517643,-0.11850866675376892,-0.09422522038221359,-0.0468066968023777,-7.032380104064941,-15.342766761779785,2.0406041145324707,0.5700000000000001,-0.14,-0.23,279.72
1666739409.17961192,952245860,1,1.08,-0.1,25.27,-0.023468587547540665,-0.11648423224687576,-0.09412956237792969,-0.048427894711494446,-7.035228252410889,-15.345390319824219,2.038764476776123,0.5700000000000001,-0.14,-0.23,279.72
1666739409.21962571,952285874,1,1.08,-0.1,25.27,-0.023671025410294533,-0.11462482810020447,-0.09339752793312073,-0.04713654890656471,-7.0391130447387695,-15.348899841308594,2.0376665592193604,0.5700000000000001,-0.14,-0.23,279.72
1666739409.25960875,952325857,1,1.09,-0.1,25.27,-0.023988500237464905,-0.11244407296180725,-0.09272219985723495,-0.029697997495532036,-7.0434465408325195,-15.35242748260498,2.0372021198272705,0.5700000000000001,-0.14,-0.23,279.72
1666739409.27959871,952345847,1,1.09,-0.11,25.27,-0.024368559941649437,-0.11065325886011124,-0.09199037402868271,-0.021984048187732697,-7.045953273773193,-15.354050636291504,2.037254810333252,0.5700000000000001,-0.14,-0.23,279.72
1666739409.29962087,952365869,1,1.09,-0.1,25.27,-0.024577584117650986,-0.1099809929728508,-0.09161663055419922,-0.015661804005503654,-7.0473713874816895,-15.355879783630371,2.0363693237304688,0.5700000000000001,-0.14,-0.23,279.72
1666739409.33959985,952405848,1,1.09,-0.1,25.26,-0.024402352049946785,-0.10850588977336884,-0.09107734262943268,-0.010369101539254189,-7.05092716217041,-15.359288215637207,2.0353574752807617,0.5700000000000001,-0.14,-0.23,279.72
1666739409.37962174,952445870,1,1.09,-0.1,25.26,-0.02436826378107071,-0.10703516751527786,-0.09026883542537689,-0.01181216910481453,-7.054851055145264,-15.362395286560059,2.0348198413848877,0.5700000000000001,-0.14,-0.23,279.72
1666739409.41963577,952485884,1,1.1,-0.1,25.26,-0.024004464969038963,-0.10517313331365585,-0.09032069891691208,-0.018482686951756477,-7.058981895446777,-15.365459442138672,2.0330638885498047,0.5700000000000001,-0.14,-0.23,279.72
1666739409.45961094,952525859,1,1.1,-0.1,25.25,-0.024040166288614273,-0.10275457799434662,-0.08979576081037521,-0.02894156612455845,-7.063298225402832,-15.368268013000488,2.0310096740722656,0.5700000000000001,-0.14,-0.23,279.72
1666739409.47963881,952545887,1,1.1,-0.11,25.25,-0.02422141097486019,-0.10117162019014359,-0.08975020051002502,-0.03514063358306885,-7.065770149230957,-15.369413375854492,2.030169725418091,0.5700000000000001,-0.14,-0.23,279.72
1666739409.49957681,952565825,1,1.1,-0.11,25.25,-0.02411036752164364,-0.10053224861621857,-0.08969053626060486,-0.040707919746637344,-7.067200660705566,-15.371060371398926,2.028763771057129,0.5700000000000001,-0.14,-0.23,279.72
1666739409.53961182,952605860,1,1.11,-0.11,25.25,-0.024283789098262787,-0.09835164248943329,-0.08964215219020844,-0.051479000598192215,-7.070734977722168,-15.3738431930542,2.026320695877075,0.5700000000000001,-0.14,-0.23,279.72
1666739409.57963276,952645881,1,1.11,-0.11,25.240000000000002,-0.024556774646043777,-0.09644094109535217,-0.08939498662948608,-0.060676198452711105,-7.074648380279541,-15.376276969909668,2.024005889892578,0.5700000000000001,-0.14,-0.23,279.72
1666739409.61960387,952685852,1,1.11,-0.11,25.240000000000002,-0.024006923660635948,-0.0945182591676712,-0.08945539593696594,-0.06703262776136398,-7.078324317932129,-15.379334449768066,2.0215370655059814,0.5700000000000001,-0.14,-0.23,279.72
1666739409.65963387,952725882,1,1.11,-0.11,25.23,-0.023369083181023598,-0.09313089400529861,-0.08926655352115631,-0.06675227731466293,-7.081997871398926,-15.382403373718262,2.0192251205444336,0.5700000000000001,-0.14,-0.23,279.72
1666739409.67960286,952745851,1,1.11,-0.11,25.23,-0.023317398503422737,-0.0923144668340683,-0.08916062861680984,-0.06639640033245087,-7.0840840339660645,-15.383814811706543,2.0181827545166016,0.5700000000000001,-0.14,-0.23,279.72
1666739409.69959784,952765846,1,1.11,-0.11,25.22,-0.023198412731289864,-0.09198804944753647,-0.089372418820858,-0.06603054702281952,-7.0853142738342285,-15.385478019714355,2.0167057514190674,0.5700000000000001,-0.14,-0.23,279.72
1666739409.73962092,952805869,1,1.11,-0.11,25.21,-0.022898990660905838,-0.09027118980884552,-0.08929550647735596,-0.06540058553218842,-7.088297367095947,-15.388482093811035,2.014280319213867,0.5700000000000001,-0.14,-0.23,279.72
1666739409.77960086,952845849,1,1.11,-0.11,25.21,-0.023125048726797104,-0.08855757117271423,-0.08903196454048157,-0.06451183557510376,-7.0915446281433105,-15.391214370727539,2.0121591091156006,0.5700000000000001,-0.14,-0.23,279.72
1666739409.81963491,952885883,1,1.11,-0.11,25.21,-0.02315530553460121,-0.08682214468717575,-0.08881200850009918,-0.06176929548382759,-7.095437526702881,-15.394468307495117,2.0106232166290283,0.5700000000000001,-0.14,-0.23,279.72
1666739409.85962176,952925870,1,1.11,-0.11,25.21,-0.022979851812124252,-0.08536253124475479,-0.08848517388105392,-0.04575847089290619,-7.099671840667725,-15.397849082946777,2.009464979171753,0.5700000000000001,-0.14,-0.23,279.72
1666739409.87960792,952945856,1,1.11,-0.11,25.21,-0.02301909774541855,-0.08449109643697739,-0.08812036365270615,-0.03944108635187149,-7.102078437805176,-15.399408340454102,2.009197950363159,0.5700000000000001,-0.14,-0.23,279.72
1666739409.89963579,952965884,1,1.11,-0.11,25.21,-0.022965747863054276,-0.08407516032457352,-0.0878741592168808,-0.03348482772707939,-7.103462219238281,-15.401073455810547,2.008082389831543,0.5700000000000001,-0.14,-0.23,279.72
1666739409.93960690,953005855,1,1.12,-0.12,25.2,-0.02278750203549862,-0.08315494656562805,-0.08743104338645935,-0.028463104739785194,-7.106887340545654,-15.404237747192383,2.006598949432373,0.5700000000000001,-0.14,-0.23,279.72
1666739409.97959971,953045848,1,1.12,-0.12,25.2,-0.023190496489405632,-0.08214370161294937,-0.08709333837032318,-0.028639670461416245,-7.110666275024414,-15.407295227050781,2.0054938793182373,0.5700000000000001,-0.14,-0.23,279.72
1666739410.01958179,953085830,1,1.12,-0.12,25.19,-0.0235946886241436,-0.07911022752523422,-0.08634302765130997,-0.028431570157408714,-7.114482402801514,-15.409133911132812,2.004601240158081,0.5700000000000001,-0.14,-0.23,279.72
1666739410.05963278,953125881,1,1.12,-0.12,25.19,-0.02347244881093502,-0.07579546421766281,-0.08601611852645874,-0.019271621480584145,-7.1184282302856445,-15.410384178161621,2.0039801597595215,0.5700000000000001,-0.14,-0.23,279.72
1666739410.07961273,953145861,1,1.12,-0.12,25.19,-0.023644383996725082,-0.0740479826927185,-0.08583374321460724,-0.016289683058857918,-7.1206889152526855,-15.410746574401855,2.0039429664611816,0.5700000000000001,-0.14,-0.23,279.72
1666739410.09959793,953165846,1,1.12,-0.13,25.19,-0.02351175993680954,-0.07293111085891724,-0.08561109006404877,-0.01336086355149746,-7.121994495391846,-15.411674499511719,2.003016471862793,0.5700000000000001,-0.14,-0.23,279.72
1666739410.13963079,953205879,1,1.1300000000000001,-0.13,25.19,-0.023173881694674492,-0.07062380760908127,-0.08535264432430267,-0.01354686263948679,-7.125226020812988,-15.413036346435547,2.00186824798584,0.5700000000000001,-0.14,-0.23,279.72
1666739410.17960882,953245857,1,1.1300000000000001,-0.13,25.18,-0.02288983389735222,-0.06873438507318497,-0.08435435593128204,-0.016846762970089912,-7.128747463226318,-15.413982391357422,2.001192092895508,0.5700000000000001,-0.14,-0.23,279.72
1666739410.21958780,953285836,1,1.1300000000000001,-0.13,25.18,-0.022339249029755592,-0.06767621636390686,-0.08407366275787354,-0.02067832089960575,-7.132266521453857,-15.41647720336914,2.000429630279541,0.5700000000000001,-0.14,-0.23,279.72
1666739410.25960183,953325850,1,1.1400000000000001,-0.13,25.18,-0.022188274189829826,-0.06636719405651093,-0.08370250463485718,-0.015032196417450905,-7.135880470275879,-15.419393539428711,1.9999102354049683,0.5700000000000001,-0.14,-0.23,279.72
1666739410.27959991,953345848,1,1.1400000000000001,-0.13,25.18,-0.022241070866584778,-0.06573254615068436,-0.08342862874269485,-0.013459908775985241,-7.137941837310791,-15.420838356018066,1.9999254941940308,0.5700000000000001,-0.14,-0.23,279.72
1666739410.29962873,953365877,1,1.1400000000000001,-0.13,25.17,-0.021783262491226196,-0.06515979766845703,-0.08342429995536804,-0.011916141957044601,-7.139132976531982,-15.422201156616211,1.999048113822937,0.5700000000000001,-0.14,-0.23,279.72
1666739410.33962679,953405875,1,1.1300000000000001,-0.13,25.17,-0.021715212613344193,-0.06376020610332489,-0.08321013301610947,-0.013554227538406849,-7.14206600189209,-15.424914360046387,1.9980300664901733,0.5700000000000001,-0.14,-0.23,279.72
1666739410.37960172,953445850,1,1.1300000000000001,-0.13,25.16,-0.02137717418372631,-0.06256690621376038,-0.08286739140748978,-0.01810389757156372,-7.145261287689209,-15.427617073059082,1.997389316558838,0.5700000000000001,-0.14,-0.23,279.72
1666739410.41961789,953485866,1,1.1300000000000001,-0.13,25.16,-0.020979994907975197,-0.06126497685909271,-0.08214129507541656,-0.02052905783057213,-7.148658752441406,-15.429746627807617,1.9970769882202148,0.5700000000000001,-0.14,-0.23,279.72
1666739410.45960975,953525858,1,1.1400000000000001,-0.13,25.16,-0.021196037530899048,-0.059790436178445816,-0.08129165321588516,-0.007870168425142765,-7.152222633361816,-15.431634902954102,1.9972761869430542,0.5700000000000001,-0.14,-0.23,279.72
1666739410.47963285,953545881,1,1.1400000000000001,-0.14,25.16,-0.021490855142474174,-0.059051916003227234,-0.08051923662424088,-0.0028130796272307634,-7.154272556304932,-15.432524681091309,1.997685194015503,0.5700000000000001,-0.14,-0.23,279.72
1666739410.49963188,953565880,1,1.1400000000000001,-0.13,25.16,-0.021343689411878586,-0.05845305696129799,-0.07986532151699066,0.002186608500778675,-7.155445098876953,-15.433514595031738,1.9970823526382446,0.5700000000000001,-0.14,-0.23,279.72
1666739410.53962278,953605871,1,1.1400000000000001,-0.13,25.150000000000002,-0.021581722423434258,-0.05705096945166588,-0.07885140180587769,0.0041703409515321255,-7.158372402191162,-15.435405731201172,1.9966100454330444,0.5700000000000001,-0.14,-0.23,279.72
1666739410.57965088,953645899,1,1.1400000000000001,-0.13,25.150000000000002,-0.021821636706590652,-0.05522729456424713,-0.07834219932556152,-0.00014542338612955064,-7.161569118499756,-15.43713092803955,1.9966284036636353,0.5700000000000001,-0.14,-0.23,279.72
1666739410.61960983,953685858,1,1.1400000000000001,-0.13,25.150000000000002,-0.021886102855205536,-0.053855542093515396,-0.07775185257196426,-0.00627907132729888,-7.164402008056641,-15.439146041870117,1.9959197044372559,0.5700000000000001,-0.14,-0.23,279.72
1666739410.65958881,953725837,1,1.1400000000000001,-0.13,25.14,-0.021224776282906532,-0.05236392840743065,-0.07776882499456406,-0.010262232273817062,-7.16717529296875,-15.441190719604492,1.9951773881912231,0.5700000000000001,-0.14,-0.23,279.72
1666739410.67960286,953745851,1,1.1400000000000001,-0.13,25.14,-0.020936641842126846,-0.05193648859858513,-0.07768116891384125,-0.01305086724460125,-7.168731212615967,-15.442205429077148,1.9949909448623657,0.5700000000000001,-0.14,-0.23,279.72
1666739410.69960690,953765855,1,1.1400000000000001,-0.13,25.14,-0.020675694569945335,-0.05173804983496666,-0.07768736034631729,-0.015236628241837025,-7.169656753540039,-15.443192481994629,1.9941269159317017,0.5700000000000001,-0.14,-0.23,279.72
1666739410.73962975,953805878,1,1.1500000000000001,-0.14,25.14,-0.019836552441120148,-0.0508187860250473,-0.07767167687416077,-0.02144068479537964,-7.171874523162842,-15.445167541503906,1.9929656982421875,0.5700000000000001,-0.14,-0.23,279.72
1666739410.77962875,953845877,1,1.1500000000000001,-0.14,25.14,-0.019097916781902313,-0.04935802146792412,-0.07708131521940231,-0.027066035196185112,-7.1742119789123535,-15.447081565856934,1.9921571016311646,0.5700000000000001,-0.14,-0.23,279.72
1666739410.81962776,953885876,1,1.1500000000000001,-0.14,25.13,-0.018697230145335197,-0.04760191589593887,-0.07744891941547394,-0.03632616251707077,-7.176905632019043,-15.448949813842773,1.9897338151931763,0.5700000000000001,-0.14,-0.23,279.72
1666739410.85959673,953925845,1,1.1500000000000001,-0.14,25.13,-0.018642449751496315,-0.046343088150024414,-0.07778064161539078,-0.0537373311817646,-7.179775714874268,-15.450733184814453,1.986906886100769,0.5700000000000001,-0.14,-0.23,279.72
1666739410.87961078,953945859,1,1.1500000000000001,-0.14,25.13,-0.01854007877409458,-0.045592766255140305,-0.07800677418708801,-0.06174302101135254,-7.181380748748779,-15.451562881469727,1.9855515956878662,0.5700000000000001,-0.14,-0.23,279.72
1666739410.89959788,953965846,1,1.1500000000000001,-0.14,25.13,-0.018426548689603806,-0.044959262013435364,-0.07786546647548676,-0.06851599365472794,-7.182332992553711,-15.452455520629883,1.9840352535247803,0.5700000000000001,-0.14,-0.23,279.72
1666739410.93963790,954005886,1,1.1500000000000001,-0.14,25.13,-0.018167607486248016,-0.044347211718559265,-0.07817859947681427,-0.07711323350667953,-7.1846208572387695,-15.45412540435791,1.9814133644104004,0.5700000000000001,-0.14,-0.23,279.72
1666739410.97965693,954045905,1,1.1500000000000001,-0.14,25.12,-0.01752159185707569,-0.04299502074718475,-0.07826021313667297,-0.07909823209047318,-7.187072277069092,-15.455764770507812,1.9789222478866577,0.5700000000000001,-0.14,-0.23,279.72
1666739411.01963973,954085888,1,1.1500000000000001,-0.14,25.12,-0.017535913735628128,-0.04155411198735237,-0.07872068136930466,-0.07987489551305771,-7.18989896774292,-15.456765174865723,1.9760290384292603,0.5700000000000001,-0.14,-0.23,279.72
1666739411.05962181,954125870,1,1.1500000000000001,-0.14,25.12,-0.017386969178915024,-0.03930242732167244,-0.07938973605632782,-0.08113604038953781,-7.192915916442871,-15.457450866699219,1.9730712175369263,0.5700000000000001,-0.14,-0.23,279.72
1666739411.07963371,954145882,1,1.1500000000000001,-0.14,25.11,-0.01732020638883114,-0.03805616497993469,-0.07969918847084045,-0.08173077553510666,-7.194620609283447,-15.45763111114502,1.9716390371322632,0.5700000000000001,-0.14,-0.23,279.72
1666739411.09961581,954165864,1,1.1500000000000001,-0.14,25.11,-0.017183128744363785,-0.03705416992306709,-0.07974881678819656,-0.08201638609170914,-7.195610523223877,-15.458126068115234,1.9700615406036377,0.5700000000000001,-0.14,-0.23,279.72
1666739411.13960385,954205852,1,1.1500000000000001,-0.14,25.11,-0.016758723184466362,-0.03576665744185448,-0.08003760129213333,-0.08197459578514099,-7.198022365570068,-15.458820343017578,1.9671380519866943,0.5700000000000001,-0.14,-0.23,279.72
1666739411.17965484,954245903,1,1.1500000000000001,-0.14,25.11,-0.01693369448184967,-0.03383758291602135,-0.08021695911884308,-0.08056189864873886,-7.200640678405762,-15.459306716918945,1.9643112421035767,0.5700000000000001,-0.14,-0.23,279.72
1666739411.21961474,954285863,1,1.1500000000000001,-0.14,25.11,-0.01677779294550419,-0.032258182764053345,-0.08052248507738113,-0.08081308752298355,-7.2031025886535645,-15.459898948669434,1.9609835147857666,0.5700000000000001,-0.14,-0.23,279.72
1666739411.25965285,954325901,1,1.1500000000000001,-0.15,25.11,-0.01643076166510582,-0.030107611790299416,-0.08085717260837555,-0.08267174661159515,-7.205542087554932,-15.460389137268066,1.9577829837799072,0.5700000000000001,-0.14,-0.23,279.72
1666739411.27959585,954345844,1,1.1500000000000001,-0.14,25.11,-0.017110073938965797,-0.02970956824719906,-0.08093135058879852,-0.08330398052930832,-7.20692253112793,-15.46052074432373,1.956189751625061,0.5700000000000001,-0.14,-0.23,279.72
1666739411.29959679,954365845,1,1.1500000000000001,-0.15,25.11,-0.01622338406741619,-0.02846074476838112,-0.08119237422943115,-0.08412624150514603,-7.2077507972717285,-15.460901260375977,1.9545214176177979,0.5700000000000001,-0.14,-0.23,279.72
1666739411.33960390,954405852,1,1.1500000000000001,-0.15,25.1,-0.016430916264653206,-0.027443697676062584,-0.08157171308994293,-0.08440770953893661,-7.209708213806152,-15.461418151855469,1.9513800144195557,0.5700000000000001,-0.14,-0.23,279.72
1666739411.37958193,954445830,1,1.1500000000000001,-0.15,25.09,-0.014350460842251778,-0.026214823126792908,-0.08217650651931763,-0.08329950273036957,-7.211804389953613,-15.461831092834473,1.9482853412628174,0.5700000000000001,-0.14,-0.23,279.72
1666739411.41963887,954485887,1,1.1500000000000001,-0.15,25.080000000000002,-0.016579248011112213,-0.024466607719659805,-0.08293797075748444,-0.0831226035952568,-7.215281963348389,-15.462238311767578,1.945059895515442,0.5700000000000001,-0.14,-0.23,279.72
1666739411.45963383,954525882,1,1.1500000000000001,-0.15,25.09,-0.015167848207056522,-0.022630853578448296,-0.08412583917379379,-0.08317503333091736,-7.219380855560303,-15.46270751953125,1.9418741464614868,0.5700000000000001,-0.14,-0.23,279.72
1666739411.47961187,954545860,1,1.1400000000000001,-0.15,25.1,-0.016241734847426414,-0.02132401429116726,-0.08460210263729095,-0.08315854519605637,-7.221765041351318,-15.462811470031738,1.9402730464935303,0.5700000000000001,-0.14,-0.23,279.72
1666739411.49962378,954565872,1,1.1400000000000001,-0.15,25.11,-0.01791096292436123,-0.023764051496982574,-0.08336567878723145,-0.08159495145082474,-7.223085880279541,-15.463113784790039,1.9386266469955444,0.5700000000000001,-0.14,-0.23,279.72
1666739411.53960276,954605851,1,1.1400000000000001,-0.15,25.12,-0.017900053411722183,-0.020558100193738937,-0.0840328112244606,-0.08078465610742569,-7.226464748382568,-15.463608741760254,1.9356175661087036,0.5700000000000001,-0.14,-0.23,279.72
1666739411.57962680,954645875,1,1.1400000000000001,-0.14,25.14,-0.01784931682050228,-0.02372988499701023,-0.08424350619316101,-0.07794685661792755,-7.230282783508301,-15.464093208312988,1.932709813117981,0.5700000000000001,-0.14,-0.23,279.72
1666739411.61960793,954685856,1,1.1500000000000001,-0.14,25.13,-0.01591634936630726,-0.018019655719399452,-0.08444815129041672,-0.0762966200709343,-7.232908725738525,-15.46465015411377,1.929747223854065,0.5700000000000001,-0.14,-0.23,279.72
1666739411.65963078,954725879,1,1.1500000000000001,-0.15,25.11,-0.02154087834060192,-0.01844770461320877,-0.08461328595876694,-0.07537122815847397,-7.235256195068359,-15.464261054992676,1.926543951034546,0.5700000000000001,-0.14,-0.23,279.72
1666739411.67959380,954745842,1,1.1400000000000001,-0.14,25.09,-0.02074858359992504,-0.017208391800522804,-0.0843077301979065,-0.07562857121229172,-7.2366437911987305,-15.463973999023438,1.9249050617218018,0.5700000000000001,-0.14,-0.23,279.72
1666739411.69962192,954765870,1,1.1300000000000001,-0.14,25.09,-0.015215478837490082,-0.015112701803445816,-0.08439083397388458,-0.07654080539941788,-7.2374348640441895,-15.463991165161133,1.923292875289917,0.5700000000000001,-0.14,-0.23,279.72
1666739411.73963690,954805885,1,1.09,-0.14,25.1,-0.01733841933310032,-0.014044435694813728,-0.08240076899528503,-0.07638617604970932,-7.239142417907715,-15.46373176574707,1.9200541973114014,0.5700000000000001,-0.14,-0.23,279.72
1666739411.77960682,954845855,1,1.06,-0.14,25.12,-0.019452277570962906,-0.005564515013247728,-0.0875861719250679,-0.08281105011701584,-7.241334438323975,-15.46329402923584,1.9168941974639893,0.5700000000000001,-0.14,-0.23,279.72
1666739411.81959987,954885848,1,1.08,-0.15,25.150000000000002,-0.013443629257380962,-0.012151646427810192,-0.08572589606046677,-0.0829748585820198,-7.242824077606201,-15.460857391357422,1.9133878946304321,0.5700000000000001,-0.14,-0.23,279.72
1666739411.85965776,954925906,1,1.08,-0.14,25.16,-0.01387577410787344,-0.014260944910347462,-0.07826947420835495,-0.07986585050821304,-7.244328498840332,-15.457746505737305,1.9097472429275513,0.5700000000000001,-0.14,-0.24,279.72
1666739411.87960672,954945855,1,1.08,-0.14,25.17,-0.007392150815576315,-0.019771119579672813,-0.08119761198759079,-0.08477087318897247,-7.245057106018066,-15.4558687210083,1.9078468084335327,0.5700000000000001,-0.14,-0.23,279.72
1666739411.89962792,954965876,1,1.1400000000000001,-0.16,25.17,-0.015384544618427753,-0.017319384962320328,-0.08289575576782227,-0.08823046088218689,-7.245476245880127,-15.45520305633545,1.906095027923584,0.5700000000000001,-0.14,-0.23,279.72
1666739411.93963075,955005879,1,1.08,-0.16,25.16,-0.0142532829195261,0.0008177662966772914,-0.087096206843853,-0.09496700018644333,-7.246587753295898,-15.452691078186035,1.9023643732070923,0.5700000000000001,-0.14,-0.24,279.72
1666739411.97965479,955045903,1,1.1300000000000001,-0.13,25.17,-0.01735345833003521,-0.008873687125742435,-0.08689188957214355,-0.09623803943395615,-7.247880935668945,-15.449633598327637,1.8986225128173828,0.5700000000000001,-0.14,-0.24,279.72
1666739412.01962781,955085876,1,1.07,-0.14,25.18,-0.0006667390116490424,0.00357154943048954,-0.08554337918758392,-0.09204991161823273,-7.247727870941162,-15.446656227111816,1.8956611156463623,0.5700000000000001,-0.14,-0.24,279.72
1666739412.05959678,955125845,1,1.11,-0.15,25.23,-0.019683247432112694,0.004189725965261459,-0.08090474456548691,-0.07895448803901672,-7.247625827789307,-15.444364547729492,1.8926732540130615,0.5700000000000001,-0.14,-0.24,279.72
1666739412.07963586,955145884,1,1.11,-0.17,25.25,-0.0020594201050698757,0.002609590068459511,-0.08489600569009781,-0.07939472794532776,-7.247370719909668,-15.442864418029785,1.8912584781646729,0.5700000000000001,-0.14,-0.24,279.72
1666739412.09963894,955165887,1,1.11,-0.16,25.27,0.004938645754009485,0.007910498417913914,-0.08488324284553528,-0.076462022960186,-7.247128486633301,-15.44215202331543,1.8897038698196411,0.5700000000000001,-0.14,-0.24,279.72
1666739412.13964772,955205896,1,1.1500000000000001,-0.16,25.310000000000002,-0.007501346059143543,0.001072018756531179,-0.09434641897678375,-0.08089476823806763,-7.246819019317627,-15.440377235412598,1.8869132995605469,0.5700000000000001,-0.14,-0.24,279.72
1666739412.17964888,955245897,1,1.1,-0.18,25.34,-0.0011618535500019789,0.008100134320557117,-0.08180900663137436,-0.06318289041519165,-7.246097087860107,-15.43803596496582,1.8843411207199097,0.5700000000000001,-0.14,-0.24,279.72
1666739412.21960473,955285853,1,1.12,-0.14,25.36,-0.004176103509962559,0.0073850201442837715,-0.08863960206508636,-0.06590627878904343,-7.246453762054443,-15.435953140258789,1.88211190700531,0.5700000000000001,-0.14,-0.24,279.72
1666739412.25959086,955325839,1,1.11,-0.16,25.38,-0.007494424004107714,0.008683920837938786,-0.0860009491443634,-0.05339297279715538,-7.246891021728516,-15.433772087097168,1.880119800567627,0.5700000000000001,-0.14,-0.24,279.72
1666739412.27960491,955345853,1,1.12,-0.17,25.38,-0.004511293023824692,0.011123644188046455,-0.09379053115844727,-0.057645414024591446,-7.247117042541504,-15.432576179504395,1.879271388053894,0.5700000000000001,-0.14,-0.24,279.72
1666739412.29960680,955365855,1,1.09,-0.16,25.38,-0.004493316635489464,0.015213391743600368,-0.08533114939928055,-0.04633672162890434,-7.247252464294434,-15.431879043579102,1.8780357837677002,0.5700000000000001,-0.14,-0.24,279.72
1666739412.33964872,955405897,1,1.06,-0.16,25.400000000000002,0.0009403068688698113,0.005943276919424534,-0.08737574517726898,-0.04622377082705498,-7.247542381286621,-15.430240631103516,1.8758703470230103,0.5700000000000001,-0.14,-0.24,279.72
1666739412.37965178,955445900,1,1.07,-0.16,25.44,0.003029800485819578,0.008976624347269535,-0.08664893358945847,-0.04584721848368645,-7.247579574584961,-15.42861270904541,1.8739650249481201,0.5700000000000001,-0.14,-0.24,279.72
1666739412.41964078,955485889,1,1.11,-0.16,25.47,0.0002558811684139073,0.012631537392735481,-0.08526720851659775,-0.043385185301303864,-7.248893737792969,-15.426456451416016,1.872646450996399,0.5700000000000001,-0.14,-0.24,279.72
1666739412.45959282,955525841,1,1.11,-0.16,25.52,-0.004385076928883791,0.015575826168060303,-0.08440833538770676,-0.03088831901550293,-7.250380992889404,-15.424217224121094,1.8716225624084473,0.5700000000000001,-0.14,-0.24,279.72
1666739412.47960973,955545858,1,1.08,-0.16,25.51,-0.008273356594145298,0.032066065818071365,-0.0812363401055336,-0.0237578097730875,-7.251513481140137,-15.422698020935059,1.871338963508606,0.5700000000000001,-0.14,-0.24,279.72
1666739412.49960685,955565855,1,1.1,-0.15,25.52,-0.0028656525537371635,0.020722782239317894,-0.07597089558839798,-0.015058540739119053,-7.252094268798828,-15.421674728393555,1.8703014850616455,0.5700000000000001,-0.14,-0.24,279.72
1666739412.53961182,955605860,1,1.06,-0.16,25.54,-0.0016059535555541515,0.02050648257136345,-0.08861179649829865,-0.024941187351942062,-7.253250598907471,-15.419927597045898,1.8691328763961792,0.5700000000000001,-0.14,-0.24,279.72
1666739412.57962680,955645875,1,1.08,-0.15,25.54,0.0054417564533650875,0.007114664185792208,-0.09803751856088638,-0.033734869211912155,-7.2548508644104,-15.417571067810059,1.8684848546981812,0.5700000000000001,-0.14,-0.24,279.72
1666739412.61962271,955685871,1,1.1,-0.15,25.560000000000002,-0.00035353671410121024,0.021363073959946632,-0.08051104843616486,-0.016330499202013016,-7.255961894989014,-15.414689064025879,1.8677042722702026,0.5700000000000001,-0.14,-0.24,279.72
1666739412.65963888,955725887,1,1.1,-0.16,25.580000000000002,-0.004501752555370331,0.013580805622041225,-0.07532535493373871,-0.006972887087613344,-7.25723123550415,-15.410711288452148,1.8667680025100708,0.5700000000000001,-0.14,-0.24,279.72
1666739412.67964077,955745889,1,1.1,-0.16,25.61,-0.0007103742100298405,0.012546297162771225,-0.07675577700138092,-0.008732626214623451,-7.257959842681885,-15.408711433410645,1.8666057586669922,0.5700000000000001,-0.14,-0.24,279.72
1666739412.69959688,955765845,1,1.11,-0.17,25.62,-0.0026864565443247557,0.026960495859384537,-0.08441633731126785,-0.016628606244921684,-7.258288383483887,-15.40748405456543,1.8656504154205322,0.5700000000000001,-0.14,-0.24,279.72
1666739412.73959184,955805840,1,1.11,-0.15,25.650000000000002,0.0017336489399895072,0.018719809129834175,-0.0886930376291275,-0.024213401600718498,-7.259261131286621,-15.404056549072266,1.8645118474960327,0.5700000000000001,-0.14,-0.25,279.72
1666739412.77960777,955845856,1,1.06,-0.16,25.68,-0.0010883599752560258,0.02918798290193081,-0.08580105006694794,-0.025350386276841164,-7.26027774810791,-15.400744438171387,1.8638906478881836,0.5700000000000001,-0.14,-0.25,279.72
1666739412.81961894,955885867,1,1.05,-0.17,25.69,0.007775490637868643,0.015363015234470367,-0.07595694810152054,-0.02124890871345997,-7.261521339416504,-15.396154403686523,1.8623740673065186,0.5700000000000001,-0.14,-0.25,279.72
1666739412.85962677,955925875,1,1.08,-0.16,25.71,-0.009143584407866001,0.03431138023734093,-0.08714758604764938,-0.037828173488378525,-7.262941360473633,-15.391549110412598,1.8607605695724487,0.5700000000000001,-0.14,-0.25,279.72
1666739412.87960172,955945850,1,1.07,-0.17,25.72,0.008395111188292503,0.029817041009664536,-0.06889550387859344,-0.0226676557213068,-7.26377010345459,-15.388620376586914,1.8601720333099365,0.5700000000000001,-0.14,-0.25,279.72
1666739412.89960575,955965854,1,1.09,-0.14,25.73,0.011354698799550533,0.01756998524069786,-0.0806015133857727,-0.03690877556800842,-7.263998508453369,-15.387096405029297,1.8589849472045898,0.5700000000000001,-0.14,-0.25,279.72
1666739412.93962884,956005877,1,1.06,-0.17,25.73,-0.0046515329740941525,0.03652191534638405,-0.08352639526128769,-0.045370522886514664,-7.265133857727051,-15.38306999206543,1.8571697473526,0.5700000000000001,-0.14,-0.25,279.72
1666739412.97958088,956045829,1,1.1,-0.14,25.76,0.0021384824067354202,0.0257757268846035,-0.07794006168842316,-0.044478993862867355,-7.26624870300293,-15.378496170043945,1.8555350303649902,0.5700000000000001,-0.14,-0.25,279.72
1666739413.01963782,956085886,1,1.1,-0.15,25.8,-0.0021505949553102255,0.03959599882364273,-0.08131727576255798,-0.05312148854136467,-7.2672505378723145,-15.373372077941895,1.8530843257904053,0.5700000000000001,-0.14,-0.25,279.72
1666739413.05964684,956125895,1,1.09,-0.16,25.84,0.0018972893012687564,0.030929427593946457,-0.07797960937023163,-0.05920172110199928,-7.267831325531006,-15.367911338806152,1.8502975702285767,0.5700000000000001,-0.14,-0.25,279.72
1666739413.07960486,956145853,1,1.08,-0.14,25.86,-0.00447117630392313,0.037714023143053055,-0.0808602049946785,-0.06694644689559937,-7.268312454223633,-15.364763259887695,1.8488417863845825,0.5700000000000001,-0.14,-0.25,279.72
1666739413.09963584,956165884,1,1.1300000000000001,-0.15,25.87,0.000590577838011086,0.038956280797719955,-0.08272119611501694,-0.07283059507608414,-7.268509387969971,-15.362807273864746,1.8472962379455566,0.5700000000000001,-0.14,-0.25,279.72
1666739413.13961887,956205867,1,1.1,-0.16,25.89,0.006217027083039284,0.039888739585876465,-0.07747340947389603,-0.0720316469669342,-7.268884658813477,-15.358221054077148,1.8447235822677612,0.5700000000000001,-0.14,-0.25,279.72
1666739413.17961979,956245868,1,1.08,-0.16,25.92,0.00323325302451849,0.04890206828713417,-0.0914609283208847,-0.08525106310844421,-7.269525527954102,-15.353065490722656,1.8423548936843872,0.5700000000000001,-0.14,-0.25,279.72
1666739413.21959686,956285845,1,1.11,-0.17,25.95,0.002251089084893465,0.045011475682258606,-0.0780968889594078,-0.06554465740919113,-7.269681453704834,-15.347970962524414,1.8412290811538696,0.5700000000000001,-0.14,-0.25,279.72
1666739413.25964093,956325889,1,1.09,-0.15,25.98,-0.0032066123094409704,0.056993067264556885,-0.07480084151029587,-0.04008948430418968,-7.269958019256592,-15.342721939086914,1.8405290842056274,0.5700000000000001,-0.14,-0.25,279.72
1666739413.27961588,956345864,1,1.05,-0.16,26.01,0.0004873806028626859,0.0447467640042305,-0.06848131865262985,-0.02459127828478813,-7.270092010498047,-15.339803695678711,1.8403427600860596,0.5700000000000001,-0.14,-0.25,279.72
1666739413.29963279,956365881,1,1.1300000000000001,-0.18,26.03,-0.0020829360000789165,0.05008680373430252,-0.07328778505325317,-0.021595297381281853,-7.270074367523193,-15.33790397644043,1.8394463062286377,0.5700000000000001,-0.14,-0.25,279.72
1666739413.33963680,956405885,1,1.09,-0.16,26.07,0.006033562123775482,0.0429571308195591,-0.07934550195932388,-0.02191019244492054,-7.270153999328613,-15.333544731140137,1.8379724025726318,0.5700000000000001,-0.14,-0.25,279.72
1666739413.37960887,956445857,1,1.12,-0.18,26.11,0.0018826855812221766,0.05333154648542404,-0.08699117600917816,-0.03337746486067772,-7.2701921463012695,-15.32876205444336,1.8365918397903442,0.5700000000000001,-0.14,-0.25,279.72
1666739413.41959286,956485841,1,1.06,-0.17,26.16,0.00482434406876564,0.057231269776821136,-0.08050096780061722,-0.032406408339738846,-7.2696123123168945,-15.325861930847168,1.8351633548736572,0.5700000000000001,-0.14,-0.25,279.72
1666739413.45961785,956525866,1,1.04,-0.15,26.21,0.004719097632914782,0.04753650724887848,-0.07171303778886795,-0.024302272126078606,-7.268796920776367,-15.323598861694336,1.8337842226028442,0.5700000000000001,-0.14,-0.26,279.72
1666739413.47962189,956545870,1,1.08,-0.15,26.21,0.001688900520093739,0.05796874314546585,-0.07541684806346893,-0.029030241072177887,-7.268287181854248,-15.322521209716797,1.8331687450408936,0.5700000000000001,-0.14,-0.26,279.72
1666739413.49963975,956565888,1,1.07,-0.14,26.240000000000002,0.003955381456762552,0.05105552077293396,-0.07256000488996506,-0.026771297678351402,-7.267971038818359,-15.321556091308594,1.8321101665496826,0.5700000000000001,-0.14,-0.26,279.72
1666739413.53961182,956605860,1,1.1,-0.16,26.26,0.005355087108910084,0.04998089373111725,-0.07316089421510696,-0.03213203325867653,-7.267212390899658,-15.319683074951172,1.8301777839660645,0.5700000000000001,-0.14,-0.26,279.72
1666739413.57963371,956645882,1,1.1,-0.14,26.3,0.0021590476389974356,0.04293285310268402,-0.07850572466850281,-0.045334234833717346,-7.266259670257568,-15.317988395690918,1.8282380104064941,0.5700000000000001,-0.14,-0.26,279.72
1666739413.61960387,956685852,1,1.06,-0.16,26.38,0.01171157043427229,0.049689311534166336,-0.09088257700204849,-0.059913381934165955,-7.264544486999512,-15.3152437210083,1.8274413347244263,0.5700000000000001,-0.14,-0.26,279.72
1666739413.65962386,956725872,1,1.11,-0.15,26.43,0.011030311696231365,0.055297352373600006,-0.07739678770303726,-0.032192714512348175,-7.2624192237854,-15.312118530273438,1.8269174098968506,0.5700000000000001,-0.14,-0.26,279.72
1666739413.67961884,956745867,1,1.1,-0.15,26.45,0.013514232821762562,0.04589659720659256,-0.07855439931154251,-0.027667762711644173,-7.261141777038574,-15.310482025146484,1.8268890380859375,0.5700000000000001,-0.14,-0.26,279.72
1666739413.69965172,956765900,1,1.09,-0.16,26.47,0.011455468833446503,0.05458824709057808,-0.06985461711883545,-0.013926188461482525,-7.260411739349365,-15.309196472167969,1.8260947465896606,0.5700000000000001,-0.14,-0.26,279.72
1666739413.73961592,956805864,1,1.08,-0.14,26.52,0.017747610807418823,0.046204786747694016,-0.08137092739343643,-0.02353866584599018,-7.2584686279296875,-15.306550979614258,1.8247312307357788,0.5700000000000001,-0.14,-0.26,279.72
1666739413.77964687,956845895,1,1.06,-0.15,26.57,0.007175757549703121,0.049578119069337845,-0.07562455534934998,-0.024294883012771606,-7.256282806396484,-15.304012298583984,1.823412537574768,0.5700000000000001,-0.14,-0.26,279.72
1666739413.81961083,956885859,1,1.08,-0.11,26.59,0.015424825251102448,0.04857712239027023,-0.05915828049182892,-0.013237000443041325,-7.254951000213623,-15.30112075805664,1.8223292827606201,0.58,-0.14,-0.26,279.72
1666739413.85960484,956925853,1,1.1,-0.08,26.64,0.014512048102915287,0.03541674092411995,-0.09714887291193008,-0.0476938858628273,-7.253917694091797,-15.298154830932617,1.8213200569152832,0.5700000000000001,-0.14,-0.27,279.72
1666739413.87964272,956945891,1,1.1,-0.09,26.67,0.01755022630095482,0.04255292937159538,-0.07516085356473923,-0.02467525564134121,-7.25329065322876,-15.296655654907227,1.8210333585739136,0.58,-0.14,-0.27,279.72
1666739413.89961886,956965867,1,1.1400000000000001,-0.11,26.66,0.010837910696864128,0.045047640800476074,-0.06267660856246948,-0.011002155020833015,-7.252833843231201,-15.295413970947266,1.8200515508651733,0.5700000000000001,-0.14,-0.27,279.72
1666739413.93964386,957005892,1,1.04,-0.11,26.72,0.01878191903233528,0.043882958590984344,-0.07481054216623306,-0.02858017385005951,-7.251592636108398,-15.292868614196777,1.817993402481079,0.5700000000000001,-0.14,-0.27,279.72
1666739413.97964978,957045898,1,1.05,-0.08,26.740000000000002,0.027470814064145088,0.02916647121310234,-0.07585887610912323,-0.04359617456793785,-7.250142574310303,-15.290186882019043,1.815277099609375,0.5700000000000001,-0.14,-0.27,279.72
1666739414.01963782,957085886,1,0.91,0.0,26.77,0.019517531618475914,0.03789033368229866,-0.12723508477210999,-0.10670582950115204,-7.249924182891846,-15.286849021911621,1.8115301132202148,0.58,-0.14,-0.27,279.72
1666739414.05960083,957125849,1,0.8200000000000001,0.11,26.77,0.0174561757594347,0.02546517737209797,-0.16298460960388184,-0.16222769021987915,-7.250072479248047,-15.283339500427246,1.805586338043213,0.5700000000000001,-0.14,-0.27,279.72
1666739414.07963991,957145888,1,0.63,0.11,26.79,0.02994813770055771,0.03622692450881004,-0.14466948807239532,-0.15355025231838226,-7.250195026397705,-15.281524658203125,1.8020203113555908,0.58,-0.14,-0.27,279.72
1666739414.09961677,957165865,1,0.56,0.21,26.77,0.014826303347945213,0.03655937686562538,-0.19216693937778473,-0.20975644886493683,-7.250101566314697,-15.280206680297852,1.7982065677642822,0.5700000000000001,-0.14,-0.27,279.72
1666739414.13961077,957205859,1,0.28,0.28,26.79,0.015200300142168999,0.016754552721977234,-0.23001143336296082,-0.26918837428092957,-7.249983787536621,-15.277509689331055,1.7874044179916382,0.5700000000000001,-0.14,-0.27,279.72
1666739414.17963481,957245883,1,0.06,0.3,26.78,0.015877878293395042,0.006573397200554609,-0.26850181818008423,-0.3380964994430542,-7.250187397003174,-15.274718284606934,1.7731612920761108,0.58,-0.14,-0.27,279.72
1666739414.21963286,957285881,1,-0.2,0.32,26.77,0.009355883114039898,0.0038218717090785503,-0.3135532736778259,-0.40395689010620117,-7.251307964324951,-15.272480964660645,1.757358193397522,0.58,-0.15,-0.27,279.72
1666739414.25963688,957325885,1,-0.35000000000000003,0.27,26.740000000000002,0.01334172859787941,0.010841858573257923,-0.34261175990104675,-0.4709186851978302,-7.2529616355896,-15.270458221435547,1.737690806388855,0.5700000000000001,-0.15,-0.27,279.72
1666739414.27964783,957345896,1,-0.2,0.2,26.740000000000002,0.012928472831845284,0.009562885388731956,-0.37526771426200867,-0.5186228156089783,-7.254025936126709,-15.269434928894043,1.726833462715149,0.58,-0.15,-0.27,279.72
1666739414.29959774,957365846,1,-0.26,0.22,26.73,0.010982481762766838,0.025891950353980064,-0.37982726097106934,-0.5364160537719727,-7.254376411437988,-15.268974304199219,1.7170991897583008,0.5700000000000001,-0.15,-0.27,279.72
1666739414.33959293,957405841,1,-0.33,0.07,26.71,0.01134590245783329,0.01694403775036335,-0.4216354489326477,-0.5993849039077759,-7.255459308624268,-15.268037796020508,1.6935155391693115,0.58,-0.15,-0.28,279.72
1666739414.37961078,957445859,1,-0.41000000000000003,-0.06,26.68,0.014308587647974491,0.011413108557462692,-0.4604439437389374,-0.6616735458374023,-7.256712913513184,-15.267630577087402,1.6658955812454224,0.58,-0.15,-0.28,279.72
1666739414.41964984,957485898,1,-0.49,-0.25,26.67,0.01769379898905754,-0.0064441487193107605,-0.5254155993461609,-0.73722243309021,-7.257682800292969,-15.266290664672852,1.6381765604019165,0.5700000000000001,-0.15,-0.28,279.72
1666739414.45964885,957525897,1,-0.42,-0.42,26.64,0.024371473118662834,-0.020025109872221947,-0.5241957306861877,-0.7728273272514343,-7.258622646331787,-15.26480770111084,1.6063162088394165,0.5700000000000001,-0.15,-0.28,279.72
1666739414.47961283,957545861,1,-0.46,-0.38,26.61,0.043017175048589706,-0.034993525594472885,-0.5485090017318726,-0.8109137415885925,-7.259304523468018,-15.264053344726562,1.5890358686447144,0.5700000000000001,-0.15,-0.28,279.72
1666739414.49962592,957565874,1,-0.43,-0.52,26.63,0.017387527972459793,-0.032170772552490234,-0.579594612121582,-0.8548198342323303,-7.259206295013428,-15.263994216918945,1.5748671293258667,0.58,-0.15,-0.28,279.72
1666739414.53961492,957605863,1,-0.81,0.55,153.47,0.01259800884872675,-0.032070331275463104,-0.6080785393714905,-0.8988932967185974,-7.259825706481934,-15.263599395751953,1.5409568548202515,0.58,-0.15,-0.28,279.72
1666739414.57958484,957645833,1,-0.68,0.5700000000000001,153.42000000000002,0.02997923269867897,-0.02179292030632496,-0.6371943950653076,-0.9447690844535828,-7.2609405517578125,-15.262483596801758,1.5026051998138428,0.5700000000000001,-0.15,-0.28,279.72
1666739414.61964679,957685895,1,-0.6,0.59,153.36,0.03466889634728432,-0.0009373537031933665,-0.6427504420280457,-0.9541427493095398,-7.2625555992126465,-15.25986385345459,1.4667479991912842,0.58,-0.15,-0.28,279.72
1666739414.65964484,957725893,1,-0.63,0.5,153.23,0.035304658114910126,0.025001203641295433,-0.663711667060852,-0.9975292086601257,-7.264464855194092,-15.255934715270996,1.42812180519104,0.5700000000000001,-0.15,-0.28,279.72
1666739414.67959881,957745847,1,-0.73,0.51,153.20000000000002,0.03780993074178696,0.022385742515325546,-0.699709951877594,-1.0379509925842285,-7.265610694885254,-15.252978324890137,1.4070312976837158,0.5700000000000001,-0.15,-0.28,279.72
1666739414.69963980,957765888,1,-0.6900000000000001,0.4,153.13,0.0397462360560894,0.05859272927045822,-0.6904221773147583,-1.0329055786132812,-7.265800952911377,-15.251029968261719,1.389958381652832,0.58,-0.15,-0.28,279.72
1666739414.73960376,957805852,1,-0.61,0.31,152.99,0.061328496783971786,0.07435878366231918,-0.699352502822876,-1.0425764322280884,-7.2664475440979,-15.245162010192871,1.3489588499069214,0.5700000000000001,-0.15,-0.28,279.72
1666739414.77958179,957845830,1,-0.44,0.22,152.83,0.06583191454410553,0.09140409529209137,-0.7200676202774048,-1.0724503993988037,-7.266888618469238,-15.23745346069336,1.3038822412490845,0.5700000000000001,-0.15,-0.28,279.72
1666739414.81961083,957885859,1,-0.02,0.18,152.65,0.061617281287908554,0.09815847873687744,-0.7095261812210083,-1.0631961822509766,-7.265576362609863,-15.22919750213623,1.2591689825057983,0.58,-0.15,-0.28,279.72
1666739414.85964274,957925891,1,0.48,0.11,152.54,0.05913892760872841,0.10270888358354568,-0.711209774017334,-1.1636731624603271,-7.263748645782471,-15.220176696777344,1.2069188356399536,0.58,-0.15,-0.28,279.72
1666739414.87959170,957945840,1,0.9400000000000001,0.05,152.46,0.0637522041797638,0.10072511434555054,-0.7320481538772583,-1.2306972742080688,-7.262897968292236,-15.21485424041748,1.1781882047653198,0.58,-0.15,-0.28,279.72
1666739414.89964175,957965890,1,0.99,0.05,152.4,0.05351480469107628,0.0972394198179245,-0.6922734379768372,-1.2351834774017334,-7.26179838180542,-15.211161613464355,1.157021403312683,0.58,-0.15,-0.28,279.72
1666739414.93965793,958005906,1,1.41,-0.02,152.29,0.055161479860544205,0.10076232254505157,-0.7302762269973755,-1.3436416387557983,-7.259915828704834,-15.202495574951172,1.1031955480575562,0.58,-0.15,-0.28,279.72
1666739414.97960687,958045855,1,1.8800000000000001,-0.06,152.21,0.04683549329638481,0.10144541412591934,-0.713776707649231,-1.4093788862228394,-7.258248329162598,-15.192651748657227,1.0406357049942017,0.58,-0.15,-0.28,279.72
1666739415.01958871,958085837,1,2.17,-0.08,152.13,0.035908497869968414,0.0989057645201683,-0.7140650749206543,-1.4302932024002075,-7.2562761306762695,-15.184185981750488,0.9921027421951294,0.58,-0.15,-0.28,279.72
1666739415.05961871,958125867,1,2.24,-0.08,152.05,0.030732283368706703,0.09181734174489975,-0.7063694596290588,-1.3777672052383423,-7.2544331550598145,-15.1759672164917,0.9450763463973999,0.58,-0.15,-0.28,279.72
1666739415.07961988,958145868,1,2.34,-0.09,152.0,0.036027949303388596,0.11590541154146194,-0.710307240486145,-1.3413268327713013,-7.253672122955322,-15.171492576599121,0.9198416471481323,0.58,-0.15,-0.28,279.72
1666739415.09963989,958165888,1,2.36,-0.11,151.95000000000002,0.0180131196975708,0.08354642242193222,-0.6999788284301758,-1.2959753274917603,-7.253058910369873,-15.168350219726562,0.9008871912956238,0.58,-0.15,-0.28,279.72
1666739415.13962889,958205877,1,2.43,-0.18,151.88,0.01790991984307766,0.08780689537525177,-0.6802752017974854,-1.1593585014343262,-7.252176284790039,-15.16120433807373,0.8627327680587769,0.58,-0.15,-0.28,279.72
1666739415.17961788,958245866,1,2.36,-0.2,151.79,0.016671113669872284,0.09538701921701431,-0.6706474423408508,-0.9974977374076843,-7.2519330978393555,-15.153840065002441,0.8270553946495056,0.58,-0.15,-0.28,279.72
1666739415.21961975,958285868,1,2.16,-0.19,151.72,0.01682526431977749,0.09912320226430893,-0.65384840965271,-0.8525575399398804,-7.253121376037598,-15.148355484008789,0.7982034087181091,0.58,-0.15,-0.28,279.72
1666739415.25959373,958325842,1,1.83,-0.19,151.68,0.01356581225991249,0.08121611922979355,-0.6238300800323486,-0.6671323776245117,-7.25508975982666,-15.143540382385254,0.7754767537117004,0.58,-0.15,-0.28,279.72
1666739415.27962279,958345871,1,1.48,-0.21,151.67000000000002,-0.01627822034060955,0.09125497937202454,-0.6292630434036255,-0.6038907766342163,-7.256385326385498,-15.140942573547363,0.7647974491119385,0.58,-0.15,-0.28,279.72
1666739415.29961181,958365860,1,1.36,-0.2,151.65,-0.0045736744068562984,0.07191150635480881,-0.5996543169021606,-0.5175744295120239,-7.257172107696533,-15.138957977294922,0.7534958720207214,0.58,-0.15,-0.28,279.72
1666739415.33962893,958405877,1,0.99,-0.23,151.62,-0.011303747072815895,0.0659053698182106,-0.5752354860305786,-0.3959466516971588,-7.259397983551025,-15.134655952453613,0.7360066771507263,0.58,-0.15,-0.28,279.72
1666739415.37961888,958445867,1,0.66,-0.27,151.62,-0.024023355916142464,0.06188223510980606,-0.5765332579612732,-0.30971747636795044,-7.262210845947266,-15.130409240722656,0.7231802344322205,0.58,-0.15,-0.28,279.72
1666739415.41963673,958485885,1,0.45,-0.27,151.58,-0.028771305456757545,0.06718598306179047,-0.5752559900283813,-0.2616872787475586,-7.265191555023193,-15.126797676086426,0.7087494730949402,0.58,-0.15,-0.28,279.72
1666739415.45962191,958525870,1,0.35000000000000003,-0.18,151.56,-0.02822723425924778,0.07463962584733963,-0.5744332075119019,-0.20921850204467773,-7.268410682678223,-15.123489379882812,0.697294294834137,0.58,-0.15,-0.28,279.72
1666739415.47963285,958545881,1,0.22,-0.15,151.55,-0.024136150255799294,0.07481251657009125,-0.5640106201171875,-0.1827441304922104,-7.270359039306641,-15.121797561645508,0.6924472451210022,0.58,-0.15,-0.28,279.72
1666739415.49961782,958565866,1,0.23,-0.1,151.53,-0.023301202803850174,0.08562969416379929,-0.5694653987884521,-0.17730070650577545,-7.271550178527832,-15.120256423950195,0.6844578385353088,0.58,-0.15,-0.28,279.72
1666739415.53963971,958605888,1,0.13,-0.04,151.49,-0.015729404985904694,0.09088394790887833,-0.571194052696228,-0.1713973730802536,-7.274458885192871,-15.116989135742188,0.6733679175376892,0.58,-0.15,-0.28,279.72
1666739415.57963777,958645886,1,0.1,0.01,151.45000000000002,-0.02015373297035694,0.08603275567293167,-0.5598921775817871,-0.15506568551063538,-7.277629852294922,-15.113814353942871,0.6660512089729309,0.58,-0.15,-0.28,279.72
1666739415.61965394,958685902,1,0.07,0.08,151.4,-0.010759446769952774,0.0902273878455162,-0.5606364011764526,-0.17196215689182281,-7.28033447265625,-15.109734535217285,0.6538668870925903,0.58,-0.15,-0.28,279.72
1666739415.65959883,958725847,1,0.03,0.16,151.32,-0.012736033648252487,0.09622558951377869,-0.5599405765533447,-0.18777340650558472,-7.28293514251709,-15.105405807495117,0.6427946090698242,0.58,-0.15,-0.28,279.72
1666739415.67963672,958745885,1,0.05,0.21,151.27,-0.026230378076434135,0.08408694714307785,-0.5706596970558167,-0.2122626006603241,-7.28435754776001,-15.103153228759766,0.6380710601806641,0.58,-0.15,-0.28,279.72
1666739415.69961572,958765864,1,0.09,0.25,151.22,-0.007550658192485571,0.10057459026575089,-0.5618299245834351,-0.21447952091693878,-7.2852349281311035,-15.101235389709473,0.6302884221076965,0.58,-0.15,-0.28,279.72
1666739415.73959684,958805845,1,0.2,0.29,151.12,-0.008127105422317982,0.10088475793600082,-0.5674989223480225,-0.24656172096729279,-7.287275314331055,-15.09722900390625,0.6179025173187256,0.58,-0.15,-0.28,279.72
1666739415.77964187,958845890,1,0.45,0.34,151.03,-0.005728970747441053,0.09377402067184448,-0.5630785822868347,-0.2645568549633026,-7.28943395614624,-15.09335708618164,0.6076361536979675,0.58,-0.15,-0.28,279.72
1666739415.81964779,958885896,1,0.6900000000000001,0.34,150.92000000000002,-0.013364704325795174,0.0888800323009491,-0.5746225714683533,-0.30260562896728516,-7.289897441864014,-15.089444160461426,0.593082070350647,0.58,-0.15,-0.28,279.72
1666739415.85965276,958925901,1,0.96,0.33,150.82,-0.010561823844909668,0.08546460419893265,-0.5790300369262695,-0.32358884811401367,-7.289795398712158,-15.085577964782715,0.5790229439735413,0.58,-0.15,-0.28,279.72
1666739415.87958288,958945831,1,1.1,0.33,150.77,-0.006801759358495474,0.09088239073753357,-0.5817446708679199,-0.3359549045562744,-7.289674758911133,-15.083702087402344,0.5725494623184204,0.58,-0.15,-0.28,279.72
1666739415.89958882,958965837,1,1.25,0.29,150.72,-0.015202894806861877,0.0773700475692749,-0.5826741456985474,-0.3442235589027405,-7.289703369140625,-15.081986427307129,0.5634210705757141,0.58,-0.15,-0.28,279.72
1666739415.93961287,959005861,1,1.4000000000000001,0.21,150.63,-0.01385684683918953,0.0769987404346466,-0.5814447999000549,-0.3560865521430969,-7.28961706161499,-15.078580856323242,0.5487810373306274,0.58,-0.15,-0.28,279.72
1666739415.97960687,959045855,1,1.45,0.09,150.54,-0.017949147149920464,0.07027040421962738,-0.5929161906242371,-0.36918726563453674,-7.289384365081787,-15.075502395629883,0.5370836853981018,0.58,-0.15,-0.28,279.72
1666739416.01964593,959085894,1,1.48,0.0,150.47,-0.008320936933159828,0.06597719341516495,-0.5901725888252258,-0.3708939254283905,-7.287740230560303,-15.07194709777832,0.5218461751937866,0.58,-0.15,-0.28,279.72
1666739416.05961680,959125865,1,1.5,-0.01,150.38,-0.011900215409696102,0.05528563633561134,-0.6033846139907837,-0.3830146789550781,-7.2855401039123535,-15.06845474243164,0.5063228011131287,0.58,-0.15,-0.28,279.72
1666739416.07961679,959145865,1,1.51,0.01,150.36,-0.004273588769137859,0.07899337261915207,-0.6070814728736877,-0.39070603251457214,-7.284168243408203,-15.066818237304688,0.4994058907032013,0.58,-0.15,-0.28,279.72
1666739416.09964085,959165889,1,1.51,0.0,150.31,-0.014406397938728333,0.04779088869690895,-0.5913246870040894,-0.3777150511741638,-7.283648490905762,-15.065386772155762,0.48957210779190063,0.58,-0.15,-0.28,279.72
1666739416.13960671,959205855,1,1.52,0.03,150.23,-0.021109307184815407,0.04401008412241936,-0.5950735807418823,-0.3886008560657501,-7.281964302062988,-15.06263542175293,0.4741258919239044,0.58,-0.15,-0.28,279.72
1666739416.17961884,959245867,1,1.53,0.06,150.18,-0.021123936399817467,0.04372839257121086,-0.5788373351097107,-0.37063124775886536,-7.279938220977783,-15.060172080993652,0.4612041413784027,0.58,-0.15,-0.28,279.72
1666739416.21960974,959285858,1,1.44,0.04,150.1,-0.02387961931526661,0.04025408253073692,-0.5770667195320129,-0.3709242045879364,-7.277048587799072,-15.055954933166504,0.44619986414909363,0.58,-0.15,-0.28,279.72
1666739416.25964284,959325891,1,1.37,-0.01,150.07,-0.02046586014330387,0.03530372306704521,-0.5709997415542603,-0.35748621821403503,-7.273768424987793,-15.051279067993164,0.4312186539173126,0.58,-0.15,-0.28,279.72
1666739416.27961278,959345861,1,1.31,-0.02,150.05,-0.008201546035706997,0.060385365039110184,-0.5708860158920288,-0.3582665026187897,-7.2716827392578125,-15.048761367797852,0.42473259568214417,0.58,-0.15,-0.28,279.72
1666739416.29958773,959365836,1,1.28,-0.06,150.03,-0.01887783780694008,0.03506273403763771,-0.5702447891235352,-0.3576205372810364,-7.270874500274658,-15.047082901000977,0.4153567850589752,0.58,-0.15,-0.28,279.72
1666739416.33960986,959405858,1,1.16,-0.13,150.02,-0.02158878743648529,0.036564119160175323,-0.5790825486183167,-0.37651607394218445,-7.268272876739502,-15.043299674987793,0.3999820053577423,0.58,-0.15,-0.28,279.72
1666739416.37960887,959445857,1,1.06,-0.12,150.03,-0.02240709960460663,0.03301839157938957,-0.5631676912307739,-0.37297722697257996,-7.265069007873535,-15.039514541625977,0.3863801062107086,0.58,-0.15,-0.28,279.72
1666739416.41959882,959485847,1,1.01,-0.08,150.04,-0.01331949234008789,0.04204113408923149,-0.5495980381965637,-0.3737054765224457,-7.2620062828063965,-15.033324241638184,0.37154310941696167,0.58,-0.15,-0.28,279.72
1666739416.45965385,959525902,1,1.0,-0.07,150.07,-0.004183548036962748,0.047489359974861145,-0.546292781829834,-0.3596028685569763,-7.258782863616943,-15.026310920715332,0.35844671726226807,0.58,-0.15,-0.28,279.72
1666739416.47959471,959545843,1,1.11,-0.12,150.09,-0.030148332938551903,0.019720468670129776,-0.5314759016036987,-0.34107670187950134,-7.256808280944824,-15.022330284118652,0.35296937823295593,0.58,-0.15,-0.28,279.72
1666739416.49962282,959565871,1,1.18,-0.07,150.1,0.0003950806858483702,0.04683641716837883,-0.506191074848175,-0.31079089641571045,-7.2560248374938965,-15.02015495300293,0.3449559211730957,0.58,-0.15,-0.28,279.72
1666739416.53963780,959605886,1,1.4000000000000001,-0.07,150.14000000000001,-0.0017095808871090412,0.04239374026656151,-0.4863249957561493,-0.28450995683670044,-7.253591060638428,-15.01471996307373,0.3331826627254486,0.58,-0.15,-0.28,279.72
1666739416.57959580,959645844,1,1.6,-0.09,150.18,-0.011164926923811436,0.0410730242729187,-0.46417105197906494,-0.24984677135944366,-7.250633716583252,-15.008889198303223,0.3248765766620636,0.58,-0.15,-0.28,279.72
1666739416.61958981,959685838,1,1.81,-0.08,150.20000000000002,-0.016604503616690636,0.03928927332162857,-0.44452008605003357,-0.22698989510536194,-7.248763084411621,-15.001679420471191,0.31478020548820496,0.58,-0.14,-0.28,279.72
1666739416.65960693,959725855,1,1.9100000000000001,-0.08,150.23,-0.024144161492586136,0.03365958854556084,-0.43986961245536804,-0.2093024104833603,-7.247173309326172,-14.993938446044922,0.3059890568256378,0.58,-0.15,-0.28,279.72
1666739416.67962193,959745870,1,1.94,-0.15,150.23,-0.030698411166667938,-0.0027477173134684563,-0.43432390689849854,-0.20318131148815155,-7.246200084686279,-14.989511489868164,0.3028183579444885,0.58,-0.15,-0.28,279.72
1666739416.69963384,959765882,1,1.97,-0.11,150.25,-0.012176653370261192,0.03258339315652847,-0.408119797706604,-0.17519067227840424,-7.245983123779297,-14.987356185913086,0.2968772351741791,0.58,-0.15,-0.28,279.72
1666739416.73963571,959805884,1,1.98,-0.12,150.25,-0.01826397515833378,0.019258396700024605,-0.40901488065719604,-0.1832585632801056,-7.245204925537109,-14.981797218322754,0.2884310483932495,0.58,-0.14,-0.28,279.72
1666739416.77961874,959845867,1,1.92,-0.14,150.26,-0.022766245529055595,0.01610773243010044,-0.38680344820022583,-0.17041218280792236,-7.244212627410889,-14.97577953338623,0.2823553681373596,0.58,-0.14,-0.28,279.72
1666739416.81960392,959885852,1,1.9100000000000001,-0.12,150.24,-0.03653177246451378,0.004702714271843433,-0.37202027440071106,-0.1654093861579895,-7.242864608764648,-14.969399452209473,0.27540335059165955,0.58,-0.14,-0.28,279.72
1666739416.85959387,959925842,1,2.05,-0.13,150.26,-0.04504864662885666,0.004032161086797714,-0.3410859704017639,-0.12547250092029572,-7.241344928741455,-14.9629487991333,0.26983359456062317,0.58,-0.14,-0.28,279.72
1666739416.87964272,959945891,1,2.16,-0.19,150.25,-0.038857411593198776,-0.029097381979227066,-0.34635862708091736,-0.12911395728588104,-7.240346431732178,-14.959261894226074,0.2679853141307831,0.58,-0.14,-0.28,279.72
1666739416.89960575,959965854,1,2.11,-0.14,150.27,-0.037771910429000854,-0.004782098811119795,-0.3399350345134735,-0.12106487900018692,-7.240234851837158,-14.957696914672852,0.26378098130226135,0.58,-0.14,-0.28,279.72
1666739416.93965483,960005903,1,2.25,-0.12,150.27,-0.037403546273708344,-0.01520923338830471,-0.3098154067993164,-0.09727708995342255,-7.239581108093262,-14.953619956970215,0.2580462098121643,0.58,-0.14,-0.28,279.72
1666739416.97960973,960045858,1,2.24,-0.13,150.3,-0.04221344366669655,-0.02179916948080063,-0.30819904804229736,-0.10599450767040253,-7.2385993003845215,-14.949156761169434,0.25422361493110657,0.58,-0.14,-0.28,279.72
1666739417.01964378,960085892,1,2.2,-0.11,150.31,-0.05089202895760536,-0.030071377754211426,-0.29695624113082886,-0.10943783074617386,-7.239142417907715,-14.944092750549316,0.2480577677488327,0.58,-0.14,-0.28,279.72
1666739417.05960274,960125851,1,2.16,-0.06,150.33,-0.061473265290260315,-0.03845591843128204,-0.29003024101257324,-0.11743176728487015,-7.240170001983643,-14.938806533813477,0.24186141788959503,0.58,-0.14,-0.28,279.72
1666739417.07962871,960145877,1,2.23,-0.07,150.33,-0.05904698371887207,-0.053847167640924454,-0.29364362359046936,-0.13126212358474731,-7.24058723449707,-14.93572998046875,0.2395971417427063,0.58,-0.14,-0.28,279.72
1666739417.09960079,960165849,1,2.1,-0.03,150.33,-0.06517311930656433,-0.04708784073591232,-0.28037911653518677,-0.12607146799564362,-7.241369724273682,-14.934809684753418,0.23548118770122528,0.58,-0.14,-0.28,279.72
1666739417.13964581,960205894,1,2.1,-0.06,150.35,-0.06543592363595963,-0.056562285870313644,-0.2789832055568695,-0.13932140171527863,-7.24285888671875,-14.93200397491455,0.23000292479991913,0.58,-0.14,-0.28,279.72
1666739417.17962193,960245870,1,2.14,-0.07,150.36,-0.06996729224920273,-0.07887786626815796,-0.25459936261177063,-0.12339388579130173,-7.244409084320068,-14.929047584533691,0.22601820528507233,0.58,-0.14,-0.28,279.72
1666739417.21959686,960285845,1,2.15,-0.09,150.37,-0.07314923405647278,-0.0832415223121643,-0.2461448460817337,-0.12122581899166107,-7.247541904449463,-14.923521995544434,0.2213023453950882,0.58,-0.14,-0.28,279.72
1666739417.25960279,960325851,1,2.14,-0.12,150.4,-0.07809183746576309,-0.08606063574552536,-0.23493652045726776,-0.10219081491231918,-7.2512078285217285,-14.91702938079834,0.21744593977928162,0.58,-0.14,-0.28,279.72
