timestamp,TimeUS,DesRoll,Roll,DesPitch,Pitch,DesYaw,Yaw,ErrRP,ErrYaw,AEKF
10.49286800,10492868,0.0,0.0,0.0,0.35000000000000003,359.99,0.0,1.0,1.0,0
10.59272300,10592723,0.0,0.0,0.0,0.35000000000000003,77.54,77.54,1.0,0.8,0
10.69277800,10692778,0.0,0.0,0.0,0.35000000000000003,77.43,77.43,0.8,0.64,0
10.79273200,10792732,0.0,0.0,0.0,0.35000000000000003,77.39,77.39,0.8,0.51,0
10.89273300,10892733,0.0,0.0,0.0,0.35000000000000003,77.3,77.3,0.64,0.41000000000000003,0
10.99263900,10992639,0.0,0.0,0.0,0.35000000000000003,77.22,77.22,0.64,0.33,0
11.09258600,11092586,0.0,0.0,0.0,0.35000000000000003,77.21000000000001,77.21000000000001,0.51,0.27,0
11.19259700,11192597,0.0,0.0,0.0,0.35000000000000003,77.27,77.27,0.51,0.21,0
11.29260700,11292607,0.0,0.0,0.0,0.35000000000000003,77.36,77.36,0.4,0.17,0
11.39266800,11392668,0.0,0.0,0.0,0.36,77.24,77.24,0.4,0.14,0
11.49277800,11492778,0.0,0.0,0.0,0.35000000000000003,77.27,77.27,0.32,0.12,0
11.59288900,11592889,0.0,0.0,0.0,0.35000000000000003,77.19,77.19,0.32,0.09,0
11.69294200,11692942,0.0,0.0,0.0,0.35000000000000003,77.07000000000001,77.07000000000001,0.26,0.08,0
11.79287400,11792874,0.0,0.0,0.0,0.35000000000000003,77.06,77.06,0.26,0.06,0
11.89272400,11892724,0.0,0.0,0.0,0.34,77.18,77.18,0.21,0.06,0
11.99274900,11992749,0.0,0.0,0.0,0.34,77.21000000000001,77.21000000000001,0.21,0.04,0
12.09270200,12092702,0.0,0.0,0.0,0.34,77.09,77.09,0.16,0.04,0
12.19273000,12192730,0.0,0.0,0.0,0.35000000000000003,76.95,76.95,0.16,0.04,0
12.29272200,12292722,0.0,0.0,0.0,0.34,76.83,76.83,0.13,0.03,0
12.39283300,12392833,0.0,-0.01,0.0,0.34,76.74,76.74,0.13,0.03,0
12.49291100,12492911,-0.11,-0.22,0.08,0.48,359.99,0.0,0.1,0.03,3
12.59310100,12593101,-0.05,-0.22,0.04,0.48,359.99,0.0,0.1,0.02,3
12.69313100,12693131,-0.03,-0.22,0.02,0.5,359.99,0.0,0.08,0.02,3
12.79310400,12793104,-0.01,-0.21,0.01,0.49,359.98,359.99,0.08,0.02,3
12.89277400,12892774,0.0,-0.21,0.0,0.5,359.98,359.99,0.06,0.02,3
12.99281600,12992816,0.0,-0.21,0.0,0.52,359.97,359.98,0.06,0.01,3
13.09281300,13092813,0.0,-0.21,0.0,0.5,359.97,359.98,0.05,0.01,3
13.19277000,13192770,0.0,-0.2,0.0,0.51,359.98,359.99,0.05,0.01,3
13.29281400,13292814,0.0,-0.2,0.0,0.5,359.96,359.97,0.04,0.01,3
13.39292600,13392926,0.0,-0.2,0.0,0.49,359.96,359.97,0.04,0.01,3
13.49289100,13492891,0.0,-0.18,0.0,0.48,359.97,359.98,0.03,0.01,3
13.59314100,13593141,0.0,-0.19,0.0,0.48,359.94,359.95,0.03,0.01,3
13.69309800,13693098,0.0,-0.18,0.0,0.47000000000000003,359.94,359.95,0.02,0.0,3
13.79298100,13792981,0.0,-0.19,0.0,0.45,359.95,359.96,0.02,0.0,3
13.89275700,13892757,0.0,-0.18,0.0,0.45,359.93,359.94,0.02,0.01,3
13.99282000,13992820,0.01,-0.15,-0.01,0.42,78.27,78.27,0.02,0.01,3
14.09276100,14092761,0.0,-0.16,0.0,0.41000000000000003,78.22,78.22,0.01,0.01,3
14.19282700,14192827,0.0,-0.15,0.0,0.43,78.10000000000001,78.10000000000001,0.01,0.0,3
14.29289900,14292899,0.0,-0.16,0.0,0.42,77.97,77.97,0.01,0.01,3
14.39314500,14393145,0.0,-0.15,0.0,0.42,77.83,77.83,0.01,0.01,3
14.49291600,14492916,0.0,-0.16,0.0,0.44,77.62,77.62,0.01,0.01,3
14.59290700,14592907,0.0,-0.15,0.0,0.43,77.43,77.43,0.01,0.01,3
14.69278400,14692784,0.0,-0.15,0.0,0.44,77.27,77.27,0.01,0.01,3
14.79282900,14792829,0.0,-0.15,0.0,0.44,77.11,77.11,0.01,0.01,3
14.89279700,14892797,0.0,-0.15,0.0,0.44,77.01,77.01,0.0,0.01,3
14.99279400,14992794,0.0,-0.15,0.0,0.45,76.94,76.94,0.0,0.0,3
15.09281500,15092815,0.0,-0.15,0.0,0.44,76.87,76.87,0.0,0.01,3
15.19290800,15192908,0.0,-0.15,0.0,0.45,76.87,76.87,0.0,0.0,3
15.29311100,15293111,0.0,-0.15,0.0,0.45,76.87,76.87,0.0,0.0,3
15.39298800,15392988,0.0,-0.15,0.0,0.44,76.86,76.86,0.0,0.01,3
15.49285900,15492859,0.0,-0.15,0.0,0.45,76.88,76.88,0.0,0.01,3
15.59284500,15592845,0.0,-0.14,0.0,0.45,76.89,76.89,0.0,0.01,3
15.69280600,15692806,0.0,-0.15,0.0,0.45,76.87,76.87,0.0,0.01,3
15.79281700,15792817,0.0,-0.15,0.0,0.45,76.86,76.86,0.0,0.01,3
15.89283500,15892835,0.0,-0.15,0.0,0.44,76.83,76.83,0.0,0.02,3
15.99291200,15992912,0.0,-0.15,0.0,0.45,76.81,76.81,0.0,0.02,3
16.09290900,16092909,0.0,-0.15,0.0,0.45,76.83,76.83,0.0,0.01,3
16.19296700,16192967,0.0,-0.15,0.0,0.45,76.85000000000001,76.85000000000001,0.0,0.02,3
16.29309900,16293099,0.0,-0.15,0.0,0.45,76.86,76.86,0.0,0.01,3
16.39310600,16393106,0.0,-0.15,0.0,0.44,76.86,76.86,0.0,0.01,3
16.49306300,16493063,0.0,-0.15,0.0,0.44,76.85000000000001,76.85000000000001,0.0,0.01,3
16.59306400,16593064,0.0,-0.15,0.0,0.44,76.82000000000001,76.82000000000001,0.0,0.01,3
16.69305000,16693050,0.0,-0.14,0.0,0.44,76.78,76.78,0.0,0.01,3
16.79329800,16793298,0.0,-0.14,0.0,0.44,76.74,76.74,0.0,0.01,3
16.89308500,16893085,0.0,-0.14,0.0,0.44,76.7,76.7,0.0,0.01,3
16.99291500,16992915,0.0,-0.14,0.0,0.44,76.69,76.69,0.0,0.01,3
17.09291800,17092918,0.0,-0.14,0.0,0.45,76.69,76.69,0.0,0.01,3
17.19296600,17192966,0.0,-0.14,0.0,0.45,76.68,76.68,0.0,0.01,3
17.29286600,17292866,0.0,-0.14,0.0,0.45,76.7,76.7,0.0,0.01,3
17.39293800,17392938,0.0,-0.14,0.0,0.45,76.69,76.69,0.0,0.01,3
17.49280500,17492805,0.0,-0.14,0.0,0.45,76.67,76.67,0.0,0.01,3
17.59280500,17592805,0.0,-0.14,0.0,0.46,76.66,76.66,0.0,0.0,3
17.69297300,17692973,0.0,-0.14,0.0,0.46,76.63,76.63,0.0,0.01,3
17.79308700,17793087,0.0,-0.14,0.0,0.46,76.63,76.63,0.0,0.01,3
17.89309000,17893090,0.0,-0.15,0.0,0.47000000000000003,76.64,76.64,0.0,0.0,3
17.99322000,17993220,0.0,-0.15,0.0,0.47000000000000003,76.64,76.64,0.0,0.0,3
18.09293800,18092938,0.0,-0.15,0.0,0.47000000000000003,76.66,76.66,0.0,0.0,3
18.19291800,18192918,0.0,-0.15,0.0,0.47000000000000003,76.66,76.66,0.0,0.01,3
18.29279000,18292790,0.0,-0.15,0.0,0.47000000000000003,76.67,76.67,0.0,0.01,3
18.39285500,18392855,0.0,-0.14,0.0,0.48,76.7,76.7,0.0,0.01,3
18.49282200,18492822,0.0,-0.14,0.0,0.48,76.74,76.74,0.0,0.02,3
18.59298800,18592988,0.0,-0.14,0.0,0.48,76.8,76.8,0.0,0.01,3
18.69312700,18693127,0.0,-0.14,0.0,0.48,76.88,76.88,0.0,0.01,3
18.79291500,18792915,0.0,-0.14,0.0,0.48,76.94,76.94,0.0,0.01,3
18.89295300,18892953,0.0,-0.13,0.0,0.49,76.97,76.97,0.0,0.01,3
18.99295800,18992958,0.0,-0.13,0.0,0.49,76.98,76.98,0.0,0.01,3
19.09284800,19092848,0.0,-0.13,0.0,0.49,76.96000000000001,76.96000000000001,0.0,0.01,3
19.19279400,19192794,0.0,-0.12,0.0,0.5,76.92,76.92,0.0,0.01,3
19.29280900,19292809,0.0,-0.12,0.0,0.49,76.91,76.91,0.0,0.01,3
19.39284200,19392842,0.0,-0.12,0.0,0.49,76.9,76.9,0.0,0.01,3
19.49298800,19492988,0.0,-0.12,0.0,0.5,76.91,76.91,0.0,0.01,3
19.59308500,19593085,0.0,-0.12,0.0,0.49,76.92,76.92,0.0,0.01,3
19.69292000,19692920,0.0,-0.11,0.0,0.5,76.92,76.92,0.0,0.01,3
19.79295500,19792955,0.0,-0.12,0.0,0.49,76.91,76.91,0.0,0.01,3
19.89291600,19892916,0.0,-0.11,0.0,0.49,76.92,76.92,0.0,0.01,3
19.99288200,19992882,0.0,-0.12,0.0,0.5,76.94,76.94,0.0,0.01,3
20.09297500,20092975,0.0,-0.12,0.0,0.51,76.95,76.95,0.0,0.01,3
20.19282300,20192823,0.0,-0.11,0.0,0.5,76.96000000000001,76.96000000000001,0.0,0.01,3
20.29280600,20292806,0.0,-0.1,0.0,0.51,76.97,76.97,0.0,0.01,3
20.39282300,20392823,0.0,-0.11,0.0,0.51,76.95,76.95,0.0,0.01,3
20.49308700,20493087,0.0,-0.11,0.0,0.5,76.96000000000001,76.96000000000001,0.0,0.01,3
20.59292500,20592925,0.0,-0.09,0.0,0.5,76.97,76.97,0.0,0.01,3
20.69295000,20692950,0.0,-0.1,0.0,0.49,76.97,76.97,0.0,0.01,3
20.79297900,20792979,0.0,-0.09,0.0,0.49,77.01,77.01,0.0,0.01,3
20.89294300,20892943,0.0,-0.11,0.0,0.49,77.06,77.06,0.0,0.01,3
20.99279500,20992795,0.0,-0.09,0.0,0.49,77.09,77.09,0.0,0.01,3
21.09280400,21092804,0.0,-0.09,0.0,0.49,77.13,77.13,0.0,0.02,3
21.19282600,21192826,0.0,-0.08,0.0,0.48,77.19,77.19,0.0,0.01,3
21.29298700,21292987,0.0,-0.09,0.0,0.48,77.24,77.24,0.0,0.01,3
21.39317000,21393170,0.0,-0.08,0.0,0.47000000000000003,77.3,77.3,0.0,0.01,3
21.49292200,21492922,0.0,-0.07,0.0,0.46,77.35000000000001,77.35000000000001,0.0,0.01,3
21.59294300,21592943,0.0,-0.08,0.0,0.47000000000000003,77.38,77.38,0.0,0.02,3
21.69295200,21692952,0.0,-0.08,0.0,0.48,77.37,77.37,0.0,0.01,3
21.79292400,21792924,0.0,-0.08,0.0,0.47000000000000003,77.37,77.37,0.0,0.01,3
21.89277500,21892775,0.0,-0.07,0.0,0.47000000000000003,77.35000000000001,77.35000000000001,0.0,0.01,3
21.99281100,21992811,0.0,-0.08,0.0,0.47000000000000003,77.33,77.33,0.0,0.01,3
22.09280900,22092809,0.0,-0.07,0.0,0.45,77.31,77.31,0.0,0.01,3
22.19312100,22193121,0.0,-0.08,0.0,0.46,77.28,77.28,0.0,0.01,3
22.29308200,22293082,0.0,-0.08,0.0,0.45,77.23,77.23,0.0,0.01,3
22.39311600,22393116,0.0,-0.07,0.0,0.45,77.21000000000001,77.21000000000001,0.0,0.01,3
22.49311400,22493114,0.0,-0.09,0.0,0.45,77.19,77.19,0.0,0.01,3
22.59309100,22593091,0.0,-0.08,0.0,0.44,77.17,77.17,0.0,0.01,3
22.69305400,22693054,0.0,-0.08,0.0,0.44,77.17,77.17,0.0,0.01,3
22.79307400,22793074,0.0,-0.08,0.0,0.44,77.18,77.18,0.0,0.01,3
22.89306000,22893060,0.0,-0.08,0.0,0.43,77.18,77.18,0.0,0.01,3
22.99304600,22993046,0.0,-0.08,0.0,0.44,77.22,77.22,0.0,0.01,3
23.09321100,23093211,0.0,-0.07,0.0,0.43,77.25,77.25,0.0,0.01,3
23.19312700,23193127,0.0,-0.08,0.0,0.43,77.28,77.28,0.0,0.01,3
23.29291000,23292910,0.0,-0.08,0.0,0.44,77.33,77.33,0.0,0.01,3
23.39297200,23392972,0.0,-0.08,0.0,0.42,77.35000000000001,77.35000000000001,0.0,0.01,3
23.49295400,23492954,0.0,-0.08,0.0,0.43,77.37,77.37,0.0,0.01,3
23.59286400,23592864,0.0,-0.08,0.0,0.42,77.38,77.38,0.0,0.01,3
23.69278800,23692788,0.0,-0.09,0.0,0.41000000000000003,77.35000000000001,77.35000000000001,0.0,0.01,3
23.79289700,23792897,0.0,-0.08,0.0,0.42,77.35000000000001,77.35000000000001,0.0,0.01,3
23.89281100,23892811,0.0,-0.08,0.0,0.42,77.35000000000001,77.35000000000001,0.0,0.01,3
23.99300000,23993000,0.0,-0.08,0.0,0.42,77.33,77.33,0.0,0.01,3
24.09309300,24093093,0.0,-0.08,0.0,0.43,77.33,77.33,0.0,0.01,3
24.19293100,24192931,0.0,-0.08,0.0,0.41000000000000003,77.3,77.3,0.0,0.01,3
24.29300100,24293001,0.0,-0.08,0.0,0.42,77.26,77.26,0.0,0.01,3
24.39298700,24392987,0.0,-0.09,0.0,0.42,77.24,77.24,0.0,0.01,3
24.49284900,24492849,0.0,-0.09,0.0,0.42,77.2,77.2,0.0,0.01,3
24.59279800,24592798,0.0,-0.09,0.0,0.42,77.16,77.16,0.0,0.01,3
24.69274400,24692744,0.0,-0.08,0.0,0.42,77.16,77.16,0.0,0.01,3
24.79281800,24792818,0.0,-0.08,0.0,0.42,77.17,77.17,0.0,0.01,3
24.89277900,24892779,0.0,-0.09,0.0,0.42,77.17,77.17,0.0,0.01,3
24.99290200,24992902,0.0,-0.08,0.0,0.43,77.19,77.19,0.0,0.01,3
25.09291200,25092912,0.0,-0.09,0.0,0.43,77.19,77.19,0.0,0.01,3
25.19316000,25193160,0.0,-0.08,0.0,0.43,77.17,77.17,0.0,0.01,3
25.29312800,25293128,0.0,-0.08,0.0,0.43,77.17,77.17,0.0,0.01,3
25.39315900,25393159,0.0,-0.08,0.0,0.43,77.15,77.15,0.0,0.01,3
25.49311100,25493111,0.0,-0.07,0.0,0.44,77.14,77.14,0.0,0.01,3
25.59311300,25593113,0.0,-0.07,0.0,0.44,77.14,77.14,0.0,0.01,3
25.69307600,25693076,0.0,-0.07,0.0,0.44,77.13,77.13,0.0,0.01,3
25.79332100,25793321,0.0,-0.07,0.0,0.45,77.12,77.12,0.0,0.01,3
25.89333400,25893334,0.0,-0.07,0.0,0.44,77.12,77.12,0.0,0.01,3
25.99309300,25993093,0.0,-0.07,0.0,0.44,77.13,77.13,0.0,0.01,3
26.09312300,26093123,0.0,-0.07,0.0,0.44,77.12,77.12,0.0,0.01,3
26.19314500,26193145,0.0,-0.07,0.0,0.44,77.11,77.11,0.0,0.01,3
26.29310200,26293102,0.0,-0.07,0.0,0.45,77.09,77.09,0.0,0.01,3
26.39321700,26393217,0.0,-0.07,0.0,0.45,77.07000000000001,77.07000000000001,0.0,0.01,3
26.49312300,26493123,0.0,-0.07,0.0,0.45,77.04,77.04,0.0,0.01,3
26.59282200,26592822,0.0,-0.07,0.0,0.45,77.02,77.02,0.0,0.01,3
26.69277700,26692777,0.0,-0.07,0.0,0.45,76.99,76.99,0.0,0.01,3
26.79289800,26792898,0.0,-0.07,0.0,0.45,76.96000000000001,76.96000000000001,0.0,0.01,3
26.89290100,26892901,0.0,-0.07,0.0,0.45,76.91,76.91,0.0,0.01,3
26.99290300,26992903,0.0,-0.06,0.0,0.45,76.86,76.86,0.0,0.02,3
27.09295100,27092951,0.0,-0.06,0.0,0.46,76.84,76.84,0.0,0.02,3
27.19291500,27192915,0.0,-0.06,0.0,0.45,76.85000000000001,76.85000000000001,0.0,0.02,3
27.29278700,27292787,0.0,-0.05,0.0,0.46,76.87,76.87,0.0,0.02,3
27.39313300,27393133,0.0,-0.05,0.0,0.46,76.9,76.9,0.0,0.02,3
27.49281000,27492810,0.0,-0.05,0.0,0.46,76.91,76.91,0.0,0.01,3
27.59277300,27592773,0.0,-0.05,0.0,0.46,76.92,76.92,0.0,0.01,3
27.69281800,27692818,0.0,-0.05,0.0,0.46,76.92,76.92,0.0,0.02,3
27.79292800,27792928,0.0,-0.05,0.0,0.46,76.93,76.93,0.0,0.01,3
27.89291500,27892915,0.0,-0.04,0.0,0.46,76.94,76.94,0.0,0.01,3
27.99293300,27992933,0.0,-0.04,0.0,0.46,76.96000000000001,76.96000000000001,0.0,0.01,3
28.09288400,28092884,0.0,-0.04,0.0,0.46,76.98,76.98,0.0,0.01,3
28.19278900,28192789,0.0,-0.04,0.0,0.46,77.0,77.0,0.0,0.01,3
28.29309100,28293091,0.0,-0.04,0.0,0.46,77.02,77.02,0.0,0.01,3
28.39316100,28393161,0.0,-0.04,0.0,0.46,77.05,77.05,0.0,0.01,3
28.49312400,28493124,0.0,-0.04,0.0,0.46,77.07000000000001,77.07000000000001,0.0,0.02,3
28.59310400,28593104,0.0,-0.04,0.0,0.46,77.09,77.09,0.0,0.01,3
28.69291600,28692916,0.0,-0.03,0.0,0.47000000000000003,77.10000000000001,77.10000000000001,0.0,0.01,3
28.79293500,28792935,0.0,-0.04,0.0,0.46,77.10000000000001,77.10000000000001,0.0,0.01,3
28.89291600,28892916,0.0,-0.04,0.0,0.47000000000000003,77.10000000000001,77.10000000000001,0.0,0.01,3
28.99286900,28992869,0.0,-0.04,0.0,0.46,77.09,77.09,0.0,0.01,3
29.09278500,29092785,0.0,-0.04,0.0,0.46,77.10000000000001,77.10000000000001,0.0,0.01,3
29.19312500,29193125,0.0,-0.03,0.0,0.47000000000000003,77.11,77.11,0.0,0.01,3
29.29280600,29292806,0.0,-0.03,0.0,0.46,77.12,77.12,0.0,0.01,3
29.39281800,29392818,0.0,-0.03,0.0,0.47000000000000003,77.13,77.13,0.0,0.01,3
29.49288500,29492885,0.0,-0.03,0.0,0.47000000000000003,77.14,77.14,0.0,0.01,3
29.59291100,29592911,0.0,-0.03,0.0,0.47000000000000003,77.14,77.14,0.0,0.01,3
29.69292600,29692926,0.0,-0.03,0.0,0.48,77.14,77.14,0.0,0.01,3
29.79294800,29792948,0.0,-0.03,0.0,0.47000000000000003,77.13,77.13,0.0,0.01,3
29.89308100,29893081,0.0,-0.02,0.0,0.48,77.12,77.12,0.0,0.01,3
29.99311000,29993110,0.0,-0.02,0.0,0.48,77.11,77.11,0.0,0.01,3
30.09273300,30092733,0.0,-0.02,0.0,0.48,77.09,77.09,0.0,0.01,3
30.19280100,30192801,0.0,-0.02,0.0,0.48,77.08,77.08,0.0,0.01,3
30.29275100,30292751,0.0,-0.02,0.0,0.48,77.05,77.05,0.0,0.01,3
30.39287800,30392878,0.0,-0.02,0.0,0.48,77.03,77.03,0.0,0.01,3
30.49289600,30492896,0.0,-0.02,0.0,0.48,77.01,77.01,0.0,0.01,3
30.59315700,30593157,0.0,-0.01,0.0,0.48,76.98,76.98,0.0,0.01,3
30.69309200,30693092,0.0,-0.01,0.0,0.48,76.97,76.97,0.0,0.01,3
30.79309500,30793095,0.0,-0.01,0.0,0.48,76.96000000000001,76.96000000000001,0.0,0.01,3
30.89276700,30892767,0.0,-0.01,0.0,0.48,76.96000000000001,76.96000000000001,0.0,0.01,3
30.99274300,30992743,0.0,-0.01,0.0,0.48,76.95,76.95,0.0,0.01,3
31.09277600,31092776,0.0,-0.01,0.0,0.47000000000000003,76.94,76.94,0.0,0.01,3
31.19276900,31192769,0.0,-0.01,0.0,0.47000000000000003,76.94,76.94,0.0,0.01,3
31.29288200,31292882,0.0,-0.01,0.0,0.47000000000000003,76.94,76.94,0.0,0.01,3
31.39293500,31392935,0.0,-0.01,0.0,0.47000000000000003,76.95,76.95,0.0,0.01,3
31.49288300,31492883,0.0,0.0,0.0,0.47000000000000003,76.95,76.95,0.0,0.0,3
31.59291700,31592917,0.0,0.0,0.0,0.47000000000000003,76.96000000000001,76.96000000000001,0.0,0.0,3
31.69308700,31693087,0.0,0.0,0.0,0.46,76.96000000000001,76.96000000000001,0.0,0.0,3
31.79278700,31792787,0.0,0.0,0.0,0.47000000000000003,76.96000000000001,76.96000000000001,0.0,0.0,3
31.89273200,31892732,0.0,0.0,0.0,0.47000000000000003,76.97,76.97,0.0,0.0,3
31.99280900,31992809,0.0,0.0,0.0,0.47000000000000003,76.96000000000001,76.96000000000001,0.0,0.0,3
32.09276200,32092762,0.0,0.0,0.0,0.47000000000000003,76.95,76.95,0.0,0.0,3
32.19282700,32192827,0.0,0.0,0.0,0.47000000000000003,76.94,76.94,0.0,0.0,3
32.29289900,32292899,0.0,0.0,0.0,0.47000000000000003,76.93,76.93,0.0,0.0,3
32.39296800,32392968,0.0,0.0,0.0,0.47000000000000003,76.92,76.92,0.0,0.0,3
32.49290000,32492900,0.0,0.0,0.0,0.47000000000000003,76.92,76.92,0.0,0.01,3
32.59291700,32592917,0.0,0.0,0.0,0.47000000000000003,76.91,76.91,0.0,0.0,3
32.69294500,32692945,0.0,0.0,0.0,0.47000000000000003,76.9,76.9,0.0,0.0,3
32.79308700,32793087,0.0,0.0,0.0,0.47000000000000003,76.88,76.88,0.0,0.01,3
32.89279200,32892792,0.0,0.0,0.0,0.46,76.87,76.87,0.0,0.01,3
32.99277400,32992774,0.0,0.0,0.0,0.46,76.87,76.87,0.0,0.01,3
33.09283800,33092838,0.0,0.0,0.0,0.46,76.87,76.87,0.0,0.01,3
33.19292300,33192923,0.0,0.0,0.0,0.46,76.86,76.86,0.0,0.01,3
33.29308600,33293086,0.0,0.0,0.0,0.46,76.86,76.86,0.0,0.01,3
33.39312200,33393122,0.0,0.0,0.0,0.46,76.85000000000001,76.85000000000001,0.0,0.01,3
33.49305700,33493057,0.0,0.0,0.0,0.46,76.84,76.84,0.0,0.01,3
33.59308200,33593082,0.0,0.0,0.0,0.46,76.83,76.83,0.0,0.01,3
33.69323900,33693239,0.0,0.0,0.0,0.46,76.83,76.83,0.0,0.0,3
33.79307200,33793072,0.0,0.0,0.0,0.46,76.82000000000001,76.82000000000001,0.0,0.0,3
33.89296300,33892963,0.0,0.01,0.0,0.46,76.81,76.81,0.0,0.0,3
33.99308200,33993082,0.0,0.01,0.0,0.46,76.81,76.81,0.0,0.0,3
34.09291500,34092915,0.0,0.01,0.0,0.46,76.8,76.8,0.0,0.0,3
34.19293300,34192933,0.0,0.01,0.0,0.46,76.8,76.8,0.0,0.0,3
34.29289800,34292898,0.0,0.01,0.0,0.46,76.79,76.79,0.0,0.0,3
34.39293900,34392939,0.0,0.01,0.0,0.47000000000000003,76.79,76.79,0.0,0.0,3
34.49277500,34492775,0.0,0.01,0.0,0.47000000000000003,76.8,76.8,0.0,0.0,3
34.59310000,34593100,0.0,0.0,0.0,0.47000000000000003,76.8,76.8,0.0,0.0,3
34.69280300,34692803,0.0,0.0,0.0,0.47000000000000003,76.8,76.8,0.0,0.01,3
34.79282700,34792827,0.0,0.0,0.0,0.47000000000000003,76.79,76.79,0.0,0.01,3
34.89287800,34892878,0.0,0.0,0.0,0.47000000000000003,76.78,76.78,0.0,0.01,3
34.99290400,34992904,0.0,0.01,0.0,0.46,76.77,76.77,0.0,0.01,3
35.09289700,35092897,0.0,0.01,0.0,0.46,76.77,76.77,0.0,0.01,3
35.19295200,35192952,0.0,0.01,0.0,0.46,76.76,76.76,0.0,0.01,3
35.29308900,35293089,0.0,0.0,0.0,0.46,76.76,76.76,0.0,0.01,3
35.39313800,35393138,0.0,0.0,0.0,0.46,76.76,76.76,0.0,0.01,3
35.49274000,35492740,0.0,0.0,0.0,0.46,76.76,76.76,0.0,0.01,3
35.59282000,35592820,0.0,0.0,0.0,0.46,76.77,76.77,0.0,0.01,3
35.69277100,35692771,0.0,0.01,0.0,0.46,76.78,76.78,0.0,0.01,3
35.79286600,35792866,0.0,0.0,0.0,0.46,76.8,76.8,0.0,0.01,3
35.89288400,35892884,0.0,0.0,0.0,0.46,76.81,76.81,0.0,0.01,3
35.99313000,35993130,0.0,0.01,0.0,0.46,76.83,76.83,0.0,0.01,3
36.09312600,36093126,0.0,0.0,0.0,0.46,76.85000000000001,76.85000000000001,0.0,0.01,3
36.19310500,36193105,0.0,0.01,0.0,0.46,76.86,76.86,0.0,0.01,3
36.29309700,36293097,0.0,0.0,0.0,0.46,76.87,76.87,0.0,0.01,3
36.39313800,36393138,0.0,0.0,0.0,0.46,76.87,76.87,0.0,0.01,3
36.49305500,36493055,0.0,0.0,0.0,0.46,76.88,76.88,0.0,0.01,3
36.59333600,36593336,0.0,0.01,0.0,0.45,76.89,76.89,0.0,0.01,3
36.69306000,36693060,0.0,0.0,0.0,0.45,76.9,76.9,0.0,0.01,3
36.79291200,36792912,0.0,0.0,0.0,0.45,76.91,76.91,0.0,0.01,3
36.89298600,36892986,0.0,0.01,0.0,0.45,76.91,76.91,0.0,0.01,3
36.99296400,36992964,0.0,0.01,0.0,0.45,76.92,76.92,0.0,0.01,3
37.09285800,37092858,0.0,0.01,0.0,0.44,76.93,76.93,0.0,0.01,3
37.19277300,37192773,0.0,0.01,0.0,0.44,76.93,76.93,0.0,0.01,3
37.29273700,37292737,0.0,0.01,0.0,0.44,76.93,76.93,0.0,0.01,3
37.39283200,37392832,0.0,0.02,0.0,0.45,76.94,76.94,0.0,0.01,3
37.49296300,37492963,0.0,0.02,0.0,0.44,76.94,76.94,0.0,0.01,3
37.59309700,37593097,0.0,0.02,0.0,0.44,76.94,76.94,0.0,0.01,3
37.69307000,37693070,0.0,0.02,0.0,0.44,76.94,76.94,0.0,0.01,3
37.79310800,37793108,0.0,0.02,0.0,0.44,76.93,76.93,0.0,0.01,3
37.89289500,37892895,0.0,0.02,0.0,0.44,76.92,76.92,0.0,0.01,3
37.99286900,37992869,0.0,0.02,0.0,0.43,76.92,76.92,0.0,0.01,3
38.09277400,38092774,0.0,0.02,0.0,0.43,76.92,76.92,0.0,0.01,3
38.19280400,38192804,0.0,0.02,0.0,0.43,76.92,76.92,0.0,0.01,3
38.29280600,38292806,0.0,0.02,0.0,0.43,76.93,76.93,0.0,0.01,3
38.39280400,38392804,0.0,0.02,0.0,0.43,76.94,76.94,0.0,0.01,3
38.49286400,38492864,0.0,0.02,0.0,0.43,76.95,76.95,0.0,0.01,3
38.59290200,38592902,0.0,0.02,0.0,0.43,76.97,76.97,0.0,0.02,3
38.69308600,38693086,0.0,0.02,0.0,0.43,76.98,76.98,0.0,0.01,3
38.79291800,38792918,0.0,0.03,0.0,0.43,76.99,76.99,0.0,0.01,3
38.89284900,38892849,0.0,0.03,0.0,0.43,77.0,77.0,0.0,0.01,3
38.99295500,38992955,0.0,0.03,0.0,0.43,77.01,77.01,0.0,0.01,3
39.09273000,39092730,0.0,0.03,0.0,0.43,77.02,77.02,0.0,0.01,3
39.19279300,39192793,0.0,0.03,0.0,0.43,77.02,77.02,0.0,0.01,3
39.29276700,39292767,0.0,0.03,0.0,0.43,77.03,77.03,0.0,0.02,3
39.39289400,39392894,0.0,0.03,0.0,0.43,77.05,77.05,0.0,0.02,3
39.49289300,39492893,0.0,0.04,0.0,0.43,77.07000000000001,77.07000000000001,0.0,0.02,3
39.59293700,39592937,0.0,0.04,0.0,0.43,77.09,77.09,0.0,0.01,3
39.69290100,39692901,0.0,0.04,0.0,0.42,77.10000000000001,77.10000000000001,0.0,0.01,3
39.79306600,39793066,0.0,0.04,0.0,0.42,77.12,77.12,0.0,0.01,3
39.89277100,39892771,0.0,0.04,0.0,0.42,77.13,77.13,0.0,0.01,3
39.99274700,39992747,0.0,0.04,0.0,0.42,77.15,77.15,0.0,0.02,3
40.09280900,40092809,0.0,0.04,0.0,0.42,77.16,77.16,0.0,0.02,3
40.19277300,40192773,0.0,0.04,0.0,0.42,77.18,77.18,0.0,0.01,3
40.29282500,40292825,0.0,0.03,0.0,0.42,77.19,77.19,0.0,0.01,3
40.39293900,40392939,0.0,0.03,0.0,0.42,77.19,77.19,0.0,0.01,3
40.49291500,40492915,0.0,0.03,0.0,0.42,77.2,77.2,0.0,0.01,3
40.59291700,40592917,0.0,0.04,0.0,0.42,77.2,77.2,0.0,0.01,3
40.69307700,40693077,0.0,0.04,0.0,0.41000000000000003,77.21000000000001,77.21000000000001,0.0,0.01,3
40.79309200,40793092,0.0,0.04,0.0,0.41000000000000003,77.21000000000001,77.21000000000001,0.0,0.01,3
40.89309200,40893092,0.0,0.04,0.0,0.41000000000000003,77.22,77.22,0.0,0.01,3
40.99280700,40992807,0.0,0.03,0.0,0.41000000000000003,77.22,77.22,0.0,0.01,3
41.09281300,41092813,0.0,0.04,0.0,0.41000000000000003,77.23,77.23,0.0,0.01,3
41.19281200,41192812,0.0,0.03,0.0,0.41000000000000003,77.23,77.23,0.0,0.01,3
41.29290300,41292903,0.0,0.03,0.0,0.41000000000000003,77.23,77.23,0.0,0.01,3
41.39296600,41392966,0.0,0.03,0.0,0.42,77.24,77.24,0.0,0.01,3
41.49288600,41492886,0.0,0.03,0.0,0.42,77.24,77.24,0.0,0.01,3
41.59286900,41592869,0.0,0.04,0.0,0.42,77.24,77.24,0.0,0.01,3
41.69276900,41692769,0.0,0.04,0.0,0.42,77.24,77.24,0.0,0.01,3
41.79307900,41793079,0.0,0.04,0.0,0.42,77.26,77.26,0.0,0.01,3
41.89278800,41892788,0.0,0.04,0.0,0.43,77.27,77.27,0.0,0.01,3
41.99276600,41992766,0.0,0.04,0.0,0.42,77.28,77.28,0.0,0.01,3
42.09280900,42092809,0.0,0.04,0.0,0.43,77.28,77.28,0.0,0.01,3
42.19290200,42192902,0.0,0.04,0.0,0.42,77.28,77.28,0.0,0.01,3
42.29288300,42292883,0.0,0.04,0.0,0.42,77.28,77.28,0.0,0.01,3
42.39296800,42392968,0.0,0.04,0.0,0.42,77.29,77.29,0.0,0.01,3
42.49286300,42492863,0.0,0.04,0.0,0.42,77.29,77.29,0.0,0.01,3
42.59284900,42592849,0.0,0.04,0.0,0.42,77.29,77.29,0.0,0.01,3
42.69273200,42692732,0.0,0.04,0.0,0.42,77.28,77.28,0.0,0.01,3
42.79280700,42792807,0.0,0.04,0.0,0.42,77.29,77.29,0.0,0.01,3
42.89298000,42892980,0.0,0.04,0.0,0.42,77.29,77.29,0.0,0.01,3
42.99309600,42993096,0.0,0.05,0.0,0.41000000000000003,77.3,77.3,0.0,0.01,3
43.09289900,43092899,0.0,0.04,0.0,0.42,77.29,77.29,0.0,0.01,3
43.19299500,43192995,0.0,0.04,0.0,0.42,77.27,77.27,0.0,0.01,3
43.29290300,43292903,0.0,0.03,0.0,0.41000000000000003,77.28,77.28,0.0,0.01,3
43.39294600,43392946,0.0,0.03,0.0,0.42,77.27,77.27,0.0,0.01,3
43.49305300,43493053,0.0,0.03,0.0,0.41000000000000003,77.26,77.26,0.0,0.01,3
43.59306800,43593068,0.0,0.02,0.0,0.41000000000000003,77.28,77.28,0.0,0.01,3
43.69303600,43693036,0.0,0.03,0.0,0.42,77.28,77.28,0.0,0.01,3
43.79321700,43793217,0.0,0.03,0.0,0.41000000000000003,77.28,77.28,0.0,0.01,3
43.89307500,43893075,0.0,0.04,0.0,0.41000000000000003,77.29,77.29,0.0,0.01,3
43.99308400,43993084,0.0,0.04,0.0,0.42,77.29,77.29,0.0,0.01,3
44.09309400,44093094,0.0,0.04,0.0,0.41000000000000003,77.29,77.29,0.0,0.01,3
44.19293100,44192931,0.0,0.04,0.0,0.42,77.29,77.29,0.0,0.01,3
44.29287000,44292870,0.0,0.05,0.0,0.41000000000000003,77.29,77.29,0.0,0.01,3
44.39291200,44392912,0.0,0.05,0.0,0.42,77.28,77.28,0.0,0.01,3
44.49273100,44492731,0.0,0.05,0.0,0.42,77.3,77.3,0.0,0.01,3
44.59280200,44592802,0.0,0.05,0.0,0.42,77.29,77.29,0.0,0.01,3
44.69275300,44692753,0.0,0.05,0.0,0.42,77.29,77.29,0.0,0.01,3
44.79289200,44792892,0.0,0.05,0.0,0.42,77.3,77.3,0.0,0.01,3
44.89288700,44892887,0.0,0.05,0.0,0.42,77.29,77.29,0.0,0.01,3
44.99310300,44993103,0.0,0.05,0.0,0.43,77.3,77.3,0.0,0.01,3
45.09290200,45092902,0.0,0.05,0.0,0.42,77.32000000000001,77.32000000000001,0.0,0.01,3
45.19286900,45192869,0.0,0.05,0.0,0.43,77.31,77.31,0.0,0.0,3
45.29295700,45292957,0.0,0.05,0.0,0.43,77.32000000000001,77.32000000000001,0.0,0.01,3
45.39283200,45392832,0.0,0.05,0.0,0.43,77.32000000000001,77.32000000000001,0.0,0.01,3
45.49278400,45492784,0.0,0.05,0.0,0.44,77.31,77.31,0.0,0.01,3
45.59277500,45592775,0.0,0.05,0.0,0.44,77.3,77.3,0.0,0.01,3
45.69288300,45692883,0.0,0.05,0.0,0.44,77.29,77.29,0.0,0.01,3
45.79311500,45793115,0.0,0.05,0.0,0.44,77.27,77.27,0.0,0.01,3
45.89309600,45893096,0.0,0.05,0.0,0.43,77.27,77.27,0.0,0.01,3
45.99293500,45992935,0.0,0.05,0.0,0.44,77.28,77.28,0.0,0.01,3
46.09306900,46093069,0.0,0.06,0.0,0.44,77.27,77.27,0.0,0.0,3
46.19308500,46193085,0.0,0.05,0.0,0.43,77.28,77.28,0.0,0.01,3
46.29309700,46293097,0.0,0.04,0.0,0.44,77.29,77.29,0.0,0.01,3
46.39317700,46393177,0.0,0.07,0.0,0.44,77.28,77.28,0.0,0.01,3
46.49328500,46493285,0.0,0.05,0.0,0.43,77.3,77.3,0.0,0.01,3
46.59311000,46593110,0.0,0.06,0.0,0.45,77.31,77.31,0.0,0.01,3
46.69290400,46692904,0.0,0.06,0.0,0.44,77.3,77.3,0.0,0.01,3
46.79292900,46792929,0.0,0.07,0.0,0.42,77.32000000000001,77.32000000000001,0.0,0.01,3
46.89289000,46892890,0.0,0.06,0.0,0.44,77.33,77.33,0.0,0.01,3
46.99283400,46992834,0.0,0.07,0.0,0.42,77.32000000000001,77.32000000000001,0.0,0.01,3
47.09277900,47092779,0.0,0.07,0.0,0.42,77.34,77.34,0.0,0.01,3
47.19309700,47193097,0.0,0.07,0.0,0.43,77.34,77.34,0.0,0.01,3
47.29279500,47292795,0.0,0.07,0.0,0.42,77.34,77.34,0.0,0.02,3
47.39286000,47392860,0.0,0.06,0.0,0.43,77.36,77.36,0.0,0.01,3
47.49288100,47492881,0.0,0.08,0.0,0.43,77.36,77.36,0.0,0.01,3
47.59290400,47592904,0.0,0.07,0.0,0.43,77.36,77.36,0.0,0.01,3
47.69291400,47692914,0.0,0.07,0.0,0.44,77.39,77.39,0.0,0.01,3
47.79294100,47792941,0.0,0.08,0.0,0.43,77.38,77.38,0.0,0.01,3
47.89306600,47893066,0.0,0.07,0.0,0.44,77.38,77.38,0.0,0.01,3
47.99309100,47993091,0.0,0.08,0.0,0.44,77.39,77.39,0.0,0.01,3
48.09306900,48093069,0.0,0.07,0.0,0.43,77.36,77.36,0.0,0.01,3
48.19280500,48192805,0.0,0.08,0.0,0.44,77.36,77.36,0.0,0.01,3
48.29275900,48292759,0.0,0.08,0.0,0.44,77.37,77.37,0.0,0.01,3
48.39290500,48392905,0.0,0.07,0.0,0.43,77.36,77.36,0.0,0.01,3
48.49290200,48492902,0.0,0.08,0.0,0.44,77.36,77.36,0.0,0.01,3
48.59295500,48592955,0.0,0.07,0.0,0.43,77.37,77.37,0.0,0.01,3
48.69291100,48692911,0.0,0.08,0.0,0.43,77.36,77.36,0.0,0.01,3
48.79291100,48792911,0.0,0.07,0.0,0.43,77.35000000000001,77.35000000000001,0.0,0.01,3
48.89307900,48893079,0.0,0.08,0.0,0.43,77.35000000000001,77.35000000000001,0.0,0.01,3
48.99308900,48993089,0.0,0.08,0.0,0.42,77.35000000000001,77.35000000000001,0.0,0.01,3
49.09279900,49092799,0.0,0.07,0.0,0.42,77.35000000000001,77.35000000000001,0.0,0.01,3
49.19277900,49192779,0.0,0.08,0.0,0.43,77.36,77.36,0.0,0.01,3
49.29290300,49292903,0.0,0.08,0.0,0.42,77.36,77.36,0.0,0.01,3
49.39300000,49393000,0.0,0.08,0.0,0.42,77.37,77.37,0.0,0.01,3
49.49300700,49493007,0.0,0.07,0.0,0.42,77.36,77.36,0.0,0.01,3
49.59295600,49592956,0.0,0.06,0.0,0.41000000000000003,77.36,77.36,0.0,0.01,3
49.69285400,49692854,0.0,0.07,0.0,0.43,77.36,77.36,0.0,0.01,3
49.79278200,49792782,0.0,0.06,0.0,0.42,77.35000000000001,77.35000000000001,0.0,0.01,3
49.89273600,49892736,0.0,0.07,0.0,0.41000000000000003,77.36,77.36,0.0,0.01,3
49.99279500,49992795,0.0,0.08,0.0,0.43,77.37,77.37,0.0,0.01,3
50.09296900,50092969,0.0,0.08,0.0,0.42,77.36,77.36,0.0,0.02,3
50.19288000,50192880,0.0,0.1,0.0,0.42,77.39,77.39,0.0,0.02,3
50.29291400,50292914,0.0,0.08,0.0,0.44,77.4,77.4,0.0,0.01,3
50.39295500,50392955,0.0,0.1,0.0,0.42,77.4,77.4,0.0,0.01,3
50.49289700,50492897,0.0,0.08,0.0,0.42,77.43,77.43,0.0,0.01,3
50.59288000,50592880,0.0,0.09,0.0,0.42,77.44,77.44,0.0,0.01,3
50.69304900,50693049,0.0,0.08,0.0,0.42,77.43,77.43,0.0,0.01,3
50.79304500,50793045,0.0,0.08,0.0,0.42,77.46000000000001,77.46000000000001,0.0,0.01,3
50.89333800,50893338,0.0,0.09,0.0,0.43,77.45,77.45,0.0,0.01,3
50.99322000,50993220,0.0,0.09,0.0,0.41000000000000003,77.44,77.44,0.0,0.01,3
51.09308700,51093087,0.0,0.09,0.0,0.42,77.47,77.47,0.0,0.01,3
51.19308900,51193089,0.0,0.09,0.0,0.43,77.45,77.45,0.0,0.02,3
51.29311700,51293117,0.0,0.1,0.0,0.42,77.45,77.45,0.0,0.02,3
51.39298400,51392984,0.0,0.1,0.0,0.43,77.46000000000001,77.46000000000001,0.0,0.01,3
51.49286800,51492868,0.0,0.1,0.0,0.43,77.44,77.44,0.0,0.01,3
51.59296900,51592969,0.0,0.1,0.0,0.43,77.44,77.44,0.0,0.01,3
51.69273000,51692730,0.0,0.1,0.0,0.45,77.46000000000001,77.46000000000001,0.0,0.01,3
51.79282000,51792820,0.0,0.1,0.0,0.44,77.44,77.44,0.0,0.01,3
51.89305000,51893050,0.0,0.1,0.0,0.45,77.45,77.45,0.0,0.01,3
51.99289800,51992898,0.0,0.1,0.0,0.44,77.47,77.47,0.0,0.01,3
52.09291100,52092911,0.0,0.1,0.0,0.44,77.46000000000001,77.46000000000001,0.0,0.01,3
52.19313600,52193136,0.0,0.11,0.0,0.45,77.48,77.48,0.0,0.01,3
52.29296500,52292965,0.0,0.11,0.0,0.44,77.49,77.49,0.0,0.01,3
52.39314500,52393145,0.0,0.11,0.0,0.45,77.49,77.49,0.0,0.02,3
52.49309300,52493093,0.0,0.11,0.0,0.45,77.5,77.5,0.0,0.01,3
52.59311000,52593110,0.0,0.11,0.0,0.44,77.51,77.51,0.0,0.01,3
52.69305900,52693059,0.0,0.11,0.0,0.45,77.52,77.52,0.0,0.01,3
52.79334700,52793347,0.0,0.11,0.0,0.45,77.53,77.53,0.0,0.01,3
52.89334800,52893348,0.0,0.11,0.0,0.45,77.55,77.55,0.0,0.01,3
52.99310200,52993102,0.0,0.11,0.0,0.45,77.54,77.54,0.0,0.01,3
53.09310300,53093103,0.0,0.11,0.0,0.45,77.54,77.54,0.0,0.01,3
53.19312100,53193121,0.0,0.11,0.0,0.45,77.55,77.55,0.0,0.01,3
53.29308800,53293088,0.0,0.11,0.0,0.45,77.53,77.53,0.0,0.02,3
53.39312200,53393122,0.0,0.11,0.0,0.45,77.53,77.53,0.0,0.02,3
53.49327600,53493276,0.0,0.11,0.0,0.46,77.52,77.52,0.0,0.02,3
53.59308900,53593089,0.0,0.11,0.0,0.45,77.5,77.5,0.0,0.02,3
53.69309400,53693094,0.0,0.11,0.0,0.45,77.5,77.5,0.0,0.02,3
53.79308100,53793081,0.0,0.11,0.0,0.45,77.49,77.49,0.0,0.02,3
53.89296000,53892960,0.0,0.11,0.0,0.45,77.46000000000001,77.46000000000001,0.0,0.01,3
53.99293600,53992936,0.0,0.11,0.0,0.45,77.47,77.47,0.0,0.01,3
54.09291100,54092911,0.0,0.11,0.0,0.45,77.46000000000001,77.46000000000001,0.0,0.01,3
54.19286600,54192866,0.0,0.11,0.0,0.45,77.45,77.45,0.0,0.01,3
54.29277000,54292770,0.0,0.11,0.0,0.45,77.45,77.45,0.0,0.01,3
54.39282800,54392828,0.0,0.11,0.0,0.45,77.45,77.45,0.0,0.01,3
54.49275800,54492758,0.0,0.11,0.0,0.45,77.45,77.45,0.0,0.01,3
54.59302100,54593021,0.0,0.11,0.0,0.46,77.45,77.45,0.0,0.01,3
54.69307800,54693078,0.0,0.11,0.0,0.46,77.44,77.44,0.0,0.01,3
54.79293100,54792931,0.0,0.11,0.0,0.46,77.43,77.43,0.0,0.01,3
54.89295300,54892953,0.0,0.11,0.0,0.46,77.44,77.44,0.0,0.01,3
54.99294200,54992942,0.0,0.11,0.0,0.46,77.43,77.43,0.0,0.01,3
55.09286300,55092863,0.0,0.11,0.0,0.46,77.43,77.43,0.0,0.01,3
55.19277600,55192776,0.0,0.11,0.0,0.45,77.44,77.44,0.0,0.01,3
55.29273100,55292731,0.0,0.11,0.0,0.46,77.43,77.43,0.0,0.01,3
55.39282400,55392824,0.0,0.11,0.0,0.46,77.44,77.44,0.0,0.01,3
55.49275000,55492750,0.0,0.11,0.0,0.46,77.45,77.45,0.0,0.01,3
55.59283100,55592831,0.0,0.11,0.0,0.46,77.45,77.45,0.0,0.01,3
55.69290000,55692900,0.0,0.11,0.0,0.46,77.46000000000001,77.46000000000001,0.0,0.01,3
55.79321000,55793210,0.0,0.11,0.0,0.46,77.47,77.47,0.0,0.01,3
55.89294900,55892949,0.0,0.11,0.0,0.46,77.47,77.47,0.0,0.01,3
55.99285800,55992858,0.0,0.11,0.0,0.46,77.47,77.47,0.0,0.01,3
56.09277300,56092773,0.0,0.11,0.0,0.46,77.48,77.48,0.0,0.01,3
56.19280800,56192808,0.0,0.11,0.0,0.46,77.47,77.47,0.0,0.01,3
56.29280600,56292806,0.0,0.11,0.0,0.46,77.47,77.47,0.0,0.01,3
56.39279700,56392797,0.0,0.11,0.0,0.46,77.47,77.47,0.0,0.01,3
56.49306700,56493067,0.0,0.11,0.0,0.46,77.47,77.47,0.0,0.01,3
56.59306000,56593060,0.0,0.11,0.0,0.46,77.47,77.47,0.0,0.02,3
56.69309500,56693095,0.0,0.11,0.0,0.46,77.47,77.47,0.0,0.02,3
56.79309300,56793093,0.0,0.11,0.0,0.46,77.45,77.45,0.0,0.02,3
56.89305700,56893057,0.0,0.11,0.0,0.46,77.45,77.45,0.0,0.02,3
56.99321800,56993218,0.0,0.12,0.0,0.45,77.44,77.44,0.0,0.02,3
57.09308100,57093081,0.0,0.12,0.0,0.46,77.42,77.42,0.0,0.02,3
57.19281100,57192811,0.0,0.12,0.0,0.46,77.41,77.41,0.0,0.02,3
57.29276100,57292761,0.0,0.12,0.0,0.46,77.4,77.4,0.0,0.02,3
57.39290500,57392905,0.0,0.12,0.0,0.46,77.38,77.38,0.0,0.02,3
57.49290700,57492907,0.0,0.12,0.0,0.46,77.38,77.38,0.0,0.02,3
57.59297000,57592970,0.0,0.12,0.0,0.46,77.37,77.37,0.0,0.02,3
57.69291300,57692913,0.0,0.13,0.0,0.47000000000000003,77.36,77.36,0.0,0.01,3
57.79286900,57792869,0.0,0.13,0.0,0.46,77.37,77.37,0.0,0.01,3
57.89295000,57892950,0.0,0.12,0.0,0.46,77.37,77.37,0.0,0.01,3
57.99273800,57992738,0.0,0.13,0.0,0.46,77.37,77.37,0.0,0.01,3
58.09275300,58092753,0.0,0.12,0.0,0.47000000000000003,77.37,77.37,0.0,0.01,3
58.19297800,58192978,0.0,0.12,0.0,0.47000000000000003,77.37,77.37,0.0,0.01,3
58.29307100,58293071,0.0,0.12,0.0,0.48,77.36,77.36,0.0,0.01,3
58.39293100,58392931,0.0,0.12,0.0,0.48,77.37,77.37,0.0,0.01,3
58.49292600,58492926,0.0,0.12,0.0,0.48,77.36,77.36,0.0,0.01,3
58.59294600,58592946,0.0,0.12,0.0,0.48,77.36,77.36,0.0,0.01,3
58.69285800,58692858,0.0,0.12,0.0,0.48,77.36,77.36,0.0,0.01,3
58.79278200,58792782,0.0,0.12,0.0,0.49,77.35000000000001,77.35000000000001,0.0,0.01,3
58.89274300,58892743,0.0,0.12,0.0,0.49,77.35000000000001,77.35000000000001,0.0,0.01,3
58.99281000,58992810,0.0,0.13,0.0,0.49,77.35000000000001,77.35000000000001,0.0,0.01,3
59.09297500,59092975,0.0,0.12,0.0,0.5,77.35000000000001,77.35000000000001,0.0,0.01,3
59.19286500,59192865,0.0,0.12,0.0,0.5,77.35000000000001,77.35000000000001,0.0,0.01,3
59.29290000,59292900,0.0,0.13,0.0,0.5,77.35000000000001,77.35000000000001,0.0,0.01,3
59.39300200,59393002,0.0,0.12,0.0,0.5,77.33,77.33,0.0,0.01,3
59.49293500,59492935,0.0,0.13,0.0,0.5,77.32000000000001,77.32000000000001,0.0,0.02,3
59.59287500,59592875,0.0,0.12,0.0,0.51,77.32000000000001,77.32000000000001,0.0,0.02,3
59.69276800,59692768,0.0,0.12,0.0,0.51,77.3,77.3,0.0,0.02,3
59.79281400,59792814,0.0,0.12,0.0,0.51,77.29,77.29,0.0,0.02,3
59.89280300,59892803,0.0,0.12,0.0,0.52,77.28,77.28,0.0,0.02,3
59.99315600,59993156,0.0,0.13,0.0,0.52,77.26,77.26,0.0,0.01,3
60.09307700,60093077,0.0,0.13,0.0,0.52,77.26,77.26,0.0,0.01,3
60.19309200,60193092,0.0,0.13,0.0,0.52,77.25,77.25,0.0,0.01,3
60.29312700,60293127,0.0,0.13,0.0,0.52,77.25,77.25,0.0,0.02,3
60.39300800,60393008,0.0,0.13,0.0,0.52,77.25,77.25,0.0,0.02,3
60.49285700,60492857,0.0,0.13,0.0,0.52,77.24,77.24,0.0,0.02,3
60.59279000,60592790,0.0,0.12,0.0,0.52,77.23,77.23,0.0,0.03,3
60.69275600,60692756,0.0,0.12,0.0,0.52,77.21000000000001,77.21000000000001,0.0,0.03,3
60.79280100,60792801,0.0,0.13,0.0,0.52,77.2,77.2,0.0,0.03,3
60.89275500,60892755,0.0,0.13,0.0,0.52,77.18,77.18,0.0,0.02,3
60.99286700,60992867,0.0,0.12,0.0,0.52,77.17,77.17,0.0,0.02,3
61.09290500,61092905,0.0,0.13,0.0,0.52,77.16,77.16,0.0,0.02,3
61.19311900,61193119,0.0,0.13,0.0,0.52,77.14,77.14,0.0,0.02,3
61.29292800,61292928,0.0,0.13,0.0,0.52,77.13,77.13,0.0,0.02,3
61.39294500,61392945,0.0,0.13,0.0,0.52,77.12,77.12,0.0,0.01,3
61.49277800,61492778,0.0,0.13,0.0,0.52,77.11,77.11,0.0,0.01,3
61.59280800,61592808,0.0,0.13,0.0,0.52,77.11,77.11,0.0,0.02,3
61.69279400,61692794,0.0,0.14,0.0,0.52,77.11,77.11,0.0,0.02,3
61.79276400,61792764,0.0,0.14,0.0,0.52,77.11,77.11,0.0,0.01,3
61.89288200,61892882,0.0,0.14,0.0,0.52,77.10000000000001,77.10000000000001,0.0,0.01,3
61.99307700,61993077,0.0,0.14,0.0,0.52,77.09,77.09,0.0,0.01,3
62.09320300,62093203,0.0,0.15,0.0,0.52,77.09,77.09,0.0,0.02,3
62.19291900,62192919,0.0,0.15,0.0,0.52,77.09,77.09,0.0,0.01,3
62.29284600,62292846,0.0,0.15,0.0,0.52,77.08,77.08,0.0,0.01,3
62.39291000,62392910,0.0,0.15,0.0,0.52,77.08,77.08,0.0,0.02,3
62.49273000,62492730,0.0,0.14,0.0,0.52,77.07000000000001,77.07000000000001,0.0,0.02,3
62.59281700,62592817,0.0,0.14,0.0,0.51,77.06,77.06,0.0,0.02,3
62.69277200,62692772,0.0,0.14,0.0,0.52,77.05,77.05,0.0,0.02,3
62.79288000,62792880,0.0,0.14,0.0,0.52,77.04,77.04,0.0,0.02,3
62.89292400,62892924,0.0,0.14,0.0,0.52,77.02,77.02,0.0,0.02,3
62.99295800,62992958,0.0,0.14,0.0,0.51,77.0,77.0,0.0,0.02,3
63.09295000,63092950,0.0,0.14,0.0,0.52,76.99,76.99,0.0,0.02,3
63.19309500,63193095,0.0,0.14,0.0,0.51,76.98,76.98,0.0,0.02,3
63.29310100,63293101,0.0,0.14,0.0,0.53,76.93,76.93,0.0,0.02,3
63.39313600,63393136,0.0,0.14,0.0,0.52,76.96000000000001,76.96000000000001,0.0,0.02,3
63.49305000,63493050,0.0,0.14,0.0,0.52,76.98,76.98,0.0,0.02,3
63.59299000,63592990,0.0,0.14,0.0,0.53,76.91,76.91,0.0,0.02,3
63.69305700,63693057,0.0,0.14,0.0,0.52,76.94,76.94,0.0,0.02,3
63.79309400,63793094,0.0,0.15,0.0,0.53,76.95,76.95,0.0,0.02,3
63.89311400,63893114,0.0,0.14,0.0,0.53,76.89,76.89,0.0,0.01,3
63.99311900,63993119,0.0,0.15,0.0,0.52,76.92,76.92,0.0,0.02,3
64.09306200,64093062,0.0,0.14,0.0,0.53,76.93,76.93,0.0,0.01,3
64.19314800,64193148,0.0,0.15,0.0,0.52,76.89,76.89,0.0,0.01,3
64.29306500,64293065,0.0,0.15,0.0,0.53,76.89,76.89,0.0,0.01,3
64.39307400,64393074,0.0,0.15,0.0,0.53,76.9,76.9,0.0,0.01,3
64.49293600,64492936,0.0,0.15,0.0,0.52,76.86,76.86,0.0,0.01,3
64.59306500,64593065,0.0,0.16,0.0,0.53,76.86,76.86,0.0,0.01,3
64.69305200,64693052,0.0,0.15,0.0,0.53,76.86,76.86,0.0,0.01,3
64.79312800,64793128,0.0,0.16,0.0,0.53,76.84,76.84,0.0,0.01,3
64.89285600,64892856,0.0,0.16,0.0,0.53,76.84,76.84,0.0,0.01,3
64.99285800,64992858,0.0,0.16,0.0,0.52,76.83,76.83,0.0,0.01,3
65.09276800,65092768,0.0,0.17,0.0,0.52,76.82000000000001,76.82000000000001,0.0,0.01,3
65.19280800,65192808,0.0,0.17,0.0,0.51,76.82000000000001,76.82000000000001,0.0,0.01,3
65.29280300,65292803,0.0,0.17,0.0,0.5,76.8,76.8,0.0,0.01,3
65.39279600,65392796,0.0,0.17,0.0,0.51,76.79,76.79,0.0,0.01,3
65.49282500,65492825,0.0,0.17,0.0,0.5,76.79,76.79,0.0,0.01,3
65.59293400,65592934,0.0,0.18,0.0,0.5,76.77,76.77,0.0,0.01,3
65.69311300,65693113,0.0,0.18,0.0,0.5,76.78,76.78,0.0,0.01,3
65.79295000,65792950,0.0,0.17,0.0,0.49,76.78,76.78,0.0,0.01,3
65.89292500,65892925,0.0,0.18,0.0,0.5,76.75,76.75,0.0,0.01,3
65.99278900,65992789,0.0,0.18,0.0,0.5,76.77,76.77,0.0,0.01,3
66.09273300,66092733,0.0,0.18,0.0,0.49,76.77,76.77,0.0,0.01,3
66.19279700,66192797,0.0,0.18,0.0,0.5,76.75,76.75,0.0,0.01,3
66.29281000,66292810,0.0,0.18,0.0,0.5,76.77,76.77,0.0,0.01,3
66.39289300,66392893,0.0,0.19,0.0,0.5,76.75,76.75,0.0,0.01,3
66.49290800,66492908,0.0,0.18,0.0,0.5,76.73,76.73,0.0,0.01,3
66.59313500,66593135,0.0,0.19,0.0,0.5,76.74,76.74,0.0,0.01,3
66.69308400,66693084,0.0,0.18,0.0,0.5,76.72,76.72,0.0,0.01,3
66.79306800,66793068,0.0,0.19,0.0,0.5,76.72,76.72,0.0,0.01,3
66.89305800,66893058,0.0,0.19,0.0,0.5,76.73,76.73,0.0,0.0,3
66.99304500,66993045,0.0,0.18,0.0,0.5,76.71000000000001,76.71000000000001,0.0,0.0,3
67.09302800,67093028,0.0,0.2,0.0,0.5,76.71000000000001,76.71000000000001,0.0,0.0,3
67.19293900,67192939,0.0,0.19,0.0,0.5,76.73,76.73,0.0,0.01,3
67.29301000,67293010,0.0,0.19,0.0,0.5,76.72,76.72,0.0,0.01,3
67.39308900,67393089,0.0,0.19,0.0,0.5,76.71000000000001,76.71000000000001,0.0,0.01,3
67.49328800,67493288,0.0,0.18,0.0,0.5,76.71000000000001,76.71000000000001,0.0,0.01,3
67.59313200,67593132,0.0,0.19,0.0,0.5,76.71000000000001,76.71000000000001,0.0,0.0,3
67.69308500,67693085,0.0,0.18,0.0,0.49,76.7,76.7,0.0,0.01,3
67.79278800,67792788,0.0,0.19,0.0,0.5,76.69,76.69,0.0,0.01,3
67.89275700,67892757,0.0,0.18,0.0,0.5,76.67,76.67,0.0,0.01,3
67.99279300,67992793,0.0,0.18,0.0,0.5,76.69,76.69,0.0,0.01,3
68.09276300,68092763,0.0,0.17,0.0,0.5,76.67,76.67,0.0,0.01,3
68.19289000,68192890,0.0,0.18,0.0,0.5,76.64,76.64,0.0,0.01,3
68.29291100,68292911,0.0,0.18,0.0,0.5,76.65,76.65,0.0,0.01,3
68.39302200,68393022,0.0,0.18,0.0,0.5,76.65,76.65,0.0,0.01,3
68.49295100,68492951,0.0,0.17,0.0,0.51,76.61,76.61,0.0,0.01,3
68.59310200,68593102,0.0,0.17,0.0,0.51,76.62,76.62,0.0,0.01,3
68.69276800,68692768,0.0,0.17,0.0,0.5,76.61,76.61,0.0,0.01,3
68.79275200,68792752,0.0,0.17,0.0,0.5,76.60000000000001,76.60000000000001,0.0,0.0,3
68.89276300,68892763,0.0,0.16,0.0,0.51,76.61,76.61,0.0,0.0,3
68.99275900,68992759,0.0,0.17,0.0,0.51,76.60000000000001,76.60000000000001,0.0,0.01,3
69.09282500,69092825,0.0,0.16,0.0,0.51,76.59,76.59,0.0,0.01,3
69.19291800,69192918,0.0,0.16,0.0,0.51,76.60000000000001,76.60000000000001,0.0,0.01,3
69.29310200,69293102,0.0,0.16,0.0,0.51,76.58,76.58,0.0,0.01,3
69.39305300,69393053,0.0,0.16,0.0,0.52,76.58,76.58,0.0,0.01,3
69.49286200,69492862,0.0,0.16,0.0,0.51,76.58,76.58,0.0,0.01,3
69.59278200,69592782,0.0,0.16,0.0,0.51,76.58,76.58,0.0,0.01,3
69.69273500,69692735,0.0,0.15,0.0,0.51,76.58,76.58,0.0,0.01,3
69.79284900,69792849,0.0,0.16,0.0,0.51,76.58,76.58,0.0,0.01,3
69.89296500,69892965,0.0,0.15,0.0,0.51,76.58,76.58,0.0,0.01,3
69.99308900,69993089,0.0,0.15,0.0,0.51,76.58,76.58,0.0,0.01,3
70.09309900,70093099,0.0,0.15,0.0,0.51,76.58,76.58,0.0,0.01,3
70.19311700,70193117,0.0,0.15,0.0,0.5,76.57000000000001,76.57000000000001,0.0,0.01,3
70.29293800,70292938,0.0,0.15,0.0,0.5,76.59,76.59,0.0,0.01,3
70.39310300,70393103,0.0,0.14,0.0,0.51,76.58,76.58,0.0,0.01,3
70.49314500,70493145,0.0,0.15,0.0,0.5,76.56,76.56,0.0,0.01,3
70.59305600,70593056,0.0,0.14,0.0,0.51,76.58,76.58,0.0,0.01,3
70.69303100,70693031,0.0,0.15,0.0,0.51,76.57000000000001,76.57000000000001,0.0,0.0,3
70.79295000,70792950,0.0,0.13,0.0,0.49,76.56,76.56,0.0,0.01,3
70.89308100,70893081,0.0,0.15,0.0,0.5,76.58,76.58,0.0,0.0,3
70.99306900,70993069,0.0,0.13,0.0,0.51,76.54,76.54,0.0,0.01,3
71.09324800,71093248,0.0,0.14,0.0,0.49,76.56,76.56,0.0,0.01,3
71.19293700,71192937,0.0,0.14,0.0,0.49,76.59,76.59,0.0,0.0,3
71.29285200,71292852,0.0,0.13,0.0,0.49,76.52,76.52,0.0,0.01,3
71.39291700,71392917,0.0,0.13,0.0,0.47000000000000003,76.54,76.54,0.0,0.0,3
71.49273900,71492739,0.0,0.13,0.0,0.49,76.57000000000001,76.57000000000001,0.0,0.0,3
71.59281500,71592815,0.0,0.13,0.0,0.49,76.52,76.52,0.0,0.0,3
71.69297300,71692973,0.0,0.12,0.0,0.49,76.53,76.53,0.0,0.0,3
71.79308800,71793088,0.0,0.13,0.0,0.49,76.57000000000001,76.57000000000001,0.0,0.0,3
71.89309700,71893097,0.0,0.12,0.0,0.48,76.53,76.53,0.0,0.01,3
71.99310800,71993108,0.0,0.12,0.0,0.49,76.54,76.54,0.0,0.01,3
72.09289000,72092890,0.0,0.12,0.0,0.49,76.55,76.55,0.0,0.01,3
72.19285900,72192859,0.0,0.12,0.0,0.48,76.53,76.53,0.0,0.01,3
72.29278000,72292780,0.0,0.12,0.0,0.49,76.52,76.52,0.0,0.01,3
72.39284200,72392842,0.0,0.11,0.0,0.49,76.51,76.51,0.0,0.01,3
72.49281300,72492813,0.0,0.12,0.0,0.49,76.52,76.52,0.0,0.01,3
72.59283600,72592836,0.0,0.1,0.0,0.5,76.5,76.5,0.0,0.01,3
72.69287400,72692874,0.0,0.12,0.0,0.49,76.51,76.51,0.0,0.01,3
72.79290500,72792905,0.0,0.11,0.0,0.5,76.53,76.53,0.0,0.01,3
72.89294300,72892943,0.0,0.12,0.0,0.5,76.5,76.5,0.0,0.01,3
72.99293800,72992938,0.0,0.12,0.0,0.49,76.51,76.51,0.0,0.01,3
73.09309100,73093091,0.0,0.11,0.0,0.5,76.51,76.51,0.0,0.01,3
73.19278700,73192787,0.0,0.12,0.0,0.49,76.49,76.49,0.0,0.01,3
73.29280700,73292807,0.0,0.11,0.0,0.48,76.51,76.51,0.0,0.0,3
73.39284000,73392840,0.0,0.12,0.0,0.49,76.52,76.52,0.0,0.0,3
73.49276900,73492769,0.0,0.11,0.0,0.48,76.5,76.5,0.0,0.01,3
73.59290600,73592906,0.0,0.11,0.0,0.49,76.51,76.51,0.0,0.01,3
73.69290400,73692904,0.0,0.11,0.0,0.48,76.52,76.52,0.0,0.01,3
73.79292900,73792929,0.0,0.11,0.0,0.48,76.5,76.5,0.0,0.01,3
73.89288500,73892885,0.0,0.11,0.0,0.49,76.5,76.5,0.0,0.01,3
73.99285000,73992850,0.0,0.11,0.0,0.47000000000000003,76.52,76.52,0.0,0.0,3
74.09304200,74093042,0.0,0.11,0.0,0.48,76.5,76.5,0.0,0.0,3
74.19305200,74193052,0.0,0.11,0.0,0.48,76.5,76.5,0.0,0.0,3
74.29304700,74293047,0.0,0.11,0.0,0.48,76.5,76.5,0.0,0.0,3
74.39304900,74393049,0.0,0.11,0.0,0.48,76.5,76.5,0.0,0.0,3
74.49305000,74493050,0.0,0.11,0.0,0.48,76.48,76.48,0.0,0.01,3
74.59307400,74593074,0.0,0.1,0.0,0.48,76.48,76.48,0.0,0.01,3
74.69311600,74693116,0.0,0.11,0.0,0.48,76.5,76.5,0.0,0.01,3
74.79310000,74793100,0.0,0.11,0.0,0.47000000000000003,76.48,76.48,0.0,0.02,3
74.89309200,74893092,0.0,0.11,0.0,0.47000000000000003,76.49,76.49,0.0,0.01,3
74.99309600,74993096,0.0,0.11,0.0,0.47000000000000003,76.5,76.5,0.0,0.01,3
75.09308000,75093080,0.0,0.12,0.0,0.47000000000000003,76.49,76.49,0.0,0.01,3
75.19281600,75192816,0.0,0.11,0.0,0.47000000000000003,76.5,76.5,0.0,0.01,3
75.29277900,75292779,0.0,0.11,0.0,0.46,76.51,76.51,0.0,0.01,3
75.39290500,75392905,0.0,0.11,0.0,0.46,76.5,76.5,0.0,0.01,3
75.49291200,75492912,0.0,0.11,0.0,0.47000000000000003,76.51,76.51,0.0,0.01,3
75.59295400,75592954,0.0,0.11,0.0,0.45,76.51,76.51,0.0,0.02,3
75.69295100,75692951,0.0,0.12,0.0,0.47000000000000003,76.5,76.5,0.0,0.01,3
75.79309800,75793098,0.0,0.11,0.0,0.45,76.5,76.5,0.0,0.01,3
75.89310400,75893104,0.0,0.12,0.0,0.46,76.51,76.51,0.0,0.01,3
75.99310200,75993102,0.0,0.11,0.0,0.47000000000000003,76.5,76.5,0.0,0.01,3
76.09280000,76092800,0.0,0.11,0.0,0.45,76.5,76.5,0.0,0.01,3
76.19276700,76192767,0.0,0.11,0.0,0.47000000000000003,76.51,76.51,0.0,0.01,3
76.29287600,76292876,0.0,0.1,0.0,0.47000000000000003,76.5,76.5,0.0,0.01,3
76.39293500,76392935,0.0,0.11,0.0,0.46,76.5,76.5,0.0,0.01,3
76.49292100,76492921,0.0,0.1,0.0,0.46,76.52,76.52,0.0,0.01,3
76.59294400,76592944,0.0,0.11,0.0,0.46,76.5,76.5,0.0,0.01,3
76.69285700,76692857,0.0,0.1,0.0,0.46,76.51,76.51,0.0,0.01,3
76.79295500,76792955,0.0,0.11,0.0,0.46,76.53,76.53,0.0,0.01,3
76.89309800,76893098,0.0,0.1,0.0,0.47000000000000003,76.51,76.51,0.0,0.01,3
76.99279800,76992798,0.0,0.09,0.0,0.46,76.51,76.51,0.0,0.01,3
77.09277000,77092770,0.0,0.1,0.0,0.46,76.53,76.53,0.0,0.01,3
77.19288400,77192884,0.0,0.09,0.0,0.47000000000000003,76.51,76.51,0.0,0.01,3
77.29290000,77292900,0.0,0.1,0.0,0.47000000000000003,76.52,76.52,0.0,0.01,3
77.39297700,77392977,0.0,0.08,0.0,0.46,76.55,76.55,0.0,0.01,3
77.49291600,77492916,0.0,0.1,0.0,0.48,76.53,76.53,0.0,0.01,3
77.59287700,77592877,0.0,0.07,0.0,0.46,76.53,76.53,0.0,0.01,3
77.69308500,77693085,0.0,0.12,0.0,0.47000000000000003,76.55,76.55,0.0,0.01,3
77.79310400,77793104,0.0,0.07,0.0,0.48,76.52,76.52,0.0,0.01,3
77.89278100,77892781,0.0,0.11,0.0,0.45,76.52,76.52,0.0,0.01,3
77.99276500,77992765,0.0,0.09,0.0,0.49,76.53,76.53,0.0,0.01,3
78.09287800,78092878,0.0,0.09,0.0,0.45,76.5,76.5,0.0,0.01,3
78.19290900,78192909,0.0,0.1,0.0,0.47000000000000003,76.51,76.51,0.0,0.01,3
78.29295200,78292952,0.0,0.08,0.0,0.49,76.51,76.51,0.0,0.01,3
78.39298400,78392984,0.0,0.1,0.0,0.44,76.49,76.49,0.0,0.01,3
78.49287400,78492874,0.0,0.09,0.0,0.48,76.52,76.52,0.0,0.01,3
78.59281500,78592815,0.0,0.09,0.0,0.47000000000000003,76.5,76.5,0.0,0.01,3
78.69273700,78692737,0.0,0.09,0.0,0.45,76.48,76.48,0.0,0.01,3
78.79281200,78792812,0.0,0.08,0.0,0.48,76.51,76.51,0.0,0.01,3
78.89311300,78893113,0.0,0.09,0.0,0.45,76.48,76.48,0.0,0.01,3
78.99308200,78993082,0.0,0.08,0.0,0.45,76.49,76.49,0.0,0.01,3
79.09289000,79092890,0.0,0.08,0.0,0.46,76.51,76.51,0.0,0.01,3
79.19293300,79192933,0.0,0.07,0.0,0.43,76.48,76.48,0.0,0.01,3
79.29290400,79292904,0.0,0.08,0.0,0.46,76.48,76.48,0.0,0.01,3
79.39293900,79392939,0.0,0.08,0.0,0.45,76.5,76.5,0.0,0.01,3
79.49277700,79492777,0.0,0.08,0.0,0.46,76.48,76.48,0.0,0.01,3
79.59281100,79592811,0.0,0.08,0.0,0.47000000000000003,76.49,76.49,0.0,0.01,3
79.69304000,79693040,0.0,0.06,0.0,0.44,76.51,76.51,0.0,0.01,3
79.79328400,79793284,0.0,0.06,0.0,0.44,76.5,76.5,0.0,0.01,3
79.89281600,79892816,0.0,0.07,0.0,0.46,76.51,76.51,0.0,0.0,3
79.99291800,79992918,0.0,0.06,0.0,0.44,76.51,76.51,0.0,0.01,3
80.09293100,80092931,0.0,0.07,0.0,0.46,76.51,76.51,0.0,0.01,3
80.19291600,80192916,0.0,0.07,0.0,0.47000000000000003,76.51,76.51,0.0,0.01,3
80.29292000,80292920,0.0,0.07,0.0,0.45,76.52,76.52,0.0,0.01,3
80.39286400,80392864,0.0,0.06,0.0,0.47000000000000003,76.52,76.52,0.0,0.01,3
80.49273400,80492734,0.0,0.07,0.0,0.46,76.51,76.51,0.0,0.01,3
80.59281100,80592811,0.0,0.07,0.0,0.46,76.53,76.53,0.0,0.0,3
80.69296000,80692960,0.0,0.07,0.0,0.48,76.52,76.52,0.0,0.0,3
80.79309900,80793099,0.0,0.07,0.0,0.46,76.51,76.51,0.0,0.01,3
80.89308100,80893081,0.0,0.07,0.0,0.46,76.53,76.53,0.0,0.01,3
80.99318900,80993189,0.0,0.07,0.0,0.47000000000000003,76.53,76.53,0.0,0.01,3
81.09289900,81092899,0.0,0.07,0.0,0.44,76.52,76.52,0.0,0.02,3
81.19288000,81192880,0.0,0.06,0.0,0.45,76.55,76.55,0.0,0.02,3
81.29277900,81292779,0.0,0.07,0.0,0.43,76.54,76.54,0.0,0.02,3
81.39283000,81392830,0.0,0.06,0.0,0.44,76.54,76.54,0.0,0.01,3
81.49279600,81492796,0.0,0.07,0.0,0.44,76.56,76.56,0.0,0.02,3
81.59298400,81592984,0.0,0.07,0.0,0.44,76.56,76.56,0.0,0.02,3
81.69306300,81693063,0.0,0.07,0.0,0.45,76.56,76.56,0.0,0.02,3
81.79290400,81792904,0.0,0.07,0.0,0.45,76.57000000000001,76.57000000000001,0.0,0.02,3
81.89292900,81892929,0.0,0.07,0.0,0.45,76.57000000000001,76.57000000000001,0.0,0.02,3
81.99293200,81992932,0.0,0.07,0.0,0.46,76.57000000000001,76.57000000000001,0.0,0.02,3
82.09287200,82092872,0.0,0.07,0.0,0.45,76.58,76.58,0.0,0.01,3
82.19278400,82192784,0.0,0.08,0.0,0.45,76.58,76.58,0.0,0.01,3
82.29274200,82292742,0.0,0.07,0.0,0.47000000000000003,76.58,76.58,0.0,0.01,3
82.39282700,82392827,0.0,0.08,0.0,0.46,76.57000000000001,76.57000000000001,0.0,0.01,3
82.49275500,82492755,0.0,0.07,0.0,0.46,76.57000000000001,76.57000000000001,0.0,0.01,3
82.59287500,82592875,0.0,0.08,0.0,0.47000000000000003,76.55,76.55,0.0,0.01,3
82.69289900,82692899,0.0,0.08,0.0,0.46,76.55,76.55,0.0,0.01,3
82.79311200,82793112,0.0,0.07,0.0,0.47000000000000003,76.55,76.55,0.0,0.01,3
82.89293600,82892936,0.0,0.08,0.0,0.47000000000000003,76.53,76.53,0.0,0.01,3
82.99285400,82992854,0.0,0.08,0.0,0.47000000000000003,76.53,76.53,0.0,0.01,3
83.09294700,83092947,0.0,0.09,0.0,0.48,76.54,76.54,0.0,0.01,3
83.19281400,83192814,0.0,0.09,0.0,0.47000000000000003,76.52,76.52,0.0,0.01,3
83.29280800,83292808,0.0,0.08,0.0,0.47000000000000003,76.52,76.52,0.0,0.02,3
83.39279800,83392798,0.0,0.09,0.0,0.47000000000000003,76.53,76.53,0.0,0.02,3
83.49288400,83492884,0.0,0.08,0.0,0.49,76.52,76.52,0.0,0.01,3
83.59308500,83593085,0.0,0.09,0.0,0.48,76.52,76.52,0.0,0.01,3
83.69310000,83693100,0.0,0.08,0.0,0.48,76.53,76.53,0.0,0.01,3
83.79292800,83792928,0.0,0.08,0.0,0.49,76.51,76.51,0.0,0.01,3
83.89306000,83893060,0.0,0.09,0.0,0.48,76.52,76.52,0.0,0.01,3
83.99308700,83993087,0.0,0.08,0.0,0.48,76.53,76.53,0.0,0.01,3
84.09309000,84093090,0.0,0.09,0.0,0.5,76.53,76.53,0.0,0.01,3
84.19338000,84193380,0.0,0.08,0.0,0.51,76.54,76.54,0.0,0.01,3
84.29298000,84292980,0.0,0.09,0.0,0.49,76.55,76.55,0.0,0.01,3
84.39323100,84393231,0.0,0.08,0.0,0.51,76.55,76.55,0.0,0.01,3
84.49308700,84493087,0.0,0.08,0.0,0.51,76.55,76.55,0.0,0.01,3
84.59311700,84593117,0.0,0.08,0.0,0.49,76.56,76.56,0.0,0.01,3
84.69311000,84693110,0.0,0.08,0.0,0.51,76.56,76.56,0.0,0.01,3
84.79308400,84793084,0.0,0.08,0.0,0.5,76.55,76.55,0.0,0.01,3
84.89278100,84892781,0.0,0.08,0.0,0.5,76.56,76.56,0.0,0.01,3
84.99280600,84992806,0.0,0.08,0.0,0.51,76.56,76.56,0.0,0.01,3
85.09278700,85092787,0.0,0.08,0.0,0.5,76.55,76.55,0.0,0.01,3
85.19311400,85193114,0.0,0.08,0.0,0.51,76.57000000000001,76.57000000000001,0.0,0.01,3
85.29286300,85292863,0.0,0.08,0.0,0.51,76.55,76.55,0.0,0.02,3
85.39292500,85392925,0.0,0.08,0.0,0.5,76.54,76.54,0.0,0.01,3
85.49308700,85493087,0.0,0.08,0.0,0.51,76.55,76.55,0.0,0.01,3
85.59291800,85592918,0.0,0.08,0.0,0.5,76.53,76.53,0.0,0.02,3
85.69284100,85692841,0.0,0.08,0.0,0.5,76.54,76.54,0.0,0.01,3
85.79278200,85792782,0.0,0.08,0.0,0.51,76.55,76.55,0.0,0.01,3
85.89274000,85892740,0.0,0.08,0.0,0.5,76.53,76.53,0.0,0.01,3
85.99280600,85992806,0.0,0.07,0.0,0.51,76.54,76.54,0.0,0.01,3
86.09276500,86092765,0.0,0.07,0.0,0.51,76.54,76.54,0.0,0.01,3
86.19288200,86192882,0.0,0.08,0.0,0.51,76.52,76.52,0.0,0.01,3
86.29291200,86292912,0.0,0.08,0.0,0.51,76.53,76.53,0.0,0.01,3
86.39295100,86392951,0.0,0.08,0.0,0.51,76.53,76.53,0.0,0.01,3
86.49291000,86492910,0.0,0.08,0.0,0.51,76.51,76.51,0.0,0.01,3
86.59310200,86593102,0.0,0.08,0.0,0.52,76.52,76.52,0.0,0.01,3
86.69309400,86693094,0.0,0.08,0.0,0.51,76.51,76.51,0.0,0.01,3
86.79309100,86793091,0.0,0.07,0.0,0.52,76.49,76.49,0.0,0.01,3
86.89281100,86892811,0.0,0.08,0.0,0.52,76.49,76.49,0.0,0.01,3
86.99277900,86992779,0.0,0.08,0.0,0.52,76.49,76.49,0.0,0.01,3
87.09282700,87092827,0.0,0.08,0.0,0.52,76.48,76.48,0.0,0.01,3
87.19292200,87192922,0.0,0.07,0.0,0.51,76.49,76.49,0.0,0.01,3
87.29299900,87292999,0.0,0.07,0.0,0.51,76.49,76.49,0.0,0.01,3
87.39295800,87392958,0.0,0.07,0.0,0.51,76.49,76.49,0.0,0.01,3
87.49307700,87493077,0.0,0.07,0.0,0.51,76.5,76.5,0.0,0.01,3
87.59309600,87593096,0.0,0.07,0.0,0.51,76.5,76.5,0.0,0.01,3
87.69309900,87693099,0.0,0.07,0.0,0.51,76.49,76.49,0.0,0.01,3
87.79280400,87792804,0.0,0.07,0.0,0.51,76.5,76.5,0.0,0.01,3
87.89277000,87892770,0.0,0.07,0.0,0.51,76.5,76.5,0.0,0.01,3
87.99282700,87992827,0.0,0.07,0.0,0.51,76.49,76.49,0.0,0.01,3
88.09289300,88092893,0.0,0.07,0.0,0.51,76.5,76.5,0.0,0.01,3
88.19293400,88192934,0.0,0.07,0.0,0.51,76.49,76.49,0.0,0.01,3
88.29290100,88292901,0.0,0.07,0.0,0.51,76.49,76.49,0.0,0.01,3
88.39292300,88392923,0.0,0.07,0.0,0.51,76.5,76.5,0.0,0.01,3
88.49278100,88492781,0.0,0.07,0.0,0.51,76.49,76.49,0.0,0.01,3
88.59310500,88593105,0.0,0.07,0.0,0.5,76.49,76.49,0.0,0.01,3
88.69280600,88692806,0.0,0.07,0.0,0.5,76.5,76.5,0.0,0.01,3
88.79278700,88792787,0.0,0.07,0.0,0.51,76.49,76.49,0.0,0.01,3
88.89287800,88892878,0.0,0.07,0.0,0.5,76.48,76.48,0.0,0.01,3
88.99291300,88992913,0.0,0.08,0.0,0.5,76.49,76.49,0.0,0.01,3
89.09293000,89092930,0.0,0.06,0.0,0.5,76.49,76.49,0.0,0.0,3
89.19295400,89192954,0.0,0.08,0.0,0.49,76.47,76.47,0.0,0.0,3
89.29290600,89292906,0.0,0.07,0.0,0.5,76.48,76.48,0.0,0.01,3
89.39322200,89393222,0.0,0.08,0.0,0.49,76.48,76.48,0.0,0.01,3
89.49310700,89493107,0.0,0.07,0.0,0.49,76.47,76.47,0.0,0.01,3
89.59281500,89592815,0.0,0.07,0.0,0.49,76.48,76.48,0.0,0.01,3
89.69275800,89692758,0.0,0.07,0.0,0.49,76.47,76.47,0.0,0.01,3
89.79287400,89792874,0.0,0.07,0.0,0.49,76.47,76.47,0.0,0.01,3
89.89289700,89892897,0.0,0.07,0.0,0.49,76.48,76.48,0.0,0.01,3
89.99293400,89992934,0.0,0.07,0.0,0.48,76.49,76.49,0.0,0.01,3
90.09290500,90092905,0.0,0.07,0.0,0.49,76.49,76.49,0.0,0.01,3
90.19291600,90192916,0.0,0.07,0.0,0.49,76.5,76.5,0.0,0.02,3
90.29278600,90292786,0.0,0.07,0.0,0.48,76.49,76.49,0.0,0.01,3
90.39283400,90392834,0.0,0.07,0.0,0.49,76.49,76.49,0.0,0.01,3
90.49279400,90492794,0.0,0.07,0.0,0.49,76.49,76.49,0.0,0.01,3
90.59298700,90592987,0.0,0.07,0.0,0.49,76.49,76.49,0.0,0.01,3
90.69306500,90693065,0.0,0.07,0.0,0.48,76.49,76.49,0.0,0.01,3
90.79289900,90792899,0.0,0.06,0.0,0.48,76.49,76.49,0.0,0.01,3
90.89294300,90892943,0.0,0.06,0.0,0.48,76.49,76.49,0.0,0.01,3
90.99292000,90992920,0.0,0.06,0.0,0.48,76.49,76.49,0.0,0.01,3
91.09287600,91092876,0.0,0.06,0.0,0.48,76.49,76.49,0.0,0.0,3
91.19285300,91192853,0.0,0.06,0.0,0.48,76.48,76.48,0.0,0.0,3
91.29274800,91292748,0.0,0.05,0.0,0.48,76.48,76.48,0.0,0.01,3
91.39284300,91392843,0.0,0.06,0.0,0.48,76.48,76.48,0.0,0.01,3
91.49300600,91493006,0.0,0.05,0.0,0.48,76.47,76.47,0.0,0.01,3
91.59305100,91593051,0.0,0.05,0.0,0.48,76.47,76.47,0.0,0.01,3
91.69304200,91693042,0.0,0.05,0.0,0.48,76.47,76.47,0.0,0.01,3
91.79306300,91793063,0.0,0.04,0.0,0.48,76.47,76.47,0.0,0.01,3
91.89311300,91893113,0.0,0.04,0.0,0.48,76.47,76.47,0.0,0.01,3
91.99307000,91993070,0.0,0.04,0.0,0.47000000000000003,76.48,76.48,0.0,0.01,3
92.09306000,92093060,0.0,0.04,0.0,0.47000000000000003,76.48,76.48,0.0,0.01,3
92.19308500,92193085,0.0,0.03,0.0,0.47000000000000003,76.49,76.49,0.0,0.01,3
92.29305500,92293055,0.0,0.04,0.0,0.47000000000000003,76.49,76.49,0.0,0.01,3
92.39332900,92393329,0.0,0.04,0.0,0.48,76.49,76.49,0.0,0.01,3
92.49307800,92493078,0.0,0.03,0.0,0.48,76.49,76.49,0.0,0.01,3
92.59307900,92593079,0.0,0.03,0.0,0.47000000000000003,76.5,76.5,0.0,0.01,3
92.69310300,92693103,0.0,0.03,0.0,0.47000000000000003,76.5,76.5,0.0,0.01,3
92.79295500,92792955,0.0,0.03,0.0,0.47000000000000003,76.5,76.5,0.0,0.01,3
92.89287400,92892874,0.0,0.03,0.0,0.48,76.51,76.51,0.0,0.01,3
92.99279200,92992792,0.0,0.03,0.0,0.48,76.51,76.51,0.0,0.01,3
93.09273900,93092739,0.0,0.03,0.0,0.48,76.52,76.52,0.0,0.01,3
93.19280600,93192806,0.0,0.03,0.0,0.48,76.52,76.52,0.0,0.01,3
93.29298700,93292987,0.0,0.03,0.0,0.48,76.52,76.52,0.0,0.01,3
93.39311900,93393119,0.0,0.03,0.0,0.48,76.53,76.53,0.0,0.01,3
93.49308200,93493082,0.0,0.03,0.0,0.49,76.54,76.54,0.0,0.01,3
93.59321500,93593215,0.0,0.02,0.0,0.48,76.54,76.54,0.0,0.01,3
93.69294100,93692941,0.0,0.03,0.0,0.48,76.55,76.55,0.0,0.01,3
93.79292400,93792924,0.0,0.03,0.0,0.48,76.55,76.55,0.0,0.01,3
93.89277900,93892779,0.0,0.03,0.0,0.49,76.55,76.55,0.0,0.01,3
93.99274500,93992745,0.0,0.03,0.0,0.49,76.56,76.56,0.0,0.01,3
94.09280100,94092801,0.0,0.03,0.0,0.48,76.56,76.56,0.0,0.01,3
94.19276800,94192768,0.0,0.03,0.0,0.48,76.57000000000001,76.57000000000001,0.0,0.01,3
94.29287200,94292872,0.0,0.03,0.0,0.48,76.57000000000001,76.57000000000001,0.0,0.01,3
94.39296100,94392961,0.0,0.04,0.0,0.48,76.57000000000001,76.57000000000001,0.0,0.01,3
94.49310100,94493101,0.0,0.04,0.0,0.49,76.57000000000001,76.57000000000001,0.0,0.01,3
94.59296700,94592967,0.0,0.03,0.0,0.49,76.57000000000001,76.57000000000001,0.0,0.01,3
94.69289000,94692890,0.0,0.03,0.0,0.49,76.57000000000001,76.57000000000001,0.0,0.01,3
94.79278200,94792782,0.0,0.03,0.0,0.48,76.57000000000001,76.57000000000001,0.0,0.01,3
94.89274200,94892742,0.0,0.03,0.0,0.48,76.57000000000001,76.57000000000001,0.0,0.02,3
94.99281200,94992812,0.0,0.02,0.0,0.49,76.57000000000001,76.57000000000001,0.0,0.02,3
95.09276500,95092765,0.0,0.03,0.0,0.49,76.57000000000001,76.57000000000001,0.0,0.02,3
95.19287300,95192873,0.0,0.03,0.0,0.49,76.58,76.58,0.0,0.01,3
95.29308300,95293083,0.0,0.02,0.0,0.49,76.59,76.59,0.0,0.01,3
95.39314700,95393147,0.0,0.02,0.0,0.49,76.60000000000001,76.60000000000001,0.0,0.01,3
95.49295900,95492959,0.0,0.03,0.0,0.49,76.60000000000001,76.60000000000001,0.0,0.01,3
95.59286300,95592863,0.0,0.02,0.0,0.49,76.60000000000001,76.60000000000001,0.0,0.01,3
95.69299600,95692996,0.0,0.03,0.0,0.49,76.61,76.61,0.0,0.01,3
95.79280500,95792805,0.0,0.03,0.0,0.49,76.61,76.61,0.0,0.01,3
95.89279400,95892794,0.0,0.03,0.0,0.49,76.61,76.61,0.0,0.01,3
95.99276300,95992763,0.0,0.03,0.0,0.49,76.62,76.62,0.0,0.01,3
96.09288400,96092884,0.0,0.03,0.0,0.49,76.62,76.62,0.0,0.01,3
96.19309100,96193091,0.0,0.03,0.0,0.49,76.62,76.62,0.0,0.01,3
96.29312400,96293124,0.0,0.03,0.0,0.49,76.62,76.62,0.0,0.0,3
96.39298200,96392982,0.0,0.03,0.0,0.49,76.62,76.62,0.0,0.0,3
96.49308000,96493080,0.0,0.03,0.0,0.49,76.63,76.63,0.0,0.0,3
96.59310300,96593103,0.0,0.02,0.0,0.49,76.63,76.63,0.0,0.0,3
96.69308400,96693084,0.0,0.02,0.0,0.49,76.63,76.63,0.0,0.0,3
96.79308000,96793080,0.0,0.02,0.0,0.49,76.63,76.63,0.0,0.0,3
96.89297300,96892973,0.0,0.02,0.0,0.49,76.63,76.63,0.0,0.01,3
96.99307300,96993073,0.0,0.02,0.0,0.5,76.63,76.63,0.0,0.01,3
97.09307800,97093078,0.0,0.02,0.0,0.49,76.63,76.63,0.0,0.0,3
97.19312900,97193129,0.0,0.02,0.0,0.49,76.63,76.63,0.0,0.01,3
97.29312900,97293129,0.0,0.02,0.0,0.5,76.64,76.64,0.0,0.01,3
97.39311200,97393112,0.0,0.02,0.0,0.49,76.63,76.63,0.0,0.01,3
97.49277900,97492779,0.0,0.03,0.0,0.49,76.63,76.63,0.0,0.01,3
97.59274600,97592746,0.0,0.03,0.0,0.49,76.64,76.64,0.0,0.01,3
97.69279700,97692797,0.0,0.02,0.0,0.49,76.64,76.64,0.0,0.01,3
97.79283500,97792835,0.0,0.02,0.0,0.5,76.64,76.64,0.0,0.01,3
97.89282900,97892829,0.0,0.02,0.0,0.5,76.64,76.64,0.0,0.01,3
97.99292900,97992929,0.0,0.02,0.0,0.5,76.64,76.64,0.0,0.01,3
98.09293700,98092937,0.0,0.02,0.0,0.5,76.63,76.63,0.0,0.01,3
98.19291900,98192919,0.0,0.02,0.0,0.5,76.63,76.63,0.0,0.01,3
98.29284100,98292841,0.0,0.01,0.0,0.5,76.64,76.64,0.0,0.01,3
98.39308800,98393088,0.0,0.01,0.0,0.5,76.64,76.64,0.0,0.01,3
98.49305000,98493050,0.0,0.02,0.0,0.51,76.64,76.64,0.0,0.01,3
98.59304100,98593041,0.0,0.02,0.0,0.51,76.64,76.64,0.0,0.0,3
98.69293500,98692935,0.0,0.02,0.0,0.5,76.64,76.64,0.0,0.0,3
98.79304900,98793049,0.0,0.02,0.0,0.5,76.64,76.64,0.0,0.0,3
98.89306100,98893061,0.0,0.02,0.0,0.5,76.65,76.65,0.0,0.01,3
98.99309500,98993095,0.0,0.01,0.0,0.5,76.64,76.64,0.0,0.01,3
99.09308400,99093084,0.0,0.01,0.0,0.51,76.65,76.65,0.0,0.01,3
99.19310400,99193104,0.0,0.01,0.0,0.51,76.65,76.65,0.0,0.01,3
99.29308500,99293085,0.0,0.01,0.0,0.52,76.66,76.66,0.0,0.0,3
99.39318900,99393189,0.0,0.01,0.0,0.51,76.66,76.66,0.0,0.0,3
99.49281000,99492810,0.0,0.01,0.0,0.52,76.66,76.66,0.0,0.01,3
99.59278300,99592783,0.0,0.02,0.0,0.52,76.67,76.67,0.0,0.01,3
99.69286300,99692863,0.0,0.02,0.0,0.52,76.66,76.66,0.0,0.02,3
99.79292400,99792924,0.0,0.02,0.0,0.52,76.67,76.67,0.0,0.02,3
99.89300900,99893009,0.0,0.01,0.0,0.51,76.67,76.67,0.0,0.02,3
99.99296200,99992962,0.0,0.01,0.0,0.51,76.68,76.68,0.0,0.01,3
100.09310500,100093105,0.0,0.01,0.0,0.51,76.68,76.68,0.0,0.01,3
100.19310300,100193103,0.0,0.01,0.0,0.51,76.68,76.68,0.0,0.01,3
100.29274500,100292745,0.0,0.01,0.0,0.5,76.68,76.68,0.0,0.02,3
100.39287500,100392875,0.0,0.01,0.0,0.5,76.69,76.69,0.0,0.02,3
100.49276300,100492763,0.0,0.01,0.0,0.5,76.69,76.69,0.0,0.01,3
