timestamp,TimeUS,C,Roll,Pitch,Yaw,VN,VE,VD,dPD,PN,PE,PD,GX,GY,GZ,OH
11.49232900,11492329,2,0.0,0.0,0.0,0.0,0.0,0.0,0.0,0.0,0.0,0.0,0.0,0.0,0.0,0.0
11.59234000,11592340,2,0.0,0.0,0.0,0.0,0.0,0.0,0.0,0.0,0.0,0.0,0.0,0.0,0.0,0.0
11.69232700,11692327,2,0.0,0.0,0.0,0.0,0.0,0.0,0.0,0.0,0.0,0.0,0.0,0.0,0.0,0.0
11.79230200,11792302,2,0.0,0.0,0.0,0.0,0.0,0.0,0.0,0.0,0.0,0.0,0.0,0.0,0.0,0.0
11.89225600,11892256,2,0.0,0.0,0.0,0.0,0.0,0.0,0.0,0.0,0.0,0.0,0.0,0.0,0.0,0.0
11.99226900,11992269,2,0.0,0.0,0.0,0.0,0.0,0.0,0.0,0.0,0.0,0.0,0.0,0.0,0.0,0.0
12.09227000,12092270,2,0.0,0.0,0.0,0.0,0.0,0.0,0.0,0.0,0.0,0.0,0.0,0.0,0.0,0.0
12.19226600,12192266,2,0.0,0.0,0.0,0.0,0.0,0.0,0.0,0.0,0.0,0.0,0.0,0.0,0.0,0.0
12.29227500,12292275,2,0.0,0.0,0.0,0.0,0.0,0.0,0.0,0.0,0.0,0.0,0.0,0.0,0.0,0.0
12.39233600,12392336,2,0.0,0.0,0.0,0.0,0.0,0.0,0.0,0.0,0.0,0.0,0.0,0.0,0.0,0.0
12.49232800,12492328,2,0.14,0.87,359.99,-0.0020287330262362957,0.0018974755657836795,0.010680538602173328,-0.00033028749749064445,0.0,0.0,0.00037699079257436097,0.0,0.0,0.0,0.0
12.59232100,12592321,2,0.13,0.86,359.99,-0.007796259131282568,-0.00034992172732017934,0.046172454953193665,0.022067122161388397,0.0,0.0,0.003554690396413207,0.0,0.0,0.0,0.0
12.69229500,12692295,2,0.14,0.88,359.99,-0.009129281155765057,0.002752899192273617,0.09066134691238403,2.7756149768829346,0.0,0.0,0.32474151253700256,0.0,0.0,0.0,0.0
12.79225500,12792255,2,0.14,0.88,359.99,-0.010436046868562698,0.002420007484033704,0.12132754176855087,4.022499084472656,0.0,0.0,0.6460196375846863,0.0,0.0,0.0,0.0
12.89225400,12892254,2,0.12,0.89,0.0,-0.02093515358865261,0.002013829769566655,0.1439432054758072,3.4628515243530273,0.0,0.0,0.9223354458808899,0.0,0.0,0.0,0.0
12.99227000,12992270,2,0.13,0.9,359.99,-0.016147268936038017,0.005036660935729742,0.16035987436771393,2.621851682662964,0.0,0.0,1.154200792312622,0.0,0.0,0.0,0.0
13.09226700,13092267,2,0.12,0.88,359.99,-0.019911792129278183,0.003439168678596616,0.1709788292646408,1.8221877813339233,0.0,0.0,1.3375991582870483,0.0,0.0,0.0,0.0
13.19226800,13192268,2,0.12,0.89,0.0,-0.027839552611112595,0.007135622203350067,0.17937542498111725,1.2834521532058716,0.0,0.0,1.4815562963485718,0.0,0.0,0.0,0.0
13.29231500,13292315,2,0.12,0.88,359.99,-0.025141647085547447,0.004726043436676264,0.18468333780765533,0.9422779083251953,0.0,0.0,1.5960280895233154,0.0,0.0,0.0,0.0
13.39232900,13392329,2,0.1,0.87,359.99,-0.028673019260168076,0.006737881805747747,0.18923631310462952,0.7152142524719238,0.0,0.0,1.687706470489502,0.0,0.0,0.0,0.0
13.49232300,13492323,2,0.11,0.87,0.01,-0.027740802615880966,0.007216868922114372,0.19195029139518738,0.5852242708206177,0.0,0.0,1.7645370960235596,0.0,0.0,0.0,0.0
13.59230400,13592304,2,0.09,0.86,359.99,-0.030270891264081,0.004291479475796223,0.19521267712116241,0.5025222897529602,0.0,0.0,1.8283815383911133,0.0,0.0,0.0,0.0
13.69225800,13692258,2,0.09,0.84,359.99,-0.025114985182881355,0.007452194578945637,0.19866180419921875,0.46204641461372375,0.0,0.0,1.8863574266433716,0.0,0.0,0.0,0.0
13.79226100,13792261,2,0.08,0.81,0.01,-0.024748094379901886,0.0018035370158031583,0.20231865346431732,0.453047513961792,0.0,0.0,1.9393177032470703,0.0,0.0,0.0,0.0
13.89225400,13892254,2,0.06,0.81,0.0,-0.02616855315864086,0.004013641271740198,0.20510534942150116,0.39821764826774597,0.0,0.0,1.9837478399276733,0.0,0.0,0.0,0.0
13.99226200,13992262,2,0.11,0.78,77.5,-0.019764596596360207,0.004872139077633619,0.20406654477119446,0.3123864531517029,0.0,0.0,2.01930832862854,0.0,0.0,0.0,0.0
14.09227000,14092270,2,0.09,0.77,77.46000000000001,-0.016103088855743408,-0.0023167652543634176,0.2009601891040802,0.23310717940330505,0.0,0.0,2.04738187789917,0.0,0.0,0.0,0.0
14.19231400,14192314,2,0.09,0.79,77.35000000000001,-0.011018112301826477,-0.007012305315583944,0.1982824057340622,0.1878531575202942,0.0,0.0,2.071078062057495,0.0,0.0,0.0,0.0
14.29233900,14292339,2,0.07,0.78,77.21000000000001,-0.0059806471690535545,-0.003586220322176814,0.19769461452960968,0.2038966417312622,0.0,0.0,2.0964879989624023,0.0,0.0,0.0,0.0
14.39231800,14392318,2,0.06,0.78,77.07000000000001,-0.003996402490884066,-0.01262669637799263,0.1961011439561844,0.21854211390018463,0.0,0.0,2.1198573112487793,0.0,0.0,0.0,0.0
14.49226600,14492266,2,0.04,0.79,76.86,0.00031994731398299336,-0.00880186352878809,0.19360515475273132,0.1912718266248703,0.0,0.0,2.1400415897369385,0.0,0.0,0.0,0.0
14.59225700,14592257,2,0.03,0.79,76.66,0.0022730575874447823,-0.014798415824770927,0.1921560913324356,0.19739514589309692,0.0,0.0,2.162116050720215,0.0,0.0,0.0,0.0
14.69225700,14692257,2,0.03,0.81,76.5,0.006723304279148579,-0.016617823392152786,0.1917675882577896,0.22953368723392487,0.0,0.0,2.1859164237976074,0.0,0.0,0.01,0.0
14.79225500,14792255,2,0.02,0.8,76.33,0.007459225598722696,-0.015643468126654625,0.19049671292304993,0.2369924932718277,0.0,0.0,2.209325075149536,0.0,0.0,0.01,0.0
14.89226200,14892262,2,0.02,0.8,76.22,0.00945613905787468,-0.022579321637749672,0.18996645510196686,0.2406367063522339,0.0,0.0,2.2334718704223633,0.0,0.0,0.01,0.0
14.99227200,14992272,2,0.02,0.81,76.15,0.011946615763008595,-0.01914772018790245,0.18925194442272186,0.24737298488616943,0.0,0.0,2.257817506790161,0.0,0.0,0.01,0.0
15.09235600,15092356,2,0.03,0.79,76.08,0.011294410564005375,-0.02030586078763008,0.18944048881530762,0.2575831711292267,0.0,0.0,2.283513307571411,0.0,0.0,0.01,0.0
15.19233000,15192330,2,0.03,0.79,76.07000000000001,0.012393439188599586,-0.022764958441257477,0.1892702281475067,0.2588786780834198,0.0,0.0,2.30875563621521,0.0,0.0,0.01,0.0
15.29232000,15292320,2,0.03,0.78,76.07000000000001,0.011781718581914902,-0.017041658982634544,0.18893449008464813,0.24437126517295837,0.0,0.0,2.3329358100891113,0.0,0.0,0.01,0.0
15.39228800,15392288,2,0.04,0.77,76.06,0.012634815648198128,-0.020421866327524185,0.1872934103012085,0.2163601964712143,0.0,0.0,2.3539483547210693,0.0,0.01,0.01,0.0
15.49225900,15492259,2,0.03,0.77,76.08,0.011552095413208008,-0.01852584071457386,0.18208497762680054,0.14760421216487885,0.0,0.0,2.3684589862823486,0.0,0.01,0.0,0.0
15.59225900,15592259,2,0.05,0.75,76.10000000000001,0.010636004619300365,-0.015328733250498772,0.1771039217710495,0.1116596981883049,0.0,0.0,2.3822555541992188,-0.01,0.01,0.01,0.0
15.69225700,15692257,2,0.05,0.74,76.08,0.009991754777729511,-0.017806874588131905,0.17452378571033478,0.1431255340576172,0.0,0.0,2.3994686603546143,-0.01,0.01,0.02,0.0
15.79226100,15792261,2,0.06,0.74,76.08,0.00869788695126772,-0.01237406488507986,0.16897055506706238,0.1352783888578415,0.0,0.0,2.4125356674194336,-0.01,0.02,0.01,0.0
15.89226400,15892264,2,0.07,0.71,76.05,0.009060269221663475,-0.011016047559678555,0.16325445473194122,0.10688790678977966,0.0,0.0,2.424053192138672,-0.01,0.02,0.02,0.0
15.99231500,15992315,2,0.07,0.7000000000000001,76.04,0.007156201172620058,-0.010979104787111282,0.15949106216430664,0.12224815040826797,0.0,0.0,2.4378130435943604,-0.01,0.02,0.0,0.0
16.09233100,16092331,2,0.08,0.6900000000000001,76.06,0.006593281403183937,-0.005562272854149342,0.15638300776481628,0.13915736973285675,0.0,0.0,2.4517645835876465,-0.01,0.02,0.0,0.0
16.19231000,16192310,2,0.08,0.68,76.10000000000001,0.005544657818973064,-0.007706116419285536,0.1528337150812149,0.14303024113178253,0.0,0.0,2.466055154800415,-0.01,0.02,0.0,0.0
16.29226600,16292266,2,0.09,0.68,76.13,0.0051201628521084785,-0.005277473945170641,0.1485290825366974,0.1347346305847168,0.0,0.0,2.47896671295166,-0.02,0.02,0.0,0.0
16.39225900,16392259,2,0.09,0.67,76.15,0.004480867180973291,-0.002025273395702243,0.1447228491306305,0.13060376048088074,0.0,0.0,2.492576837539673,-0.02,0.03,0.0,0.0
16.49225500,16492255,2,0.09,0.66,76.16,0.00311282672919333,-0.003263180609792471,0.13926419615745544,0.08919080346822739,0.0,0.0,2.4997594356536865,-0.02,0.03,0.0,0.0
16.59226400,16592264,2,0.09,0.66,76.15,0.0035767604131251574,0.00046464591287076473,0.1349329650402069,0.0742211863398552,0.0,0.0,2.50991153717041,-0.02,0.03,0.01,0.0
16.69226700,16692267,2,0.09,0.65,76.14,0.002337278099730611,0.0005392535240389407,0.1297287940979004,0.07531825453042984,0.0,0.0,2.517118215560913,-0.02,0.03,0.01,0.0
16.79227300,16792273,2,0.1,0.66,76.12,0.0014955360675230622,0.0007398126181215048,0.12363752722740173,0.05744997411966324,0.0,0.0,2.523911476135254,-0.02,0.03,0.02,0.0
16.89232500,16892325,2,0.1,0.66,76.10000000000001,0.0006356206140480936,0.0038607025053352118,0.11919648200273514,0.059759002178907394,0.0,0.0,2.531076669692993,-0.02,0.03,0.01,0.0
16.99232800,16992328,2,0.11,0.65,76.09,-0.00016099408094305545,0.0025689045432955027,0.11320376396179199,0.051714569330215454,0.0,0.0,2.5366668701171875,-0.02,0.03,0.0,0.0
17.09231000,17092310,2,0.11,0.65,76.10000000000001,-0.00039785593980923295,0.003939091693609953,0.10581997036933899,0.03530029579997063,0.0,0.0,2.5406394004821777,-0.02,0.03,0.0,0.0
17.19229300,17192293,2,0.11,0.64,76.12,-0.0010858671739697456,0.004979274235665798,0.0981782004237175,0.015734588727355003,0.0,0.0,2.5428287982940674,-0.02,0.03,-0.01,0.0
17.29225800,17292258,2,0.11,0.65,76.15,-0.0016131754964590073,0.003631473984569311,0.0888947993516922,-0.021996892988681793,0.0,0.0,2.5410845279693604,-0.02,0.03,0.0,0.0
17.39225700,17392257,2,0.11,0.65,76.15,-0.0014508819440379739,0.006522651761770248,0.07749282568693161,-0.07597259432077408,0.0,0.0,2.5347065925598145,-0.02,0.03,0.0,0.0
17.49226200,17492262,2,0.11,0.64,76.15,-0.0020351456478238106,0.006073677446693182,0.06695406138896942,-0.10205702483654022,0.0,0.0,2.5267577171325684,-0.02,0.03,0.0,0.0
17.59225300,17592253,2,0.1,0.65,76.16,-0.0022973038721829653,0.005794324446469545,0.05878012999892235,-0.07182624191045761,0.0,0.0,2.522029399871826,-0.02,0.03,0.0,0.0
17.69226300,17692263,2,0.11,0.65,76.15,-0.002934090094640851,0.006904928479343653,0.05609216168522835,0.026493174955248833,0.0,0.0,2.52622389793396,-0.02,0.03,0.0,0.0
17.79232000,17792320,2,0.11,0.64,76.16,-0.002424990525469184,0.006117400247603655,0.052657000720500946,0.07742027938365936,0.0,0.0,2.5309548377990723,-0.02,0.03,-0.01,0.0
17.89232500,17892325,2,0.12,0.65,76.19,-0.002202326199039817,0.008115497417747974,0.047909993678331375,0.041314199566841125,0.0,0.0,2.5325324535369873,-0.02,0.03,-0.01,0.0
17.99231000,17992310,2,0.11,0.65,76.2,-0.0006418706616386771,0.010101446881890297,0.04226648807525635,0.028506997972726822,0.0,0.0,2.5355052947998047,-0.02,0.02,-0.01,0.0
18.09229100,18092291,2,0.11,0.65,76.23,-0.0008126429165713489,0.009038196876645088,0.04072335362434387,0.07044220715761185,0.0,0.0,2.542982816696167,-0.02,0.02,-0.01,0.0
18.19226600,18192266,2,0.11,0.64,76.25,0.0004924264503642917,0.01053509023040533,0.03771635890007019,0.08461843430995941,0.0,0.0,2.5496578216552734,-0.02,0.02,-0.02,0.0
18.29225500,18292255,2,0.11,0.64,76.28,0.001139474450610578,0.009746527299284935,0.037183068692684174,0.09444627910852432,0.0,0.0,2.5588603019714355,-0.01,0.02,-0.04,0.0
18.39226000,18392260,2,0.1,0.65,76.31,0.0007566114654764533,0.010944381356239319,0.035767268389463425,0.09881626814603806,0.0,0.0,2.5671374797821045,-0.01,0.02,-0.04,0.0
18.49225900,18492259,2,0.1,0.65,76.36,0.0006212139851413667,0.011280888691544533,0.032026395201683044,0.05172261223196983,0.0,0.0,2.571127414703369,-0.01,0.02,-0.07,0.0
18.59226000,18592260,2,0.1,0.65,76.43,0.0018168152309954166,0.010955474339425564,0.02674785628914833,0.009193356148898602,0.0,0.0,2.5727546215057373,-0.01,0.02,-0.1,0.0
18.69230400,18692304,2,0.1,0.65,76.52,0.003934151027351618,0.012790142558515072,0.018488846719264984,-0.03832395747303963,0.0,0.0,2.5693435668945312,-0.01,0.02,-0.1,0.0
18.79233200,18792332,2,0.1,0.65,76.59,0.005219589918851852,0.012283135205507278,0.00919781532138586,-0.08575142920017242,0.0,0.0,2.5628137588500977,-0.01,0.02,-0.09,0.0
18.89231200,18892312,2,0.1,0.65,76.63,0.005536665208637714,0.012149594724178314,4.9622231017565355e-05,-0.0946263000369072,0.0,0.0,2.555781126022339,-0.01,0.02,-0.08,0.0
18.99228700,18992287,2,0.1,0.66,76.63,0.006398632191121578,0.013898630626499653,-0.006017839536070824,-0.06345446407794952,0.0,0.0,2.5518245697021484,-0.01,0.02,-0.07,0.0
19.09225600,19092256,2,0.1,0.66,76.63,0.007079439703375101,0.01316042710095644,-0.011053281836211681,-0.027275437489151955,0.0,0.0,2.5491552352905273,-0.01,0.02,-0.07,0.0
19.19225600,19192256,2,0.11,0.66,76.61,0.0071775708347558975,0.013127155601978302,-0.015411828644573689,-0.01027760747820139,0.0,0.0,2.547834634780884,-0.01,0.02,-0.06,0.0
19.29225500,19292255,2,0.11,0.66,76.60000000000001,0.008718293160200119,0.012955053709447384,-0.017965009436011314,0.01706438884139061,0.0,0.0,2.5490822792053223,-0.01,0.01,-0.08,0.0
19.39225700,19392257,2,0.11,0.66,76.60000000000001,0.00797920674085617,0.012238636612892151,-0.022272460162639618,0.018260207027196884,0.0,0.0,2.5492517948150635,-0.01,0.01,-0.08,0.0
19.49226800,19492268,2,0.11,0.67,76.60000000000001,0.009275667369365692,0.011266267858445644,-0.02483072318136692,0.008074254728853703,0.0,0.0,2.549654006958008,-0.01,0.01,-0.08,0.0
19.59231000,19592310,2,0.12,0.67,76.62,0.005534960422664881,0.01327496487647295,-0.026692306622862816,0.0023466122802346945,0.0,0.0,2.5491082668304443,-0.01,0.01,-0.08,0.0
19.69234400,19692344,2,0.13,0.68,76.63,0.005381425376981497,0.009324612095952034,-0.02938016504049301,-0.006050392519682646,0.0,0.0,2.5486838817596436,-0.01,0.01,-0.08,0.0
19.79231900,19792319,2,0.12,0.68,76.63,0.005206772591918707,0.011899631470441818,-0.03291041776537895,-0.02342742122709751,0.0,0.0,2.545659065246582,-0.01,0.01,-0.07,0.0
19.89226700,19892267,2,0.14,0.68,76.64,0.0017211295198649168,0.007725164294242859,-0.037867866456508636,-0.06082943454384804,0.0,0.0,2.5399246215820312,-0.01,0.01,-0.08,0.0
19.99225800,19992258,2,0.13,0.6900000000000001,76.66,0.00198331824503839,0.004729853942990303,-0.04105038568377495,-0.05347488075494766,0.0,0.0,2.536463737487793,-0.02,0.01,-0.09,0.0
20.09226400,20092264,2,0.12,0.6900000000000001,76.67,0.0005206164205446839,0.007373641710728407,-0.0404982827603817,0.02642030268907547,0.0,0.0,2.5408451557159424,-0.02,0.01,-0.08,0.0
20.19225300,20192253,2,0.13,0.68,76.68,-0.0006103207706473768,0.006824174430221319,-0.03910626471042633,0.10773763060569763,0.0,0.0,2.5499930381774902,-0.02,0.01,-0.08,0.0
20.29225400,20292254,2,0.14,0.6900000000000001,76.69,-0.0023223571479320526,0.003038668306544423,-0.03828595578670502,0.0892486572265625,0.0,0.0,2.5545613765716553,-0.02,0.01,-0.07,0.0
20.39227300,20392273,2,0.12,0.6900000000000001,76.69,-0.004988581873476505,0.004628136288374662,-0.038902197033166885,0.026743615046143532,0.0,0.0,2.555978298187256,-0.02,0.01,-0.08,0.0
20.49230900,20492309,2,0.12,0.6900000000000001,76.7,-0.004107159096747637,0.0025026281364262104,-0.041214726865291595,0.0050203497521579266,0.0,0.0,2.5572757720947266,-0.02,0.01,-0.08,0.0
20.59234000,20592340,2,0.14,0.6900000000000001,76.71000000000001,-0.00364877306856215,0.002523925853893161,-0.04387255012989044,-0.006154460832476616,0.0,0.0,2.557110071182251,-0.02,0.01,-0.08,0.0
20.69231000,20692310,2,0.13,0.68,76.72,-0.0075991833582520485,0.000861115928273648,-0.04703349620103836,-0.04514702409505844,0.0,0.0,2.5523412227630615,-0.02,0.01,-0.09,0.0
20.79227900,20792279,2,0.13,0.6900000000000001,76.78,-0.008254657499492168,-0.00011756778258131817,-0.051457878202199936,-0.09399021416902542,0.0,0.0,2.5440986156463623,-0.01,0.01,-0.11,0.0
20.89226300,20892263,2,0.11,0.7000000000000001,76.82000000000001,-0.00846417248249054,-0.0008623696630820632,-0.05447109416127205,-0.07499450445175171,0.0,0.0,2.5399420261383057,-0.01,0.0,-0.1,0.0
20.99225600,20992256,2,0.12,0.7000000000000001,76.86,-0.009872008115053177,0.0016134611796587706,-0.05620747059583664,-0.021532075479626656,0.0,0.0,2.5382919311523438,-0.01,0.0,-0.11,0.0
21.09226100,21092261,2,0.11,0.7000000000000001,76.92,-0.007160245906561613,0.0022557703778147697,-0.05477114021778107,0.025917742401361465,0.0,0.0,2.5409257411956787,-0.01,0.0,-0.12,0.0
21.19226500,21192265,2,0.13,0.6900000000000001,76.97,-0.011542234569787979,0.0014038566732779145,-0.055477503687143326,0.04450239613652229,0.0,0.0,2.542945146560669,-0.01,0.0,-0.13,0.0
21.29226100,21292261,2,0.11,0.7000000000000001,77.03,-0.005654478911310434,-6.303277768893167e-05,-0.05522652342915535,0.03414812311530113,0.0,0.0,2.545515298843384,-0.01,0.0,-0.14,0.0
21.39230800,21392308,2,0.11,0.71,77.08,-0.012205633334815502,0.0020120940171182156,-0.05472502112388611,0.030893880873918533,0.0,0.0,2.5474400520324707,-0.01,0.0,-0.13,0.0
21.49233200,21492332,2,0.12,0.7000000000000001,77.14,-0.005903380457311869,-0.0004578182997647673,-0.05524187162518501,0.01798545941710472,0.0,0.0,2.5490238666534424,-0.01,0.0,-0.14,0.0
21.59230800,21592308,2,0.1,0.7000000000000001,77.16,-0.013506954535841942,-0.0020065198186784983,-0.05576040595769882,0.009235892444849014,0.0,0.0,2.5495896339416504,-0.01,0.0,-0.13,0.0
21.69229300,21692293,2,0.1,0.71,77.15,-0.006692239083349705,-0.0025365373585373163,-0.05681962892413139,-0.012311088852584362,0.0,0.0,2.5482304096221924,-0.01,0.0,-0.11,0.0
21.79226000,21792260,2,0.09,0.72,77.14,-0.010434629395604134,-0.000325096509186551,-0.05716729909181595,-0.016162345185875893,0.0,0.0,2.5474953651428223,-0.01,0.0,-0.11,0.0
21.89225500,21892255,2,0.09,0.72,77.12,-0.00904103647917509,-0.006454706657677889,-0.05569310113787651,0.02356984280049801,0.0,0.0,2.5515551567077637,-0.01,0.0,-0.11,0.0
21.99225700,21992257,2,0.08,0.72,77.09,-0.007119900546967983,-0.0016787550412118435,-0.0538518913090229,0.07053347676992416,0.0,0.0,2.5575411319732666,-0.01,0.0,-0.1,0.0
22.09226400,22092264,2,0.09,0.72,77.06,-0.01001729629933834,-0.004448765888810158,-0.052050989121198654,0.06666054576635361,0.0,0.0,2.5620861053466797,-0.01,0.01,-0.09,0.0
22.19226100,22192261,2,0.09,0.73,77.02,-0.004824721720069647,-0.008052279241383076,-0.05132702365517616,0.04283030703663826,0.0,0.0,2.565302848815918,-0.01,0.01,-0.08,0.0
22.29231900,22292319,2,0.07,0.71,76.97,-0.008987274952232838,-0.0050837756134569645,-0.0505831204354763,0.03364448621869087,0.0,0.0,2.5688555240631104,-0.01,0.01,-0.08,0.0
22.39235100,22392351,2,0.08,0.7000000000000001,76.94,-0.0035785126965492964,-0.008796791546046734,-0.04971088841557503,0.05710497871041298,0.0,0.0,2.5753684043884277,-0.01,0.01,-0.07,0.0
22.49231200,22492312,2,0.07,0.71,76.9,-0.005681024398654699,-0.008976509794592857,-0.04746619239449501,0.05778082087635994,0.0,0.0,2.579636335372925,-0.01,0.01,-0.07,0.0
22.59228700,22592287,2,0.08,0.71,76.87,-0.003503090236335993,-0.00750119611620903,-0.046496763825416565,0.05653524398803711,0.0,0.0,2.586191415786743,-0.01,0.01,-0.07,0.0
22.69225600,22692256,2,0.07,0.71,76.87,-0.00231956853531301,-0.010214583948254585,-0.04472746327519417,0.08266209810972214,0.0,0.0,2.5944347381591797,-0.01,0.01,-0.07,0.0
22.79225800,22792258,2,0.07,0.71,76.86,-0.0026575939264148474,-0.008734367787837982,-0.0408138744533062,0.12638601660728455,0.0,0.0,2.6074228286743164,-0.01,0.01,-0.07,0.0
22.89225500,22892255,2,0.08,0.7000000000000001,76.86,-0.0008943561115302145,-0.009399930946528912,-0.03738664463162422,0.14096781611442566,0.0,0.0,2.6190357208251953,-0.01,0.01,-0.07,0.0
22.99225600,22992256,2,0.07,0.71,76.89,-0.0020481522660702467,-0.010454028844833374,-0.035061970353126526,0.09252743422985077,0.0,0.0,2.625885009765625,-0.01,0.01,-0.08,0.0
23.09226800,23092268,2,0.08,0.7000000000000001,76.91,0.0009538534795865417,-0.007969049736857414,-0.037242282181978226,0.001825053128413856,0.0,0.0,2.62487530708313,-0.01,0.01,-0.09,0.0
23.19232400,23192324,2,0.07,0.7000000000000001,76.94,-0.0008477811352349818,-0.010866092517971992,-0.03851575776934624,-0.04280998557806015,0.0,0.0,2.6234052181243896,-0.01,0.01,-0.08,0.0
23.29233300,23292333,2,0.07,0.71,76.98,-0.0003976505540776998,-0.008679315447807312,-0.039452653378248215,-0.03170199692249298,0.0,0.0,2.622530937194824,-0.01,0.01,-0.09,0.0
23.39232100,23392321,2,0.07,0.6900000000000001,77.0,-0.0005836321506649256,-0.009070361033082008,-0.03912682831287384,-0.009224245324730873,0.0,0.0,2.6229255199432373,-0.01,0.01,-0.09,0.0
23.49229100,23492291,2,0.07,0.6900000000000001,77.01,-0.0009464168688282371,-0.011132895015180111,-0.03938170522451401,-0.0013495523016899824,0.0,0.0,2.622676134109497,-0.01,0.01,-0.08,0.0
23.59225300,23592253,2,0.07,0.68,77.01,-0.0013488956028595567,-0.008954244665801525,-0.03815462812781334,0.007154975086450577,0.0,0.0,2.6236870288848877,-0.01,0.01,-0.07,0.0
23.69225700,23692257,2,0.06,0.68,76.98,-0.0013064288068562746,-0.009629514068365097,-0.037234511226415634,0.008681883104145527,0.0,0.0,2.6238975524902344,-0.01,0.01,-0.07,0.0
23.79226200,23792262,2,0.07,0.6900000000000001,76.98,-0.0020837720949202776,-0.008877747692167759,-0.03785211592912674,-0.0110719483345747,0.0,0.0,2.6226136684417725,-0.01,0.01,-0.07,0.0
23.89226000,23892260,2,0.07,0.6900000000000001,76.97,-0.0006437169504351914,-0.00712475785985589,-0.03750714287161827,-0.007339846808463335,0.0,0.0,2.622561454772949,-0.01,0.01,-0.07,0.0
23.99226200,23992262,2,0.07,0.6900000000000001,76.94,-0.0033585503697395325,-0.009974156506359577,-0.03705621510744095,0.012206798419356346,0.0,0.0,2.6241512298583984,-0.01,0.01,-0.06,0.0
24.09232900,24092329,2,0.06,0.7000000000000001,76.92,-0.0006186692044138908,-0.007309806067496538,-0.036589112132787704,0.0162279661744833,0.0,0.0,2.6251068115234375,-0.01,0.01,-0.06,0.0
24.19232700,24192327,2,0.07,0.6900000000000001,76.89,-0.0018946549389511347,-0.006316469516605139,-0.03574489802122116,0.005294926464557648,0.0,0.0,2.6252031326293945,-0.01,0.01,-0.05,0.0
24.29230900,24292309,2,0.07,0.6900000000000001,76.85000000000001,4.783292024512775e-05,-0.009218862280249596,-0.035492949187755585,0.003513538045808673,0.0,0.0,2.6256587505340576,-0.01,0.01,-0.04,0.0
24.39229400,24392294,2,0.06,0.7000000000000001,76.81,-0.0033066754695028067,-0.006255260668694973,-0.03350527212023735,0.0063867527060210705,0.0,0.0,2.6260671615600586,-0.01,0.01,-0.04,0.0
24.49225300,24492253,2,0.06,0.6900000000000001,76.77,-0.004633705131709576,-0.010244786739349365,-0.03178293630480766,0.012562195770442486,0.0,0.0,2.6273574829101562,-0.01,0.01,-0.03,0.0
24.59225400,24592254,2,0.06,0.7000000000000001,76.73,-0.002677999436855316,-0.008705251850187778,-0.03152408078312874,0.018054546788334846,0.0,0.0,2.628909111022949,-0.01,0.01,-0.03,0.0
24.69225700,24692257,2,0.06,0.6900000000000001,76.72,-0.003530648071318865,-0.008230669423937798,-0.030717361718416214,0.013678613118827343,0.0,0.0,2.6299071311950684,-0.01,0.01,-0.04,0.0
24.79225500,24792255,2,0.06,0.6900000000000001,76.73,-0.002629306400194764,-0.00979054905474186,-0.030172649770975113,0.0005302976351231337,0.0,0.0,2.629786491394043,-0.01,0.01,-0.04,0.0
24.89226500,24892265,2,0.06,0.68,76.74,-0.004696432501077652,-0.010136357508599758,-0.02974056825041771,0.009699519723653793,0.0,0.0,2.631676197052002,-0.01,0.01,-0.04,0.0
24.99231100,24992311,2,0.05,0.6900000000000001,76.75,-0.0030730036087334156,-0.009757306426763535,-0.03012087382376194,0.010597161017358303,0.0,0.0,2.631807327270508,-0.01,0.01,-0.04,0.0
25.09234900,25092349,2,0.05,0.6900000000000001,76.74,-0.0024400088004767895,-0.00816587544977665,-0.03141501173377037,-0.014682588167488575,0.0,0.0,2.630415916442871,-0.01,0.01,-0.03,0.0
25.19231700,25192317,2,0.05,0.6900000000000001,76.72,-0.002756185131147504,-0.010008069686591625,-0.03162067010998726,-0.013599852100014687,0.0,0.0,2.6297974586486816,-0.01,0.01,-0.03,0.0
25.29226500,25292265,2,0.05,0.68,76.72,-0.0003720177337527275,-0.009549444541335106,-0.031689319759607315,0.005877207964658737,0.0,0.0,2.630948066711426,-0.01,0.01,-0.03,0.0
25.39227100,25392271,2,0.05,0.67,76.7,-0.0009569252142682672,-0.00949091650545597,-0.0320802666246891,0.013606077060103416,0.0,0.0,2.631633758544922,-0.01,0.01,-0.03,0.0
25.49226700,25492267,2,0.05,0.68,76.69,0.0009162126225419343,-0.0107604144141078,-0.03197966888546944,0.016055110841989517,0.0,0.0,2.633268356323242,-0.01,0.01,-0.03,0.0
25.59226200,25592262,2,0.04,0.68,76.68,0.00025896879378706217,-0.009244536980986595,-0.031071417033672333,0.03080226480960846,0.0,0.0,2.6359970569610596,-0.01,0.01,-0.03,0.0
25.69226100,25692261,2,0.04,0.68,76.67,0.0014702054904773831,-0.009934493340551853,-0.02916431985795498,0.052369680255651474,0.0,0.0,2.641059160232544,-0.01,0.01,-0.02,0.0
25.79226900,25792269,2,0.03,0.6900000000000001,76.66,0.002594968071207404,-0.009454809129238129,-0.028381869196891785,0.062300167977809906,0.0,0.0,2.6460320949554443,-0.01,0.01,-0.03,0.0
25.89231600,25892316,2,0.03,0.6900000000000001,76.67,0.002452957211062312,-0.009794197976589203,-0.024908997118473053,0.08509557694196701,0.0,0.0,2.6547634601593018,-0.01,0.01,-0.03,0.0
25.99234200,25992342,2,0.02,0.6900000000000001,76.67,0.004476440604776144,-0.011220396496355534,-0.02182091400027275,0.11691295355558395,0.0,0.0,2.664905548095703,-0.01,0.01,-0.02,0.0
26.09232200,26092322,2,0.01,0.6900000000000001,76.67,0.004632960539311171,-0.01046492625027895,-0.020428286865353584,0.08298090845346451,0.0,0.0,2.6707186698913574,-0.01,0.01,-0.02,0.0
26.19229400,26192294,2,0.01,0.6900000000000001,76.66,0.006122776307165623,-0.011466851457953453,-0.018702257424592972,0.029817620292305946,0.0,0.0,2.673419237136841,-0.01,0.01,-0.01,0.0
26.29225400,26292254,2,0.01,0.6900000000000001,76.63,0.006248733960092068,-0.0120725492015481,-0.018531082198023796,0.012211269699037075,0.0,0.0,2.6760141849517822,-0.01,0.01,-0.01,0.0
26.39226700,26392267,2,0.01,0.6900000000000001,76.61,0.0059066289104521275,-0.011117302812635899,-0.016688060015439987,0.025638308376073837,0.0,0.0,2.67972993850708,-0.01,0.01,-0.01,0.0
26.49226400,26492264,2,0.0,0.6900000000000001,76.59,0.006253371946513653,-0.013637950643897057,-0.015585905872285366,0.023062074556946754,0.0,0.0,2.681755542755127,-0.01,0.01,-0.01,0.0
26.59225300,26592253,2,0.01,0.6900000000000001,76.56,0.006678026635199785,-0.012856974266469479,-0.014661841094493866,0.002986317966133356,0.0,0.0,2.682279109954834,-0.01,0.01,0.0,0.0
26.69227000,26692270,2,0.0,0.6900000000000001,76.53,0.005951498169451952,-0.01495077833533287,-0.01357065699994564,0.007390832062810659,0.0,0.0,2.6839983463287354,-0.01,0.01,0.0,0.0
26.79231700,26792317,2,0.0,0.6900000000000001,76.49,0.006971789989620447,-0.01457946840673685,-0.012767692096531391,0.024510109797120094,0.0,0.0,2.686779260635376,-0.01,0.01,0.0,0.0
26.89233000,26892330,2,0.0,0.6900000000000001,76.44,0.00836478266865015,-0.012623968534171581,-0.012140682898461819,0.02535962499678135,0.0,0.0,2.6888248920440674,-0.01,0.01,0.0,0.0
26.99231700,26992317,2,0.0,0.6900000000000001,76.4,0.007714924868196249,-0.01485439483076334,-0.011744264513254166,0.007579759694635868,0.0,0.0,2.689142942428589,-0.01,0.01,0.0,0.0
27.09230500,27092305,2,0.0,0.7000000000000001,76.38,0.008728189393877983,-0.013866023160517216,-0.01049727201461792,-0.005488676019012928,0.0,0.0,2.689005136489868,-0.01,0.01,0.0,0.0
27.19226300,27192263,2,0.0,0.6900000000000001,76.39,0.008644374087452888,-0.015274238772690296,-0.00923177506774664,-0.004108082968741655,0.0,0.0,2.6891109943389893,-0.01,0.01,0.0,0.0
27.29226300,27292263,2,0.0,0.7000000000000001,76.42,0.010242384858429432,-0.016681745648384094,-0.009637982584536076,-0.0011969070183113217,0.0,0.0,2.6892693042755127,-0.01,0.01,0.0,0.0
27.39227000,27392270,2,0.0,0.7000000000000001,76.44,0.01034269854426384,-0.015037908218801022,-0.008937010541558266,0.016568729653954506,0.0,0.0,2.691472291946411,-0.01,0.01,0.0,0.0
27.49225700,27492257,2,-0.01,0.6900000000000001,76.45,0.010422850959002972,-0.017587849870324135,-0.007878385484218597,0.045451562851667404,0.0,0.0,2.6957497596740723,-0.01,0.01,0.0,0.0
27.59226400,27592264,2,-0.01,0.6900000000000001,76.45,0.011848999187350273,-0.016420014202594757,-0.0073341564275324345,0.05869729444384575,0.0,0.0,2.700624465942383,-0.01,0.01,0.0,0.0
27.69231000,27692310,2,-0.01,0.6900000000000001,76.44,0.012619508430361748,-0.016585635021328926,-0.006961731240153313,0.051563382148742676,0.0,0.0,2.7046802043914795,-0.01,0.01,0.0,0.0
27.79234700,27792347,2,-0.01,0.6900000000000001,76.45,0.014099091291427612,-0.018387051299214363,-0.006569317542016506,0.04289012774825096,0.0,0.0,2.708709478378296,-0.01,0.01,0.0,0.0
27.89230900,27892309,2,-0.02,0.6900000000000001,76.47,0.01567617431282997,-0.016254857182502747,-0.006883976049721241,0.028254235163331032,0.0,0.0,2.7110464572906494,-0.01,0.01,0.0,0.0
27.99226500,27992265,2,-0.01,0.68,76.48,0.016844460740685463,-0.016823437064886093,-0.006128647830337286,0.030794596299529076,0.0,0.0,2.7152435779571533,-0.01,0.01,0.0,0.0
28.09226000,28092260,2,-0.01,0.68,76.51,0.01770244725048542,-0.01665334403514862,-0.005940635222941637,0.05096603184938431,0.0,0.0,2.7201340198516846,-0.01,0.01,-0.01,0.0
28.19225400,28192254,2,-0.01,0.68,76.53,0.019075926393270493,-0.0149863101541996,-0.005156239029020071,0.05705419182777405,0.0,0.0,2.7255029678344727,-0.01,0.01,-0.01,0.0
28.29225400,28292254,2,-0.01,0.67,76.55,0.02074912004172802,-0.01532201562076807,-0.005429141689091921,0.011983058415353298,0.0,0.0,2.724818706512451,-0.01,0.01,-0.01,0.0
28.39226300,28392263,2,-0.01,0.68,76.57000000000001,0.020441066473722458,-0.014854944311082363,-0.005516714882105589,-0.03734743595123291,0.0,0.0,2.722076654434204,-0.01,0.01,-0.01,0.0
28.49226200,28492262,2,-0.01,0.68,76.59,0.021026454865932465,-0.014445049688220024,-0.004017735365778208,-0.021755805239081383,0.0,0.0,2.722215414047241,-0.01,0.01,-0.02,0.0
28.59230700,28592307,2,-0.01,0.68,76.62,0.02112981118261814,-0.014687301591038704,-0.0038210356142371893,0.011200680397450924,0.0,0.0,2.724099636077881,-0.01,0.01,-0.01,0.0
28.69233200,28692332,2,-0.01,0.6900000000000001,76.63,0.022092970088124275,-0.014204589650034904,-0.0029367569368332624,0.03325333446264267,0.0,0.0,2.7272183895111084,-0.01,0.01,-0.01,0.0
28.79231200,28792312,2,-0.01,0.6900000000000001,76.63,0.022828280925750732,-0.01506335474550724,-0.001829842571169138,0.04906061291694641,0.0,0.0,2.731610059738159,-0.01,0.01,-0.01,0.0
28.89228900,28892289,2,-0.01,0.6900000000000001,76.62,0.022982202470302582,-0.014383667148649693,-6.648898852290586e-05,0.05636034160852432,0.0,0.0,2.7363953590393066,-0.01,0.01,-0.01,0.0
28.99225700,28992257,2,-0.02,0.6900000000000001,76.61,0.02348245307803154,-0.013669374398887157,9.325186692876741e-05,0.043293971568346024,0.0,0.0,2.739715814590454,-0.01,0.01,-0.01,0.0
29.09225800,29092258,2,-0.02,0.6900000000000001,76.61,0.023477859795093536,-0.013803842477500439,0.0010270775528624654,0.02255854383111,0.0,0.0,2.74164080619812,-0.01,0.01,-0.02,0.0
29.19226700,29192267,2,-0.01,0.6900000000000001,76.63,0.024482902139425278,-0.013826786540448666,0.001953618135303259,0.011984210461378098,0.0,0.0,2.7432284355163574,-0.01,0.01,-0.02,0.0
29.29225400,29292254,2,-0.01,0.6900000000000001,76.64,0.023068591952323914,-0.014449487440288067,0.003831978188827634,0.018021736294031143,0.0,0.0,2.7456226348876953,-0.01,0.01,-0.02,0.0
29.39226800,29392268,2,-0.01,0.6900000000000001,76.64,0.022390082478523254,-0.014966079033911228,0.004702082369476557,0.032340049743652344,0.0,0.0,2.74918270111084,-0.01,0.01,-0.01,0.0
29.49231200,29492312,2,-0.01,0.6900000000000001,76.65,0.023533107712864876,-0.015189969912171364,0.006673835217952728,0.04287371784448624,0.0,0.0,2.7531285285949707,-0.01,0.01,-0.02,0.0
29.59232500,29592325,2,0.0,0.6900000000000001,76.65,0.022532768547534943,-0.016450583934783936,0.008067884482443333,0.03847447782754898,0.0,0.0,2.7563350200653076,-0.01,0.01,-0.02,0.0
29.69231100,29692311,2,0.0,0.6900000000000001,76.65,0.022785689681768417,-0.01598738133907318,0.007816591300070286,0.024151235818862915,0.0,0.0,2.758539915084839,-0.01,0.01,-0.01,0.0
29.79229100,29792291,2,0.0,0.6900000000000001,76.64,0.02343006618320942,-0.015498168766498566,0.007684160955250263,0.022569851949810982,0.0,0.0,2.7613301277160645,-0.01,0.01,-0.01,0.0
29.89225400,29892254,2,0.0,0.6900000000000001,76.62,0.02294006198644638,-0.015686413273215294,0.0077954987064003944,0.024341989308595657,0.0,0.0,2.7637813091278076,-0.02,0.01,-0.01,0.0
29.99225400,29992254,2,0.0,0.68,76.61,0.023150796070694923,-0.015033518895506859,0.007677835877984762,0.015622926875948906,0.0,0.0,2.7652387619018555,-0.02,0.01,-0.01,0.0
30.09224800,30092248,2,0.0,0.68,76.59,0.022195952013134956,-0.01590343751013279,0.007305847015231848,0.012931988574564457,0.0,0.0,2.7669615745544434,-0.02,0.01,-0.01,0.0
30.19224200,30192242,2,-0.01,0.68,76.57000000000001,0.022677524015307426,-0.01620429754257202,0.008238903246819973,0.011042395606637001,0.0,0.0,2.7679882049560547,-0.02,0.01,-0.01,0.0
30.29225300,30292253,2,0.0,0.68,76.55,0.022082313895225525,-0.01519392617046833,0.008938759565353394,0.013323206454515457,0.0,0.0,2.769704818725586,-0.02,0.01,0.0,0.0
30.39229300,30392293,2,0.0,0.67,76.53,0.02208084985613823,-0.015959348529577255,0.010536793619394302,0.04130954295396805,0.0,0.0,2.774498462677002,-0.02,0.01,0.0,0.0
30.49232500,30492325,2,0.0,0.68,76.5,0.021221794188022614,-0.014864708296954632,0.011759720742702484,0.05070528760552406,0.0,0.0,2.7783782482147217,-0.02,0.01,0.0,0.0
30.59230700,30592307,2,-0.01,0.67,76.48,0.0201091468334198,-0.014958132058382034,0.013515923172235489,0.034259624779224396,0.0,0.0,2.7810049057006836,-0.02,0.01,0.0,0.0
30.69224500,30692245,2,0.0,0.67,76.47,0.019593780860304832,-0.015409920364618301,0.014454195275902748,0.0469677597284317,0.0,0.0,2.786522150039673,-0.02,0.02,0.0,0.0
30.79224600,30792246,2,0.0,0.66,76.46000000000001,0.01919877529144287,-0.015118531882762909,0.016456779092550278,0.07287096977233887,0.0,0.0,2.7933881282806396,-0.02,0.02,0.0,0.0
30.89224200,30892242,2,0.0,0.67,76.46000000000001,0.018539078533649445,-0.015116192400455475,0.01788625307381153,0.06333684176206589,0.0,0.0,2.798313856124878,-0.02,0.02,0.0,0.0
30.99224300,30992243,2,0.0,0.66,76.46000000000001,0.017773132771253586,-0.014121455140411854,0.019773544743657112,0.03626096621155739,0.0,0.0,2.8013713359832764,-0.02,0.02,0.0,0.0
31.09224600,31092246,2,0.0,0.66,76.46000000000001,0.016905546188354492,-0.013383643701672554,0.020106375217437744,0.004842306487262249,0.0,0.0,2.8019163608551025,-0.02,0.02,0.0,0.0
31.19226600,31192266,2,0.0,0.66,76.45,0.016101747751235962,-0.01366136409342289,0.02038763277232647,-0.011576027609407902,0.0,0.0,2.8018698692321777,-0.02,0.02,0.0,0.0
31.29231500,31292315,2,0.0,0.67,76.46000000000001,0.015381812117993832,-0.012841087765991688,0.022103609517216682,0.014054044149816036,0.0,0.0,2.8049581050872803,-0.02,0.02,0.0,0.0
31.39231800,31392318,2,0.0,0.67,76.46000000000001,0.015399180352687836,-0.013052956201136112,0.022535065189003944,0.03598412126302719,0.0,0.0,2.8083415031433105,-0.02,0.02,0.0,0.0
31.49230300,31492303,2,0.01,0.67,76.47,0.015672018751502037,-0.013138391077518463,0.023647207766771317,0.030976466834545135,0.0,0.0,2.810739278793335,-0.02,0.02,0.0,0.0
31.59224700,31592247,2,0.0,0.68,76.48,0.014720016159117222,-0.012184899300336838,0.024179182946681976,0.00790656078606844,0.0,0.0,2.8109443187713623,-0.02,0.02,0.0,0.0
31.69224500,31692245,2,0.0,0.68,76.49,0.014046323485672474,-0.012714984826743603,0.024320857599377632,-0.021691229194402695,0.0,0.0,2.808966875076294,-0.02,0.02,0.0,0.0
31.79224900,31792249,2,0.0,0.68,76.49,0.01366614829748869,-0.012240061536431313,0.02446693554520607,-0.03975194692611694,0.0,0.0,2.8059146404266357,-0.02,0.02,0.0,0.0
31.89224100,31892241,2,0.0,0.68,76.48,0.012697963044047356,-0.011860882863402367,0.023900672793388367,-0.02402970753610134,0.0,0.0,2.805217742919922,-0.02,0.02,0.0,0.0
31.99224300,31992243,2,0.0,0.68,76.48,0.012005380354821682,-0.011854804120957851,0.024515600875020027,0.0005315374000929296,0.0,0.0,2.8054964542388916,-0.02,0.02,0.0,0.0
32.09225800,32092258,2,0.0,0.6900000000000001,76.47,0.012510240077972412,-0.012109779752790928,0.02478494867682457,0.02598458155989647,0.0,0.0,2.8082637786865234,-0.02,0.02,0.0,0.0
32.19230300,32192303,2,0.0,0.6900000000000001,76.46000000000001,0.012480828911066055,-0.012460601516067982,0.02485479973256588,0.0431809164583683,0.0,0.0,2.811659812927246,-0.02,0.02,0.0,0.0
32.29232400,32292324,2,0.0,0.6900000000000001,76.45,0.011972100473940372,-0.012407436966896057,0.025467779487371445,0.03247430548071861,0.0,0.0,2.813622236251831,-0.02,0.02,0.0,0.0
32.39230000,32392300,2,0.0,0.6900000000000001,76.45,0.011075923219323158,-0.01248900592327118,0.02594291791319847,0.010660476982593536,0.0,0.0,2.814211845397949,-0.02,0.02,0.0,0.0
32.49224200,32492242,2,0.0,0.6900000000000001,76.45,0.010143382474780083,-0.013265717774629593,0.026933666318655014,0.006268766243010759,0.0,0.0,2.815392255783081,-0.02,0.02,0.0,0.0
32.59224700,32592247,2,0.0,0.6900000000000001,76.45,0.009752308949828148,-0.012775194831192493,0.027970360592007637,0.020661046728491783,0.0,0.0,2.8179945945739746,-0.02,0.02,0.0,0.0
32.69224600,32692246,2,0.0,0.6900000000000001,76.43,0.008632161654531956,-0.013744535855948925,0.029367797076702118,0.03843657672405243,0.0,0.0,2.8217697143554688,-0.02,0.02,0.0,0.0
32.79224600,32792246,2,0.0,0.6900000000000001,76.42,0.007811218965798616,-0.013962824828922749,0.03116633929312229,0.04960350692272186,0.0,0.0,2.8261821269989014,-0.02,0.02,0.0,0.0
32.89224200,32892242,2,0.0,0.6900000000000001,76.4,0.006766676902770996,-0.014243255369365215,0.03186362236738205,0.05077816918492317,0.0,0.0,2.83066725730896,-0.02,0.02,0.0,0.0
32.99225300,32992253,2,0.0,0.7000000000000001,76.39,0.006229621358215809,-0.014852040447294712,0.03351646661758423,0.051219504326581955,0.0,0.0,2.8354406356811523,-0.02,0.02,0.0,0.0
33.09231800,33092318,2,-0.01,0.7000000000000001,76.39,0.006146400701254606,-0.015224838629364967,0.034794099628925323,0.05716133862733841,0.0,0.0,2.841052293777466,-0.02,0.02,0.0,0.0
33.19232000,33192320,2,-0.01,0.6900000000000001,76.38,0.005905961152166128,-0.01574653573334217,0.0364457368850708,0.06311613321304321,0.0,0.0,2.847012519836426,-0.02,0.02,0.0,0.0
33.29229900,33292299,2,-0.01,0.6900000000000001,76.38,0.005500230006873608,-0.017062950879335403,0.037872202694416046,0.05885615572333336,0.0,0.0,2.8524367809295654,-0.02,0.02,0.0,0.0
33.39224500,33392245,2,-0.01,0.7000000000000001,76.37,0.005516689736396074,-0.01772880367934704,0.0402548611164093,0.062098801136016846,0.0,0.0,2.858830690383911,-0.02,0.02,0.0,0.0
33.49224600,33492246,2,-0.01,0.7000000000000001,76.35000000000001,0.005275983363389969,-0.01769218221306801,0.041037000715732574,0.06236235424876213,0.0,0.0,2.864718198776245,-0.02,0.02,0.0,0.0
33.59224500,33592245,2,-0.01,0.7000000000000001,76.34,0.006022665649652481,-0.018599847331643105,0.04207412526011467,0.05840076878666878,0.0,0.0,2.8705294132232666,-0.02,0.02,0.0,0.0
33.69224500,33692245,2,-0.02,0.7000000000000001,76.33,0.006199999712407589,-0.019077982753515244,0.04304086044430733,0.04760148376226425,0.0,0.0,2.8748528957366943,-0.02,0.02,0.0,0.0
33.79225500,33792255,2,-0.02,0.6900000000000001,76.32000000000001,0.006510676816105843,-0.020205197855830193,0.04487492889165878,0.037545569241046906,0.0,0.0,2.8789124488830566,-0.02,0.02,0.0,0.0
33.89224900,33892249,2,-0.02,0.6900000000000001,76.32000000000001,0.006364505272358656,-0.02113540843129158,0.045706696808338165,0.023389333859086037,0.0,0.0,2.881397247314453,-0.02,0.02,0.0,0.0
33.99229600,33992296,2,-0.03,0.7000000000000001,76.31,0.007106216624379158,-0.022186946123838425,0.04585346207022667,0.017886463552713394,0.0,0.0,2.8840365409851074,-0.02,0.02,0.0,0.0
34.09232300,34092323,2,-0.03,0.7000000000000001,76.29,0.007624479942023754,-0.02285386249423027,0.04586700722575188,0.03384338691830635,0.0,0.0,2.888096332550049,-0.02,0.02,0.0,0.0
34.19230000,34192300,2,-0.03,0.71,76.28,0.007922339253127575,-0.023525498807430267,0.04623264819383621,0.043301526457071304,0.0,0.0,2.8922622203826904,-0.02,0.02,0.0,0.0
34.29224300,34292243,2,-0.03,0.7000000000000001,76.28,0.009314031340181828,-0.023985587060451508,0.046973615884780884,0.059866275638341904,0.0,0.0,2.8983657360076904,-0.02,0.02,0.0,0.0
34.39224500,34392245,2,-0.03,0.7000000000000001,76.28,0.009945519268512726,-0.02458939142525196,0.048286765813827515,0.09363404661417007,0.0,0.0,2.9073896408081055,-0.02,0.02,0.0,0.0
34.49224200,34492242,2,-0.02,0.7000000000000001,76.28,0.009827181696891785,-0.02598666213452816,0.04947466403245926,0.11286032199859619,0.0,0.0,2.917447805404663,-0.02,0.02,0.0,0.0
34.59224600,34592246,2,-0.03,0.7000000000000001,76.29,0.010437384247779846,-0.0266655795276165,0.05082090198993683,0.09149190038442612,0.0,0.0,2.925001382827759,-0.02,0.02,0.0,0.0
34.69224700,34692247,2,-0.04,0.7000000000000001,76.28,0.011049848049879074,-0.026811474934220314,0.05147826299071312,0.043717239052057266,0.0,0.0,2.928771495819092,-0.02,0.02,0.0,0.0
34.79225200,34792252,2,-0.04,0.7000000000000001,76.28,0.011424926109611988,-0.02677527256309986,0.05285804346203804,0.019281193614006042,0.0,0.0,2.9318816661834717,-0.02,0.02,0.0,0.0
34.89229300,34892293,2,-0.04,0.7000000000000001,76.26,0.01151393074542284,-0.02745111659169197,0.05399763956665993,0.03253082558512688,0.0,0.0,2.9365105628967285,-0.02,0.02,0.01,0.0
34.99231300,34992313,2,-0.04,0.71,76.25,0.011888873763382435,-0.028138520196080208,0.05546167120337486,0.04633989557623863,0.0,0.0,2.9413678646087646,-0.02,0.02,0.0,0.0
35.09229800,35092298,2,-0.04,0.7000000000000001,76.25,0.01176765002310276,-0.02877713181078434,0.05656231567263603,0.047899141907691956,0.0,0.0,2.9461264610290527,-0.02,0.02,0.0,0.0
35.19224700,35192247,2,-0.05,0.71,76.24,0.013153002597391605,-0.028644807636737823,0.056877534836530685,0.03306140750646591,0.0,0.0,2.949078321456909,-0.02,0.02,0.01,0.0
35.29224200,35292242,2,-0.05,0.71,76.24,0.013947902247309685,-0.029717037454247475,0.05700298771262169,0.019184358417987823,0.0,0.0,2.951594114303589,-0.02,0.02,0.0,0.0
35.39224500,35392245,2,-0.05,0.72,76.24,0.01481415331363678,-0.030661586672067642,0.057603996247053146,0.021594636142253876,0.0,0.0,2.954306125640869,-0.02,0.02,0.0,0.0
35.49224500,35492245,2,-0.06,0.73,76.24,0.01636539399623871,-0.031813718378543854,0.05712692439556122,0.009529639035463333,0.0,0.0,2.9552814960479736,-0.02,0.02,0.0,0.0
35.59224800,35592248,2,-0.06,0.72,76.25,0.017174936830997467,-0.03245760127902031,0.055987272411584854,-0.012134302407503128,0.0,0.0,2.954514741897583,-0.02,0.02,0.0,0.0
35.69226000,35692260,2,-0.06,0.73,76.25,0.01769806072115898,-0.03283507004380226,0.05584489926695824,-0.004403203725814819,0.0,0.0,2.9553749561309814,-0.02,0.02,0.0,0.0
35.79229800,35792298,2,-0.06,0.74,76.26,0.018174953758716583,-0.033101584762334824,0.05521271750330925,0.009786099195480347,0.0,0.0,2.9562768936157227,-0.02,0.02,0.0,0.0
35.89232100,35892321,2,-0.06,0.74,76.27,0.019681163132190704,-0.03340528532862663,0.05458719655871391,0.02406422048807144,0.0,0.0,2.959331750869751,-0.02,0.02,0.0,0.0
35.99229600,35992296,2,-0.06,0.74,76.28,0.020350197330117226,-0.03438831493258476,0.056211140006780624,0.06398053467273712,0.0,0.0,2.965665102005005,-0.02,0.02,0.0,0.0
36.09226200,36092262,2,-0.06,0.74,76.29,0.02107149362564087,-0.03571007028222084,0.056959956884384155,0.07230446487665176,0.0,0.0,2.9711339473724365,-0.02,0.02,0.0,0.0
36.19225100,36192251,2,-0.05,0.74,76.29,0.021670831367373466,-0.036442238837480545,0.05833815038204193,0.05782486870884895,0.0,0.0,2.9762074947357178,-0.02,0.02,0.0,0.0
36.29225300,36292253,2,-0.05,0.74,76.3,0.02200932614505291,-0.037234511226415634,0.05830325931310654,0.06096963211894035,0.0,0.0,2.9823405742645264,-0.02,0.02,0.0,0.0
36.39225600,36392256,2,-0.05,0.74,76.3,0.0223699901252985,-0.037863049656152725,0.058224573731422424,0.054956309497356415,0.0,0.0,2.9871931076049805,-0.02,0.02,0.0,0.0
36.49225400,36492254,2,-0.06,0.74,76.31,0.023201869800686836,-0.03869679942727089,0.05785035341978073,0.04006749764084816,0.0,0.0,2.991352081298828,-0.02,0.02,0.0,0.0
36.59225900,36592259,2,-0.06,0.74,76.31,0.024212302640080452,-0.039619673043489456,0.05858410894870758,0.028536861762404442,0.0,0.0,2.9941964149475098,-0.02,0.02,0.0,0.0
36.69230500,36692305,2,-0.06,0.74,76.32000000000001,0.02474227547645569,-0.04057718813419342,0.059903912246227264,0.021398330107331276,0.0,0.0,2.9969000816345215,-0.02,0.02,0.0,0.0
36.79232400,36792324,2,-0.07,0.74,76.33,0.026583870872855186,-0.040868088603019714,0.05961422249674797,0.03387871012091637,0.0,0.0,3.0011367797851562,-0.02,0.02,0.0,0.0
36.89231300,36892313,2,-0.07,0.74,76.33,0.027362802997231483,-0.04035411402583122,0.05982339009642601,0.05454979091882706,0.0,0.0,3.006791830062866,-0.02,0.02,0.0,0.0
36.99224300,36992243,2,-0.07,0.73,76.33,0.02917647548019886,-0.04065103828907013,0.05942415073513985,0.05527733266353607,0.0,0.0,3.0115067958831787,-0.02,0.02,0.0,0.0
37.09225400,37092254,2,-0.07,0.73,76.32000000000001,0.03052033856511116,-0.04051586613059044,0.05995149910449982,0.0380965881049633,0.0,0.0,3.0149381160736084,-0.02,0.02,0.0,0.0
37.19224600,37192246,2,-0.08,0.74,76.32000000000001,0.030756553635001183,-0.04077338054776192,0.0595497228205204,0.015405694954097271,0.0,0.0,3.0161540508270264,-0.02,0.02,0.0,0.0
37.29224100,37292241,2,-0.08,0.74,76.32000000000001,0.032212838530540466,-0.04101699963212013,0.059513527899980545,0.0005046576261520386,0.0,0.0,3.0172362327575684,-0.02,0.02,0.0,0.0
37.39224600,37392246,2,-0.08,0.74,76.32000000000001,0.03302283585071564,-0.04148602858185768,0.05955019220709801,0.01750698871910572,0.0,0.0,3.0201799869537354,-0.02,0.02,0.0,0.0
37.49225300,37492253,2,-0.08,0.73,76.32000000000001,0.03421122208237648,-0.04188963770866394,0.06083652377128601,0.0428001806139946,0.0,0.0,3.0246388912200928,-0.02,0.02,0.0,0.0
37.59230500,37592305,2,-0.09,0.73,76.32000000000001,0.03486466407775879,-0.04169728606939316,0.06190693750977516,0.05446842685341835,0.0,0.0,3.0294811725616455,-0.02,0.02,0.0,0.0
37.69231800,37692318,2,-0.09,0.73,76.31,0.03595764562487602,-0.042177412658929825,0.06108732149004936,0.03816680237650871,0.0,0.0,3.032315969467163,-0.02,0.02,0.0,0.0
37.79230500,37792305,2,-0.09,0.74,76.31,0.03694809973239899,-0.042435817420482635,0.05974380299448967,0.01985407993197441,0.0,0.0,3.0345544815063477,-0.02,0.02,0.0,0.0
37.89224600,37892246,2,-0.09,0.74,76.3,0.036914531141519547,-0.0423562154173851,0.05879997834563255,-0.005735904909670353,0.0,0.0,3.0337629318237305,-0.02,0.02,0.0,0.0
37.99224300,37992243,2,-0.09,0.74,76.29,0.0382055826485157,-0.04268127679824829,0.05752401426434517,-0.026385487988591194,0.0,0.0,3.032196521759033,-0.02,0.02,0.0,0.0
38.09224900,38092249,2,-0.09,0.74,76.29,0.0391383096575737,-0.04280459135770798,0.05597100406885147,-0.021613834425807,0.0,0.0,3.031337022781372,-0.02,0.02,0.0,0.0
38.19224200,38192242,2,-0.1,0.74,76.29,0.04007357731461525,-0.04367892071604729,0.05546310916543007,-0.002893317025154829,0.0,0.0,3.0318408012390137,-0.02,0.02,0.0,0.0
38.29224300,38292243,2,-0.09,0.73,76.3,0.04035523161292076,-0.04394223541021347,0.05492042377591133,0.022531939670443535,0.0,0.0,3.0344109535217285,-0.02,0.02,0.0,0.0
38.39225200,38392252,2,-0.1,0.73,76.31,0.041051845997571945,-0.044579312205314636,0.05607808753848076,0.04887627065181732,0.0,0.0,3.0388753414154053,-0.02,0.02,0.0,0.0
38.49229500,38492295,2,-0.1,0.73,76.32000000000001,0.04166535660624504,-0.04485546052455902,0.05589263513684273,0.04509984701871872,0.0,0.0,3.0418920516967773,-0.02,0.02,0.0,0.0
38.59232900,38592329,2,-0.1,0.73,76.33,0.041754886507987976,-0.04479362443089485,0.055506352335214615,0.018115801736712456,0.0,0.0,3.0429775714874268,-0.02,0.02,0.0,0.0
38.69230000,38692300,2,-0.11,0.73,76.35000000000001,0.042843371629714966,-0.045419808477163315,0.05553475022315979,0.000714470399543643,0.0,0.0,3.0434153079986572,-0.02,0.02,0.0,0.0
38.79224600,38792246,2,-0.1,0.73,76.36,0.04245387017726898,-0.045491885393857956,0.05546598136425018,-0.004129298962652683,0.0,0.0,3.0435497760772705,-0.03,0.02,0.0,0.0
38.89224600,38892246,2,-0.11,0.73,76.37,0.043599218130111694,-0.045064087957143784,0.054858263581991196,-0.011666571721434593,0.0,0.0,3.042717456817627,-0.03,0.02,0.0,0.0
38.99224200,38992242,2,-0.11,0.73,76.38,0.04355013743042946,-0.04518391937017441,0.05563604086637497,-0.003747121198102832,0.0,0.0,3.043224811553955,-0.03,0.02,0.0,0.0
39.09224500,39092245,2,-0.11,0.72,76.39,0.04465264827013016,-0.044120993465185165,0.05471959710121155,0.003927407320588827,0.0,0.0,3.0436556339263916,-0.03,0.02,0.0,0.0
39.19224500,39192245,2,-0.12,0.73,76.4,0.045732490718364716,-0.04370815306901932,0.0543702132999897,0.0035146386362612247,0.0,0.0,3.0440194606781006,-0.03,0.02,0.0,0.0
39.29225500,39292255,2,-0.12,0.73,76.4,0.045946504920721054,-0.043649282306432724,0.05409794673323631,0.012715513817965984,0.0,0.0,3.045559883117676,-0.03,0.02,0.0,0.0
39.39229700,39392297,2,-0.12,0.73,76.4,0.04653894901275635,-0.04339470714330673,0.05376710742712021,0.02203182503581047,0.0,0.0,3.047485828399658,-0.03,0.02,0.0,0.0
39.49232000,39492320,2,-0.12,0.72,76.42,0.04686038941144943,-0.043018195778131485,0.053471751511096954,0.041304394602775574,0.0,0.0,3.0519022941589355,-0.03,0.02,0.0,0.0
39.59229800,39592298,2,-0.11,0.73,76.43,0.04665162041783333,-0.044024329632520676,0.05495286360383034,0.06577032804489136,0.0,0.0,3.0578763484954834,-0.03,0.02,0.0,0.0
39.69224400,39692244,2,-0.11,0.73,76.44,0.047196026891469955,-0.04389600083231926,0.056324079632759094,0.06362033635377884,0.0,0.0,3.0628490447998047,-0.03,0.02,0.0,0.0
39.79224800,39792248,2,-0.11,0.73,76.45,0.047466546297073364,-0.04384053125977516,0.0568351186811924,0.05009225383400917,0.0,0.0,3.0673327445983887,-0.03,0.02,0.0,0.0
39.89224400,39892244,2,-0.12,0.73,76.47,0.0476742684841156,-0.04369121044874191,0.057714369148015976,0.05293339118361473,0.0,0.0,3.0728859901428223,-0.03,0.02,0.0,0.0
39.99224400,39992244,2,-0.11,0.72,76.48,0.04836625978350639,-0.043500348925590515,0.05876449868083,0.06848791986703873,0.0,0.0,3.079876184463501,-0.03,0.02,0.0,0.0
40.09224800,40092248,2,-0.11,0.72,76.5,0.0482221283018589,-0.04460912570357323,0.05946468189358711,0.07003232836723328,0.0,0.0,3.086153030395508,-0.03,0.02,-0.01,0.0
40.19225100,40192251,2,-0.11,0.73,76.52,0.04921227693557739,-0.04341714829206467,0.05963892117142677,0.05337488278746605,0.0,0.0,3.0909836292266846,-0.03,0.02,0.0,0.0
40.29229100,40292291,2,-0.11,0.72,76.52,0.048671234399080276,-0.04346318170428276,0.05933230742812157,0.03772275894880295,0.0,0.0,3.0948660373687744,-0.03,0.02,0.0,0.0
40.39231500,40392315,2,-0.11,0.73,76.53,0.047968294471502304,-0.042144257575273514,0.06059328839182854,0.041564442217350006,0.0,0.0,3.0997631549835205,-0.03,0.02,0.0,0.0
40.49230000,40492300,2,-0.12,0.72,76.53,0.04761359468102455,-0.042252812534570694,0.06154292821884155,0.0488407276570797,0.0,0.0,3.104755401611328,-0.03,0.02,0.0,0.0
40.59224400,40592244,2,-0.11,0.72,76.53,0.04710235446691513,-0.04321178048849106,0.062168192118406296,0.03864244744181633,0.0,0.0,3.108233690261841,-0.03,0.02,0.0,0.0
40.69225500,40692255,2,-0.12,0.72,76.53,0.047871388494968414,-0.042095836251974106,0.06318202614784241,0.02817913517355919,0.0,0.0,3.1112940311431885,-0.03,0.02,-0.01,0.0
40.79224700,40792247,2,-0.12,0.72,76.53,0.04738587886095047,-0.042916446924209595,0.06345762312412262,0.0266721174120903,0.0,0.0,3.1143877506256104,-0.03,0.02,-0.01,0.0
40.89224300,40892243,2,-0.12,0.71,76.54,0.0474134124815464,-0.04333163797855377,0.06362579762935638,0.03305007144808769,0.0,0.0,3.1182243824005127,-0.03,0.03,-0.01,0.0
40.99224300,40992243,2,-0.13,0.71,76.53,0.047414734959602356,-0.042612046003341675,0.06406727433204651,0.030848009511828423,0.0,0.0,3.121117115020752,-0.03,0.03,-0.01,0.0
41.09225600,41092256,2,-0.13,0.71,76.53,0.04719432815909386,-0.04340583086013794,0.06536656618118286,0.04035533592104912,0.0,0.0,3.125788688659668,-0.03,0.03,-0.01,0.0
41.19229900,41192299,2,-0.13,0.71,76.53,0.04714382439851761,-0.0433180034160614,0.06534687429666519,0.055259548127651215,0.0,0.0,3.131121873855591,-0.03,0.03,0.0,0.0
41.29232100,41292321,2,-0.13,0.71,76.53,0.04534594714641571,-0.043533336371183395,0.06655475497245789,0.06734104454517365,0.0,0.0,3.1376283168792725,-0.03,0.03,-0.01,0.0
41.39230000,41392300,2,-0.13,0.71,76.54,0.04560919478535652,-0.04422859102487564,0.06818291544914246,0.06627752631902695,0.0,0.0,3.14337420463562,-0.03,0.03,-0.01,0.0
41.49224600,41492246,2,-0.13,0.71,76.54,0.04467468708753586,-0.043841227889060974,0.06948532164096832,0.061146628111600876,0.0,0.0,3.1493358612060547,-0.03,0.03,0.0,0.0
41.59224300,41592243,2,-0.13,0.71,76.53,0.045566339045763016,-0.04440885782241821,0.06932046264410019,0.060005590319633484,0.0,0.0,3.1553192138671875,-0.03,0.03,-0.01,0.0
41.69224500,41692245,2,-0.13,0.71,76.54,0.046577684581279755,-0.04451153054833412,0.06975866109132767,0.04531847685575485,0.0,0.0,3.159396171569824,-0.03,0.03,-0.01,0.0
41.79224900,41792249,2,-0.12,0.7000000000000001,76.55,0.046822212636470795,-0.04353170096874237,0.0691693052649498,0.03560284897685051,0.0,0.0,3.1635923385620117,-0.03,0.03,-0.01,0.0
41.89224300,41892243,2,-0.12,0.7000000000000001,76.57000000000001,0.04781992733478546,-0.04388611391186714,0.06922611594200134,0.0322418138384819,0.0,0.0,3.16706919670105,-0.03,0.03,-0.01,0.0
41.99225100,41992251,2,-0.12,0.7000000000000001,76.57000000000001,0.04688166454434395,-0.04355575144290924,0.06817936152219772,0.023804185912013054,0.0,0.0,3.169830560684204,-0.03,0.03,-0.01,0.0
42.09229800,42092298,2,-0.12,0.7000000000000001,76.57000000000001,0.04766029492020607,-0.042381104081869125,0.06804174184799194,0.02437736839056015,0.0,0.0,3.172785997390747,-0.03,0.03,-0.01,0.0
42.19233800,42192338,2,-0.12,0.7000000000000001,76.56,0.047514934092760086,-0.04218609258532524,0.06764234602451324,0.03920058161020279,0.0,0.0,3.177311658859253,-0.03,0.03,-0.01,0.0
42.29229900,42292299,2,-0.12,0.71,76.57000000000001,0.04761028289794922,-0.041015055030584335,0.06745176017284393,0.045262325555086136,0.0,0.0,3.1814229488372803,-0.03,0.03,-0.01,0.0
42.39224500,42392245,2,-0.13,0.71,76.57000000000001,0.04814733937382698,-0.041030772030353546,0.06619949638843536,0.019046321511268616,0.0,0.0,3.182515859603882,-0.03,0.03,-0.01,0.0
42.49224200,42492242,2,-0.12,0.7000000000000001,76.56,0.047618020325899124,-0.04013246297836304,0.06574694812297821,-0.0038051833398640156,0.0,0.0,3.182746410369873,-0.03,0.03,-0.01,0.0
42.59225600,42592256,2,-0.12,0.7000000000000001,76.56,0.0485612116754055,-0.038811977952718735,0.064417764544487,-0.014267787337303162,0.0,0.0,3.1820764541625977,-0.03,0.03,-0.01,0.0
42.69224400,42692244,2,-0.12,0.7000000000000001,76.56,0.04769526794552803,-0.038716983050107956,0.06328734755516052,-0.006832990795373917,0.0,0.0,3.182600736618042,-0.03,0.03,-0.01,0.0
42.79225200,42792252,2,-0.11,0.7000000000000001,76.55,0.049070343375205994,-0.038767650723457336,0.0622754730284214,0.006392680108547211,0.0,0.0,3.183573007583618,-0.03,0.03,-0.01,0.0
42.89224800,42892248,2,-0.12,0.7000000000000001,76.55,0.050761863589286804,-0.036841701716184616,0.06238029524683952,0.023439377546310425,0.0,0.0,3.1861774921417236,-0.03,0.03,-0.01,0.0
42.99229300,42992293,2,-0.11,0.7000000000000001,76.55,0.048139601945877075,-0.036923814564943314,0.0639411136507988,0.05884804204106331,0.0,0.0,3.1921732425689697,-0.03,0.03,-0.01,0.0
43.09231600,43092316,2,-0.12,0.7000000000000001,76.54,0.05010129511356354,-0.03930414095520973,0.06549885869026184,0.09949436038732529,0.0,0.0,3.2014002799987793,-0.03,0.03,0.0,0.0
43.19230500,43192305,2,-0.12,0.71,76.53,0.0496610626578331,-0.035703979432582855,0.06549064069986343,0.0809200257062912,0.0,0.0,3.2066354751586914,-0.03,0.03,0.0,0.0
43.29224300,43292243,2,-0.12,0.6900000000000001,76.53,0.05097576975822449,-0.03702628239989281,0.06526641547679901,0.05096696689724922,0.0,0.0,3.2116901874542236,-0.03,0.03,0.0,0.0
43.39224400,43392244,2,-0.12,0.7000000000000001,76.52,0.04989384114742279,-0.03923160582780838,0.06510338187217712,0.034043874591588974,0.0,0.0,3.2149293422698975,-0.03,0.03,0.0,0.0
43.49224700,43492247,2,-0.11,0.6900000000000001,76.52,0.05001572519540787,-0.033761244267225266,0.06491181999444962,0.0041923136450350285,0.0,0.0,3.2152371406555176,-0.03,0.03,-0.01,0.0
43.59224700,43592247,2,-0.12,0.6900000000000001,76.53,0.049973927438259125,-0.037724096328020096,0.06447644531726837,-0.02576148696243763,0.0,0.0,3.2134175300598145,-0.03,0.03,-0.01,0.0
43.69224500,43692245,2,-0.11,0.7000000000000001,76.54,0.04900791123509407,-0.035437386482954025,0.06336048245429993,-0.03779652342200279,0.0,0.0,3.211118221282959,-0.04,0.03,-0.01,0.0
43.79225500,43792255,2,-0.12,0.6900000000000001,76.53,0.04996483772993088,-0.034278251230716705,0.06209009140729904,-0.0272543802857399,0.0,0.0,3.2099273204803467,-0.04,0.03,-0.01,0.0
43.89229900,43892299,2,-0.12,0.7000000000000001,76.55,0.04860597103834152,-0.036813996732234955,0.062039148062467575,-0.0016321049770340323,0.0,0.0,3.2110724449157715,-0.04,0.03,-0.01,0.0
43.99231900,43992319,2,-0.12,0.71,76.56,0.049131590873003006,-0.035077985376119614,0.06210898980498314,-0.003355382476001978,0.0,0.0,3.2100558280944824,-0.04,0.03,-0.01,0.0
44.09230400,44092304,2,-0.11,0.6900000000000001,76.55,0.0484071709215641,-0.03673475980758667,0.06191198527812958,-0.016928307712078094,0.0,0.0,3.2085328102111816,-0.04,0.03,0.0,0.0
44.19224700,44192247,2,-0.11,0.6900000000000001,76.56,0.047571029514074326,-0.036668114364147186,0.06166967377066612,-0.014820517972111702,0.0,0.0,3.2074334621429443,-0.04,0.03,-0.01,0.0
44.29224200,44292242,2,-0.12,0.6900000000000001,76.55,0.047990668565034866,-0.03477001562714577,0.06184088811278343,0.0009452255326323211,0.0,0.0,3.207956314086914,-0.04,0.03,-0.01,0.0
44.39224500,44392245,2,-0.12,0.6900000000000001,76.55,0.04637407511472702,-0.03643523529171944,0.0617142915725708,0.015429043211042881,0.0,0.0,3.209221363067627,-0.04,0.03,-0.01,0.0
44.49224100,44492241,2,-0.12,0.7000000000000001,76.56,0.04630091041326523,-0.03532009571790695,0.06196846440434456,0.010706091299653053,0.0,0.0,3.2096939086914062,-0.04,0.03,-0.01,0.0
44.59224300,44592243,2,-0.12,0.7000000000000001,76.55,0.04524310678243637,-0.03512333333492279,0.06273964047431946,0.025471553206443787,0.0,0.0,3.2125940322875977,-0.04,0.03,-0.01,0.0
44.69225200,44692252,2,-0.12,0.71,76.56,0.04412132874131203,-0.03709558770060539,0.06477139890193939,0.05245377495884895,0.0,0.0,3.217255115509033,-0.04,0.03,-0.01,0.0
44.79230700,44792307,2,-0.12,0.71,76.56,0.04300934448838234,-0.03459438309073448,0.06666084378957748,0.07014202326536179,0.0,0.0,3.223520040512085,-0.04,0.03,-0.01,0.0
44.89232400,44892324,2,-0.11,0.7000000000000001,76.55,0.04245906323194504,-0.03629239276051521,0.06825917959213257,0.06751369684934616,0.0,0.0,3.2289180755615234,-0.04,0.03,-0.01,0.0
44.99229600,44992296,2,-0.12,0.7000000000000001,76.56,0.04282205551862717,-0.03618178889155388,0.06926003098487854,0.05533916503190994,0.0,0.0,3.2342231273651123,-0.04,0.03,-0.01,0.0
45.09224700,45092247,2,-0.12,0.6900000000000001,76.57000000000001,0.0411071814596653,-0.0357033871114254,0.07017574459314346,0.04768270626664162,0.0,0.0,3.238727331161499,-0.04,0.03,-0.01,0.0
45.19225500,45192255,2,-0.12,0.6900000000000001,76.57000000000001,0.04162922874093056,-0.03835797309875488,0.07234551012516022,0.03730464726686478,0.0,0.0,3.2425692081451416,-0.04,0.03,-0.01,0.0
45.29224600,45292246,2,-0.12,0.7000000000000001,76.58,0.04065242037177086,-0.03631284087896347,0.0726977214217186,0.023630697280168533,0.0,0.0,3.2451372146606445,-0.04,0.03,-0.01,0.0
45.39224600,45392246,2,-0.12,0.6900000000000001,76.58,0.03977710008621216,-0.03757096081972122,0.07373540848493576,0.007228604052215815,0.0,0.0,3.2463784217834473,-0.04,0.03,-0.01,0.0
45.49224500,45492245,2,-0.13,0.7000000000000001,76.57000000000001,0.03897601738572121,-0.03842264041304588,0.07312638312578201,0.00588104547932744,0.0,0.0,3.2480545043945312,-0.04,0.03,0.0,0.0
45.59225000,45592250,2,-0.13,0.7000000000000001,76.57000000000001,0.038695234805345535,-0.03674490377306938,0.0729781836271286,0.004805035889148712,0.0,0.0,3.2487235069274902,-0.04,0.03,0.0,0.0
45.69230300,45692303,2,-0.12,0.6900000000000001,76.56,0.040462467819452286,-0.038787923753261566,0.07150039821863174,-0.007259038742631674,0.0,0.0,3.2481672763824463,-0.04,0.03,0.0,0.0
45.79231900,45792319,2,-0.13,0.6900000000000001,76.55,0.04120422154664993,-0.03765517473220825,0.0710698664188385,-0.012799774296581745,0.0,0.0,3.247549533843994,-0.04,0.03,0.0,0.0
45.89229600,45892296,2,-0.13,0.6900000000000001,76.55,0.041837871074676514,-0.037281494587659836,0.07019305229187012,0.009097235277295113,0.0,0.0,3.2497167587280273,-0.04,0.03,-0.01,0.0
