timestamp,TimeUS,C,Q1,Q2,Q3,Q4
11.49232900,11492329,2,1.0,0.0,0.0,0.0
11.59234000,11592340,2,1.0,0.0,0.0,0.0
11.69232700,11692327,2,1.0,0.0,0.0,0.0
11.79230200,11792302,2,1.0,0.0,0.0,0.0
11.89225600,11892256,2,1.0,0.0,0.0,0.0
11.99226900,11992269,2,1.0,0.0,0.0,0.0
12.09227000,12092270,2,1.0,0.0,0.0,0.0
12.19226600,12192266,2,1.0,0.0,0.0,0.0
12.29227500,12292275,2,1.0,0.0,0.0,0.0
12.39233600,12392336,2,1.0,0.0,0.0,0.0
12.49232800,12492328,2,0.999970018863678,0.001286244485527277,0.0076328665018081665,-5.997754851705395e-05
12.59232100,12592321,2,0.999970555305481,0.0011855058837682009,0.007579284254461527,-5.37712148798164e-05
12.69229500,12692295,2,0.9999693632125854,0.0012353821657598019,0.007727236952632666,-8.260970935225487e-05
12.79225500,12792255,2,0.9999695420265198,0.0012324526906013489,0.007703415583819151,-8.825679105939344e-05
12.89225400,12892254,2,0.9999691843986511,0.001091681537218392,0.007777647115290165,4.005261143902317e-05
12.99227000,12992270,2,0.9999679327011108,0.0011638763826340437,0.007921510376036167,-8.431405876763165e-05
13.09226700,13092267,2,0.9999693036079407,0.0010901236673817039,0.007762074004858732,-4.7818943130550906e-05
13.19226800,13192268,2,0.9999691247940063,0.001070080790668726,0.007785092573612928,5.4404110414907336e-05
13.29231500,13292315,2,0.9999694228172302,0.0010685870656743646,0.007743112742900848,-7.480233034584671e-05
13.39232900,13392329,2,0.9999703168869019,0.0009534828714095056,0.007646624464541674,-1.6215190044022165e-05
13.49232300,13492323,2,0.9999706149101257,0.0010403936030343175,0.007596483454108238,0.0001229684567078948
13.59230400,13592304,2,0.9999712109565735,0.0008610228542238474,0.007540183141827583,-9.704018339107279e-06
13.69225800,13692258,2,0.9999725818634033,0.00083668198203668,0.007355241570621729,-5.85633133596275e-05
13.79226100,13792261,2,0.9999743700027466,0.00070062285521999,0.007123889401555061,0.00011036288924515247
13.89225400,13892254,2,0.9999746084213257,0.0005731558194383979,0.007099052891135216,1.7465747077949345e-05
13.99226200,13992262,2,0.7798583507537842,-0.0035084241535514593,0.005997442174702883,0.6259174346923828
14.09227000,14092270,2,0.7800576090812683,-0.003583192592486739,0.005810041446238756,0.6256704926490784
14.19231400,14192314,2,0.7806845903396606,-0.003726037684828043,0.005936821922659874,0.6248859763145447
14.29233900,14292339,2,0.7814137935638428,-0.0037937599699944258,0.005749989300966263,0.6239751577377319
14.39231800,14392318,2,0.782206118106842,-0.0038608929608017206,0.005734726320952177,0.6229813694953918
14.49226600,14492266,2,0.7833311557769775,-0.004023480694741011,0.005717897322028875,0.6215652823448181
14.59225700,14592257,2,0.7844130396842957,-0.004028415773063898,0.005641707684844732,0.6202000975608826
14.69225700,14692257,2,0.7852569818496704,-0.004142525605857372,0.0057505653239786625,0.6191294193267822
14.79225500,14792255,2,0.7861688733100891,-0.004145683720707893,0.005681585054844618,0.6179717183113098
14.89226200,14892262,2,0.786785900592804,-0.004162605386227369,0.005704517010599375,0.6171855926513672
14.99227200,14992272,2,0.7871548533439636,-0.004178924020379782,0.005722790956497192,0.6167147159576416
15.09235600,15092356,2,0.7875359058380127,-0.004026738926768303,0.005636839661747217,0.6162298321723938
15.19233000,15192330,2,0.7876092791557312,-0.004025528207421303,0.0056464290246367455,0.6161359548568726
15.29232000,15292320,2,0.7876092791557312,-0.003971079830080271,0.005594095215201378,0.6161368489265442
15.39228800,15392288,2,0.7876521944999695,-0.003887072205543518,0.0055551910772919655,0.6160827875137329
15.49225900,15492259,2,0.7875279784202576,-0.003915088716894388,0.005562658421695232,0.6162413358688354
15.59225900,15592259,2,0.7874568700790405,-0.003719703061506152,0.005471071228384972,0.6163342595100403
15.69225700,15692257,2,0.7875561118125916,-0.0036654267460107803,0.005430138204246759,0.6162080764770508
15.79226100,15792261,2,0.7875621318817139,-0.003564313752576709,0.005441677290946245,0.616200864315033
15.89226400,15892264,2,0.787705659866333,-0.003347895573824644,0.00535608222708106,0.6160194277763367
15.99231500,15992315,2,0.7877734303474426,-0.0032627710606902838,0.005303432699292898,0.6159336566925049
16.09233100,16092331,2,0.7876385450363159,-0.0031593136955052614,0.005254528950899839,0.6161071062088013
16.19231000,16192310,2,0.7874590158462524,-0.0031055642757564783,0.005163474008440971,0.6163375377655029
16.29226600,16292266,2,0.787286102771759,-0.0030553550459444523,0.005200182553380728,0.616558313369751
16.39225900,16392259,2,0.7871484756469727,-0.002944835228845477,0.005131422076374292,0.6167351603507996
16.49225500,16492255,2,0.7871049642562866,-0.002910676645115018,0.005096063483506441,0.6167911291122437
16.59226400,16592264,2,0.7871553897857666,-0.0029220732394605875,0.0051124063320457935,0.6167266368865967
16.69226700,16692267,2,0.7872104048728943,-0.002867938717827201,0.005032083950936794,0.6166573166847229
16.79227300,16792273,2,0.7873225808143616,-0.0028707149904221296,0.005135663319379091,0.616513192653656
16.89232500,16892325,2,0.7874599099159241,-0.0028397738933563232,0.005113719496876001,0.6163381338119507
16.99232800,16992328,2,0.7874683737754822,-0.002754220739006996,0.005085607059299946,0.6163279414176941
17.09231000,17092310,2,0.7874195575714111,-0.0027393465861678123,0.005118127446621656,0.6163901090621948
17.19229300,17192293,2,0.787335991859436,-0.002702567959204316,0.005075808148831129,0.6164973378181458
17.29225800,17292258,2,0.7871769070625305,-0.0027385097928345203,0.005092692095786333,0.6167001724243164
17.39225700,17392257,2,0.7871467471122742,-0.0027022594586014748,0.005108045879751444,0.6167386770248413
17.49226200,17492262,2,0.7871552109718323,-0.0026744042988866568,0.005043619312345982,0.6167285442352295
17.59225300,17592253,2,0.7871222496032715,-0.0027638974133878946,0.005065351724624634,0.6167700290679932
17.69226300,17692263,2,0.7871763706207275,-0.0027101365849375725,0.005094356834888458,0.6167010068893433
17.79232000,17792320,2,0.7871134877204895,-0.0027094343677163124,0.005076777655631304,0.6167814135551453
17.89232500,17892325,2,0.7869769930839539,-0.0026935325004160404,0.0051377820782363415,0.616955041885376
17.99231000,17992310,2,0.7868736386299133,-0.0027189799584448338,0.0050937701016664505,0.6170871257781982
18.09229100,18092291,2,0.7867462635040283,-0.0027214691508561373,0.0050824969075620174,0.6172495484352112
18.19226600,18192266,2,0.7866299748420715,-0.0027167093940079212,0.00506801949813962,0.6173979043960571
18.29225500,18292255,2,0.7864859104156494,-0.0027178635355085135,0.005047739949077368,0.6175816059112549
18.39226000,18392260,2,0.7862980365753174,-0.002777978079393506,0.005071511026471853,0.6178203225135803
18.49225900,18492259,2,0.7860124707221985,-0.0028032518457621336,0.00504276342689991,0.6181837320327759
18.59226000,18592260,2,0.7856598496437073,-0.0028475041035562754,0.005043972283601761,0.6186316013336182
18.69230400,18692304,2,0.7851828336715698,-0.0028742742724716663,0.005060533061623573,0.6192366480827332
18.79233200,18792332,2,0.7847933769226074,-0.002846210729330778,0.005020965822041035,0.6197306513786316
18.89231200,18892312,2,0.7845973968505859,-0.002855365164577961,0.005045212339609861,0.6199784874916077
18.99228700,18992287,2,0.7845618724822998,-0.002840923611074686,0.00509651517495513,0.6200231313705444
19.09225600,19092256,2,0.7845808863639832,-0.0028488445095717907,0.005132969468832016,0.6199986934661865
19.19225600,19192256,2,0.7847021818161011,-0.0028439986053854227,0.005173488520085812,0.6198448538780212
19.29225500,19292255,2,0.7847636938095093,-0.0028124703094363213,0.005178667604923248,0.6197671294212341
19.39225700,19392257,2,0.7847312688827515,-0.0028376500122249126,0.005182075779885054,0.6198079586029053
19.49226800,19492268,2,0.784723162651062,-0.0028615675400942564,0.005249646957963705,0.6198175549507141
19.59231000,19592310,2,0.7846307754516602,-0.0028276743832975626,0.005306849256157875,0.6199342012405396
19.69234400,19692344,2,0.7845672369003296,-0.0027957879938185215,0.005369866266846657,0.6200141310691833
19.79231900,19792319,2,0.784593403339386,-0.002865707967430353,0.005403788294643164,0.61998051404953
19.89226700,19892267,2,0.7845445871353149,-0.002705081133171916,0.0054787807166576385,0.6200422644615173
19.99225800,19992258,2,0.7844206690788269,-0.002856913022696972,0.005484871566295624,0.6201983094215393
20.09226400,20092264,2,0.784369945526123,-0.0028865300118923187,0.00544998561963439,0.6202626824378967
20.19225300,20192253,2,0.7842978239059448,-0.0028144302777945995,0.0054261512123048306,0.620354413986206
20.29225400,20292254,2,0.7842351198196411,-0.0027754756156355143,0.005487618502229452,0.6204332709312439
20.39227300,20392273,2,0.7842645049095154,-0.002865028101950884,0.005431135185062885,0.6203962564468384
20.49230900,20492309,2,0.784191906452179,-0.0028862161561846733,0.005419347435235977,0.6204879879951477
20.59234000,20592340,2,0.7841206789016724,-0.0027446046005934477,0.005534757394343615,0.6205776333808899
20.69231000,20692310,2,0.7840672135353088,-0.0028336900286376476,0.005434667691588402,0.6206456422805786
20.79227900,20792279,2,0.7837809920310974,-0.002824713010340929,0.005502538755536079,0.6210065484046936
20.89226300,20892263,2,0.7835195660591125,-0.0030626924708485603,0.005451650824397802,0.6213356256484985
20.99225600,20992256,2,0.7833157181739807,-0.0029839337803423405,0.0055204518139362335,0.6215924024581909
21.09226100,21092261,2,0.7830144166946411,-0.0030057693365961313,0.0054343221709132195,0.6219725608825684
21.19226500,21192265,2,0.7827097773551941,-0.0029035743791610003,0.005479255225509405,0.6223559379577637
21.29226100,21292261,2,0.7823973894119263,-0.003069646656513214,0.005398716777563095,0.6227485537528992
21.39230800,21392308,2,0.7821143865585327,-0.0030538688879460096,0.005492222961038351,0.6231032013893127
21.49233200,21492332,2,0.7818319797515869,-0.00298864021897316,0.005484560038894415,0.6234579086303711
21.59230800,21592308,2,0.7817002534866333,-0.003115142462775111,0.005411824677139521,0.6236230731010437
21.69229300,21692293,2,0.7817285060882568,-0.003183069871738553,0.005483170039951801,0.6235866546630859
21.79226000,21792260,2,0.7818231582641602,-0.003296630224213004,0.005413760431110859,0.6234680414199829
21.89225500,21892255,2,0.7819231152534485,-0.0032995291985571384,0.0055045802146196365,0.6233417987823486
21.99225700,21992257,2,0.7820842266082764,-0.003374076448380947,0.0054441955871880054,0.6231397986412048
22.09226400,22092264,2,0.7822313904762268,-0.0032668227795511484,0.0054668546654284,0.6229555010795593
22.19226100,22192261,2,0.782438337802887,-0.0033580679446458817,0.005485082045197487,0.6226948499679565
22.29231900,22292319,2,0.7827290296554565,-0.0033580877352505922,0.005340341944247484,0.6223306655883789
22.39235100,22392351,2,0.7828760743141174,-0.0032891626469790936,0.005286396015435457,0.6221465468406677
22.49231200,22492312,2,0.7830880880355835,-0.003391470294445753,0.005310678854584694,0.6218788623809814
22.59228700,22592287,2,0.7832516431808472,-0.0033034260850399733,0.005290936212986708,0.6216735243797302
22.69225600,22692256,2,0.7832541465759277,-0.0033590516541153193,0.005271660163998604,0.6216702461242676
22.79225800,22792258,2,0.7833080291748047,-0.0033638514578342438,0.005340003874152899,0.6216017603874207
22.89225500,22892255,2,0.7833271026611328,-0.0033027410972863436,0.005286899860948324,0.6215784549713135
22.99225600,22992256,2,0.7831646203994751,-0.003351282561197877,0.0052698394283652306,0.6217830777168274
23.09226800,23092268,2,0.7830449938774109,-0.003273811424151063,0.005267199128866196,0.621934175491333
23.19232400,23192324,2,0.7829050421714783,-0.0033256046008318663,0.005248913541436195,0.6221101880073547
23.29233300,23292333,2,0.7826563119888306,-0.0033563454635441303,0.005282064899802208,0.6224226951599121
23.39232100,23392321,2,0.7825808525085449,-0.0032697219867259264,0.0051723746582865715,0.6225188970565796
23.49229100,23492291,2,0.7825132012367249,-0.003307824721559882,0.005139859858900309,0.6226039528846741
23.59225300,23592253,2,0.782487690448761,-0.0032283314503729343,0.0051201325841248035,0.622636616230011
23.69225700,23692257,2,0.7826788425445557,-0.0032410756684839725,0.005050200503319502,0.6223968267440796
23.79226200,23792262,2,0.7826894521713257,-0.0032634239178150892,0.005125578958541155,0.6223827600479126
23.89226000,23892260,2,0.782746434211731,-0.0032917435746639967,0.0051337783224880695,0.6223108768463135
23.99226200,23992262,2,0.7829071283340454,-0.003273316891863942,0.0051499283872544765,0.6221086978912354
24.09232900,24092329,2,0.7829835414886475,-0.003361313370987773,0.005207384936511517,0.6220116019248962
24.19232700,24192327,2,0.783169686794281,-0.0033137041609734297,0.005160630214959383,0.6217778325080872
24.29230900,24292309,2,0.7834014892578125,-0.0032501635141670704,0.0051973438821733,0.621485710144043
24.39229400,24392294,2,0.7836112380027771,-0.003354041837155819,0.005150824319571257,0.6212210655212402
24.49225300,24492253,2,0.7838321328163147,-0.003323996439576149,0.005114416126161814,0.6209428310394287
24.59225400,24592254,2,0.7840362191200256,-0.003382108174264431,0.005127298645675182,0.6206846833229065
24.69225700,24692257,2,0.7840753793716431,-0.003360953414812684,0.005098425783216953,0.6206355690956116
24.79225500,24792255,2,0.7840417623519897,-0.0032911584712564945,0.0051196543499827385,0.6206782460212708
24.89226500,24892265,2,0.7839986085891724,-0.003305974183604121,0.005035181995481253,0.620733380317688
24.99231100,24992311,2,0.7839480638504028,-0.003347689053043723,0.005063609220087528,0.6207967400550842
25.09234900,25092349,2,0.7839914560317993,-0.0033892919309437275,0.005009789485484362,0.62074214220047
25.19231700,25192317,2,0.7840943932533264,-0.003343776799738407,0.005052072927355766,0.6206120252609253
25.29226500,25292265,2,0.7840985059738159,-0.0033580795861780643,0.004965896252542734,0.6206074357032776
25.39227100,25392271,2,0.7841874957084656,-0.0033267792314291,0.00492109265178442,0.6204954981803894
25.49226700,25492267,2,0.7842704057693481,-0.003350361716002226,0.004979785066097975,0.6203901767730713
25.59226200,25592262,2,0.7842863202095032,-0.0033829952590167522,0.004929129034280777,0.6203702092170715
25.69226100,25692261,2,0.7843634486198425,-0.0034089984837919474,0.00493682362139225,0.6202725172042847
25.79226900,25792269,2,0.7843935489654541,-0.0034824602771550417,0.004954108502715826,0.6202338933944702
25.89231600,25892316,2,0.7843399047851562,-0.0035435191821306944,0.004949810449033976,0.6203014254570007
25.99234200,25992342,2,0.7843345403671265,-0.003626840654760599,0.004898715764284134,0.6203081607818604
26.09232200,26092322,2,0.7843540906906128,-0.0036399192176759243,0.004832208156585693,0.6202839016914368
26.19229400,26192294,2,0.7844212651252747,-0.0036392773035913706,0.0048562707379460335,0.6201987266540527
26.29225400,26292254,2,0.784551203250885,-0.0036785423289984465,0.004836145788431168,0.6200342774391174
26.39226700,26392267,2,0.7846898436546326,-0.003680497407913208,0.00486013013869524,0.6198586225509644
26.49226400,26492264,2,0.7848124504089355,-0.0037383888848125935,0.00482972851023078,0.6197032928466797
26.59225300,26592253,2,0.7849783897399902,-0.0036781560629606247,0.004811983089894056,0.6194935441017151
26.69227000,26692270,2,0.7851256728172302,-0.0037262362893670797,0.004751940723508596,0.6193070411682129
26.79231700,26792317,2,0.7853134274482727,-0.0037442443426698446,0.004801650065928698,0.619068443775177
26.89233000,26892330,2,0.7855949997901917,-0.003714107209816575,0.0047395904548466206,0.6187117695808411
26.99231700,26992317,2,0.785817563533783,-0.003741889726370573,0.004761961754411459,0.6184287667274475
27.09230500,27092305,2,0.7858995199203491,-0.0037832583766430616,0.0047978428192436695,0.6183240413665771
27.19226300,27192263,2,0.7858788371086121,-0.003818485653027892,0.0047518047504127026,0.6183504462242126
27.29226300,27292263,2,0.7857179641723633,-0.003850790672004223,0.004812601488083601,0.6185541749000549
27.39227000,27392270,2,0.785592794418335,-0.003850232344120741,0.004764092154800892,0.6187135577201843
27.49225700,27492257,2,0.7855452299118042,-0.003842689795419574,0.0047345650382339954,0.6187741756439209
27.59226400,27592264,2,0.7855646014213562,-0.0038684860337525606,0.004722606390714645,0.6187495589256287
27.69231000,27692310,2,0.7856073975563049,-0.00385713716968894,0.004683292470872402,0.6186955571174622
27.79234700,27792347,2,0.7855477333068848,-0.003854654962196946,0.004646921530365944,0.6187716126441956
27.89230900,27892309,2,0.7854579091072083,-0.0038819913752377033,0.00462188757956028,0.6188856363296509
27.99226500,27992265,2,0.7853682041168213,-0.003809989895671606,0.004587893839925528,0.6190001964569092
28.09226000,28092260,2,0.7852428555488586,-0.0038067481946200132,0.004603410139679909,0.6191591024398804
28.19225400,28192254,2,0.7850939631462097,-0.0037498432211577892,0.004600656218826771,0.6193482279777527
28.29225400,28292254,2,0.7849963903427124,-0.003736913902685046,0.004585927352309227,0.619472086429596
28.39226300,28392263,2,0.7848857045173645,-0.003785017179325223,0.00459476001560688,0.6196119785308838
28.49226200,28492262,2,0.7847897410392761,-0.0037813379894942045,0.004615996032953262,0.6197333931922913
28.59230700,28592307,2,0.7846435308456421,-0.0038598168175667524,0.00462371576577425,0.6199179291725159
28.69233200,28692332,2,0.7845808863639832,-0.0038926240522414446,0.004672701470553875,0.6199966669082642
28.79231200,28792312,2,0.7845804691314697,-0.003858016338199377,0.004696207586675882,0.6199972033500671
28.89228900,28892289,2,0.7846280336380005,-0.003903185948729515,0.004676078446209431,0.6199368834495544
28.99225700,28992257,2,0.7846636176109314,-0.0038864410016685724,0.00462319515645504,0.6198923587799072
29.09225800,29092258,2,0.784654438495636,-0.0038862801156938076,0.004631027113646269,0.6199038624763489
29.19226700,29192267,2,0.7845946550369263,-0.003855561139062047,0.0046422649174928665,0.6199796795845032
29.29225400,29292254,2,0.7845277786254883,-0.0038612105417996645,0.004643680527806282,0.6200643181800842
29.39226800,29392268,2,0.7845048904418945,-0.0038471233565360308,0.0046883695758879185,0.6200929880142212
29.49231200,29492312,2,0.7844868302345276,-0.003824094543233514,0.004690797533839941,0.6201159358024597
29.59232500,29592325,2,0.7844685316085815,-0.0038173003122210503,0.004700495861470699,0.6201390624046326
29.69231100,29692311,2,0.7844644784927368,-0.003822352970018983,0.004755066242069006,0.6201437711715698
29.79229100,29792291,2,0.7845030426979065,-0.0037791228387504816,0.004699330311268568,0.6200956106185913
29.89225400,29892254,2,0.7846038341522217,-0.003791987197473645,0.00468031968921423,0.6199681758880615
29.99225400,29992254,2,0.7846818566322327,-0.003787148278206587,0.0046724290587008,0.6198694705963135
30.09224800,30092248,2,0.7847846150398254,-0.0037770571652799845,0.0046835108660161495,0.6197393536567688
30.19224200,30192242,2,0.7849128246307373,-0.0037542690988630056,0.0046117366291582584,0.6195777058601379
30.29225300,30292253,2,0.7850183844566345,-0.003760009305551648,0.004645338747650385,0.6194436550140381
30.39229300,30392293,2,0.7851200103759766,-0.003691014600917697,0.004636539611965418,0.6193152666091919
30.49232500,30492325,2,0.78526771068573,-0.003724505892023444,0.004624674096703529,0.6191279292106628
30.59230700,30592307,2,0.7853668332099915,-0.0037405032198876143,0.004583423491567373,0.6190024018287659
30.69224500,30692245,2,0.7854441404342651,-0.003674941835924983,0.0046063438057899475,0.6189045310020447
30.79224600,30792246,2,0.785483717918396,-0.0035967363510280848,0.004587172996252775,0.6188548803329468
30.89224200,30892242,2,0.7854755520820618,-0.003569352440536022,0.0046456302516162395,0.6188649535179138
30.99224300,30992243,2,0.7854671478271484,-0.0035502053797245026,0.004596758168190718,0.6188760995864868
31.09224600,31092246,2,0.7854872941970825,-0.0035593679640442133,0.004608786664903164,0.6188503503799438
31.19226600,31192266,2,0.7855309844017029,-0.0035608995240181684,0.004580810200423002,0.6187951564788818
31.29231500,31292315,2,0.7855037450790405,-0.003599226474761963,0.00465046614408493,0.6188289523124695
31.39231800,31392318,2,0.7854734063148499,-0.003606958081945777,0.0046394020318984985,0.6188675165176392
31.49230300,31492303,2,0.7854504585266113,-0.0035937284119427204,0.004716542083770037,0.6188960671424866
31.59224700,31592247,2,0.7853972315788269,-0.003613509936258197,0.0047170487232506275,0.6189635396003723
31.69224500,31692245,2,0.7853475213050842,-0.003659794805571437,0.004700894001871347,0.6190264821052551
31.79224900,31792249,2,0.7853488922119141,-0.0036843011621385813,0.004712828900665045,0.6190245151519775
31.89224100,31892241,2,0.7853575348854065,-0.0036651398986577988,0.004727683030068874,0.6190134882926941
31.99224300,31992243,2,0.785400390625,-0.0036510336212813854,0.004743041004985571,0.6189591288566589
32.09225800,32092258,2,0.785451352596283,-0.003677749540656805,0.004779302515089512,0.6188940405845642
32.19230300,32192303,2,0.7854936718940735,-0.0036804070696234703,0.004773905500769615,0.6188403367996216
32.29232400,32292324,2,0.7855304479598999,-0.003726550843566656,0.004773389082401991,0.6187933683395386
32.39230000,32392300,2,0.7855693697929382,-0.0037064964417368174,0.004765114281326532,0.6187441945075989
32.49224200,32492242,2,0.7855724096298218,-0.0037307527381926775,0.004767663776874542,0.6187401413917542
32.59224700,32592247,2,0.7855710983276367,-0.0037339446134865284,0.004768874030560255,0.6187418103218079
32.69224600,32692246,2,0.7856415510177612,-0.003748577553778887,0.0047666532918810844,0.6186522245407104
32.79224600,32792246,2,0.7857034802436829,-0.003780484665185213,0.004752006381750107,0.6185734868049622
32.89224200,32892242,2,0.7858060002326965,-0.0038031623698771,0.004716029856353998,0.6184433698654175
32.99225300,32992253,2,0.7858420014381409,-0.003832739545032382,0.004760663025081158,0.6183971166610718
33.09231800,33092318,2,0.7858479619026184,-0.003871064865961671,0.004727320745587349,0.6183895468711853
33.19232000,33192320,2,0.785902738571167,-0.0038160134572535753,0.004692395217716694,0.6183205246925354
33.29229900,33292299,2,0.785915732383728,-0.00385582959279418,0.004728077445179224,0.6183034777641296
33.39224500,33392245,2,0.7860006093978882,-0.0038609951734542847,0.004735213238745928,0.6181955337524414
33.49224600,33492246,2,0.7860866189002991,-0.0039002031553536654,0.004721451550722122,0.6180859804153442
33.59224500,33592245,2,0.7861400246620178,-0.0039253938011825085,0.004715983755886555,0.6180179715156555
33.69224500,33692245,2,0.7862150073051453,-0.00395346200093627,0.004710696637630463,0.6179224252700806
33.79225500,33792255,2,0.7862454056739807,-0.003973829094320536,0.004639237187802792,0.6178841590881348
33.89224900,33892249,2,0.7862719297409058,-0.003974991384893656,0.004638207610696554,0.6178504228591919
33.99229600,33992296,2,0.7863003611564636,-0.004001835826784372,0.0046669491566717625,0.6178138256072998
34.09232300,34092323,2,0.7863949537277222,-0.004022612702101469,0.004664682783186436,0.617693305015564
34.19230000,34192300,2,0.7864421606063843,-0.004044709727168083,0.004710117354989052,0.6176327466964722
34.29224300,34292243,2,0.7864640355110168,-0.004005121067166328,0.004655193537473679,0.6176055669784546
34.39224500,34392245,2,0.7864709496498108,-0.003988793585449457,0.004637335892766714,0.6175969839096069
34.49224200,34492242,2,0.7864671349525452,-0.00398330669850111,0.004659917671233416,0.6176016926765442
34.59224600,34592246,2,0.7864289283752441,-0.004013420082628727,0.004629524424672127,0.6176503896713257
34.69224700,34692247,2,0.7864348888397217,-0.0040853675454854965,0.00462985597550869,0.617642343044281
34.79225200,34792252,2,0.7864835262298584,-0.004121472127735615,0.004606123548001051,0.6175803542137146
34.89229300,34892293,2,0.7865878939628601,-0.004154928959906101,0.004588606301695108,0.6174472570419312
34.99231300,34992313,2,0.7866116166114807,-0.004167962819337845,0.004628791473805904,0.6174167394638062
35.09229800,35092298,2,0.7866160273551941,-0.0041547538712620735,0.004608959425240755,0.6174113154411316
35.19224700,35192247,2,0.7866821885108948,-0.004220032133162022,0.0046043675392866135,0.6173266172409058
35.29224200,35292242,2,0.7866846323013306,-0.00426440080627799,0.004615947138518095,0.6173230409622192
35.39224500,35392245,2,0.7866836786270142,-0.004290019161999226,0.0046406034380197525,0.6173239350318909
35.49224500,35492245,2,0.7866699695587158,-0.004368439316749573,0.004680936224758625,0.6173405051231384
35.59224800,35592248,2,0.7866305112838745,-0.004363302607089281,0.004669724497944117,0.6173909306526184
35.69226000,35692260,2,0.7865968346595764,-0.004382925108075142,0.004710339941084385,0.6174334287643433
35.79229800,35792298,2,0.7865689992904663,-0.004468648228794336,0.00473296083509922,0.6174681186676025
35.89232100,35892321,2,0.7865108251571655,-0.00445734616369009,0.004743662662804127,0.6175422072410583
35.99229600,35992296,2,0.7864372730255127,-0.004426147323101759,0.004748648498207331,0.6176360249519348
36.09226200,36092262,2,0.7864028215408325,-0.004420626908540726,0.004772974643856287,0.6176797747612
36.19225100,36192251,2,0.786401629447937,-0.004440451040863991,0.004809290636330843,0.6176808476448059
36.29225300,36292253,2,0.7863521575927734,-0.00439253356307745,0.004787157755345106,0.6177443861961365
36.39225600,36392256,2,0.786343514919281,-0.004402071703225374,0.004775576759129763,0.6177553534507751
36.49225400,36492254,2,0.7863184213638306,-0.004432435147464275,0.004771493840962648,0.6177871227264404
36.59225900,36592259,2,0.7862755656242371,-0.004448392894119024,0.004756735637784004,0.6178416609764099
36.69230500,36692305,2,0.7862407565116882,-0.004461613018065691,0.004760195501148701,0.6178858876228333
36.79232400,36792324,2,0.786180317401886,-0.004490222316235304,0.004723519552499056,0.6179627776145935
36.89231300,36892313,2,0.7862007021903992,-0.004490901716053486,0.0046981326304376125,0.6179370880126953
36.99224300,36992243,2,0.7862118482589722,-0.004478899762034416,0.004668793641030788,0.6179232001304626
37.09225400,37092254,2,0.7862353324890137,-0.004516680724918842,0.0046602170914411545,0.6178930997848511
37.19224600,37192246,2,0.7862253785133362,-0.004555491264909506,0.004644899163395166,0.6179056167602539
37.29224100,37292241,2,0.7862189412117004,-0.004566419869661331,0.004634838551282883,0.6179137825965881
37.39224600,37392246,2,0.7862167954444885,-0.004575356841087341,0.004621232859790325,0.6179165244102478
37.49225300,37492253,2,0.7862309217453003,-0.004584482870995998,0.004567204974591732,0.6178989410400391
37.59230500,37592305,2,0.7862340211868286,-0.004615903366357088,0.0045678140595555305,0.61789470911026
37.69231800,37692318,2,0.7862735986709595,-0.004620096180588007,0.004578239284455776,0.6178442239761353
37.79230500,37792305,2,0.7862993478775024,-0.004665885120630264,0.004571093712002039,0.6178112030029297
37.89224600,37892246,2,0.7863326072692871,-0.004692522343248129,0.004578346386551857,0.6177685856819153
37.99224300,37992243,2,0.7863832116127014,-0.004685729742050171,0.004576629027724266,0.6177042126655579
38.09224900,38092249,2,0.7864159345626831,-0.004689659457653761,0.004570865537971258,0.6176626086235046
38.19224200,38192242,2,0.7864043116569519,-0.004691150039434433,0.00455847755074501,0.6176774501800537
38.29224300,38292243,2,0.7863404154777527,-0.004647085443139076,0.004510240163654089,0.6177594661712646
38.39225200,38392252,2,0.7862874269485474,-0.0046884664334356785,0.00448751263320446,0.6178267598152161
38.49229500,38492295,2,0.7862255573272705,-0.0047142342664301395,0.004506580997258425,0.6179051995277405
38.59232900,38592329,2,0.7861640453338623,-0.004723240155726671,0.004488766193389893,0.6179835200309753
38.69230000,38692300,2,0.7860898971557617,-0.004728417377918959,0.004457750823348761,0.6180780529975891
38.79224600,38792246,2,0.7860362529754639,-0.004707390442490578,0.004438905045390129,0.618146538734436
38.89224600,38892246,2,0.7859786748886108,-0.004735338035970926,0.004425229039043188,0.6182196140289307
38.99224200,38992242,2,0.785936176776886,-0.004733060020953417,0.004393856972455978,0.618273913860321
39.09224500,39092245,2,0.7858783006668091,-0.004729267209768295,0.004377842415124178,0.6183476448059082
39.19224500,39192245,2,0.7858352065086365,-0.004792303312569857,0.004392821807414293,0.618401825428009
39.29225500,39292255,2,0.7858121991157532,-0.004807665478438139,0.004363000392913818,0.6184311509132385
39.39229700,39392297,2,0.7857881784439087,-0.004819980822503567,0.004399593453854322,0.6184613108634949
39.49232000,39492320,2,0.7857142090797424,-0.004796311724931002,0.004329966381192207,0.6185559034347534
39.59229800,39592298,2,0.785643994808197,-0.0047761136665940285,0.004393565468490124,0.6186448335647583
39.69224400,39692244,2,0.7855755090713501,-0.004766428843140602,0.004420728422701359,0.6187316179275513
39.79224800,39792248,2,0.7855240106582642,-0.0047437213361263275,0.004389692563563585,0.6187974214553833
39.89224400,39892244,2,0.7854474186897278,-0.00477256253361702,0.004362952895462513,0.6188945770263672
39.99224400,39992244,2,0.7853665947914124,-0.0046967570669949055,0.00432562455534935,0.6189979910850525
40.09224800,40092248,2,0.7852826118469238,-0.004707971587777138,0.004366330802440643,0.6191042065620422
40.19225100,40192251,2,0.785174548625946,-0.004774005152285099,0.004418936092406511,0.6192402839660645
40.29229100,40292291,2,0.7851361036300659,-0.004710446577519178,0.0043951356783509254,0.619289755821228
40.39231500,40392315,2,0.7851081490516663,-0.0047460864298045635,0.004390530753880739,0.6193249225616455
40.49230000,40492300,2,0.7850998640060425,-0.004767397418618202,0.004351072479039431,0.6193355917930603
40.59224400,40592244,2,0.7851085066795349,-0.004741422366350889,0.004349624738097191,0.619324803352356
40.69225500,40692255,2,0.7850909233093262,-0.004760071635246277,0.004328516311943531,0.619347095489502
40.79224700,40792247,2,0.7850817441940308,-0.004760876763612032,0.004259501118212938,0.6193592548370361
40.89224300,40892243,2,0.7850621938705444,-0.004749877378344536,0.004229645244777203,0.6193843483924866
40.99224300,40992243,2,0.7850806713104248,-0.00476836645975709,0.0041799056343734264,0.6193610429763794
41.09225600,41092256,2,0.7850850224494934,-0.00474181491881609,0.0041522737592458725,0.6193559169769287
41.19229900,41192299,2,0.7850849032402039,-0.00476868636906147,0.004139633849263191,0.6193559765815735
41.29232100,41292321,2,0.7851086854934692,-0.004784961696714163,0.004148636478930712,0.6193256974220276
41.39230000,41392300,2,0.7850554585456848,-0.004769918043166399,0.004189131315797567,0.619392991065979
41.49224600,41492246,2,0.7850773334503174,-0.004809910897165537,0.004163712728768587,0.6193650364875793
41.59224300,41592243,2,0.7850946187973022,-0.004760331008583307,0.004190368112176657,0.6193434000015259
41.69224500,41692245,2,0.7850398421287537,-0.004752486478537321,0.004191813059151173,0.619412899017334
41.79224900,41792249,2,0.7849861979484558,-0.0046679237857460976,0.004186264704912901,0.6194815039634705
41.89224300,41892243,2,0.784913182258606,-0.004662646446377039,0.004166977945715189,0.6195741891860962
41.99225100,41992251,2,0.7848762273788452,-0.0046658506616950035,0.004196535795927048,0.6196208000183105
42.09229800,42092298,2,0.7848939895629883,-0.004660821985453367,0.004180216696113348,0.619598388671875
42.19233800,42192338,2,0.7849258184432983,-0.00467924028635025,0.004187892656773329,0.6195579171180725
42.29229900,42292299,2,0.7849143743515015,-0.004722724203020334,0.004189985804259777,0.619572103023529
42.39224500,42392245,2,0.7849037051200867,-0.004752056673169136,0.004177411086857319,0.6195854544639587
42.49224200,42492242,2,0.7849230170249939,-0.004663486499339342,0.004186190199106932,0.6195615530014038
42.59225600,42592256,2,0.7849330306053162,-0.004638303071260452,0.004182906821370125,0.6195491552352905
42.69224400,42692244,2,0.7849599719047546,-0.004654426593333483,0.004174346104264259,0.6195149421691895
42.79225200,42792252,2,0.7849752902984619,-0.004637576639652252,0.004218276124447584,0.6194953918457031
42.89224800,42892248,2,0.7849857211112976,-0.004656863398849964,0.004190951120108366,0.619482159614563
42.99229300,42992293,2,0.7849740982055664,-0.004601538181304932,0.004165249411016703,0.6194974780082703
43.09231600,43092316,2,0.7850643396377563,-0.004660885315388441,0.004171640146523714,0.6193826198577881
43.19230500,43192305,2,0.785110354423523,-0.004714666400104761,0.004177503287792206,0.6193238496780396
43.29224300,43292243,2,0.7850977778434753,-0.004628050606697798,0.004095903597772121,0.6193410158157349
43.39224400,43392244,2,0.7851535677909851,-0.004665445536375046,0.004160802811384201,0.6192695498466492
43.49224700,43492247,2,0.7851725220680237,-0.004579468630254269,0.00412920443341136,0.6192463636398315
43.59224700,43592247,2,0.7850878834724426,-0.004622866399586201,0.004099162761121988,0.6193535923957825
43.69224500,43692245,2,0.7850689888000488,-0.004601872060447931,0.004198859911412001,0.6193770170211792
43.79225500,43792255,2,0.7850888967514038,-0.004603198729455471,0.004120129160583019,0.6193522810935974
43.89229900,43892299,2,0.784977912902832,-0.0046333190985023975,0.004172679036855698,0.6194924116134644
43.99231900,43992319,2,0.7849659323692322,-0.004692722577601671,0.004233940038830042,0.6195067167282104
44.09230400,44092304,2,0.7849950790405273,-0.004583633039146662,0.004122274927794933,0.6194713711738586
44.19224700,44192247,2,0.7849696278572083,-0.0045445766299963,0.004144696984440088,0.6195036768913269
44.29224200,44292242,2,0.7850170135498047,-0.004574473947286606,0.004073692951351404,0.619443953037262
44.39224500,44392245,2,0.7850213050842285,-0.004596382845193148,0.004104135558009148,0.619438111782074
44.49224100,44492241,2,0.7849570512771606,-0.004663435742259026,0.004201645962893963,0.6195183992385864
44.59224300,44592243,2,0.7849894165992737,-0.0046742926351726055,0.004179573152214289,0.6194774508476257
44.69225200,44692252,2,0.7849522233009338,-0.00469025457277894,0.00422112038359046,0.6195241212844849
44.79230700,44792307,2,0.7849279046058655,-0.004708679858595133,0.004195377230644226,0.6195549964904785
44.89232400,44892324,2,0.7849734425544739,-0.004640735220164061,0.0041917311027646065,0.6194978356361389
44.99229600,44992296,2,0.7849215269088745,-0.004664252046495676,0.004156099632382393,0.6195636987686157
45.09224700,45092247,2,0.7848765254020691,-0.004599086474627256,0.00409382488578558,0.6196215748786926
45.19225500,45192255,2,0.7848771214485168,-0.004624605644494295,0.004111954476684332,0.6196205019950867
45.29224600,45292246,2,0.7848424315452576,-0.004667971283197403,0.0041004992090165615,0.619664192199707
45.39224600,45392246,2,0.7848178148269653,-0.004630405455827713,0.004089876543730497,0.619695782661438
45.49224500,45492245,2,0.7849028706550598,-0.0047065638937056065,0.0040896269492805,0.6195874810218811
45.59225000,45592250,2,0.7849068641662598,-0.004704848863184452,0.004106495063751936,0.6195822954177856
45.69230300,45692303,2,0.7849591374397278,-0.004659976810216904,0.004082818515598774,0.6195165514945984
45.79231900,45792319,2,0.7850145101547241,-0.004664517007768154,0.004064589738845825,0.6194465160369873
45.89229600,45892296,2,0.7850072979927063,-0.004664893262088299,0.004032893106341362,0.619455873966217
45.99226500,45992265,2,0.7849622964859009,-0.004757690243422985,0.004019331187009811,0.6195122599601746
46.09224800,46092248,2,0.7849487662315369,-0.004738468676805496,0.004034017212688923,0.6195294260978699
46.19225200,46192252,2,0.7848873734474182,-0.004831593483686447,0.003935299348086119,0.6196070909500122
46.29226100,46292261,2,0.7848737835884094,-0.0049246251583099365,0.003896048292517662,0.6196238398551941
46.39225500,46392255,2,0.7849321365356445,-0.004797988571226597,0.004050503484904766,0.6195499300956726
46.49226200,46492262,2,0.7848640084266663,-0.004781423136591911,0.0038521355018019676,0.619637668132782
46.59231200,46592312,2,0.7847731113433838,-0.00475894333794713,0.00400931853801012,0.6197519302368164
46.69231700,46692317,2,0.7848012447357178,-0.0047920336946845055,0.003932317718863487,0.6197165250778198
46.79231300,46792313,2,0.784724771976471,-0.004662626422941685,0.0038853303994983435,0.6198146343231201
46.89229200,46892292,2,0.7847208380699158,-0.004891702905297279,0.004027619492262602,0.6198169589042664
46.99224800,46992248,2,0.7847828269004822,-0.004805324133485556,0.003955941181629896,0.6197395920753479
47.09225800,47092258,2,0.7846667766571045,-0.00475717056542635,0.003949034959077835,0.6198869347572327
47.19225600,47192256,2,0.7846464514732361,-0.00487583177164197,0.004008848685771227,0.6199113726615906
47.29224200,47292242,2,0.7846528887748718,-0.0047615328803658485,0.003969305660575628,0.6199043393135071
47.39225500,47392255,2,0.7844702005386353,-0.004914177116006613,0.003983342554420233,0.6201342344284058
47.49231600,47492316,2,0.7845128178596497,-0.004798887297511101,0.004027971997857094,0.6200810074806213
47.59231300,47592313,2,0.7845069766044617,-0.004854318220168352,0.003920930903404951,0.6200885772705078
47.69230700,47692307,2,0.7843677997589111,-0.004850699566304684,0.004006252158433199,0.6202640533447266
47.79230000,47792300,2,0.7843950986862183,-0.004771435167640448,0.0039545632898807526,0.6202305555343628
47.89224400,47892244,2,0.7843778729438782,-0.0047731888480484486,0.0039176191203296185,0.6202525496482849
47.99225100,47992251,2,0.7843254208564758,-0.004773515742272139,0.003973824437707663,0.6203184723854065
48.09226100,48092261,2,0.7844486832618713,-0.004755218047648668,0.003862448036670685,0.6201635003089905
48.19224300,48192243,2,0.7844617962837219,-0.004763360600918531,0.0039621139876544476,0.6201461553573608
48.29225700,48292257,2,0.7843759655952454,-0.0047912332229316235,0.003942057490348816,0.620254635810852
48.39231100,48392311,2,0.7844161987304688,-0.004847490694373846,0.0038904892280697823,0.6202036738395691
48.49231700,48492317,2,0.7843608856201172,-0.004924706183373928,0.003990166820585728,0.6202723979949951
48.59230200,48592302,2,0.7843226194381714,-0.00484922481700778,0.00384959252551198,0.6203222870826721
48.69224500,48692245,2,0.7843579649925232,-0.004843104165047407,0.003942353185266256,0.6202769875526428
48.79224400,48792244,2,0.7843489050865173,-0.004940485116094351,0.003912188578397036,0.6202878952026367
48.89224200,48892242,2,0.784358024597168,-0.004901284817606211,0.003958442714065313,0.6202763915061951
48.99224200,48992242,2,0.7844107151031494,-0.004797016270458698,0.0038913374301046133,0.6202110052108765
49.09224600,49092246,2,0.7843811511993408,-0.004917798098176718,0.0038432220462709665,0.6202477216720581
49.19225500,49192255,2,0.7843760848045349,-0.004902839660644531,0.003941573202610016,0.6202536225318909
49.29231300,49292313,2,0.7843794226646423,-0.004878117702901363,0.0038652014918625355,0.6202501058578491
49.39232100,49392321,2,0.7843537926673889,-0.004894969519227743,0.003861237782984972,0.6202824115753174
49.49230500,49492305,2,0.7843915224075317,-0.004930573049932718,0.003848270745947957,0.620234489440918
49.59224400,49592244,2,0.7844010591506958,-0.004890676122158766,0.0037154704332351685,0.6202235221862793
49.69224400,49692244,2,0.7843672037124634,-0.004913960117846727,0.0038788996171206236,0.6202651262283325
49.79225100,49792251,2,0.7844341397285461,-0.004965014755725861,0.0037787987384945154,0.6201807856559753
49.89224300,49892243,2,0.7844207882881165,-0.004852340556681156,0.003752030897885561,0.620198667049408
49.99224200,49992242,2,0.784363865852356,-0.00490311486646533,0.0039363703690469265,0.6202691197395325
50.09225500,50092255,2,0.7843641042709351,-0.004877811763435602,0.0038119268137961626,0.6202698349952698
50.19230500,50192305,2,0.7841964960098267,-0.0047369166277348995,0.003937171306461096,0.6204820275306702
50.29234100,50292341,2,0.7840915322303772,-0.004903343040496111,0.0038939632941037416,0.6206136345863342
50.39230400,50392304,2,0.7841296195983887,-0.004701095633208752,0.003880257485434413,0.6205671429634094
50.49224200,50492242,2,0.7839605212211609,-0.004920043982565403,0.003787427209317684,0.6207796335220337
50.59224300,50592243,2,0.7839245796203613,-0.004908681381493807,0.003863209392875433,0.6208246350288391
50.69224600,50692246,2,0.7839774489402771,-0.004901432432234287,0.0037596814800053835,0.6207585334777832
50.79224600,50792246,2,0.7838086485862732,-0.004954156465828419,0.003766966750845313,0.6209712028503418
50.89224300,50892243,2,0.7838451266288757,-0.0049684555269777775,0.0038365176878869534,0.6209245920181274
50.99225800,50992258,2,0.7839245200157166,-0.00489059230312705,0.003717284882441163,0.6208257675170898
51.09230300,51092303,2,0.7837935090065002,-0.004913590382784605,0.0038508488796651363,0.6209901571273804
51.19232700,51192327,2,0.7838578224182129,-0.004959499463438988,0.003852053778246045,0.6209086179733276
51.29229900,51292299,2,0.7839149236679077,-0.004823683761060238,0.0038868277333676815,0.620837390422821
51.39226000,51392260,2,0.7838147282600403,-0.004916228353977203,0.0038830493576824665,0.6209631562232971
51.49224700,51492247,2,0.7839438319206238,-0.004869550000876188,0.003908342681825161,0.6208003759384155
51.59224300,51592243,2,0.7839505672454834,-0.00496636563912034,0.003930254839360714,0.620790958404541
51.69224400,51692244,2,0.783875048160553,-0.004946721717715263,0.003961806185543537,0.6208862662315369
51.79224900,51792249,2,0.7839959263801575,-0.004911343567073345,0.003985072020441294,0.6207337975502014
51.89224800,51892248,2,0.783966064453125,-0.00494994455948472,0.003927214536815882,0.6207715272903442
51.99230100,51992301,2,0.7838797569274902,-0.004840248264372349,0.003947688266634941,0.6208812594413757
52.09235100,52092351,2,0.7839482426643372,-0.004901024047285318,0.00393856642767787,0.6207943558692932
52.19230100,52192301,2,0.783867359161377,-0.004931758623570204,0.004007871728390455,0.6208958029747009
52.29224700,52292247,2,0.7837642431259155,-0.0048752217553555965,0.003904970595613122,0.6210270524024963
52.39225700,52392257,2,0.7838193774223328,-0.004900416359305382,0.0039498223923146725,0.6209570169448853
52.49225500,52492255,2,0.7837249040603638,-0.004898293875157833,0.0040100193582475185,0.6210758090019226
52.59225200,52592252,2,0.783627450466156,-0.004862971603870392,0.003953919280320406,0.6211994886398315
52.69225000,52692250,2,0.7836158275604248,-0.0049406252801418304,0.004016330931335688,0.6212130784988403
52.79225800,52792258,2,0.7834906578063965,-0.004881544969975948,0.003944070544093847,0.621371865272522
52.89231200,52892312,2,0.7834444046020508,-0.004874862730503082,0.003946269862353802,0.6214302182197571
52.99232000,52992320,2,0.7834927439689636,-0.0048800744116306305,0.0039535388350486755,0.6213691830635071
53.09230900,53092309,2,0.7834781408309937,-0.004854382015764713,0.003974876366555691,0.6213877201080322
53.19226500,53192265,2,0.7834876179695129,-0.004828395321965218,0.003978378605097532,0.6213758587837219
53.29224600,53292246,2,0.7835843563079834,-0.004872041754424572,0.003926166798919439,0.6212539076805115
53.39225700,53392257,2,0.7835862636566162,-0.004800710361450911,0.0038497645873576403,0.6212525367736816
53.49225900,53492259,2,0.7836084961891174,-0.0048776669427752495,0.003849320812150836,0.6212238669395447
53.59225000,53592250,2,0.7837286591529846,-0.004777450114488602,0.003812025533989072,0.621073305606842
53.69225200,53692252,2,0.7837509512901306,-0.004743389319628477,0.0038161412812769413,0.6210454106330872
53.79231600,53792316,2,0.7838032245635986,-0.0047678519040346146,0.0037825561594218016,0.6209794282913208
53.89231700,53892317,2,0.7839343547821045,-0.004733473993837833,0.0037949983961880207,0.6208140850067139
53.99230100,53992301,2,0.7839205265045166,-0.004761308431625366,0.0038380471523851156,0.6208310723304749
54.09227400,54092274,2,0.783943772315979,-0.004747420083731413,0.003855125280097127,0.6208017468452454
54.19225000,54192250,2,0.7839940786361694,-0.004756242968142033,0.003841909347102046,0.62073814868927
54.29225400,54292254,2,0.7839465737342834,-0.004800115711987019,0.003839197801426053,0.620797872543335
54.39225600,54392256,2,0.7839522361755371,-0.004795050714164972,0.003816954093053937,0.6207908391952515
54.49225300,54492253,2,0.7839513421058655,-0.004763956647366285,0.0038363614585250616,0.6207920908927917
54.59226500,54592265,2,0.7839160561561584,-0.00476591382175684,0.0038106776773929596,0.6208368539810181
54.69232100,54692321,2,0.7839589715003967,-0.004753501154482365,0.003799040336161852,0.6207828521728516
54.79234100,54792341,2,0.7839855551719666,-0.004765035584568977,0.0038805180229246616,0.6207486987113953
54.89230400,54892304,2,0.7839484214782715,-0.004777589347213507,0.003877290990203619,0.620795488357544
54.99224200,54992242,2,0.7840012907981873,-0.004783071111887693,0.0038453226443380117,0.6207288503646851
55.09225800,55092258,2,0.784011960029602,-0.004776939749717712,0.0038865795359015465,0.6207151412963867
55.19224800,55192248,2,0.7839946746826172,-0.00473594618961215,0.0038686839397996664,0.6207374334335327
55.29225400,55292254,2,0.7840314507484436,-0.004684538580477238,0.0038337900768965483,0.6206915974617004
55.39224500,55392245,2,0.7840409874916077,-0.004647338762879372,0.003811025293543935,0.6206799745559692
55.49225600,55492256,2,0.7839804887771606,-0.004563086200505495,0.0038353276904672384,0.6207568645477295
55.59230800,55592308,2,0.7840060591697693,-0.0044990344904363155,0.0038592510391026735,0.6207248568534851
55.69231500,55692315,2,0.7840157747268677,-0.004450309555977583,0.003895019181072712,0.6207126975059509
55.79230400,55792304,2,0.7839692234992981,-0.004395260009914637,0.0039088428020477295,0.6207718849182129
55.89224400,55892244,2,0.7839953899383545,-0.0044164895080029964,0.003930599894374609,0.6207385063171387
55.99224500,55992245,2,0.7840067148208618,-0.004392796196043491,0.003925844095647335,0.6207243800163269
56.09224400,56092244,2,0.7839464545249939,-0.004400566685944796,0.003953064326196909,0.6208003163337708
56.19224300,56192243,2,0.78398597240448,-0.004425212740898132,0.003976346459239721,0.6207500100135803
56.29224300,56292243,2,0.7839794158935547,-0.004398600663989782,0.0040061697363853455,0.6207582950592041
56.39225200,56392252,2,0.7839785814285278,-0.004415601957589388,0.003977526444941759,0.6207594275474548
56.49230400,56492304,2,0.7840030193328857,-0.00438566692173481,0.0040399059653282166,0.6207283735275269
56.59231900,56592319,2,0.7839693427085876,-0.004354073666036129,0.00401353882625699,0.6207712888717651
56.69230000,56692300,2,0.7839673757553101,-0.004321495071053505,0.004069269634783268,0.6207736134529114
56.79227600,56792276,2,0.7840536236763,-0.004307026043534279,0.004034158308058977,0.6206650733947754
56.89224300,56892243,2,0.7840959429740906,-0.00433229049667716,0.004019123036414385,0.6206114888191223
56.99225400,56992254,2,0.7841431498527527,-0.0043493336997926235,0.003992308862507343,0.6205519437789917
57.09225400,57092254,2,0.7842106223106384,-0.004342315718531609,0.004003657028079033,0.6204666495323181
57.19224600,57192246,2,0.7842652797698975,-0.0042911795899271965,0.004048829432576895,0.6203975677490234
57.29225200,57292252,2,0.7843065857887268,-0.004304669797420502,0.004074632190167904,0.6203450560569763
57.39229500,57392295,2,0.7843811511993408,-0.00427852850407362,0.004096578806638718,0.6202508807182312
57.49232600,57492326,2,0.7844386100769043,-0.00425742007791996,0.004071380011737347,0.6201785206794739
57.59229800,57592298,2,0.784471333026886,-0.0042281197383999825,0.00415825704112649,0.6201367378234863
57.69226400,57692264,2,0.7844920754432678,-0.0042783599346876144,0.0041834027506411076,0.6201099753379822
57.79225900,57792259,2,0.7844585180282593,-0.004317814018577337,0.004155408591032028,0.6201522946357727
57.89225300,57892253,2,0.7844821214675903,-0.004301710519939661,0.004114446230232716,0.6201229095458984
57.99225100,57992251,2,0.784468948841095,-0.0043136016465723515,0.004134384915232658,0.6201393008232117
58.09224500,58092245,2,0.7843902111053467,-0.0043324255384504795,0.004127070307731628,0.6202388405799866
58.19225400,58192254,2,0.7844113707542419,-0.004320991225540638,0.004123297519981861,0.620212197303772
58.29231300,58292313,2,0.7844184637069702,-0.0043261172249913216,0.004189705476164818,0.6202027201652527
58.39231600,58392316,2,0.784424901008606,-0.004290614277124405,0.004239266272634268,0.6201944947242737
58.49230000,58492300,2,0.7844302654266357,-0.004272925667464733,0.004174256231635809,0.6201882362365723
58.59224400,58592244,2,0.7844140529632568,-0.0042414297349750996,0.004207871854305267,0.6202087998390198
58.69224600,58692246,2,0.7844041585922241,-0.004287438001483679,0.004201160743832588,0.6202210187911987
58.79224800,58792248,2,0.7844435572624207,-0.0043054441921412945,0.0042042662389576435,0.6201710104942322
58.89224700,58892247,2,0.7844229340553284,-0.00425808085128665,0.0041863517835736275,0.6201975345611572
58.99224600,58992246,2,0.7844043970108032,-0.004263743758201599,0.00418735621497035,0.6202208995819092
59.09225200,59092252,2,0.7844074368476868,-0.004260175861418247,0.004174939356744289,0.6202172040939331
59.19229800,59192298,2,0.7843926548957825,-0.004222500137984753,0.0041956594213843346,0.6202360391616821
59.29231800,59292318,2,0.784396767616272,-0.004177662543952465,0.004249831661581993,0.6202307939529419
59.39230000,59392300,2,0.7844619154930115,-0.0041944836266338825,0.004281170200556517,0.6201480031013489
59.49226000,59492260,2,0.7844951152801514,-0.004183011129498482,0.004293770529329777,0.620106041431427
59.59224200,59592242,2,0.7845155596733093,-0.004139556083828211,0.004264417104423046,0.6200806498527527
59.69224200,59692242,2,0.7845649719238281,-0.004152332432568073,0.004263779614120722,0.6200180053710938
59.79224900,59792249,2,0.7846214175224304,-0.004163388628512621,0.0042231339029967785,0.6199467778205872
59.89224400,59892244,2,0.7846867442131042,-0.004189209546893835,0.004259301815181971,0.6198636889457703
59.99224700,59992247,2,0.784757137298584,-0.004257728345692158,0.004327515140175819,0.6197736263275146
60.09230300,60092303,2,0.784730851650238,-0.00430665910243988,0.004335523117333651,0.6198065280914307
60.19231700,60192317,2,0.7846999168395996,-0.004305827897042036,0.004323367960751057,0.6198458075523376
60.29230500,60292305,2,0.7847001552581787,-0.004306727554649115,0.004276955034583807,0.6198458075523376
60.39226300,60392263,2,0.7846723794937134,-0.004324940498918295,0.004278806038200855,0.6198807954788208
60.49224500,60492245,2,0.7846695184707642,-0.004353562369942665,0.004286029376089573,0.619884192943573
60.59224400,60592244,2,0.7847267985343933,-0.004340466111898422,0.004293906968086958,0.6198117136955261
60.69224300,60692243,2,0.7847641706466675,-0.00443034153431654,0.004326971713453531,0.6197635531425476
60.79224500,60792245,2,0.7848243117332458,-0.00444856146350503,0.004334090277552605,0.6196871995925903
60.89225300,60892253,2,0.7849102020263672,-0.0044754380360245705,0.004342828877270222,0.6195781826972961
60.99230100,60992301,2,0.7849825024604797,-0.004489092156291008,0.0043763960711658,0.6194861531257629
61.09234100,61092341,2,0.7850362658500671,-0.004492416512221098,0.0044085802510380745,0.6194177865982056
61.19230300,61192303,2,0.7851150035858154,-0.004428564570844173,0.004450902808457613,0.6193181872367859
61.29224300,61292243,2,0.7851398587226868,-0.00443820608779788,0.004446112085133791,0.6192866563796997
61.39224600,61392246,2,0.7851762771606445,-0.004416428506374359,0.004498377908021212,0.6192402243614197
61.49225000,61492250,2,0.7851876616477966,-0.004334267228841782,0.004511906765401363,0.619226336479187
61.59224800,61592248,2,0.7851872444152832,-0.004302770830690861,0.004525302909314632,0.6192269325256348
61.69224200,61692242,2,0.7851874828338623,-0.004266154486685991,0.0045076035894453526,0.6192269921302795
61.79225600,61792256,2,0.7851600050926208,-0.0043047331273555756,0.004484759643673897,0.6192618012428284
61.89231000,61892310,2,0.7851406931877136,-0.004343946930021048,0.004475772380828857,0.619286060333252
61.99231800,61992318,2,0.7851799726486206,-0.004383846651762724,0.004455916583538055,0.6192361116409302
62.09230100,62092301,2,0.7851970195770264,-0.004383661784231663,0.004459542687982321,0.6192144751548767
62.19224400,62192244,2,0.7852072715759277,-0.004386361688375473,0.00445879390463233,0.6192014217376709
62.29224400,62292244,2,0.7852387428283691,-0.004424054175615311,0.004488138947635889,0.619161069393158
62.39224500,62392245,2,0.7852556109428406,-0.004424018319696188,0.0044626821763813496,0.6191398501396179
62.49224500,62492245,2,0.7852851152420044,-0.004417502321302891,0.004454645793884993,0.6191024780273438
62.59225000,62592250,2,0.7853624820709229,-0.004399552009999752,0.004451052751392126,0.619004487991333
62.69225000,62692250,2,0.7853973507881165,-0.004413723014295101,0.004449640866369009,0.6189602017402649
62.79230000,62792300,2,0.7854790687561035,-0.004398037679493427,0.004442692268639803,0.61885666847229
62.89232400,62892324,2,0.7855832576751709,-0.004445721860975027,0.004442445933818817,0.61872398853302
62.99229700,62992297,2,0.7856507301330566,-0.004413313698023558,0.004395618569105864,0.6186389327049255
63.09224500,63092245,2,0.7857071161270142,-0.00443163700401783,0.004354827105998993,0.6185674667358398
63.19224900,63192249,2,0.785805344581604,-0.004443061538040638,0.004339886363595724,0.618442714214325
63.29224300,63292243,2,0.786047637462616,-0.004524169955402613,0.004327155649662018,0.6181342601776123
63.39224500,63392245,2,0.7858595252037048,-0.004505400080233812,0.004309320822358131,0.6183736324310303
63.49225100,63492251,2,0.7857532501220703,-0.004535728599876165,0.004253459628671408,0.6185088157653809
63.59225100,63592251,2,0.786078155040741,-0.00453174626454711,0.004322496242821217,0.6180953979492188
63.69230200,63692302,2,0.78597092628479,-0.004445661790668964,0.004304112866520882,0.6182324886322021
63.79231800,63792318,2,0.785824179649353,-0.004505680873990059,0.0043877349235117435,0.6184179782867432
63.89230000,63892300,2,0.7861548066139221,-0.004567709285765886,0.004370327107608318,0.6179972887039185
63.99224300,63992243,2,0.7859857678413391,-0.004521776922047138,0.004322313703596592,0.6182129383087158
64.09224600,64092246,2,0.785896360874176,-0.004599653650075197,0.004348222631961107,0.6183258295059204
64.19224200,64192242,2,0.7861387133598328,-0.004547986667603254,0.00432933121919632,0.6180182099342346
64.29224300,64292243,2,0.7861141562461853,-0.004570667166262865,0.004274031613022089,0.618049681186676
64.39224500,64392245,2,0.7860538959503174,-0.004559243563562632,0.004299253690987825,0.6181262135505676
64.49226200,64492262,2,0.786317765712738,-0.00457480363547802,0.00431655952706933,0.6177902221679688
64.59230800,64592308,2,0.7863006591796875,-0.004636817611753941,0.004368622787296772,0.6178112030029297
64.69231300,64692313,2,0.7862826585769653,-0.004650509916245937,0.0043695406056940556,0.6178340315818787
64.79230900,64792309,2,0.7863464951515198,-0.004648306407034397,0.004348130896687508,0.6177529096603394
64.89224600,64892246,2,0.7863669991493225,-0.004644169006496668,0.0043578315526247025,0.6177268028259277
64.99224200,64992242,2,0.7863909006118774,-0.0045754085294902325,0.004284525290131569,0.6176973581314087
65.09225400,65092254,2,0.7864194512367249,-0.004589516203850508,0.004281492438167334,0.6176609396934509
65.19225500,65192255,2,0.7863797545433044,-0.004548509605228901,0.0042268335819244385,0.6177121996879578
65.29225200,65292252,2,0.7864603400230408,-0.004513895139098167,0.004167723003774881,0.6176102161407471
65.39225800,65392258,2,0.786548376083374,-0.004515963140875101,0.004151240922510624,0.6174982190132141
65.49231400,65492314,2,0.7865042686462402,-0.004464797209948301,0.004124430473893881,0.6175549030303955
65.59233400,65592334,2,0.786655068397522,-0.0045218016020953655,0.004032968543469906,0.6173630356788635
65.69230500,65692305,2,0.7865952253341675,-0.004532097838819027,0.004092019982635975,0.617438793182373
65.79226500,65792265,2,0.7865888476371765,-0.004548618104308844,0.003953516483306885,0.6174477338790894
65.89224800,65892248,2,0.786743700504303,-0.004516306798905134,0.00399680994451046,0.6172503232955933
65.99225500,65992255,2,0.7866238951683044,-0.004540265072137117,0.003960752859711647,0.6174030900001526
66.09225000,66092250,2,0.7866458892822266,-0.004501768853515387,0.003952535334974527,0.617375373840332
66.19224300,66192243,2,0.78673255443573,-0.004517188295722008,0.003983774688094854,0.6172646284103394
66.29225000,66292250,2,0.7866317629814148,-0.004502664320170879,0.003961151000112295,0.6173933148384094
66.39231100,66392311,2,0.7866808176040649,-0.0044012730941176414,0.003985485527664423,0.6173313856124878
66.49235200,66492352,2,0.7868199944496155,-0.004535760264843702,0.00392771465703845,0.6171533465385437
66.59230300,66592303,2,0.7867897748947144,-0.004461997654289007,0.003914522007107735,0.6171925067901611
66.69224200,66692242,2,0.7868184447288513,-0.004499478731304407,0.0038514111656695604,0.6171561479568481
66.79224400,66792244,2,0.786862313747406,-0.0045201657339930534,0.003949458245187998,0.617099404335022
66.89224800,66892248,2,0.7867709398269653,-0.004512642044574022,0.003952566999942064,0.6172159910202026
66.99225200,66992252,2,0.7868232131004333,-0.004632406868040562,0.003922113683074713,0.6171486377716064
67.09225500,67092255,2,0.7868675589561462,-0.004591650329530239,0.003952445462346077,0.6170921921730042
67.19225400,67192254,2,0.7867441177368164,-0.004633903503417969,0.003932669758796692,0.6172493696212769
67.29230600,67292306,2,0.7868090867996216,-0.004619799088686705,0.003952902741730213,0.6171665191650391
67.39232200,67392322,2,0.7868413925170898,-0.004615100100636482,0.003959580324590206,0.6171252727508545
67.49231000,67492310,2,0.7867814898490906,-0.004611437674611807,0.003928833175450563,0.6172018647193909
67.59228700,67592287,2,0.786774754524231,-0.0045999446883797646,0.00397305004298687,0.6172102689743042
67.69224900,67692249,2,0.7868062853813171,-0.00463116355240345,0.003951102029532194,0.6171700358390808
67.79224900,67792249,2,0.7868461012840271,-0.004578078631311655,0.0039470503106713295,0.6171196103096008
67.89224400,67892244,2,0.7869587540626526,-0.004604455549269915,0.003917319234460592,0.6169760227203369
67.99224100,67992241,2,0.7868370413780212,-0.004542481619864702,0.003980106208473444,0.617131233215332
68.09226200,68092262,2,0.7869519591331482,-0.004582588095217943,0.003949269186705351,0.6169846057891846
68.19231200,68192312,2,0.7871162295341492,-0.004567038267850876,0.003967139404267073,0.6167750358581543
68.29235400,68292354,2,0.7870402932167053,-0.004574149381369352,0.004009409807622433,0.6168716549873352
68.39231200,68392312,2,0.7870362401008606,-0.0046183583326637745,0.00404095696285367,0.6168762445449829
68.49227700,68492277,2,0.787209689617157,-0.004574240185320377,0.00400337390601635,0.6166554689407349
68.59224600,68592246,2,0.7871721386909485,-0.004516420420259237,0.003954469226300716,0.6167041659355164
68.69224600,68692246,2,0.7872158288955688,-0.004491168074309826,0.003960632719099522,0.6166484951972961
68.79224800,68792248,2,0.7872536778450012,-0.004533051047474146,0.003917247522622347,0.6166001558303833
68.89224500,68892245,2,0.7871270775794983,-0.004547168966382742,0.0038921574596315622,0.6167618036270142
68.99225200,68992252,2,0.7872190475463867,-0.004530957899987698,0.003919049631804228,0.6166443824768066
69.09232300,69092323,2,0.7872727513313293,-0.004562731366604567,0.003929604776203632,0.6165754795074463
69.19235000,69192350,2,0.787216305732727,-0.00455686217173934,0.003912373911589384,0.6166477203369141
69.29229800,69292298,2,0.7872865796089172,-0.004589003976434469,0.003929922357201576,0.6165576577186584
69.39224600,69392246,2,0.7873306274414062,-0.004568199161440134,0.003956446889787912,0.6165013909339905
69.49224900,69492249,2,0.7873108983039856,-0.004483051132410765,0.003974447026848793,0.6165271401405334
69.59224300,69592243,2,0.7873560190200806,-0.004495547153055668,0.003996723331511021,0.6164692044258118
