timestamp,TimeUS,DesRoll,Roll,DesPitch,Pitch,DesYaw,Yaw,ErrRP,ErrYaw,AEKF
10.49396400,10493964,0.0,0.02,0.0,0.21,359.99,0.0,1.0,1.0,0
10.59367300,10593673,0.0,0.02,0.0,0.21,112.41,112.41,1.0,0.8,0
10.69369200,10693692,0.0,0.02,0.0,0.21,112.41,112.41,0.8,0.64,0
10.79359700,10793597,0.0,0.02,0.0,0.22,112.31,112.31,0.8,0.51,0
10.89350900,10893509,0.0,0.02,0.0,0.22,112.23,112.23,0.64,0.41000000000000003,0
10.99347100,10993471,0.0,0.02,0.0,0.22,112.22,112.22,0.64,0.33,0
11.09351100,11093511,0.0,0.01,0.0,0.23,112.16,112.16,0.51,0.26,0
11.19356500,11193565,0.0,0.01,0.0,0.23,112.09,112.09,0.51,0.21,0
11.29358200,11293582,0.0,0.0,0.0,0.23,112.10000000000001,112.10000000000001,0.4,0.17,0
11.39369800,11393698,0.0,0.0,0.0,0.23,111.96000000000001,111.96000000000001,0.4,0.14,0
11.49374700,11493747,0.0,0.0,0.0,0.23,111.88,111.88,0.32,0.12,0
11.59377000,11593770,0.0,0.0,0.0,0.23,111.87,111.87,0.32,0.09,0
11.69376100,11693761,0.0,0.0,0.0,0.23,111.88,111.88,0.26,0.07,0
11.79367600,11793676,0.0,0.0,0.0,0.23,111.95,111.95,0.26,0.06,0
11.89359700,11893597,0.0,0.0,0.0,0.23,111.89,111.89,0.21,0.05,0
11.99361000,11993610,0.0,0.0,0.0,0.23,111.97,111.97,0.21,0.04,0
12.09369600,12093696,0.0,0.0,0.0,0.23,111.96000000000001,111.96000000000001,0.16,0.03,0
12.19370600,12193706,0.0,0.0,0.0,0.23,111.89,111.89,0.16,0.03,0
12.29375700,12293757,0.0,0.0,0.0,0.23,111.89,111.89,0.13,0.02,0
12.39382600,12393826,0.0,0.0,0.0,0.23,111.97,111.97,0.13,0.02,0
12.49387300,12493873,-0.25,-0.47000000000000003,-0.05,0.13,0.0,0.0,0.1,0.02,3
12.59382100,12593821,-0.13,-0.47000000000000003,-0.02,0.14,359.99,0.0,0.1,0.02,3
12.69374000,12693740,-0.06,-0.46,-0.01,0.14,359.99,0.0,0.08,0.02,3
12.79399400,12793994,-0.03,-0.46,0.0,0.14,359.99,0.0,0.08,0.02,3
12.89398000,12893980,-0.01,-0.46,0.0,0.15,359.99,0.0,0.06,0.02,3
12.99404400,12994044,0.0,-0.46,0.0,0.15,359.98,359.99,0.06,0.02,3
13.09400500,13094005,0.0,-0.46,0.0,0.15,359.99,0.0,0.05,0.01,3
13.19383700,13193837,0.0,-0.46,0.0,0.16,359.98,359.99,0.05,0.01,3
13.29381300,13293813,0.0,-0.46,0.0,0.15,359.98,359.99,0.04,0.01,3
13.39387400,13393874,0.0,-0.46,0.0,0.15,359.98,359.99,0.04,0.01,3
13.49379200,13493792,0.0,-0.46,0.0,0.15,359.98,359.99,0.03,0.01,3
13.59374600,13593746,0.0,-0.46,0.0,0.15,359.97,359.98,0.03,0.01,3
13.69363500,13693635,0.0,-0.45,0.0,0.15,359.97,359.98,0.02,0.01,3
13.79366800,13793668,0.0,-0.45,0.0,0.15,359.97,359.98,0.02,0.01,3
13.89370200,13893702,0.0,-0.46,0.0,0.15,359.97,359.98,0.02,0.0,3
13.99374300,13993743,0.0,-0.46,-0.01,0.13,112.54,112.54,0.02,0.0,3
14.09384000,14093840,0.0,-0.46,0.0,0.14,112.52,112.52,0.01,0.0,3
14.19383900,14193839,0.0,-0.46,0.0,0.15,112.48,112.48,0.01,0.0,3
14.29386700,14293867,0.0,-0.46,0.0,0.15,112.42,112.42,0.01,0.0,3
14.39395100,14393951,0.0,-0.46,0.0,0.16,112.37,112.37,0.01,0.0,3
14.49373200,14493732,0.0,-0.45,0.0,0.16,112.33,112.33,0.01,0.0,3
14.59393200,14593932,0.0,-0.45,0.0,0.16,112.3,112.3,0.01,0.0,3
14.69398700,14693987,0.0,-0.44,0.0,0.16,112.3,112.3,0.0,0.0,3
14.79401700,14794017,0.0,-0.44,0.0,0.17,112.28,112.28,0.0,0.0,3
14.89400700,14894007,0.0,-0.44,0.0,0.17,112.26,112.26,0.0,0.0,3
14.99384700,14993847,0.0,-0.43,0.0,0.17,112.23,112.23,0.0,0.0,3
15.09383500,15093835,0.0,-0.43,0.0,0.17,112.2,112.2,0.0,0.0,3
15.19385400,15193854,0.0,-0.43,0.0,0.17,112.16,112.16,0.0,0.0,3
15.29381100,15293811,0.0,-0.43,0.0,0.17,112.13,112.13,0.0,0.0,3
15.39376300,15393763,0.0,-0.42,0.0,0.18,112.13,112.13,0.0,0.01,3
15.49365300,15493653,0.0,-0.42,0.0,0.17,112.14,112.14,0.0,0.01,3
15.59374200,15593742,0.0,-0.43,0.0,0.17,112.19,112.19,0.0,0.01,3
15.69370600,15693706,0.0,-0.43,0.0,0.17,112.24000000000001,112.24000000000001,0.0,0.01,3
15.79375200,15793752,0.0,-0.43,0.0,0.17,112.28,112.28,0.0,0.01,3
15.89384300,15893843,0.0,-0.43,0.0,0.16,112.3,112.3,0.0,0.01,3
15.99381500,15993815,0.0,-0.44,0.0,0.16,112.32000000000001,112.32000000000001,0.0,0.0,3
16.09382700,16093827,0.0,-0.44,0.0,0.15,112.33,112.33,0.0,0.0,3
16.19382100,16193821,0.0,-0.44,0.0,0.15,112.33,112.33,0.0,0.0,3
16.29374900,16293749,0.0,-0.45,0.0,0.15,112.32000000000001,112.32000000000001,0.0,0.0,3
16.39402000,16394020,0.0,-0.45,0.0,0.14,112.31,112.31,0.0,0.0,3
16.49403600,16494036,0.0,-0.45,0.0,0.13,112.3,112.3,0.0,0.01,3
16.59398300,16593983,0.0,-0.46,0.0,0.13,112.3,112.3,0.0,0.0,3
16.69402000,16694020,0.0,-0.46,0.0,0.12,112.3,112.3,0.0,0.0,3
16.79384700,16793847,0.0,-0.47000000000000003,0.0,0.12,112.3,112.3,0.0,0.01,3
16.89383400,16893834,0.0,-0.47000000000000003,0.0,0.11,112.29,112.29,0.0,0.01,3
16.99401200,16994012,0.0,-0.47000000000000003,0.0,0.11,112.28,112.28,0.0,0.01,3
17.09403400,17094034,0.0,-0.47000000000000003,0.0,0.11,112.27,112.27,0.0,0.01,3
17.19395300,17193953,0.0,-0.47000000000000003,0.0,0.11,112.27,112.27,0.0,0.0,3
17.29388200,17293882,0.0,-0.48,0.0,0.1,112.26,112.26,0.0,0.01,3
17.39394800,17393948,0.0,-0.48,0.0,0.11,112.26,112.26,0.0,0.0,3
17.49420200,17494202,0.0,-0.47000000000000003,0.0,0.1,112.26,112.26,0.0,0.0,3
17.59400600,17594006,0.0,-0.47000000000000003,0.0,0.1,112.27,112.27,0.0,0.0,3
17.69383600,17693836,0.0,-0.47000000000000003,0.0,0.1,112.26,112.26,0.0,0.0,3
17.79383500,17793835,0.0,-0.47000000000000003,0.0,0.11,112.26,112.26,0.0,0.0,3
17.89386200,17893862,0.0,-0.47000000000000003,0.0,0.11,112.25,112.25,0.0,0.0,3
17.99381300,17993813,0.0,-0.47000000000000003,0.0,0.11,112.25,112.25,0.0,0.0,3
18.09376000,18093760,0.0,-0.46,0.0,0.11,112.24000000000001,112.24000000000001,0.0,0.0,3
18.19364800,18193648,0.0,-0.46,0.0,0.12,112.22,112.22,0.0,0.0,3
18.29369700,18293697,0.0,-0.46,0.0,0.12,112.2,112.2,0.0,0.0,3
18.39383500,18393835,0.0,-0.46,0.0,0.13,112.19,112.19,0.0,0.0,3
18.49381300,18493813,0.0,-0.46,0.0,0.13,112.17,112.17,0.0,0.0,3
18.59392100,18593921,0.0,-0.46,0.0,0.13,112.15,112.15,0.0,0.0,3
18.69382600,18693826,0.0,-0.46,0.0,0.14,112.14,112.14,0.0,0.0,3
18.79386800,18793868,0.0,-0.46,0.0,0.14,112.13,112.13,0.0,0.0,3
18.89404300,18894043,0.0,-0.46,0.0,0.15,112.13,112.13,0.0,0.0,3
18.99371900,18993719,0.0,-0.45,0.0,0.15,112.13,112.13,0.0,0.0,3
19.09364000,19093640,0.0,-0.45,0.0,0.16,112.13,112.13,0.0,0.0,3
19.19366900,19193669,0.0,-0.44,0.0,0.15,112.13,112.13,0.0,0.0,3
19.29372400,19293724,0.0,-0.44,0.0,0.16,112.13,112.13,0.0,0.0,3
19.39382300,19393823,0.0,-0.44,0.0,0.16,112.12,112.12,0.0,0.01,3
19.49386100,19493861,0.0,-0.44,0.0,0.17,112.12,112.12,0.0,0.01,3
19.59381000,19593810,0.0,-0.44,0.0,0.17,112.13,112.13,0.0,0.01,3
19.69404200,19694042,0.0,-0.44,0.0,0.17,112.14,112.14,0.0,0.01,3
19.79406500,19794065,0.0,-0.44,0.0,0.17,112.16,112.16,0.0,0.01,3
19.89408000,19894080,0.0,-0.43,0.0,0.17,112.18,112.18,0.0,0.01,3
19.99395300,19993953,0.0,-0.43,0.0,0.18,112.2,112.2,0.0,0.01,3
20.09397900,20093979,0.0,-0.43,0.0,0.18,112.21000000000001,112.21000000000001,0.0,0.01,3
20.19404600,20194046,0.0,-0.43,0.0,0.18,112.21000000000001,112.21000000000001,0.0,0.01,3
20.29402700,20294027,0.0,-0.43,0.0,0.18,112.2,112.2,0.0,0.01,3
20.39412900,20394129,0.0,-0.42,0.0,0.18,112.19,112.19,0.0,0.01,3
20.49402000,20494020,0.0,-0.42,0.0,0.18,112.18,112.18,0.0,0.01,3
20.59404900,20594049,0.0,-0.42,0.0,0.18,112.17,112.17,0.0,0.01,3
20.69410600,20694106,0.0,-0.42,0.0,0.18,112.18,112.18,0.0,0.01,3
20.79405800,20794058,0.0,-0.41000000000000003,0.0,0.18,112.2,112.2,0.0,0.01,3
20.89425500,20894255,0.0,-0.42,0.0,0.18,112.22,112.22,0.0,0.01,3
20.99398100,20993981,0.0,-0.42,0.0,0.19,112.25,112.25,0.0,0.01,3
21.09371300,21093713,0.0,-0.42,0.0,0.19,112.27,112.27,0.0,0.01,3
21.19375700,21193757,0.0,-0.41000000000000003,0.0,0.19,112.29,112.29,0.0,0.01,3
21.29385300,21293853,0.0,-0.41000000000000003,0.0,0.19,112.28,112.28,0.0,0.01,3
21.39386700,21393867,0.0,-0.41000000000000003,0.0,0.18,112.26,112.26,0.0,0.01,3
21.49390200,21493902,0.0,-0.41000000000000003,0.0,0.18,112.23,112.23,0.0,0.01,3
21.59387600,21593876,0.0,-0.4,0.0,0.19,112.21000000000001,112.21000000000001,0.0,0.01,3
21.69373700,21693737,0.0,-0.41000000000000003,0.0,0.19,112.21000000000001,112.21000000000001,0.0,0.01,3
21.79364700,21793647,0.0,-0.41000000000000003,0.0,0.19,112.21000000000001,112.21000000000001,0.0,0.01,3
21.89370300,21893703,0.0,-0.4,0.0,0.18,112.21000000000001,112.21000000000001,0.0,0.01,3
21.99373800,21993738,0.0,-0.4,0.0,0.18,112.21000000000001,112.21000000000001,0.0,0.01,3
22.09375500,22093755,0.0,-0.4,0.0,0.18,112.2,112.2,0.0,0.01,3
22.19385600,22193856,0.0,-0.39,0.0,0.18,112.2,112.2,0.0,0.0,3
22.29385600,22293856,0.0,-0.39,0.0,0.18,112.2,112.2,0.0,0.0,3
22.39389800,22393898,0.0,-0.39,0.0,0.18,112.2,112.2,0.0,0.0,3
22.49405800,22494058,0.0,-0.38,0.0,0.18,112.21000000000001,112.21000000000001,0.0,0.0,3
22.59406600,22594066,0.0,-0.38,0.0,0.18,112.21000000000001,112.21000000000001,0.0,0.0,3
22.69395000,22693950,0.0,-0.37,0.0,0.18,112.2,112.2,0.0,0.0,3
22.79417000,22794170,0.0,-0.37,0.0,0.18,112.19,112.19,0.0,0.0,3
22.89373700,22893737,0.0,-0.37,0.0,0.18,112.17,112.17,0.0,0.0,3
22.99375500,22993755,0.0,-0.37,0.0,0.18,112.16,112.16,0.0,0.0,3
23.09391900,23093919,0.0,-0.37,0.0,0.17,112.14,112.14,0.0,0.0,3
23.19384300,23193843,0.0,-0.37,0.0,0.17,112.11,112.11,0.0,0.0,3
23.29389000,23293890,0.0,-0.37,0.0,0.17,112.10000000000001,112.10000000000001,0.0,0.0,3
23.39390600,23393906,0.0,-0.36,0.0,0.17,112.08,112.08,0.0,0.0,3
23.49374700,23493747,0.0,-0.37,0.0,0.16,112.07000000000001,112.07000000000001,0.0,0.0,3
23.59401500,23594015,0.0,-0.36,0.0,0.16,112.05,112.05,0.0,0.0,3
23.69397900,23693979,0.0,-0.36,0.0,0.16,112.03,112.03,0.0,0.0,3
23.79404700,23794047,0.0,-0.36,0.0,0.16,112.03,112.03,0.0,0.0,3
23.89375500,23893755,0.0,-0.36,0.0,0.16,112.01,112.01,0.0,0.01,3
23.99386100,23993861,0.0,-0.36,0.0,0.16,112.02,112.02,0.0,0.01,3
24.09398300,24093983,0.0,-0.36,0.0,0.16,112.04,112.04,0.0,0.02,3
24.19401900,24194019,0.0,-0.36,0.0,0.16,112.08,112.08,0.0,0.01,3
24.29401600,24294016,0.0,-0.36,0.0,0.16,112.13,112.13,0.0,0.01,3
24.39405000,24394050,0.0,-0.36,0.0,0.16,112.18,112.18,0.0,0.01,3
24.49387800,24493878,0.0,-0.36,0.0,0.16,112.21000000000001,112.21000000000001,0.0,0.01,3
24.59391900,24593919,0.0,-0.36,0.0,0.16,112.22,112.22,0.0,0.01,3
24.69395400,24693954,0.0,-0.36,0.0,0.15,112.23,112.23,0.0,0.01,3
24.79398100,24793981,0.0,-0.36,0.0,0.15,112.24000000000001,112.24000000000001,0.0,0.01,3
24.89407900,24894079,0.0,-0.36,0.0,0.15,112.25,112.25,0.0,0.01,3
24.99399600,24993996,0.0,-0.36,0.0,0.15,112.26,112.26,0.0,0.01,3
25.09403000,25094030,0.0,-0.36,0.0,0.14,112.25,112.25,0.0,0.01,3
25.19405200,25194052,0.0,-0.36,0.0,0.14,112.25,112.25,0.0,0.01,3
25.29403100,25294031,0.0,-0.36,0.0,0.14,112.26,112.26,0.0,0.01,3
25.39395300,25393953,0.0,-0.36,0.0,0.14,112.28,112.28,0.0,0.01,3
25.49396300,25493963,0.0,-0.36,0.0,0.13,112.3,112.3,0.0,0.01,3
25.59398300,25593983,0.0,-0.36,0.0,0.13,112.31,112.31,0.0,0.01,3
25.69398900,25693989,0.0,-0.36,0.0,0.13,112.32000000000001,112.32000000000001,0.0,0.01,3
25.79408500,25794085,0.0,-0.36,0.0,0.13,112.32000000000001,112.32000000000001,0.0,0.01,3
25.89401700,25894017,0.0,-0.36,0.0,0.13,112.33,112.33,0.0,0.01,3
25.99404300,25994043,0.0,-0.36,0.0,0.12,112.34,112.34,0.0,0.01,3
26.09406800,26094068,0.0,-0.36,0.0,0.12,112.35000000000001,112.35000000000001,0.0,0.01,3
26.19407800,26194078,0.0,-0.36,0.0,0.12,112.34,112.34,0.0,0.01,3
26.29394100,26293941,0.0,-0.36,0.0,0.12,112.33,112.33,0.0,0.01,3
26.39376800,26393768,0.0,-0.36,0.0,0.12,112.31,112.31,0.0,0.01,3
26.49375800,26493758,0.0,-0.36,0.0,0.12,112.3,112.3,0.0,0.01,3
26.59375700,26593757,0.0,-0.36,0.0,0.12,112.29,112.29,0.0,0.01,3
26.69386000,26693860,0.0,-0.36,0.0,0.12,112.28,112.28,0.0,0.01,3
26.79386000,26793860,0.0,-0.36,0.0,0.12,112.29,112.29,0.0,0.01,3
26.89383600,26893836,0.0,-0.36,0.0,0.11,112.3,112.3,0.0,0.01,3
26.99414300,26994143,0.0,-0.36,0.0,0.12,112.3,112.3,0.0,0.0,3
27.09409700,27094097,0.0,-0.36,0.0,0.12,112.3,112.3,0.0,0.01,3
27.19394300,27193943,0.0,-0.36,0.0,0.12,112.3,112.3,0.0,0.01,3
27.29398600,27293986,0.0,-0.36,0.0,0.11,112.31,112.31,0.0,0.0,3
27.39403800,27394038,0.0,-0.36,0.0,0.11,112.32000000000001,112.32000000000001,0.0,0.0,3
27.49402300,27494023,0.0,-0.36,0.0,0.11,112.32000000000001,112.32000000000001,0.0,0.0,3
27.59409900,27594099,0.0,-0.36,0.0,0.11,112.32000000000001,112.32000000000001,0.0,0.01,3
27.69401000,27694010,0.0,-0.36,0.0,0.11,112.32000000000001,112.32000000000001,0.0,0.01,3
27.79386900,27793869,0.0,-0.36,0.0,0.1,112.33,112.33,0.0,0.01,3
27.89382100,27893821,0.0,-0.36,0.0,0.1,112.35000000000001,112.35000000000001,0.0,0.01,3
27.99372700,27993727,0.0,-0.36,0.0,0.11,112.37,112.37,0.0,0.0,3
28.09363800,28093638,0.0,-0.36,0.0,0.11,112.39,112.39,0.0,0.0,3
28.19370700,28193707,0.0,-0.36,0.0,0.1,112.4,112.4,0.0,0.01,3
28.29376100,28293761,0.0,-0.36,0.0,0.1,112.4,112.4,0.0,0.0,3
28.39382800,28393828,0.0,-0.36,0.0,0.1,112.4,112.4,0.0,0.0,3
28.49411100,28494111,0.0,-0.35000000000000003,0.0,0.1,112.4,112.4,0.0,0.0,3
28.59402100,28594021,0.0,-0.35000000000000003,0.0,0.1,112.4,112.4,0.0,0.0,3
28.69405700,28694057,0.0,-0.35000000000000003,0.0,0.1,112.39,112.39,0.0,0.0,3
28.79405800,28794058,0.0,-0.35000000000000003,0.0,0.1,112.39,112.39,0.0,0.0,3
28.89374800,28893748,0.0,-0.35000000000000003,0.0,0.1,112.39,112.39,0.0,0.0,3
28.99364700,28993647,0.0,-0.35000000000000003,0.0,0.1,112.4,112.4,0.0,0.0,3
29.09371800,29093718,0.0,-0.35000000000000003,0.0,0.1,112.4,112.4,0.0,0.01,3
29.19372600,29193726,0.0,-0.35000000000000003,0.0,0.09,112.41,112.41,0.0,0.01,3
29.29376200,29293762,0.0,-0.35000000000000003,0.0,0.09,112.41,112.41,0.0,0.0,3
29.39391900,29393919,0.0,-0.35000000000000003,0.0,0.1,112.41,112.41,0.0,0.01,3
29.49383200,29493832,0.0,-0.35000000000000003,0.0,0.09,112.4,112.4,0.0,0.01,3
29.59387100,29593871,0.0,-0.35000000000000003,0.0,0.1,112.4,112.4,0.0,0.01,3
29.69379800,29693798,0.0,-0.34,0.0,0.1,112.4,112.4,0.0,0.01,3
29.79374200,29793742,0.0,-0.34,0.0,0.1,112.41,112.41,0.0,0.01,3
29.89394900,29893949,0.0,-0.34,0.0,0.1,112.42,112.42,0.0,0.01,3
29.99398100,29993981,0.0,-0.34,0.0,0.1,112.44,112.44,0.0,0.01,3
30.09400700,30094007,0.0,-0.34,0.0,0.1,112.46000000000001,112.46000000000001,0.0,0.01,3
30.19401600,30194016,0.0,-0.34,0.0,0.1,112.47,112.47,0.0,0.01,3
30.29384400,30293844,0.0,-0.33,0.0,0.1,112.48,112.48,0.0,0.01,3
30.39385700,30393857,0.0,-0.34,0.0,0.1,112.48,112.48,0.0,0.01,3
30.49387500,30493875,0.0,-0.34,0.0,0.1,112.47,112.47,0.0,0.01,3
30.59379000,30593790,0.0,-0.34,0.0,0.1,112.46000000000001,112.46000000000001,0.0,0.01,3
30.69400100,30694001,0.0,-0.34,0.0,0.1,112.44,112.44,0.0,0.01,3
30.79386300,30793863,0.0,-0.33,0.0,0.1,112.43,112.43,0.0,0.01,3
30.89385500,30893855,0.0,-0.33,0.0,0.1,112.41,112.41,0.0,0.01,3
30.99397500,30993975,0.0,-0.33,0.0,0.1,112.4,112.4,0.0,0.01,3
31.09401000,31094010,0.0,-0.34,0.0,0.1,112.4,112.4,0.0,0.01,3
31.19410200,31194102,0.0,-0.33,0.0,0.1,112.41,112.41,0.0,0.01,3
31.29401000,31294010,0.0,-0.33,0.0,0.1,112.42,112.42,0.0,0.01,3
31.39388200,31393882,0.0,-0.33,0.0,0.1,112.44,112.44,0.0,0.01,3
31.49379800,31493798,0.0,-0.33,0.0,0.1,112.45,112.45,0.0,0.01,3
31.59373000,31593730,0.0,-0.33,0.0,0.1,112.44,112.44,0.0,0.01,3
31.69363800,31693638,0.0,-0.33,0.0,0.1,112.44,112.44,0.0,0.01,3
31.79368400,31793684,0.0,-0.33,0.0,0.1,112.44,112.44,0.0,0.01,3
31.89374400,31893744,0.0,-0.34,0.0,0.1,112.44,112.44,0.0,0.01,3
31.99376400,31993764,0.0,-0.34,0.0,0.1,112.44,112.44,0.0,0.01,3
32.09383700,32093837,0.0,-0.33,0.0,0.1,112.45,112.45,0.0,0.01,3
32.19383900,32193839,0.0,-0.33,0.0,0.1,112.45,112.45,0.0,0.0,3
32.29385400,32293854,0.0,-0.33,0.0,0.1,112.45,112.45,0.0,0.01,3
32.39406200,32394062,0.0,-0.33,0.0,0.1,112.45,112.45,0.0,0.01,3
32.49372400,32493724,0.0,-0.33,0.0,0.1,112.44,112.44,0.0,0.01,3
32.59362100,32593621,0.0,-0.33,0.0,0.1,112.42,112.42,0.0,0.01,3
32.69369900,32693699,0.0,-0.33,0.0,0.1,112.41,112.41,0.0,0.01,3
32.79371000,32793710,0.0,-0.33,0.0,0.1,112.39,112.39,0.0,0.0,3
32.89375300,32893753,0.0,-0.33,0.0,0.1,112.37,112.37,0.0,0.01,3
32.99383500,32993835,0.0,-0.33,0.0,0.1,112.36,112.36,0.0,0.01,3
33.09384000,33093840,0.0,-0.33,0.0,0.1,112.36,112.36,0.0,0.01,3
33.19386200,33193862,0.0,-0.33,0.0,0.11,112.37,112.37,0.0,0.01,3
33.29393900,33293939,0.0,-0.33,0.0,0.1,112.37,112.37,0.0,0.01,3
33.39376000,33393760,0.0,-0.32,0.0,0.11,112.38,112.38,0.0,0.01,3
33.49363600,33493636,0.0,-0.32,0.0,0.1,112.39,112.39,0.0,0.01,3
33.59367900,33593679,0.0,-0.32,0.0,0.1,112.39,112.39,0.0,0.01,3
33.69375200,33693752,0.0,-0.32,0.0,0.1,112.39,112.39,0.0,0.01,3
33.79375600,33793756,0.0,-0.32,0.0,0.1,112.39,112.39,0.0,0.0,3
33.89384200,33893842,0.0,-0.32,0.0,0.1,112.38,112.38,0.0,0.0,3
33.99382900,33993829,0.0,-0.31,0.0,0.09,112.38,112.38,0.0,0.01,3
34.09385400,34093854,0.0,-0.31,0.0,0.1,112.38,112.38,0.0,0.01,3
34.19379500,34193795,0.0,-0.31,0.0,0.1,112.39,112.39,0.0,0.01,3
34.29372000,34293720,0.0,-0.3,0.0,0.1,112.4,112.4,0.0,0.01,3
34.39399500,34393995,0.0,-0.3,0.0,0.1,112.41,112.41,0.0,0.01,3
34.49368600,34493686,0.0,-0.3,0.0,0.1,112.41,112.41,0.0,0.01,3
34.59372400,34593724,0.0,-0.3,0.0,0.1,112.4,112.4,0.0,0.01,3
34.69375800,34693758,0.0,-0.3,0.0,0.1,112.4,112.4,0.0,0.01,3
34.79384600,34793846,0.0,-0.3,0.0,0.1,112.39,112.39,0.0,0.01,3
34.89385000,34893850,0.0,-0.3,0.0,0.1,112.38,112.38,0.0,0.01,3
34.99401700,34994017,0.0,-0.29,0.0,0.1,112.37,112.37,0.0,0.01,3
35.09404200,35094042,0.0,-0.29,0.0,0.1,112.36,112.36,0.0,0.01,3
35.19399700,35193997,0.0,-0.29,0.0,0.1,112.35000000000001,112.35000000000001,0.0,0.01,3
35.29386600,35293866,0.0,-0.29,0.0,0.1,112.34,112.34,0.0,0.01,3
35.39401600,35394016,0.0,-0.29,0.0,0.1,112.34,112.34,0.0,0.01,3
35.49395300,35493953,0.0,-0.29,0.0,0.1,112.34,112.34,0.0,0.01,3
35.59401100,35594011,0.0,-0.29,0.0,0.1,112.35000000000001,112.35000000000001,0.0,0.01,3
35.69408900,35694089,0.0,-0.29,0.0,0.1,112.36,112.36,0.0,0.01,3
35.79400500,35794005,0.0,-0.29,0.0,0.1,112.37,112.37,0.0,0.01,3
35.89404500,35894045,0.0,-0.29,0.0,0.1,112.38,112.38,0.0,0.01,3
35.99380300,35993803,0.0,-0.28,0.0,0.1,112.39,112.39,0.0,0.01,3
36.09372800,36093728,0.0,-0.29,0.0,0.1,112.41,112.41,0.0,0.01,3
36.19363800,36193638,0.0,-0.29,0.0,0.1,112.42,112.42,0.0,0.01,3
36.29368900,36293689,0.0,-0.29,0.0,0.1,112.44,112.44,0.0,0.01,3
36.39375900,36393759,0.0,-0.28,0.0,0.1,112.44,112.44,0.0,0.01,3
36.49375500,36493755,0.0,-0.28,0.0,0.1,112.45,112.45,0.0,0.01,3
36.59386400,36593864,0.0,-0.28,0.0,0.11,112.46000000000001,112.46000000000001,0.0,0.01,3
36.69383200,36693832,0.0,-0.28,0.0,0.11,112.46000000000001,112.46000000000001,0.0,0.01,3
36.79386300,36793863,0.0,-0.28,0.0,0.11,112.47,112.47,0.0,0.0,3
36.89379000,36893790,0.0,-0.28,0.0,0.11,112.47,112.47,0.0,0.01,3
36.99372900,36993729,0.0,-0.28,0.0,0.11,112.46000000000001,112.46000000000001,0.0,0.01,3
37.09363200,37093632,0.0,-0.27,0.0,0.11,112.45,112.45,0.0,0.01,3
37.19367800,37193678,0.0,-0.27,0.0,0.12,112.43,112.43,0.0,0.0,3
37.29400100,37294001,0.0,-0.27,0.0,0.12,112.42,112.42,0.0,0.0,3
37.39403300,37394033,0.0,-0.27,0.0,0.11,112.41,112.41,0.0,0.0,3
37.49411400,37494114,0.0,-0.27,0.0,0.11,112.4,112.4,0.0,0.0,3
37.59400500,37594005,0.0,-0.27,0.0,0.11,112.4,112.4,0.0,0.0,3
37.69403600,37694036,0.0,-0.27,0.0,0.11,112.39,112.39,0.0,0.0,3
37.79405300,37794053,0.0,-0.27,0.0,0.11,112.39,112.39,0.0,0.0,3
37.89405600,37894056,0.0,-0.27,0.0,0.11,112.4,112.4,0.0,0.01,3
37.99392300,37993923,0.0,-0.26,0.0,0.11,112.4,112.4,0.0,0.01,3
38.09398300,38093983,0.0,-0.26,0.0,0.1,112.4,112.4,0.0,0.01,3
38.19404200,38194042,0.0,-0.26,0.0,0.1,112.4,112.4,0.0,0.01,3
38.29401100,38294011,0.0,-0.26,0.0,0.11,112.39,112.39,0.0,0.01,3
38.39412100,38394121,0.0,-0.26,0.0,0.11,112.38,112.38,0.0,0.01,3
38.49401200,38494012,0.0,-0.26,0.0,0.11,112.38,112.38,0.0,0.01,3
38.59402800,38594028,0.0,-0.26,0.0,0.11,112.38,112.38,0.0,0.01,3
38.69403300,38694033,0.0,-0.25,0.0,0.11,112.37,112.37,0.0,0.01,3
38.79405000,38794050,0.0,-0.25,0.0,0.11,112.36,112.36,0.0,0.01,3
38.89392800,38893928,0.0,-0.25,0.0,0.11,112.35000000000001,112.35000000000001,0.0,0.01,3
38.99396600,38993966,0.0,-0.25,0.0,0.11,112.34,112.34,0.0,0.0,3
39.09397300,39093973,0.0,-0.25,0.0,0.12,112.33,112.33,0.0,0.01,3
39.19399900,39193999,0.0,-0.25,0.0,0.12,112.32000000000001,112.32000000000001,0.0,0.01,3
39.29383600,39293836,0.0,-0.25,0.0,0.11,112.33,112.33,0.0,0.01,3
39.39388600,39393886,0.0,-0.24,0.0,0.12,112.33,112.33,0.0,0.01,3
39.49388400,39493884,0.0,-0.24,0.0,0.12,112.33,112.33,0.0,0.0,3
39.59392400,39593924,0.0,-0.24,0.0,0.12,112.34,112.34,0.0,0.0,3
39.69373500,39693735,0.0,-0.24,0.0,0.12,112.34,112.34,0.0,0.0,3
39.79364300,39793643,0.0,-0.24,0.0,0.11,112.33,112.33,0.0,0.0,3
39.89367900,39893679,0.0,-0.23,0.0,0.11,112.32000000000001,112.32000000000001,0.0,0.0,3
39.99373500,39993735,0.0,-0.23,0.0,0.11,112.32000000000001,112.32000000000001,0.0,0.0,3
40.09374800,40093748,0.0,-0.23,0.0,0.11,112.31,112.31,0.0,0.0,3
40.19384500,40193845,0.0,-0.22,0.0,0.12,112.3,112.3,0.0,0.0,3
40.29382600,40293826,0.0,-0.22,0.0,0.11,112.3,112.3,0.0,0.0,3
40.39388200,40393882,0.0,-0.22,0.0,0.12,112.3,112.3,0.0,0.0,3
40.49381000,40493810,0.0,-0.22,0.0,0.12,112.31,112.31,0.0,0.0,3
40.59372200,40593722,0.0,-0.22,0.0,0.12,112.3,112.3,0.0,0.0,3
40.69362900,40693629,0.0,-0.22,0.0,0.12,112.3,112.3,0.0,0.0,3
40.79370000,40793700,0.0,-0.21,0.0,0.12,112.3,112.3,0.0,0.0,3
40.89373900,40893739,0.0,-0.21,0.0,0.12,112.29,112.29,0.0,0.0,3
40.99375600,40993756,0.0,-0.21,0.0,0.12,112.29,112.29,0.0,0.0,3
41.09385900,41093859,0.0,-0.21,0.0,0.12,112.28,112.28,0.0,0.01,3
41.19383700,41193837,0.0,-0.2,0.0,0.11,112.28,112.28,0.0,0.01,3
41.29386000,41293860,0.0,-0.2,0.0,0.12,112.29,112.29,0.0,0.0,3
41.39388800,41393888,0.0,-0.21,0.0,0.12,112.3,112.3,0.0,0.01,3
41.49372100,41493721,0.0,-0.21,0.0,0.12,112.3,112.3,0.0,0.01,3
41.59362600,41593626,0.0,-0.2,0.0,0.12,112.31,112.31,0.0,0.01,3
41.69369000,41693690,0.0,-0.21,0.0,0.12,112.32000000000001,112.32000000000001,0.0,0.01,3
41.79371900,41793719,0.0,-0.2,0.0,0.12,112.34,112.34,0.0,0.01,3
41.89375000,41893750,0.0,-0.2,0.0,0.12,112.34,112.34,0.0,0.01,3
41.99384600,41993846,0.0,-0.2,0.0,0.12,112.34,112.34,0.0,0.01,3
42.09383700,42093837,0.0,-0.2,0.0,0.12,112.34,112.34,0.0,0.01,3
42.19387100,42193871,0.0,-0.2,0.0,0.12,112.35000000000001,112.35000000000001,0.0,0.01,3
42.29403100,42294031,0.0,-0.19,0.0,0.12,112.35000000000001,112.35000000000001,0.0,0.01,3
42.39409700,42394097,0.0,-0.19,0.0,0.12,112.35000000000001,112.35000000000001,0.0,0.01,3
42.49395100,42493951,0.0,-0.19,0.0,0.12,112.34,112.34,0.0,0.01,3
42.59397000,42593970,0.0,-0.19,0.0,0.12,112.33,112.33,0.0,0.01,3
42.69374600,42693746,0.0,-0.19,0.0,0.12,112.32000000000001,112.32000000000001,0.0,0.0,3
42.79380200,42793802,0.0,-0.19,0.0,0.11,112.31,112.31,0.0,0.01,3
42.89384400,42893844,0.0,-0.19,0.0,0.12,112.31,112.31,0.0,0.0,3
42.99381300,42993813,0.0,-0.2,0.0,0.12,112.3,112.3,0.0,0.01,3
43.09386100,43093861,0.0,-0.19,0.0,0.12,112.31,112.31,0.0,0.01,3
43.19379300,43193793,0.0,-0.19,0.0,0.12,112.31,112.31,0.0,0.01,3
43.29372100,43293721,0.0,-0.19,0.0,0.12,112.32000000000001,112.32000000000001,0.0,0.01,3
43.39367400,43393674,0.0,-0.19,0.0,0.12,112.33,112.33,0.0,0.01,3
43.49364800,43493648,0.0,-0.19,0.0,0.12,112.33,112.33,0.0,0.01,3
43.59373000,43593730,0.0,-0.19,0.0,0.13,112.33,112.33,0.0,0.01,3
43.69373600,43693736,0.0,-0.19,0.0,0.13,112.34,112.34,0.0,0.01,3
43.79384500,43793845,0.0,-0.19,0.0,0.13,112.34,112.34,0.0,0.01,3
43.89383900,43893839,0.0,-0.2,0.0,0.13,112.35000000000001,112.35000000000001,0.0,0.01,3
43.99388900,43993889,0.0,-0.19,0.0,0.13,112.36,112.36,0.0,0.01,3
44.09380900,44093809,0.0,-0.19,0.0,0.13,112.37,112.37,0.0,0.01,3
44.19373500,44193735,0.0,-0.19,0.0,0.12,112.38,112.38,0.0,0.01,3
44.29362800,44293628,0.0,-0.19,0.0,0.13,112.37,112.37,0.0,0.01,3
44.39369700,44393697,0.0,-0.19,0.0,0.13,112.36,112.36,0.0,0.01,3
44.49402900,44494029,0.0,-0.19,0.0,0.12,112.35000000000001,112.35000000000001,0.0,0.01,3
44.59400600,44594006,0.0,-0.19,0.0,0.12,112.35000000000001,112.35000000000001,0.0,0.01,3
44.69409300,44694093,0.0,-0.19,0.0,0.12,112.33,112.33,0.0,0.01,3
44.79399900,44793999,0.0,-0.19,0.0,0.12,112.33,112.33,0.0,0.0,3
44.89403400,44894034,0.0,-0.19,0.0,0.12,112.32000000000001,112.32000000000001,0.0,0.01,3
44.99405500,44994055,0.0,-0.19,0.0,0.12,112.32000000000001,112.32000000000001,0.0,0.01,3
45.09372400,45093724,0.0,-0.19,0.0,0.12,112.32000000000001,112.32000000000001,0.0,0.01,3
45.19386500,45193865,0.0,-0.19,0.0,0.12,112.33,112.33,0.0,0.01,3
45.29394000,45293940,0.0,-0.19,0.0,0.12,112.34,112.34,0.0,0.01,3
45.39397400,45393974,0.0,-0.19,0.0,0.12,112.35000000000001,112.35000000000001,0.0,0.01,3
45.49396000,45493960,0.0,-0.19,0.0,0.12,112.36,112.36,0.0,0.01,3
45.59406300,45594063,0.0,-0.19,0.0,0.12,112.37,112.37,0.0,0.0,3
45.69398600,45693986,0.0,-0.18,0.0,0.12,112.37,112.37,0.0,0.0,3
45.79399900,45793999,0.0,-0.18,0.0,0.12,112.37,112.37,0.0,0.0,3
45.89426200,45894262,0.0,-0.18,0.0,0.11,112.37,112.37,0.0,0.0,3
45.99372300,45993723,0.0,-0.18,0.0,0.12,112.37,112.37,0.0,0.0,3
46.09362300,46093623,0.0,-0.18,0.0,0.12,112.37,112.37,0.0,0.0,3
46.19367500,46193675,0.0,-0.18,0.0,0.12,112.36,112.36,0.0,0.0,3
46.29368400,46293684,0.0,-0.18,0.0,0.12,112.35000000000001,112.35000000000001,0.0,0.0,3
46.39376100,46393761,0.0,-0.18,0.0,0.12,112.34,112.34,0.0,0.0,3
46.49384400,46493844,0.0,-0.18,0.0,0.12,112.34,112.34,0.0,0.0,3
46.59381400,46593814,0.0,-0.18,0.0,0.12,112.33,112.33,0.0,0.0,3
46.69385300,46693853,0.0,-0.18,0.0,0.12,112.33,112.33,0.0,0.01,3
46.79380800,46793808,0.0,-0.18,0.0,0.11,112.33,112.33,0.0,0.01,3
46.89371300,46893713,0.0,-0.18,0.0,0.11,112.33,112.33,0.0,0.01,3
46.99393400,46993934,0.0,-0.18,0.0,0.11,112.33,112.33,0.0,0.0,3
47.09395400,47093954,0.0,-0.18,0.0,0.11,112.33,112.33,0.0,0.0,3
47.19397300,47193973,0.0,-0.18,0.0,0.1,112.33,112.33,0.0,0.01,3
47.29400700,47294007,0.0,-0.18,0.0,0.11,112.33,112.33,0.0,0.01,3
47.39411000,47394110,0.0,-0.18,0.0,0.11,112.34,112.34,0.0,0.01,3
47.49399400,47493994,0.0,-0.18,0.0,0.11,112.35000000000001,112.35000000000001,0.0,0.01,3
47.59404300,47594043,0.0,-0.18,0.0,0.11,112.35000000000001,112.35000000000001,0.0,0.01,3
47.69405100,47694051,0.0,-0.18,0.0,0.11,112.35000000000001,112.35000000000001,0.0,0.01,3
47.79406900,47794069,0.0,-0.19,0.0,0.11,112.34,112.34,0.0,0.01,3
47.89392300,47893923,0.0,-0.19,0.0,0.11,112.34,112.34,0.0,0.01,3
47.99407200,47994072,0.0,-0.18,0.0,0.11,112.33,112.33,0.0,0.0,3
48.09373700,48093737,0.0,-0.18,0.0,0.11,112.33,112.33,0.0,0.0,3
48.19374100,48193741,0.0,-0.18,0.0,0.12,112.32000000000001,112.32000000000001,0.0,0.0,3
48.29383400,48293834,0.0,-0.19,0.0,0.11,112.32000000000001,112.32000000000001,0.0,0.0,3
48.39386200,48393862,0.0,-0.19,0.0,0.11,112.32000000000001,112.32000000000001,0.0,0.0,3
48.49404400,48494044,0.0,-0.19,0.0,0.11,112.32000000000001,112.32000000000001,0.0,0.0,3
48.59405900,48594059,0.0,-0.19,0.0,0.11,112.31,112.31,0.0,0.0,3
48.69407600,48694076,0.0,-0.18,0.0,0.11,112.31,112.31,0.0,0.0,3
48.79393900,48793939,0.0,-0.18,0.0,0.11,112.3,112.3,0.0,0.0,3
48.89397100,48893971,0.0,-0.18,0.0,0.11,112.3,112.3,0.0,0.0,3
48.99397500,48993975,0.0,-0.18,0.0,0.11,112.29,112.29,0.0,0.0,3
49.09399500,49093995,0.0,-0.18,0.0,0.12,112.28,112.28,0.0,0.0,3
49.19408000,49194080,0.0,-0.18,0.0,0.11,112.28,112.28,0.0,0.0,3
49.29398900,49293989,0.0,-0.18,0.0,0.12,112.28,112.28,0.0,0.01,3
49.39387400,49393874,0.0,-0.18,0.0,0.11,112.28,112.28,0.0,0.0,3
49.49379300,49493793,0.0,-0.17,0.0,0.11,112.28,112.28,0.0,0.0,3
49.59371000,49593710,0.0,-0.17,0.0,0.11,112.29,112.29,0.0,0.01,3
49.69363100,49693631,0.0,-0.17,0.0,0.11,112.3,112.3,0.0,0.0,3
49.79369500,49793695,0.0,-0.17,0.0,0.11,112.3,112.3,0.0,0.01,3
49.89374900,49893749,0.0,-0.16,0.0,0.11,112.3,112.3,0.0,0.01,3
49.99373600,49993736,0.0,-0.16,0.0,0.11,112.3,112.3,0.0,0.01,3
50.09384300,50093843,0.0,-0.16,0.0,0.11,112.31,112.31,0.0,0.01,3
50.19381800,50193818,0.0,-0.15,0.0,0.11,112.32000000000001,112.32000000000001,0.0,0.01,3
50.29383800,50293838,0.0,-0.15,0.0,0.11,112.32000000000001,112.32000000000001,0.0,0.01,3
50.39383300,50393833,0.0,-0.15,0.0,0.11,112.33,112.33,0.0,0.01,3
50.49372500,50493725,0.0,-0.15,0.0,0.11,112.33,112.33,0.0,0.01,3
50.59363100,50593631,0.0,-0.15,0.0,0.12,112.33,112.33,0.0,0.01,3
50.69373700,50693737,0.0,-0.15,0.0,0.11,112.33,112.33,0.0,0.01,3
50.79372700,50793727,0.0,-0.14,0.0,0.11,112.33,112.33,0.0,0.01,3
50.89373300,50893733,0.0,-0.14,0.0,0.11,112.34,112.34,0.0,0.0,3
50.99383200,50993832,0.0,-0.14,0.0,0.11,112.34,112.34,0.0,0.0,3
51.09382500,51093825,0.0,-0.14,0.0,0.11,112.34,112.34,0.0,0.0,3
51.19385700,51193857,0.0,-0.13,0.0,0.11,112.35000000000001,112.35000000000001,0.0,0.0,3
51.29380400,51293804,0.0,-0.13,0.0,0.11,112.34,112.34,0.0,0.0,3
51.39375600,51393756,0.0,-0.13,0.0,0.11,112.34,112.34,0.0,0.01,3
51.49364200,51493642,0.0,-0.13,0.0,0.11,112.33,112.33,0.0,0.01,3
51.59366400,51593664,0.0,-0.13,0.0,0.11,112.33,112.33,0.0,0.01,3
51.69398300,51693983,0.0,-0.12,0.0,0.11,112.33,112.33,0.0,0.01,3
51.79374100,51793741,0.0,-0.12,0.0,0.11,112.33,112.33,0.0,0.01,3
51.89383500,51893835,0.0,-0.12,0.0,0.12,112.32000000000001,112.32000000000001,0.0,0.01,3
51.99382700,51993827,0.0,-0.12,0.0,0.12,112.32000000000001,112.32000000000001,0.0,0.01,3
52.09384800,52093848,0.0,-0.12,0.0,0.12,112.31,112.31,0.0,0.01,3
52.19392400,52193924,0.0,-0.11,0.0,0.12,112.3,112.3,0.0,0.01,3
52.29370900,52293709,0.0,-0.11,0.0,0.12,112.3,112.3,0.0,0.01,3
52.39365800,52393658,0.0,-0.11,0.0,0.12,112.29,112.29,0.0,0.01,3
52.49370200,52493702,0.0,-0.11,0.0,0.12,112.29,112.29,0.0,0.01,3
52.59400200,52594002,0.0,-0.11,0.0,0.12,112.28,112.28,0.0,0.01,3
52.69399500,52693995,0.0,-0.11,0.0,0.12,112.27,112.27,0.0,0.01,3
52.79408300,52794083,0.0,-0.11,0.0,0.12,112.27,112.27,0.0,0.01,3
52.89399800,52893998,0.0,-0.11,0.0,0.12,112.26,112.26,0.0,0.01,3
52.99403600,52994036,0.0,-0.1,0.0,0.13,112.26,112.26,0.0,0.01,3
53.09406100,53094061,0.0,-0.1,0.0,0.13,112.25,112.25,0.0,0.01,3
53.19404000,53194040,0.0,-0.1,0.0,0.13,112.25,112.25,0.0,0.01,3
53.29390100,53293901,0.0,-0.09,0.0,0.14,112.25,112.25,0.0,0.01,3
53.39399100,53393991,0.0,-0.1,0.0,0.14,112.25,112.25,0.0,0.01,3
53.49395800,53493958,0.0,-0.09,0.0,0.14,112.25,112.25,0.0,0.01,3
53.59399400,53593994,0.0,-0.09,0.0,0.14,112.25,112.25,0.0,0.01,3
53.69407900,53694079,0.0,-0.08,0.0,0.14,112.25,112.25,0.0,0.01,3
53.79400800,53794008,0.0,-0.08,0.0,0.14,112.25,112.25,0.0,0.01,3
53.89403600,53894036,0.0,-0.08,0.0,0.15,112.25,112.25,0.0,0.01,3
53.99380000,53993800,0.0,-0.08,0.0,0.15,112.25,112.25,0.0,0.01,3
54.09401000,54094010,0.0,-0.08,0.0,0.15,112.24000000000001,112.24000000000001,0.0,0.0,3
54.19389100,54193891,0.0,-0.08,0.0,0.14,112.24000000000001,112.24000000000001,0.0,0.0,3
54.29398100,54293981,0.0,-0.07,0.0,0.15,112.23,112.23,0.0,0.0,3
54.39403600,54394036,0.0,-0.08,0.0,0.15,112.22,112.22,0.0,0.01,3
54.49397100,54493971,0.0,-0.07,0.0,0.15,112.22,112.22,0.0,0.0,3
54.59401200,54594012,0.0,-0.07,0.0,0.15,112.21000000000001,112.21000000000001,0.0,0.01,3
54.69396700,54693967,0.0,-0.07,0.0,0.15,112.21000000000001,112.21000000000001,0.0,0.01,3
54.79399400,54793994,0.0,-0.07,0.0,0.15,112.22,112.22,0.0,0.01,3
54.89399800,54893998,0.0,-0.07,0.0,0.15,112.22,112.22,0.0,0.01,3
54.99396700,54993967,0.0,-0.07,0.0,0.15,112.23,112.23,0.0,0.0,3
55.09387000,55093870,0.0,-0.07,0.0,0.15,112.23,112.23,0.0,0.0,3
55.19391300,55193913,0.0,-0.07,0.0,0.15,112.23,112.23,0.0,0.01,3
55.29426400,55294264,0.0,-0.07,0.0,0.15,112.23,112.23,0.0,0.02,3
55.39402200,55394022,0.0,-0.07,0.0,0.15,112.22,112.22,0.0,0.02,3
55.49384700,55493847,0.0,-0.07,0.0,0.15,112.2,112.2,0.0,0.01,3
55.59383600,55593836,0.0,-0.07,0.0,0.15,112.18,112.18,0.0,0.01,3
55.69386300,55693863,0.0,-0.07,0.0,0.15,112.17,112.17,0.0,0.01,3
55.79381900,55793819,0.0,-0.06,0.0,0.15,112.16,112.16,0.0,0.01,3
55.89373500,55893735,0.0,-0.06,0.0,0.15,112.16,112.16,0.0,0.01,3
55.99363900,55993639,0.0,-0.06,0.0,0.15,112.15,112.15,0.0,0.0,3
56.09370500,56093705,0.0,-0.06,0.0,0.15,112.15,112.15,0.0,0.0,3
56.19372800,56193728,0.0,-0.06,0.0,0.15,112.15,112.15,0.0,0.01,3
56.29374900,56293749,0.0,-0.06,0.0,0.16,112.15,112.15,0.0,0.01,3
56.39406300,56394063,0.0,-0.06,0.0,0.16,112.15,112.15,0.0,0.01,3
56.49383400,56493834,0.0,-0.06,0.0,0.16,112.15,112.15,0.0,0.01,3
56.59385200,56593852,0.0,-0.06,0.0,0.17,112.14,112.14,0.0,0.01,3
56.69380900,56693809,0.0,-0.06,0.0,0.17,112.13,112.13,0.0,0.01,3
56.79374800,56793748,0.0,-0.06,0.0,0.17,112.12,112.12,0.0,0.01,3
56.89363300,56893633,0.0,-0.05,0.0,0.17,112.11,112.11,0.0,0.01,3
56.99370600,56993706,0.0,-0.05,0.0,0.18,112.10000000000001,112.10000000000001,0.0,0.01,3
57.09403800,57094038,0.0,-0.05,0.0,0.18,112.10000000000001,112.10000000000001,0.0,0.01,3
57.19400900,57194009,0.0,-0.05,0.0,0.18,112.10000000000001,112.10000000000001,0.0,0.01,3
57.29409000,57294090,0.0,-0.05,0.0,0.18,112.10000000000001,112.10000000000001,0.0,0.01,3
57.39403500,57394035,0.0,-0.06,0.0,0.18,112.11,112.11,0.0,0.01,3
57.49386900,57493869,0.0,-0.05,0.0,0.19,112.12,112.12,0.0,0.01,3
57.59379500,57593795,0.0,-0.06,0.0,0.18,112.13,112.13,0.0,0.01,3
57.69371100,57693711,0.0,-0.06,0.0,0.18,112.14,112.14,0.0,0.01,3
57.79361900,57793619,0.0,-0.06,0.0,0.19,112.14,112.14,0.0,0.01,3
57.89368400,57893684,0.0,-0.06,0.0,0.19,112.15,112.15,0.0,0.01,3
57.99371200,57993712,0.0,-0.06,0.0,0.19,112.16,112.16,0.0,0.01,3
58.09374600,58093746,0.0,-0.06,0.0,0.19,112.15,112.15,0.0,0.01,3
58.19385800,58193858,0.0,-0.06,0.0,0.19,112.16,112.16,0.0,0.0,3
58.29385000,58293850,0.0,-0.06,0.0,0.19,112.16,112.16,0.0,0.0,3
58.39390600,58393906,0.0,-0.07,0.0,0.19,112.16,112.16,0.0,0.0,3
58.49394400,58493944,0.0,-0.07,0.0,0.19,112.16,112.16,0.0,0.0,3
58.59374300,58593743,0.0,-0.07,0.0,0.2,112.16,112.16,0.0,0.0,3
58.69364400,58693644,0.0,-0.07,0.0,0.2,112.16,112.16,0.0,0.01,3
58.79369100,58793691,0.0,-0.07,0.0,0.2,112.16,112.16,0.0,0.01,3
58.89400200,58894002,0.0,-0.07,0.0,0.2,112.16,112.16,0.0,0.01,3
58.99373900,58993739,0.0,-0.07,0.0,0.2,112.15,112.15,0.0,0.01,3
59.09383900,59093839,0.0,-0.07,0.0,0.21,112.15,112.15,0.0,0.01,3
59.19382600,59193826,0.0,-0.08,0.0,0.21,112.15,112.15,0.0,0.01,3
59.29404200,59294042,0.0,-0.08,0.0,0.2,112.15,112.15,0.0,0.01,3
59.39410200,59394102,0.0,-0.08,0.0,0.21,112.14,112.14,0.0,0.01,3
59.49408000,59494080,0.0,-0.07,0.0,0.21,112.14,112.14,0.0,0.01,3
59.59394000,59593940,0.0,-0.08,0.0,0.21,112.13,112.13,0.0,0.0,3
59.69397600,59693976,0.0,-0.07,0.0,0.21,112.13,112.13,0.0,0.0,3
59.79403000,59794030,0.0,-0.08,0.0,0.21,112.13,112.13,0.0,0.0,3
59.89400100,59894001,0.0,-0.08,0.0,0.21,112.13,112.13,0.0,0.0,3
59.99407600,59994076,0.0,-0.08,0.0,0.2,112.13,112.13,0.0,0.01,3
60.09400600,60094006,0.0,-0.08,0.0,0.2,112.13,112.13,0.0,0.01,3
60.19402900,60194029,0.0,-0.08,0.0,0.21,112.13,112.13,0.0,0.01,3
60.29404000,60294040,0.0,-0.07,0.0,0.21,112.13,112.13,0.0,0.01,3
60.39407800,60394078,0.0,-0.08,0.0,0.21,112.13,112.13,0.0,0.01,3
60.49393500,60493935,0.0,-0.08,0.0,0.21,112.13,112.13,0.0,0.01,3
60.59401700,60594017,0.0,-0.08,0.0,0.21,112.12,112.12,0.0,0.02,3
60.69397900,60693979,0.0,-0.08,0.0,0.21,112.11,112.11,0.0,0.02,3
60.79399100,60793991,0.0,-0.08,0.0,0.21,112.10000000000001,112.10000000000001,0.0,0.01,3
60.89409200,60894092,0.0,-0.07,0.0,0.21,112.08,112.08,0.0,0.01,3
60.99403200,60994032,0.0,-0.08,0.0,0.21,112.07000000000001,112.07000000000001,0.0,0.01,3
61.09404300,61094043,0.0,-0.08,0.0,0.21,112.07000000000001,112.07000000000001,0.0,0.01,3
61.19421700,61194217,0.0,-0.08,0.0,0.22,112.06,112.06,0.0,0.01,3
61.29407000,61294070,0.0,-0.07,0.0,0.22,112.05,112.05,0.0,0.01,3
61.39400600,61394006,0.0,-0.07,0.0,0.22,112.05,112.05,0.0,0.0,3
61.49396900,61493969,0.0,-0.07,0.0,0.21,112.05,112.05,0.0,0.0,3
61.59396100,61593961,0.0,-0.08,0.0,0.22,112.05,112.05,0.0,0.01,3
61.69399500,61693995,0.0,-0.08,0.0,0.22,112.05,112.05,0.0,0.01,3
61.79408500,61794085,0.0,-0.07,0.0,0.22,112.05,112.05,0.0,0.01,3
61.89398800,61893988,0.0,-0.07,0.0,0.23,112.05,112.05,0.0,0.01,3
61.99403200,61994032,0.0,-0.08,0.0,0.23,112.05,112.05,0.0,0.02,3
62.09403000,62094030,0.0,-0.08,0.0,0.22,112.04,112.04,0.0,0.02,3
62.19374300,62193743,0.0,-0.08,0.0,0.23,112.03,112.03,0.0,0.02,3
62.29363000,62293630,0.0,-0.08,0.0,0.23,112.02,112.02,0.0,0.01,3
62.39372600,62393726,0.0,-0.08,0.0,0.23,112.01,112.01,0.0,0.01,3
62.49372900,62493729,0.0,-0.08,0.0,0.23,112.0,112.0,0.0,0.01,3
62.59373300,62593733,0.0,-0.08,0.0,0.23,112.0,112.0,0.0,0.01,3
62.69385000,62693850,0.0,-0.07,0.0,0.22,111.99000000000001,111.99000000000001,0.0,0.01,3
62.79399400,62793994,0.0,-0.07,0.0,0.22,111.98,111.98,0.0,0.01,3
62.89403700,62894037,0.0,-0.07,0.0,0.22,111.97,111.97,0.0,0.01,3
62.99429100,62994291,0.0,-0.07,0.0,0.22,111.97,111.97,0.0,0.01,3
63.09402600,63094026,0.0,-0.07,0.0,0.22,111.96000000000001,111.96000000000001,0.0,0.01,3
63.19391600,63193916,0.0,-0.07,0.0,0.22,111.96000000000001,111.96000000000001,0.0,0.01,3
63.29396000,63293960,0.0,-0.07,0.0,0.22,111.95,111.95,0.0,0.01,3
63.39398200,63393982,0.0,-0.07,0.0,0.22,111.95,111.95,0.0,0.01,3
63.49400100,63494001,0.0,-0.07,0.0,0.22,111.95,111.95,0.0,0.0,3
63.59384800,63593848,0.0,-0.07,0.0,0.21,111.96000000000001,111.96000000000001,0.0,0.0,3
63.69383500,63693835,0.0,-0.07,0.0,0.21,111.95,111.95,0.0,0.0,3
63.79387100,63793871,0.0,-0.07,0.0,0.21,111.95,111.95,0.0,0.0,3
63.89382200,63893822,0.0,-0.07,0.0,0.21,111.95,111.95,0.0,0.01,3
63.99403900,63994039,0.0,-0.07,0.0,0.21,111.95,111.95,0.0,0.01,3
64.09394900,64093949,0.0,-0.07,0.0,0.21,111.95,111.95,0.0,0.01,3
64.19398200,64193982,0.0,-0.06,0.0,0.21,111.96000000000001,111.96000000000001,0.0,0.01,3
64.29372000,64293720,0.0,-0.06,0.0,0.21,111.95,111.95,0.0,0.0,3
64.39380900,64393809,0.0,-0.06,0.0,0.21,111.96000000000001,111.96000000000001,0.0,0.01,3
64.49383300,64493833,0.0,-0.06,0.0,0.21,111.96000000000001,111.96000000000001,0.0,0.01,3
64.59382300,64593823,0.0,-0.06,0.0,0.21,111.95,111.95,0.0,0.01,3
64.69384800,64693848,0.0,-0.06,0.0,0.21,111.95,111.95,0.0,0.01,3
64.79392800,64793928,0.0,-0.05,0.0,0.21,111.94,111.94,0.0,0.01,3
64.89372900,64893729,0.0,-0.06,0.0,0.22,111.94,111.94,0.0,0.0,3
64.99393600,64993936,0.0,-0.06,0.0,0.22,111.94,111.94,0.0,0.01,3
65.09367900,65093679,0.0,-0.05,0.0,0.22,111.93,111.93,0.0,0.01,3
65.19374500,65193745,0.0,-0.05,0.0,0.22,111.93,111.93,0.0,0.01,3
65.29374100,65293741,0.0,-0.06,0.0,0.23,111.92,111.92,0.0,0.01,3
65.39386400,65393864,0.0,-0.05,0.0,0.23,111.92,111.92,0.0,0.01,3
65.49399800,65493998,0.0,-0.05,0.0,0.23,111.91,111.91,0.0,0.01,3
65.59385600,65593856,0.0,-0.05,0.0,0.22,111.91,111.91,0.0,0.01,3
65.69380000,65693800,0.0,-0.05,0.0,0.22,111.91,111.91,0.0,0.01,3
65.79371900,65793719,0.0,-0.05,0.0,0.22,111.91,111.91,0.0,0.01,3
65.89363100,65893631,0.0,-0.05,0.0,0.23,111.91,111.91,0.0,0.01,3
65.99381400,65993814,0.0,-0.06,0.0,0.23,111.91,111.91,0.0,0.01,3
66.09371800,66093718,0.0,-0.06,0.0,0.23,111.91,111.91,0.0,0.01,3
66.19374600,66193746,0.0,-0.06,0.0,0.23,111.91,111.91,0.0,0.01,3
66.29385300,66293853,0.0,-0.06,0.0,0.23,111.9,111.9,0.0,0.01,3
66.39385600,66393856,0.0,-0.06,0.0,0.23,111.9,111.9,0.0,0.01,3
66.49400600,66494006,0.0,-0.05,0.0,0.23,111.89,111.89,0.0,0.01,3
66.59400200,66594002,0.0,-0.05,0.0,0.23,111.89,111.89,0.0,0.01,3
66.69402100,66694021,0.0,-0.05,0.0,0.23,111.88,111.88,0.0,0.0,3
66.79386800,66793868,0.0,-0.05,0.0,0.23,111.88,111.88,0.0,0.0,3
66.89399700,66893997,0.0,-0.05,0.0,0.23,111.87,111.87,0.0,0.0,3
66.99391300,66993913,0.0,-0.04,0.0,0.24,111.87,111.87,0.0,0.0,3
67.09397400,67093974,0.0,-0.04,0.0,0.24,111.87,111.87,0.0,0.01,3
67.19408200,67194082,0.0,-0.04,0.0,0.24,111.86,111.86,0.0,0.01,3
67.29398800,67293988,0.0,-0.04,0.0,0.24,111.85000000000001,111.85000000000001,0.0,0.01,3
67.39403400,67394034,0.0,-0.04,0.0,0.25,111.84,111.84,0.0,0.01,3
67.49403300,67494033,0.0,-0.04,0.0,0.25,111.84,111.84,0.0,0.01,3
67.59403200,67594032,0.0,-0.04,0.0,0.25,111.84,111.84,0.0,0.01,3
67.69387900,67693879,0.0,-0.04,0.0,0.25,111.83,111.83,0.0,0.0,3
67.79389200,67793892,0.0,-0.04,0.0,0.25,111.83,111.83,0.0,0.01,3
67.89393600,67893936,0.0,-0.04,0.0,0.25,111.83,111.83,0.0,0.01,3
67.99397300,67993973,0.0,-0.03,0.0,0.25,111.82000000000001,111.82000000000001,0.0,0.01,3
68.09405900,68094059,0.0,-0.03,0.0,0.24,111.83,111.83,0.0,0.01,3
68.19398000,68193980,0.0,-0.03,0.0,0.24,111.83,111.83,0.0,0.01,3
68.29400500,68294005,0.0,-0.03,0.0,0.24,111.84,111.84,0.0,0.01,3
68.39420400,68394204,0.0,-0.03,0.0,0.24,111.83,111.83,0.0,0.01,3
68.49372900,68493729,0.0,-0.04,0.0,0.24,111.83,111.83,0.0,0.0,3
68.59364000,68593640,0.0,-0.03,0.0,0.23,111.83,111.83,0.0,0.01,3
68.69368000,68693680,0.0,-0.03,0.0,0.23,111.82000000000001,111.82000000000001,0.0,0.01,3
68.79371200,68793712,0.0,-0.03,0.0,0.23,111.82000000000001,111.82000000000001,0.0,0.01,3
68.89375000,68893750,0.0,-0.03,0.0,0.23,111.82000000000001,111.82000000000001,0.0,0.01,3
68.99391300,68993913,0.0,-0.03,0.0,0.23,111.82000000000001,111.82000000000001,0.0,0.01,3
69.09383600,69093836,0.0,-0.03,0.0,0.23,111.82000000000001,111.82000000000001,0.0,0.01,3
69.19385300,69193853,0.0,-0.03,0.0,0.23,111.81,111.81,0.0,0.01,3
69.29380800,69293808,0.0,-0.03,0.0,0.23,111.81,111.81,0.0,0.01,3
69.39374600,69393746,0.0,-0.03,0.0,0.23,111.81,111.81,0.0,0.01,3
69.49363400,69493634,0.0,-0.03,0.0,0.23,111.8,111.8,0.0,0.01,3
69.59370300,69593703,0.0,-0.03,0.0,0.23,111.79,111.79,0.0,0.01,3
69.69370800,69693708,0.0,-0.02,0.0,0.23,111.79,111.79,0.0,0.01,3
69.79374000,69793740,0.0,-0.02,0.0,0.23,111.78,111.78,0.0,0.01,3
69.89385100,69893851,0.0,-0.03,0.0,0.22,111.77,111.77,0.0,0.01,3
69.99381600,69993816,0.0,-0.03,0.0,0.22,111.77,111.77,0.0,0.01,3
70.09386800,70093868,0.0,-0.03,0.0,0.22,111.77,111.77,0.0,0.01,3
70.19382300,70193823,0.0,-0.03,0.0,0.22,111.76,111.76,0.0,0.01,3
70.29373600,70293736,0.0,-0.03,0.0,0.22,111.76,111.76,0.0,0.01,3
70.39366100,70393661,0.0,-0.03,0.0,0.22,111.76,111.76,0.0,0.01,3
70.49368600,70493686,0.0,-0.03,0.0,0.22,111.75,111.75,0.0,0.01,3
70.59402700,70594027,0.0,-0.03,0.0,0.22,111.75,111.75,0.0,0.01,3
70.69399600,70693996,0.0,-0.03,0.0,0.22,111.75,111.75,0.0,0.01,3
70.79408500,70794085,0.0,-0.03,0.0,0.22,111.75,111.75,0.0,0.01,3
70.89398500,70893985,0.0,-0.03,0.0,0.22,111.75,111.75,0.0,0.01,3
70.99384400,70993844,0.0,-0.03,0.0,0.22,111.74000000000001,111.74000000000001,0.0,0.01,3
71.09385400,71093854,0.0,-0.03,0.0,0.21,111.74000000000001,111.74000000000001,0.0,0.01,3
71.19371600,71193716,0.0,-0.03,0.0,0.21,111.73,111.73,0.0,0.01,3
71.29363400,71293634,0.0,-0.03,0.0,0.21,111.73,111.73,0.0,0.01,3
71.39376200,71393762,0.0,-0.03,0.0,0.21,111.72,111.72,0.0,0.01,3
71.49372100,71493721,0.0,-0.03,0.0,0.21,111.71000000000001,111.71000000000001,0.0,0.01,3
71.59374900,71593749,0.0,-0.03,0.0,0.21,111.71000000000001,111.71000000000001,0.0,0.01,3
71.69383900,71693839,0.0,-0.03,0.0,0.21,111.7,111.7,0.0,0.01,3
71.79383800,71793838,0.0,-0.03,0.0,0.21,111.7,111.7,0.0,0.01,3
71.89387900,71893879,0.0,-0.03,0.0,0.21,111.7,111.7,0.0,0.01,3
71.99379200,71993792,0.0,-0.03,0.0,0.2,111.69,111.69,0.0,0.01,3
72.09373200,72093732,0.0,-0.03,0.0,0.2,111.69,111.69,0.0,0.01,3
72.19394200,72193942,0.0,-0.03,0.0,0.2,111.69,111.69,0.0,0.0,3
72.29398200,72293982,0.0,-0.03,0.0,0.2,111.7,111.7,0.0,0.01,3
72.39374600,72393746,0.0,-0.02,0.0,0.2,111.7,111.7,0.0,0.0,3
72.49374300,72493743,0.0,-0.02,0.0,0.2,111.7,111.7,0.0,0.0,3
72.59384500,72593845,0.0,-0.03,0.0,0.2,111.71000000000001,111.71000000000001,0.0,0.0,3
72.69383600,72693836,0.0,-0.03,0.0,0.2,111.71000000000001,111.71000000000001,0.0,0.01,3
72.79387600,72793876,0.0,-0.02,0.0,0.2,111.71000000000001,111.71000000000001,0.0,0.01,3
72.89406100,72894061,0.0,-0.02,0.0,0.2,111.7,111.7,0.0,0.01,3
72.99406400,72994064,0.0,-0.02,0.0,0.2,111.7,111.7,0.0,0.01,3
73.09391900,73093919,0.0,-0.02,0.0,0.2,111.69,111.69,0.0,0.01,3
73.19399400,73193994,0.0,-0.02,0.0,0.2,111.68,111.68,0.0,0.01,3
73.29371100,73293711,0.0,-0.03,0.0,0.2,111.68,111.68,0.0,0.01,3
73.39375900,73393759,0.0,-0.03,0.0,0.2,111.67,111.67,0.0,0.01,3
73.49384800,73493848,0.0,-0.03,0.0,0.2,111.67,111.67,0.0,0.01,3
73.59383300,73593833,0.0,-0.03,0.0,0.2,111.67,111.67,0.0,0.01,3
73.69399600,73693996,0.0,-0.03,0.0,0.2,111.66,111.66,0.0,0.01,3
73.79402700,73794027,0.0,-0.03,0.0,0.2,111.65,111.65,0.0,0.01,3
73.89395500,73893955,0.0,-0.03,0.0,0.2,111.65,111.65,0.0,0.01,3
73.99386700,73993867,0.0,-0.03,0.0,0.2,111.65,111.65,0.0,0.01,3
74.09386400,74093864,0.0,-0.03,0.0,0.2,111.65,111.65,0.0,0.01,3
74.19395200,74193952,0.0,-0.03,0.0,0.19,111.65,111.65,0.0,0.01,3
74.29399800,74293998,0.0,-0.03,0.0,0.2,111.65,111.65,0.0,0.01,3
74.39388400,74393884,0.0,-0.03,0.0,0.19,111.64,111.64,0.0,0.01,3
74.49382400,74493824,0.0,-0.03,0.0,0.2,111.64,111.64,0.0,0.01,3
74.59384900,74593849,0.0,-0.03,0.0,0.2,111.63,111.63,0.0,0.01,3
74.69378900,74693789,0.0,-0.03,0.0,0.19,111.63,111.63,0.0,0.01,3
74.79372600,74793726,0.0,-0.03,0.0,0.19,111.63,111.63,0.0,0.01,3
74.89393200,74893932,0.0,-0.03,0.0,0.19,111.63,111.63,0.0,0.01,3
74.99398500,74993985,0.0,-0.03,0.0,0.19,111.63,111.63,0.0,0.01,3
75.09373600,75093736,0.0,-0.03,0.0,0.19,111.63,111.63,0.0,0.01,3
75.19373800,75193738,0.0,-0.03,0.0,0.19,111.63,111.63,0.0,0.01,3
75.29384600,75293846,0.0,-0.03,0.0,0.19,111.63,111.63,0.0,0.0,3
75.39385500,75393855,0.0,-0.03,0.0,0.19,111.62,111.62,0.0,0.01,3
75.49386600,75493866,0.0,-0.03,0.0,0.18,111.62,111.62,0.0,0.0,3
75.59380200,75593802,0.0,-0.03,0.0,0.19,111.62,111.62,0.0,0.0,3
75.69372900,75693729,0.0,-0.04,0.0,0.18,111.62,111.62,0.0,0.0,3
75.79364000,75793640,0.0,-0.04,0.0,0.19,111.62,111.62,0.0,0.0,3
75.89365900,75893659,0.0,-0.04,0.0,0.19,111.62,111.62,0.0,0.0,3
75.99370600,75993706,0.0,-0.04,0.0,0.19,111.62,111.62,0.0,0.0,3
76.09373600,76093736,0.0,-0.04,0.0,0.19,111.61,111.61,0.0,0.0,3
76.19383700,76193837,0.0,-0.04,0.0,0.19,111.61,111.61,0.0,0.0,3
76.29382000,76293820,0.0,-0.04,0.0,0.19,111.61,111.61,0.0,0.0,3
76.39389100,76393891,0.0,-0.04,0.0,0.19,111.61,111.61,0.0,0.0,3
76.49380600,76493806,0.0,-0.05,0.0,0.19,111.60000000000001,111.60000000000001,0.0,0.0,3
76.59373200,76593732,0.0,-0.05,0.0,0.19,111.60000000000001,111.60000000000001,0.0,0.0,3
76.69364200,76693642,0.0,-0.05,0.0,0.19,111.59,111.59,0.0,0.0,3
76.79369000,76793690,0.0,-0.05,0.0,0.19,111.59,111.59,0.0,0.0,3
76.89373400,76893734,0.0,-0.05,0.0,0.18,111.59,111.59,0.0,0.01,3
76.99399700,76993997,0.0,-0.05,0.0,0.18,111.58,111.58,0.0,0.01,3
77.09401900,77094019,0.0,-0.05,0.0,0.18,111.57000000000001,111.57000000000001,0.0,0.01,3
77.19397200,77193972,0.0,-0.05,0.0,0.18,111.57000000000001,111.57000000000001,0.0,0.01,3
77.29399500,77293995,0.0,-0.05,0.0,0.18,111.56,111.56,0.0,0.01,3
77.39407700,77394077,0.0,-0.05,0.0,0.19,111.55,111.55,0.0,0.01,3
77.49400300,77494003,0.0,-0.05,0.0,0.19,111.54,111.54,0.0,0.01,3
77.59421200,77594212,0.0,-0.05,0.0,0.18,111.54,111.54,0.0,0.01,3
77.69397000,77693970,0.0,-0.05,0.0,0.18,111.53,111.53,0.0,0.01,3
77.79403300,77794033,0.0,-0.05,0.0,0.19,111.52,111.52,0.0,0.01,3
77.89402200,77894022,0.0,-0.05,0.0,0.19,111.52,111.52,0.0,0.01,3
77.99408100,77994081,0.0,-0.05,0.0,0.19,111.52,111.52,0.0,0.01,3
78.09401300,78094013,0.0,-0.05,0.0,0.19,111.52,111.52,0.0,0.01,3
78.19404000,78194040,0.0,-0.05,0.0,0.19,111.51,111.51,0.0,0.0,3
78.29403200,78294032,0.0,-0.05,0.0,0.2,111.51,111.51,0.0,0.01,3
78.39375700,78393757,0.0,-0.05,0.0,0.19,111.51,111.51,0.0,0.01,3
78.49365700,78493657,0.0,-0.05,0.0,0.19,111.5,111.5,0.0,0.01,3
78.59369600,78593696,0.0,-0.04,0.0,0.19,111.5,111.5,0.0,0.01,3
78.69373700,78693737,0.0,-0.04,0.0,0.19,111.5,111.5,0.0,0.01,3
78.79373600,78793736,0.0,-0.04,0.0,0.19,111.51,111.51,0.0,0.01,3
78.89384600,78893846,0.0,-0.05,0.0,0.18,111.51,111.51,0.0,0.01,3
78.99385400,78993854,0.0,-0.05,0.0,0.18,111.52,111.52,0.0,0.01,3
79.09387700,79093877,0.0,-0.05,0.0,0.18,111.52,111.52,0.0,0.01,3
79.19380100,79193801,0.0,-0.05,0.0,0.18,111.52,111.52,0.0,0.01,3
79.29372500,79293725,0.0,-0.05,0.0,0.18,111.52,111.52,0.0,0.02,3
79.39366000,79393660,0.0,-0.05,0.0,0.18,111.52,111.52,0.0,0.01,3
79.49370000,79493700,0.0,-0.05,0.0,0.18,111.53,111.53,0.0,0.01,3
79.59369300,79593693,0.0,-0.05,0.0,0.18,111.54,111.54,0.0,0.01,3
79.69373300,79693733,0.0,-0.05,0.0,0.18,111.55,111.55,0.0,0.01,3
79.79384200,79793842,0.0,-0.05,0.0,0.19,111.55,111.55,0.0,0.01,3
79.89381900,79893819,0.0,-0.05,0.0,0.19,111.56,111.56,0.0,0.01,3
79.99386500,79993865,0.0,-0.05,0.0,0.19,111.56,111.56,0.0,0.01,3
80.09379500,80093795,0.0,-0.06,0.0,0.2,111.56,111.56,0.0,0.01,3
80.19372000,80193720,0.0,-0.06,0.0,0.2,111.55,111.55,0.0,0.01,3
80.29364100,80293641,0.0,-0.06,0.0,0.2,111.55,111.55,0.0,0.01,3
80.39375700,80393757,0.0,-0.06,0.0,0.2,111.55,111.55,0.0,0.0,3
80.49371500,80493715,0.0,-0.06,0.0,0.2,111.55,111.55,0.0,0.0,3
80.59373700,80593737,0.0,-0.06,0.0,0.21,111.55,111.55,0.0,0.0,3
80.69383300,80693833,0.0,-0.06,0.0,0.21,111.54,111.54,0.0,0.0,3
80.79399000,80793990,0.0,-0.06,0.0,0.21,111.54,111.54,0.0,0.0,3
80.89403600,80894036,0.0,-0.06,0.0,0.21,111.54,111.54,0.0,0.0,3
80.99402300,80994023,0.0,-0.06,0.0,0.21,111.54,111.54,0.0,0.0,3
81.09405800,81094058,0.0,-0.07,0.0,0.22,111.53,111.53,0.0,0.01,3
81.19389800,81193898,0.0,-0.07,0.0,0.23,111.52,111.52,0.0,0.01,3
81.29369200,81293692,0.0,-0.07,0.0,0.23,111.52,111.52,0.0,0.01,3
81.39375500,81393755,0.0,-0.07,0.0,0.23,111.52,111.52,0.0,0.01,3
81.49373700,81493737,0.0,-0.07,0.0,0.23,111.52,111.52,0.0,0.01,3
81.59384200,81593842,0.0,-0.07,0.0,0.23,111.51,111.51,0.0,0.01,3
81.69381900,81693819,0.0,-0.07,0.0,0.23,111.51,111.51,0.0,0.01,3
81.79384800,81793848,0.0,-0.07,0.0,0.23,111.51,111.51,0.0,0.01,3
81.89380600,81893806,0.0,-0.07,0.0,0.23,111.51,111.51,0.0,0.01,3
81.99373700,81993737,0.0,-0.07,0.0,0.23,111.5,111.5,0.0,0.0,3
82.09363800,82093638,0.0,-0.08,0.0,0.23,111.5,111.5,0.0,0.0,3
82.19367000,82193670,0.0,-0.07,0.0,0.23,111.5,111.5,0.0,0.0,3
82.29400100,82294001,0.0,-0.07,0.0,0.23,111.5,111.5,0.0,0.0,3
82.39402200,82394022,0.0,-0.07,0.0,0.23,111.5,111.5,0.0,0.0,3
82.49383400,82493834,0.0,-0.07,0.0,0.23,111.49000000000001,111.49000000000001,0.0,0.0,3
82.59383000,82593830,0.0,-0.07,0.0,0.23,111.48,111.48,0.0,0.01,3
82.69401000,82694010,0.0,-0.08,0.0,0.23,111.47,111.47,0.0,0.01,3
82.79400200,82794002,0.0,-0.08,0.0,0.23,111.47,111.47,0.0,0.0,3
82.89423200,82894232,0.0,-0.08,0.0,0.23,111.46000000000001,111.46000000000001,0.0,0.0,3
82.99392700,82993927,0.0,-0.08,0.0,0.23,111.46000000000001,111.46000000000001,0.0,0.01,3
83.09397300,83093973,0.0,-0.08,0.0,0.23,111.45,111.45,0.0,0.01,3
83.19398700,83193987,0.0,-0.08,0.0,0.23,111.45,111.45,0.0,0.01,3
83.29399300,83293993,0.0,-0.08,0.0,0.23,111.45,111.45,0.0,0.01,3
83.39390200,83393902,0.0,-0.08,0.0,0.23,111.45,111.45,0.0,0.01,3
83.49383000,83493830,0.0,-0.08,0.0,0.23,111.44,111.44,0.0,0.0,3
83.59386500,83593865,0.0,-0.08,0.0,0.23,111.44,111.44,0.0,0.01,3
83.69391300,83693913,0.0,-0.08,0.0,0.24,111.44,111.44,0.0,0.01,3
83.79373300,83793733,0.0,-0.07,0.0,0.23,111.44,111.44,0.0,0.01,3
83.89363200,83893632,0.0,-0.07,0.0,0.23,111.43,111.43,0.0,0.01,3
83.99367900,83993679,0.0,-0.07,0.0,0.24,111.43,111.43,0.0,0.01,3
84.09373000,84093730,0.0,-0.07,0.0,0.24,111.42,111.42,0.0,0.01,3
84.19376300,84193763,0.0,-0.07,0.0,0.24,111.42,111.42,0.0,0.01,3
84.29384400,84293844,0.0,-0.08,0.0,0.24,111.42,111.42,0.0,0.01,3
84.39385500,84393855,0.0,-0.08,0.0,0.24,111.42,111.42,0.0,0.01,3
84.49390200,84493902,0.0,-0.07,0.0,0.24,111.43,111.43,0.0,0.01,3
84.59382800,84593828,0.0,-0.08,0.0,0.24,111.43,111.43,0.0,0.01,3
84.69371800,84693718,0.0,-0.08,0.0,0.24,111.43,111.43,0.0,0.01,3
84.79362800,84793628,0.0,-0.08,0.0,0.24,111.43,111.43,0.0,0.01,3
84.89368400,84893684,0.0,-0.08,0.0,0.24,111.43,111.43,0.0,0.01,3
84.99403900,84994039,0.0,-0.08,0.0,0.24,111.43,111.43,0.0,0.01,3
85.09401200,85094012,0.0,-0.08,0.0,0.23,111.43,111.43,0.0,0.0,3
85.19389500,85193895,0.0,-0.08,0.0,0.24,111.43,111.43,0.0,0.0,3
85.29384000,85293840,0.0,-0.08,0.0,0.24,111.42,111.42,0.0,0.0,3
85.39389000,85393890,0.0,-0.07,0.0,0.24,111.42,111.42,0.0,0.01,3
85.49388000,85493880,0.0,-0.08,0.0,0.24,111.41,111.41,0.0,0.01,3
85.59372200,85593722,0.0,-0.08,0.0,0.24,111.41,111.41,0.0,0.01,3
85.69361700,85693617,0.0,-0.08,0.0,0.24,111.41,111.41,0.0,0.01,3
85.79370900,85793709,0.0,-0.08,0.0,0.24,111.41,111.41,0.0,0.01,3
85.89370500,85893705,0.0,-0.08,0.0,0.23,111.41,111.41,0.0,0.01,3
85.99374100,85993741,0.0,-0.08,0.0,0.24,111.41,111.41,0.0,0.01,3
86.09383400,86093834,0.0,-0.08,0.0,0.24,111.41,111.41,0.0,0.01,3
86.19385000,86193850,0.0,-0.08,0.0,0.24,111.4,111.4,0.0,0.01,3
86.29387000,86293870,0.0,-0.08,0.0,0.24,111.4,111.4,0.0,0.01,3
86.39392000,86393920,0.0,-0.09,0.0,0.24,111.4,111.4,0.0,0.01,3
86.49372800,86493728,0.0,-0.09,0.0,0.24,111.4,111.4,0.0,0.01,3
86.59392200,86593922,0.0,-0.09,0.0,0.24,111.4,111.4,0.0,0.01,3
86.69395900,86693959,0.0,-0.09,0.0,0.24,111.4,111.4,0.0,0.01,3
86.79395900,86793959,0.0,-0.09,0.0,0.24,111.4,111.4,0.0,0.01,3
86.89399400,86893994,0.0,-0.09,0.0,0.24,111.4,111.4,0.0,0.01,3
86.99407600,86994076,0.0,-0.09,0.0,0.24,111.4,111.4,0.0,0.01,3
87.09399300,87093993,0.0,-0.09,0.0,0.24,111.4,111.4,0.0,0.01,3
87.19403900,87194039,0.0,-0.09,0.0,0.24,111.39,111.39,0.0,0.01,3
87.29405500,87294055,0.0,-0.09,0.0,0.24,111.38,111.38,0.0,0.01,3
87.39408100,87394081,0.0,-0.09,0.0,0.24,111.38,111.38,0.0,0.01,3
87.49394800,87493948,0.0,-0.09,0.0,0.24,111.38,111.38,0.0,0.01,3
87.59396300,87593963,0.0,-0.09,0.0,0.24,111.38,111.38,0.0,0.01,3
87.69434300,87694343,0.0,-0.09,0.0,0.25,111.38,111.38,0.0,0.01,3
87.79399200,87793992,0.0,-0.09,0.0,0.24,111.38,111.38,0.0,0.01,3
87.89384200,87893842,0.0,-0.09,0.0,0.24,111.39,111.39,0.0,0.01,3
87.99382500,87993825,0.0,-0.09,0.0,0.25,111.39,111.39,0.0,0.0,3
88.09389700,88093897,0.0,-0.09,0.0,0.25,111.38,111.38,0.0,0.01,3
88.19379300,88193793,0.0,-0.09,0.0,0.25,111.38,111.38,0.0,0.0,3
88.29373000,88293730,0.0,-0.09,0.0,0.25,111.38,111.38,0.0,0.01,3
88.39401300,88394013,0.0,-0.08,0.0,0.25,111.38,111.38,0.0,0.0,3
88.49400200,88494002,0.0,-0.08,0.0,0.25,111.38,111.38,0.0,0.0,3
88.59371500,88593715,0.0,-0.08,0.0,0.25,111.38,111.38,0.0,0.01,3
88.69396700,88693967,0.0,-0.08,0.0,0.24,111.38,111.38,0.0,0.0,3
88.79402500,88794025,0.0,-0.08,0.0,0.24,111.37,111.37,0.0,0.0,3
88.89397200,88893972,0.0,-0.08,0.0,0.24,111.36,111.36,0.0,0.0,3
88.99400000,88994000,0.0,-0.08,0.0,0.24,111.36,111.36,0.0,0.0,3
89.09399600,89093996,0.0,-0.08,0.0,0.24,111.36,111.36,0.0,0.0,3
89.19395000,89193950,0.0,-0.08,0.0,0.24,111.35000000000001,111.35000000000001,0.0,0.0,3
89.29387700,89293877,0.0,-0.08,0.0,0.25,111.35000000000001,111.35000000000001,0.0,0.01,3
89.39394400,89393944,0.0,-0.08,0.0,0.25,111.34,111.34,0.0,0.0,3
89.49391100,89493911,0.0,-0.08,0.0,0.25,111.35000000000001,111.35000000000001,0.0,0.0,3
89.59396600,89593966,0.0,-0.08,0.0,0.25,111.35000000000001,111.35000000000001,0.0,0.01,3
89.69406500,89694065,0.0,-0.08,0.0,0.25,111.36,111.36,0.0,0.01,3
89.79398400,89793984,0.0,-0.08,0.0,0.25,111.35000000000001,111.35000000000001,0.0,0.01,3
89.89401000,89894010,0.0,-0.08,0.0,0.25,111.35000000000001,111.35000000000001,0.0,0.01,3
89.99428600,89994286,0.0,-0.08,0.0,0.25,111.34,111.34,0.0,0.01,3
90.09404400,90094044,0.0,-0.07,0.0,0.25,111.34,111.34,0.0,0.0,3
90.19394600,90193946,0.0,-0.07,0.0,0.25,111.34,111.34,0.0,0.0,3
90.29395300,90293953,0.0,-0.07,0.0,0.25,111.34,111.34,0.0,0.01,3
90.39405100,90394051,0.0,-0.08,0.0,0.25,111.33,111.33,0.0,0.01,3
90.49401100,90494011,0.0,-0.08,0.0,0.25,111.33,111.33,0.0,0.0,3
90.59383800,90593838,0.0,-0.08,0.0,0.25,111.33,111.33,0.0,0.0,3
90.69382200,90693822,0.0,-0.08,0.0,0.25,111.33,111.33,0.0,0.0,3
90.79386900,90793869,0.0,-0.07,0.0,0.24,111.32000000000001,111.32000000000001,0.0,0.0,3
90.89386400,90893864,0.0,-0.07,0.0,0.25,111.32000000000001,111.32000000000001,0.0,0.0,3
90.99374000,90993740,0.0,-0.08,0.0,0.25,111.32000000000001,111.32000000000001,0.0,0.01,3
91.09363800,91093638,0.0,-0.08,0.0,0.25,111.32000000000001,111.32000000000001,0.0,0.01,3
91.19368200,91193682,0.0,-0.07,0.0,0.25,111.32000000000001,111.32000000000001,0.0,0.01,3
91.29400400,91294004,0.0,-0.07,0.0,0.25,111.31,111.31,0.0,0.01,3
91.39402200,91394022,0.0,-0.07,0.0,0.25,111.31,111.31,0.0,0.01,3
91.49410100,91494101,0.0,-0.07,0.0,0.25,111.3,111.3,0.0,0.0,3
91.59399900,91593999,0.0,-0.07,0.0,0.25,111.3,111.3,0.0,0.0,3
91.69403500,91694035,0.0,-0.07,0.0,0.25,111.3,111.3,0.0,0.0,3
91.79404300,91794043,0.0,-0.07,0.0,0.25,111.3,111.3,0.0,0.0,3
91.89407500,91894075,0.0,-0.06,0.0,0.25,111.3,111.3,0.0,0.0,3
91.99363300,91993633,0.0,-0.06,0.0,0.24,111.3,111.3,0.0,0.0,3
92.09370100,92093701,0.0,-0.06,0.0,0.25,111.3,111.3,0.0,0.0,3
92.19372600,92193726,0.0,-0.06,0.0,0.24,111.29,111.29,0.0,0.01,3
92.29374700,92293747,0.0,-0.06,0.0,0.24,111.29,111.29,0.0,0.01,3
92.39392100,92393921,0.0,-0.06,0.0,0.24,111.28,111.28,0.0,0.0,3
92.49382300,92493823,0.0,-0.06,0.0,0.24,111.27,111.27,0.0,0.0,3
92.59385000,92593850,0.0,-0.06,0.0,0.24,111.27,111.27,0.0,0.0,3
92.69379100,92693791,0.0,-0.06,0.0,0.24,111.26,111.26,0.0,0.0,3
92.79372100,92793721,0.0,-0.07,0.0,0.24,111.25,111.25,0.0,0.0,3
92.89363600,92893636,0.0,-0.06,0.0,0.24,111.24000000000001,111.24000000000001,0.0,0.0,3
92.99368000,92993680,0.0,-0.06,0.0,0.25,111.24000000000001,111.24000000000001,0.0,0.0,3
93.09372600,93093726,0.0,-0.06,0.0,0.24,111.24000000000001,111.24000000000001,0.0,0.0,3
93.19373400,93193734,0.0,-0.06,0.0,0.24,111.23,111.23,0.0,0.0,3
93.29384600,93293846,0.0,-0.06,0.0,0.24,111.23,111.23,0.0,0.01,3
93.39385000,93393850,0.0,-0.06,0.0,0.24,111.22,111.22,0.0,0.01,3
93.49389400,93493894,0.0,-0.06,0.0,0.24,111.22,111.22,0.0,0.01,3
93.59380800,93593808,0.0,-0.05,0.0,0.24,111.22,111.22,0.0,0.01,3
93.69372800,93693728,0.0,-0.05,0.0,0.24,111.22,111.22,0.0,0.01,3
93.79393800,93793938,0.0,-0.05,0.0,0.24,111.22,111.22,0.0,0.01,3
93.89370700,93893707,0.0,-0.05,0.0,0.24,111.22,111.22,0.0,0.01,3
93.99371000,93993710,0.0,-0.05,0.0,0.24,111.22,111.22,0.0,0.01,3
94.09374200,94093742,0.0,-0.04,0.0,0.25,111.22,111.22,0.0,0.01,3
94.19383800,94193838,0.0,-0.04,0.0,0.25,111.22,111.22,0.0,0.01,3
94.29381800,94293818,0.0,-0.04,0.0,0.25,111.21000000000001,111.21000000000001,0.0,0.01,3
94.39389700,94393897,0.0,-0.03,0.0,0.25,111.21000000000001,111.21000000000001,0.0,0.01,3
94.49389500,94493895,0.0,-0.03,0.0,0.25,111.21000000000001,111.21000000000001,0.0,0.01,3
94.59374200,94593742,0.0,-0.03,0.0,0.25,111.21000000000001,111.21000000000001,0.0,0.01,3
94.69364400,94693644,0.0,-0.03,0.0,0.25,111.2,111.2,0.0,0.01,3
94.79370100,94793701,0.0,-0.03,0.0,0.26,111.2,111.2,0.0,0.01,3
94.89397500,94893975,0.0,-0.03,0.0,0.26,111.2,111.2,0.0,0.01,3
94.99400100,94994001,0.0,-0.03,0.0,0.26,111.19,111.19,0.0,0.0,3
95.09407300,95094073,0.0,-0.03,0.0,0.26,111.19,111.19,0.0,0.0,3
95.19399800,95193998,0.0,-0.03,0.0,0.26,111.19,111.19,0.0,0.01,3
95.29385500,95293855,0.0,-0.03,0.0,0.26,111.19,111.19,0.0,0.01,3
95.39387800,95393878,0.0,-0.03,0.0,0.26,111.18,111.18,0.0,0.0,3
95.49373700,95493737,0.0,-0.02,0.0,0.26,111.17,111.17,0.0,0.0,3
95.59361800,95593618,0.0,-0.02,0.0,0.26,111.16,111.16,0.0,0.0,3
95.69369900,95693699,0.0,-0.01,0.0,0.26,111.15,111.15,0.0,0.0,3
95.79374400,95793744,0.0,-0.01,0.0,0.27,111.15,111.15,0.0,0.01,3
95.89380300,95893803,0.0,-0.01,0.0,0.27,111.15,111.15,0.0,0.01,3
95.99385400,95993854,0.0,-0.01,0.0,0.27,111.14,111.14,0.0,0.01,3
96.09382600,96093826,0.0,0.0,0.0,0.27,111.14,111.14,0.0,0.01,3
96.19385600,96193856,0.0,0.0,0.0,0.28,111.14,111.14,0.0,0.01,3
96.29387500,96293875,0.0,0.0,0.0,0.28,111.14,111.14,0.0,0.01,3
96.39374700,96393747,0.0,0.0,0.0,0.28,111.14,111.14,0.0,0.01,3
96.49390100,96493901,0.0,-0.01,0.0,0.29,111.14,111.14,0.0,0.01,3
96.59397200,96593972,0.0,0.0,0.0,0.28,111.15,111.15,0.0,0.01,3
96.69404300,96694043,0.0,0.0,0.0,0.28,111.15,111.15,0.0,0.01,3
96.79400600,96794006,0.0,0.0,0.0,0.28,111.14,111.14,0.0,0.01,3
96.89410000,96894100,0.0,0.0,0.0,0.29,111.14,111.14,0.0,0.01,3
96.99401900,96994019,0.0,0.0,0.0,0.29,111.14,111.14,0.0,0.01,3
97.09409400,97094094,0.0,0.0,0.0,0.29,111.14,111.14,0.0,0.01,3
97.19405000,97194050,0.0,0.0,0.0,0.3,111.13,111.13,0.0,0.01,3
97.29433000,97294330,0.0,0.0,0.0,0.3,111.13,111.13,0.0,0.01,3
97.39400100,97394001,0.0,0.0,0.0,0.3,111.12,111.12,0.0,0.01,3
97.49371200,97493712,0.0,0.01,0.0,0.31,111.11,111.11,0.0,0.01,3
97.59375300,97593753,0.0,0.01,0.0,0.31,111.11,111.11,0.0,0.01,3
97.69374200,97693742,0.0,0.01,0.0,0.31,111.10000000000001,111.10000000000001,0.0,0.01,3
97.79384300,97793843,0.0,0.01,0.0,0.31,111.09,111.09,0.0,0.01,3
97.89383200,97893832,0.0,0.01,0.0,0.31,111.09,111.09,0.0,0.01,3
97.99387600,97993876,0.0,0.02,0.0,0.31,111.10000000000001,111.10000000000001,0.0,0.01,3
98.09379800,98093798,0.0,0.02,0.0,0.31,111.09,111.09,0.0,0.01,3
98.19371200,98193712,0.0,0.02,0.0,0.31,111.09,111.09,0.0,0.01,3
