timestamp,TimeUS,C,Roll,Pitch,Yaw,VN,VE,VD,dPD,PN,PE,PD,GX,GY,GZ,OH
11.49329700,11493297,2,0.0,0.0,0.0,0.0,0.0,0.0,0.0,0.0,0.0,0.0,0.0,0.0,0.0,0.0
11.59325200,11593252,2,0.0,0.0,0.0,0.0,0.0,0.0,0.0,0.0,0.0,0.0,0.0,0.0,0.0,0.0
11.69322100,11693221,2,0.0,0.0,0.0,0.0,0.0,0.0,0.0,0.0,0.0,0.0,0.0,0.0,0.0,0.0
11.79322300,11793223,2,0.0,0.0,0.0,0.0,0.0,0.0,0.0,0.0,0.0,0.0,0.0,0.0,0.0,0.0
11.89322700,11893227,2,0.0,0.0,0.0,0.0,0.0,0.0,0.0,0.0,0.0,0.0,0.0,0.0,0.0,0.0
11.99324600,11993246,2,0.0,0.0,0.0,0.0,0.0,0.0,0.0,0.0,0.0,0.0,0.0,0.0,0.0,0.0
12.09328300,12093283,2,0.0,0.0,0.0,0.0,0.0,0.0,0.0,0.0,0.0,0.0,0.0,0.0,0.0,0.0
12.19331200,12193312,2,0.0,0.0,0.0,0.0,0.0,0.0,0.0,0.0,0.0,0.0,0.0,0.0,0.0,0.0
12.29331000,12293310,2,0.0,0.0,0.0,0.0,0.0,0.0,0.0,0.0,0.0,0.0,0.0,0.0,0.0,0.0
12.39328500,12393285,2,0.0,0.0,0.0,0.0,0.0,0.0,0.0,0.0,0.0,0.0,0.0,0.0,0.0,0.0
12.49324300,12493243,2,0.09,0.75,0.0,-0.0014018367510288954,-1.602005909262516e-06,0.010983888059854507,-2.3941596737131476e-05,0.0,0.0,0.0003989424731116742,0.0,0.0,0.0,0.0
12.59321100,12593211,2,0.09,0.75,0.01,-0.0021901444997638464,-0.00010216712689725682,0.049271341413259506,0.02531438134610653,0.0,0.0,0.0037734629586338997,0.0,0.0,0.0,0.0
12.69321800,12693218,2,0.08,0.75,0.01,-0.0026748734526336193,-0.0011080309050157666,0.09297789633274078,1.983013391494751,0.0,0.0,0.23792290687561035,0.0,0.0,0.0,0.0
12.79322900,12793229,2,0.08,0.77,0.01,-0.003998592030256987,-0.0018509296933189034,0.12311733514070511,2.8853073120117188,0.0,0.0,0.4650289714336395,0.0,0.0,0.0,0.0
12.89328400,12893284,2,0.07,0.77,0.01,-0.0054485984146595,-0.0022868786472827196,0.14462509751319885,2.40307354927063,0.0,0.0,0.6548635363578796,0.0,0.0,0.0,0.0
12.99328100,12993281,2,0.07,0.77,0.01,-0.0067924074828624725,-0.0024936257395893335,0.15906688570976257,1.8192992210388184,0.0,0.0,0.8166900277137756,0.0,0.0,0.0,0.0
13.09329500,13093295,2,0.07,0.78,0.01,-0.008471956476569176,-0.0017950637266039848,0.1687772125005722,1.3018970489501953,0.0,0.0,0.9444165825843811,0.0,0.0,0.0,0.0
13.19329100,13193291,2,0.06,0.78,0.01,-0.010026185773313046,-0.0013503009686246514,0.17453452944755554,0.9226672649383545,0.0,0.0,1.0472890138626099,0.0,0.0,0.0,0.0
13.29330000,13293300,2,0.06,0.79,0.01,-0.011507170274853706,-0.0019891546107828617,0.18050850927829742,0.747672438621521,0.0,0.0,1.1369292736053467,0.0,0.0,0.0,0.0
13.39323800,13393238,2,0.06,0.79,0.02,-0.012031654827296734,-0.003343493677675724,0.18340779840946198,0.6582596302032471,0.0,0.0,1.2152485847473145,0.0,0.0,0.0,0.0
13.49321300,13493213,2,0.06,0.79,0.02,-0.012515418231487274,-0.004315547179430723,0.1859007179737091,0.5738265514373779,0.0,0.0,1.2821907997131348,0.0,0.0,0.0,0.0
13.59322300,13593223,2,0.06,0.79,0.02,-0.012623263522982597,-0.004610465373843908,0.18942910432815552,0.5308734774589539,0.0,0.0,1.3441824913024902,0.0,0.0,0.0,0.0
13.69321600,13693216,2,0.05,0.79,0.03,-0.011663652956485748,-0.006417802069336176,0.18970023095607758,0.4515770375728607,0.0,0.0,1.3940376043319702,0.0,0.0,0.0,0.0
13.79326000,13793260,2,0.05,0.79,0.03,-0.012080049142241478,-0.007270475849509239,0.18736587464809418,0.3235599398612976,0.0,0.0,1.4320780038833618,0.0,0.0,0.0,0.0
13.89327000,13893270,2,0.05,0.79,0.04,-0.010652967728674412,-0.008770661428570747,0.1847739964723587,0.24843375384807587,0.0,0.0,1.4634006023406982,0.0,0.0,0.0,0.0
13.99329600,13993296,2,0.08,0.76,110.74000000000001,-0.00798136368393898,-0.007985875010490417,0.18120023608207703,0.19928495585918427,0.0,0.0,1.4889057874679565,0.0,0.0,0.0,0.0
14.09329800,14093298,2,0.07,0.77,110.73,-0.0034744597505778074,-0.0072778090834617615,0.17669768631458282,0.166359081864357,0.0,0.0,1.5104039907455444,0.0,0.0,0.0,0.0
14.19331300,14193313,2,0.05,0.78,110.69,5.888982559554279e-05,-0.006080038845539093,0.17213745415210724,0.15924912691116333,0.0,0.0,1.530349612236023,0.0,0.0,0.0,0.0
14.29324000,14293240,2,0.04,0.79,110.65,0.0034961970522999763,-0.005773410201072693,0.16835296154022217,0.15653935074806213,0.0,0.0,1.548351526260376,0.0,0.0,0.0,0.0
14.39321400,14393214,2,0.04,0.8,110.61,0.00622584717348218,-0.004919908940792084,0.1628677397966385,0.12880316376686096,0.0,0.0,1.5625224113464355,0.0,0.0,0.0,0.0
14.49322800,14493228,2,0.02,0.8,110.57000000000001,0.009650150313973427,-0.005265385843813419,0.15724393725395203,0.10554976016283035,0.0,0.0,1.575173258781433,0.0,0.0,0.0,0.0
14.59321800,14593218,2,0.02,0.81,110.54,0.012639478780329227,-0.006330409552901983,0.15340542793273926,0.1265832930803299,0.0,0.0,1.590173363685608,0.0,0.0,0.0,0.0
14.69327800,14693278,2,0.02,0.81,110.53,0.015002678148448467,-0.006868382450193167,0.14939773082733154,0.13788112998008728,0.0,0.0,1.6039361953735352,0.0,0.0,0.0,0.0
14.79327200,14793272,2,0.02,0.8200000000000001,110.52,0.017122782766819,-0.0076906317844986916,0.14403598010540009,0.1103760227560997,0.0,0.0,1.6148219108581543,0.0,0.0,0.0,0.0
14.89330800,14893308,2,0.01,0.8200000000000001,110.5,0.019476111978292465,-0.008512165397405624,0.13801023364067078,0.07660214602947235,0.0,0.0,1.622880220413208,0.0,0.0,0.0,0.0
14.99329300,14993293,2,0.02,0.8200000000000001,110.47,0.020776981487870216,-0.009713277220726013,0.13203532993793488,0.05376209691166878,0.0,0.0,1.6296031475067139,0.0,0.0,0.0,0.0
15.09329500,15093295,2,0.02,0.8200000000000001,110.44,0.02287294901907444,-0.010926979593932629,0.12580618262290955,0.04640410840511322,0.0,0.0,1.6354289054870605,0.0,0.0,0.0,0.0
15.19323800,15193238,2,0.02,0.8200000000000001,110.4,0.024090813472867012,-0.010628006421029568,0.12125013768672943,0.06496134400367737,0.0,0.0,1.6436970233917236,0.0,0.0,0.01,0.0
15.29322900,15293229,2,0.03,0.8200000000000001,110.37,0.024122700095176697,-0.011809966526925564,0.11677110940217972,0.08823235332965851,0.0,0.0,1.6524523496627808,0.0,0.0,0.0,0.0
15.39321200,15393212,2,0.03,0.8200000000000001,110.36,0.024301446974277496,-0.012726692482829094,0.11200404912233353,0.07923228293657303,0.0,0.0,1.6596481800079346,0.0,0.0,0.0,0.0
15.49321200,15493212,2,0.04,0.8200000000000001,110.38,0.02323545701801777,-0.01374594122171402,0.1054486483335495,0.037961237132549286,0.0,0.0,1.6625908613204956,-0.01,0.01,0.0,0.0
15.59327800,15593278,2,0.05,0.8200000000000001,110.43,0.021862879395484924,-0.013705821707844734,0.09637877345085144,-0.03153705596923828,0.0,0.0,1.659616231918335,-0.01,0.01,-0.01,0.0
15.69326300,15693263,2,0.05,0.81,110.49000000000001,0.020317846909165382,-0.013904955238103867,0.08694539219141006,-0.08099514245986938,0.0,0.0,1.6538193225860596,-0.01,0.01,-0.01,0.0
15.79330400,15793304,2,0.07,0.8,110.53,0.018793480470776558,-0.014218591153621674,0.07781574875116348,-0.07551322132349014,0.0,0.0,1.6492290496826172,-0.01,0.02,0.0,0.0
15.89329200,15893292,2,0.07,0.79,110.55,0.017214631661772728,-0.014445748180150986,0.06884440779685974,-0.054373160004615784,0.0,0.0,1.6453629732131958,-0.01,0.02,-0.01,0.0
15.99328900,15993289,2,0.08,0.78,110.57000000000001,0.014610303565859795,-0.013584601692855358,0.059376876801252365,-0.06954184174537659,0.0,0.0,1.6379963159561157,-0.02,0.02,0.0,0.0
16.09324500,16093245,2,0.08,0.78,110.57000000000001,0.013112199492752552,-0.012991889379918575,0.04951682314276695,-0.09306494891643524,0.0,0.0,1.6296114921569824,-0.02,0.02,-0.01,0.0
16.19321400,16193214,2,0.09,0.77,110.57000000000001,0.011104016564786434,-0.011950643733143806,0.03907083347439766,-0.09914218634366989,0.0,0.0,1.6207501888275146,-0.02,0.03,0.0,0.0
16.29320900,16293209,2,0.09,0.76,110.57000000000001,0.009542983025312424,-0.011813411489129066,0.0296566691249609,-0.09527279436588287,0.0,0.0,1.6121623516082764,-0.02,0.03,0.0,0.0
16.39321200,16393212,2,0.1,0.76,110.56,0.008081965148448944,-0.011137068271636963,0.02144499123096466,-0.07355637103319168,0.0,0.0,1.6057476997375488,-0.02,0.03,0.0,0.0
16.49325900,16493259,2,0.1,0.76,110.56,0.0062592122703790665,-0.010155398398637772,0.014277825132012367,-0.05488734692335129,0.0,0.0,1.5999406576156616,-0.02,0.04,-0.01,0.0
16.59329400,16593294,2,0.11,0.75,110.56,0.004859485197812319,-0.009891513735055923,0.00700190756469965,-0.05249704048037529,0.0,0.0,1.5941238403320312,-0.02,0.04,0.0,0.0
16.69329000,16693290,2,0.11,0.74,110.56,0.003730092430487275,-0.009061688557267189,0.0009974278509616852,-0.04466931149363518,0.0,0.0,1.5895417928695679,-0.02,0.04,0.0,0.0
16.79329400,16793294,2,0.11,0.74,110.57000000000001,0.003019439522176981,-0.007806436624377966,-0.0051527684554457664,-0.041223231703042984,0.0,0.0,1.584798812866211,-0.02,0.04,0.0,0.0
16.89329200,16893292,2,0.11,0.73,110.56,0.002447795821353793,-0.0065267616882920265,-0.00888785719871521,-0.0183898713439703,0.0,0.0,1.5834012031555176,-0.03,0.05,0.0,0.0
16.99323700,16993237,2,0.1,0.72,110.55,0.0019313950324431062,-0.007115137297660112,-0.013321725651621819,-0.016307635232806206,0.0,0.0,1.5799953937530518,-0.03,0.05,0.0,0.0
17.09321500,17093215,2,0.11,0.71,110.54,0.001562443096190691,-0.006326501257717609,-0.019377809017896652,-0.05123131349682808,0.0,0.0,1.573964238166809,-0.03,0.05,0.0,0.0
17.19321000,17193210,2,0.11,0.7000000000000001,110.54,0.000549588177818805,-0.005913195200264454,-0.028918642550706863,-0.12406802177429199,0.0,0.0,1.56016206741333,-0.03,0.05,0.0,0.0
17.29321900,17293219,2,0.1,0.7000000000000001,110.54,-0.0003037423302885145,-0.005568925756961107,-0.03715326264500618,-0.15610657632350922,0.0,0.0,1.5478278398513794,-0.03,0.05,0.0,0.0
17.39325700,17393257,2,0.1,0.6900000000000001,110.54,-0.0013743283925577998,-0.004420129116624594,-0.04338452219963074,-0.11159256845712662,0.0,0.0,1.539210319519043,-0.03,0.05,0.0,0.0
17.49326400,17493264,2,0.1,0.68,110.55,-0.002043958753347397,-0.0034316882956773043,-0.048329807817935944,-0.07234378159046173,0.0,0.0,1.532209038734436,-0.03,0.05,0.0,0.0
17.59330400,17593304,2,0.1,0.68,110.56,-0.003577661933377385,-0.0032646406907588243,-0.05335547402501106,-0.06877369433641434,0.0,0.0,1.524438738822937,-0.02,0.06,0.0,0.0
17.69328500,17693285,2,0.1,0.67,110.55,-0.0032647247426211834,-0.0027754055336117744,-0.06065111979842186,-0.10236877202987671,0.0,0.0,1.5133427381515503,-0.02,0.06,0.0,0.0
17.79329300,17793293,2,0.1,0.66,110.55,-0.004116145893931389,-0.0017510055331513286,-0.06539927423000336,-0.08537481725215912,0.0,0.0,1.5062625408172607,-0.02,0.06,0.0,0.0
17.89324400,17893244,2,0.1,0.65,110.56,-0.004873309750109911,-0.0014914734056219459,-0.06607075780630112,-0.011946883983910084,0.0,0.0,1.5050703287124634,-0.02,0.06,0.0,0.0
17.99320800,17993208,2,0.1,0.65,110.56,-0.006387842819094658,-0.0012214112794026732,-0.06695275008678436,-0.006409397814422846,0.0,0.0,1.5016032457351685,-0.02,0.06,0.0,0.0
18.09321300,18093213,2,0.1,0.64,110.54,-0.007362701464444399,-0.000978982076048851,-0.07119572907686234,-0.050886787474155426,0.0,0.0,1.4953513145446777,-0.02,0.06,0.0,0.0
18.19321500,18193215,2,0.1,0.64,110.53,-0.008033632300794125,0.0008645133348181844,-0.07541187852621078,-0.06360464543104172,0.0,0.0,1.4894931316375732,-0.02,0.06,0.0,0.0
18.29326400,18293264,2,0.1,0.63,110.52,-0.008690005168318748,0.0022192071191966534,-0.07986883819103241,-0.07100526243448257,0.0,0.0,1.4824827909469604,-0.02,0.06,0.01,0.0
18.39329000,18393290,2,0.1,0.63,110.52,-0.008753286674618721,0.0038843939546495676,-0.08549679070711136,-0.09870324283838272,0.0,0.0,1.4727275371551514,-0.02,0.06,0.0,0.0
18.49329500,18493295,2,0.1,0.63,110.52,-0.009468882344663143,0.0052980282343924046,-0.08797614276409149,-0.0660230815410614,0.0,0.0,1.4681159257888794,-0.02,0.06,0.01,0.0
18.59329200,18593292,2,0.1,0.62,110.51,-0.009560026228427887,0.006430039647966623,-0.09125616401433945,-0.04148062691092491,0.0,0.0,1.4627076387405396,-0.02,0.06,0.01,0.0
18.69329700,18693297,2,0.1,0.62,110.5,-0.009149227291345596,0.007792940828949213,-0.09484211355447769,-0.07607521116733551,0.0,0.0,1.4542771577835083,-0.02,0.06,0.0,0.0
18.79324300,18793243,2,0.09,0.61,110.51,-0.009027701802551746,0.008288096636533737,-0.09707708656787872,-0.06711690872907639,0.0,0.0,1.448512077331543,-0.02,0.06,0.0,0.0
18.89320800,18893208,2,0.09,0.61,110.51,-0.008411867544054985,0.008926518261432648,-0.098318912088871,-0.04788001999258995,0.0,0.0,1.4433566331863403,-0.02,0.06,0.0,0.0
18.99320700,18993207,2,0.08,0.61,110.52,-0.008512387983500957,0.00949192326515913,-0.10070672631263733,-0.06239089369773865,0.0,0.0,1.4362958669662476,-0.02,0.06,0.0,0.0
19.09322100,19093221,2,0.08,0.62,110.53,-0.007523574400693178,0.010643089190125465,-0.10341726243495941,-0.06918356567621231,0.0,0.0,1.4297289848327637,-0.02,0.06,0.0,0.0
19.19324800,19193248,2,0.08,0.62,110.54,-0.007557193748652935,0.011535719968378544,-0.10640787333250046,-0.08869916200637817,0.0,0.0,1.4201396703720093,-0.02,0.06,0.0,0.0
19.29327400,19293274,2,0.08,0.62,110.55,-0.006419604644179344,0.012058273889124393,-0.11157016456127167,-0.1317572146654129,0.0,0.0,1.4074543714523315,-0.02,0.06,0.0,0.0
19.39329600,19393296,2,0.07,0.62,110.56,-0.006275544408708811,0.011443698778748512,-0.11438999325037003,-0.13329382240772247,0.0,0.0,1.3958618640899658,-0.02,0.05,0.0,0.0
19.49328900,19493289,2,0.08,0.62,110.57000000000001,-0.006717900279909372,0.011364332400262356,-0.11709420382976532,-0.10172053426504135,0.0,0.0,1.3867040872573853,-0.02,0.05,-0.01,0.0
19.59329500,19593295,2,0.07,0.62,110.60000000000001,-0.0064352876506745815,0.012472881935536861,-0.12021166831254959,-0.09538064897060394,0.0,0.0,1.3764029741287231,-0.02,0.05,-0.02,0.0
19.69324900,19693249,2,0.07,0.63,110.63,-0.006169066298753023,0.012928425334393978,-0.1223408430814743,-0.09383609145879745,0.0,0.0,1.3671854734420776,-0.02,0.05,-0.01,0.0
19.79321200,19793212,2,0.06,0.63,110.65,-0.00511726550757885,0.012725812382996082,-0.12248770892620087,-0.06940747052431107,0.0,0.0,1.3600223064422607,-0.02,0.05,-0.02,0.0
19.89321200,19893212,2,0.05,0.63,110.69,-0.005018508527427912,0.012671436183154583,-0.12261396646499634,-0.03466023504734039,0.0,0.0,1.356338620185852,-0.02,0.05,-0.03,0.0
19.99322200,19993222,2,0.05,0.63,110.73,-0.00393247976899147,0.012406728230416775,-0.1221139058470726,-0.021669326350092888,0.0,0.0,1.352271318435669,-0.02,0.05,-0.03,0.0
20.09328100,20093281,2,0.05,0.64,110.75,-0.003282687393948436,0.012420769780874252,-0.12179260700941086,-0.029744600877165794,0.0,0.0,1.3484081029891968,-0.02,0.05,-0.02,0.0
20.19328900,20193289,2,0.05,0.64,110.75,-0.0027451154310256243,0.012425294145941734,-0.12104548513889313,-0.021387310698628426,0.0,0.0,1.3458998203277588,-0.02,0.05,-0.02,0.0
20.29329500,20293295,2,0.05,0.64,110.75,-0.002328619360923767,0.011673263274133205,-0.12044572085142136,-0.01733108051121235,0.0,0.0,1.3434547185897827,-0.02,0.05,-0.03,0.0
20.39329000,20393290,2,0.05,0.64,110.74000000000001,-0.0017730318941175938,0.011045319028198719,-0.11888210475444794,-0.015154864639043808,0.0,0.0,1.341836929321289,-0.02,0.05,-0.02,0.0
20.49330100,20493301,2,0.04,0.64,110.74000000000001,-0.0012893915409222245,0.01046025287359953,-0.11707446724176407,0.008545387536287308,0.0,0.0,1.3426820039749146,-0.02,0.05,-0.02,0.0
20.59324200,20593242,2,0.04,0.64,110.74000000000001,-0.0006224116659723222,0.009662268683314323,-0.11679523438215256,-0.012055273167788982,0.0,0.0,1.3390603065490723,-0.02,0.05,-0.03,0.0
20.69323300,20693233,2,0.04,0.64,110.76,0.0006319061503745615,0.009248358197510242,-0.1159844622015953,-0.032027147710323334,0.0,0.0,1.3369979858398438,-0.02,0.05,-0.03,0.0
20.79322200,20793222,2,0.04,0.65,110.79,0.0009508565999567509,0.009313392452895641,-0.11227047443389893,0.03308384120464325,0.0,0.0,1.3414280414581299,-0.02,0.05,-0.04,0.0
20.89322400,20893224,2,0.04,0.65,110.82000000000001,0.0013853992568328977,0.008493038825690746,-0.10544881224632263,0.10225802659988403,0.0,0.0,1.350306510925293,-0.02,0.05,-0.05,0.0
20.99328700,20993287,2,0.04,0.66,110.85000000000001,0.0024662234354764223,0.007742790039628744,-0.09929551929235458,0.13299308717250824,0.0,0.0,1.3609647750854492,-0.02,0.05,-0.04,0.0
21.09326700,21093267,2,0.04,0.66,110.88,0.0025152121670544147,0.007354730274528265,-0.09454607963562012,0.10237570106983185,0.0,0.0,1.3677829504013062,-0.02,0.05,-0.05,0.0
21.19330100,21193301,2,0.04,0.66,110.9,0.0038262188900262117,0.0070955161936581135,-0.09243549406528473,0.03853270038962364,0.0,0.0,1.3706191778182983,-0.02,0.04,-0.04,0.0
21.29328800,21293288,2,0.04,0.67,110.9,0.0050274888053536415,0.0059685371816158295,-0.09045259654521942,0.012347041629254818,0.0,0.0,1.3734755516052246,-0.02,0.04,-0.03,0.0
21.39329000,21393290,2,0.04,0.67,110.88,0.005695536732673645,0.006192881613969803,-0.08664936572313309,0.03032274730503559,0.0,0.0,1.377746343612671,-0.02,0.04,-0.03,0.0
21.49324200,21493242,2,0.05,0.66,110.86,0.006402952130883932,0.005993064027279615,-0.0825812965631485,0.06555894762277603,0.0,0.0,1.3848754167556763,-0.02,0.04,-0.03,0.0
21.59321000,21593210,2,0.05,0.66,110.85000000000001,0.0066900476813316345,0.006341883912682533,-0.07674287259578705,0.11338284611701965,0.0,0.0,1.3962715864181519,-0.02,0.04,-0.03,0.0
21.69320800,21693208,2,0.04,0.66,110.86,0.007272681687027216,0.005161039996892214,-0.07211434096097946,0.11334175616502762,0.0,0.0,1.4048434495925903,-0.02,0.04,-0.04,0.0
21.79321100,21793211,2,0.04,0.67,110.86,0.006893699523061514,0.004775735549628735,-0.06889869272708893,0.08319680392742157,0.0,0.0,1.41213858127594,-0.02,0.04,-0.03,0.0
21.89327300,21893273,2,0.05,0.66,110.86,0.006832128390669823,0.005045382305979729,-0.06446950137615204,0.08281884342432022,0.0,0.0,1.4206275939941406,-0.02,0.04,-0.03,0.0
21.99326600,21993266,2,0.05,0.66,110.87,0.007211948744952679,0.0050360471941530704,-0.05987660586833954,0.0887395441532135,0.0,0.0,1.4293467998504639,-0.02,0.04,-0.03,0.0
22.09330500,22093305,2,0.04,0.66,110.86,0.0073096491396427155,0.005687609314918518,-0.05586078390479088,0.07976440340280533,0.0,0.0,1.436708927154541,-0.02,0.04,-0.02,0.0
22.19329500,22193295,2,0.05,0.66,110.87,0.007126317359507084,0.006325774826109409,-0.05374108627438545,0.05505708232522011,0.0,0.0,1.4418843984603882,-0.02,0.04,-0.03,0.0
22.29328200,22293282,2,0.05,0.66,110.87,0.00718740513548255,0.0069615766406059265,-0.052299614995718,0.0310104638338089,0.0,0.0,1.4454028606414795,-0.02,0.04,-0.03,0.0
22.39323700,22393237,2,0.05,0.66,110.88,0.007947015576064587,0.006972988601773977,-0.051438406109809875,0.0049897232092916965,0.0,0.0,1.4462937116622925,-0.02,0.04,-0.03,0.0
22.49321500,22493215,2,0.05,0.66,110.89,0.0074174776673316956,0.007010091096162796,-0.05048350244760513,-0.01682431809604168,0.0,0.0,1.4455440044403076,-0.02,0.04,-0.03,0.0
22.59320900,22593209,2,0.05,0.66,110.9,0.0063614691607654095,0.00665717339143157,-0.04767337068915367,0.0037131113931536674,0.0,0.0,1.447836995124817,-0.02,0.04,-0.03,0.0
22.69322000,22693220,2,0.05,0.67,110.89,0.006039251107722521,0.006119995377957821,-0.045984238386154175,0.016989856958389282,0.0,0.0,1.4491355419158936,-0.02,0.04,-0.02,0.0
22.79328800,22793288,2,0.04,0.67,110.88,0.0063603720627725124,0.005694305989891291,-0.04585181176662445,-0.013023490086197853,0.0,0.0,1.447096824645996,-0.02,0.04,-0.02,0.0
22.89327600,22893276,2,0.04,0.67,110.87,0.006755187641829252,0.004872436635196209,-0.0444524772465229,-0.005995546467602253,0.0,0.0,1.4482061862945557,-0.02,0.04,-0.02,0.0
22.99330400,22993304,2,0.04,0.68,110.85000000000001,0.0063814567402005196,0.004085558000952005,-0.04195638373494148,0.03109901212155819,0.0,0.0,1.4515811204910278,-0.02,0.04,-0.01,0.0
23.09329000,23093290,2,0.04,0.68,110.84,0.006167860236018896,0.0032052199821919203,-0.03915474936366081,0.030551917850971222,0.0,0.0,1.4531689882278442,-0.02,0.04,-0.01,0.0
23.19329700,23193297,2,0.04,0.68,110.82000000000001,0.005909557454288006,0.0023561071138828993,-0.038456983864307404,0.010226206853985786,0.0,0.0,1.4537726640701294,-0.02,0.04,-0.01,0.0
23.29325400,23293254,2,0.04,0.6900000000000001,110.81,0.005380867049098015,0.002267685951665044,-0.03678888455033302,0.0164507944136858,0.0,0.0,1.4560478925704956,-0.02,0.04,-0.01,0.0
23.39320900,23393209,2,0.02,0.6900000000000001,110.8,0.005860784091055393,0.0025435746647417545,-0.03562040627002716,0.0214708149433136,0.0,0.0,1.45781672000885,-0.02,0.04,-0.01,0.0
23.49321200,23493212,2,0.02,0.6900000000000001,110.78,0.0063833254389464855,0.002659392077475786,-0.03519975021481514,0.0007574046030640602,0.0,0.0,1.457269310951233,-0.02,0.04,0.0,0.0
23.59322100,23593221,2,0.02,0.6900000000000001,110.77,0.007036317605525255,0.0027064532041549683,-0.035004936158657074,-0.01001984067261219,0.0,0.0,1.4569247961044312,-0.02,0.04,0.0,0.0
23.69324900,23693249,2,0.02,0.6900000000000001,110.76,0.007574497722089291,0.0024742118548601866,-0.03492143377661705,-0.011282281018793583,0.0,0.0,1.4560563564300537,-0.02,0.04,0.0,0.0
23.79327700,23793277,2,0.02,0.6900000000000001,110.75,0.007708052638918161,0.0018898702692240477,-0.036247413605451584,-0.038720425218343735,0.0,0.0,1.4517585039138794,-0.02,0.04,0.0,0.0
23.89330200,23893302,2,0.01,0.6900000000000001,110.75,0.008822837844491005,0.0012371140765026212,-0.03531735762953758,-0.04880450293421745,0.0,0.0,1.44817316532135,-0.02,0.04,0.0,0.0
23.99329300,23993293,2,0.01,0.7000000000000001,110.75,0.00942585151642561,0.0006583414506167173,-0.03511490300297737,-0.03486688435077667,0.0,0.0,1.445441722869873,-0.02,0.04,-0.01,0.0
24.09330100,24093301,2,0.02,0.6900000000000001,110.77,0.01036055851727724,0.00022073833679314703,-0.03535180538892746,-0.0271495059132576,0.0,0.0,1.442873239517212,-0.02,0.04,-0.01,0.0
24.19324900,24193249,2,0.02,0.6900000000000001,110.8,0.010532189160585403,0.00042476417729631066,-0.034446533769369125,-0.009518411941826344,0.0,0.0,1.4424000978469849,-0.02,0.04,-0.03,0.0
24.29321900,24293219,2,0.02,0.6900000000000001,110.85000000000001,0.011811641976237297,0.00013561005471274257,-0.033898621797561646,-0.024399248883128166,0.0,0.0,1.4381414651870728,-0.02,0.04,-0.03,0.0
24.39322100,24393221,2,0.02,0.6900000000000001,110.9,0.012233667075634003,0.0003580147458706051,-0.03465744107961655,-0.05335518717765808,0.0,0.0,1.4332072734832764,-0.02,0.04,-0.03,0.0
24.49322400,24493224,2,0.01,0.6900000000000001,110.93,0.013118334114551544,-0.00024191912962123752,-0.03494083881378174,-0.03611074760556221,0.0,0.0,1.4310755729675293,-0.02,0.04,-0.02,0.0
24.59326800,24593268,2,0.02,0.7000000000000001,110.95,0.013537502847611904,-0.0010645510628819466,-0.03361310809850693,-0.011194691061973572,0.0,0.0,1.4298065900802612,-0.02,0.04,-0.02,0.0
24.69327200,24693272,2,0.02,0.7000000000000001,110.95,0.013497610576450825,-0.002072445582598448,-0.03172048553824425,0.022267872467637062,0.0,0.0,1.4324750900268555,-0.02,0.04,-0.02,0.0
24.79329600,24793296,2,0.02,0.7000000000000001,110.96000000000001,0.014025144279003143,-0.002823449671268463,-0.03028068318963051,0.031259018927812576,0.0,0.0,1.4335243701934814,-0.02,0.04,-0.03,0.0
24.89328800,24893288,2,0.01,0.71,110.97,0.013870482333004475,-0.0038497457280755043,-0.02890242077410221,0.0195482037961483,0.0,0.0,1.4349125623703003,-0.02,0.04,-0.02,0.0
24.99330000,24993300,2,0.02,0.72,110.98,0.01430454757064581,-0.004819386638700962,-0.027973713353276253,0.01357023324817419,0.0,0.0,1.4356871843338013,-0.02,0.04,-0.02,0.0
25.09324100,25093241,2,0.02,0.71,110.98,0.01475901622325182,-0.00529075413942337,-0.026573799550533295,-0.0028798070270568132,0.0,0.0,1.4349391460418701,-0.02,0.04,-0.02,0.0
25.19321600,25193216,2,0.01,0.71,110.98,0.015726987272500992,-0.006833186838775873,-0.024818243458867073,-0.00862516462802887,0.0,0.0,1.4345964193344116,-0.02,0.04,-0.02,0.0
25.29322900,25293229,2,0.01,0.71,110.98,0.01626039855182171,-0.007751325611025095,-0.023892272263765335,0.0013360470766201615,0.0,0.0,1.4352604150772095,-0.02,0.04,-0.03,0.0
25.39321300,25393213,2,0.01,0.71,111.0,0.01760750636458397,-0.008572218008339405,-0.024621648713946342,-0.010620427317917347,0.0,0.0,1.4334616661071777,-0.02,0.04,-0.03,0.0
25.49328400,25493284,2,0.0,0.71,111.02,0.018659252673387527,-0.008916315622627735,-0.025427034124732018,-0.027495702728629112,0.0,0.0,1.4312186241149902,-0.02,0.04,-0.03,0.0
25.59328700,25593287,2,0.0,0.71,111.03,0.019304463639855385,-0.009530417621135712,-0.02630622312426567,-0.03767748177051544,0.0,0.0,1.4276652336120605,-0.02,0.04,-0.03,0.0
25.69329300,25693293,2,0.0,0.71,111.04,0.01978220045566559,-0.010011101141571999,-0.026878414675593376,-0.03665558993816376,0.0,0.0,1.4249894618988037,-0.02,0.04,-0.02,0.0
25.79328900,25793289,2,0.0,0.72,111.04,0.020388320088386536,-0.011006568558514118,-0.026309164240956306,-0.01367068849503994,0.0,0.0,1.4243098497390747,-0.02,0.04,-0.02,0.0
25.89330100,25893301,2,0.0,0.72,111.04,0.021930377930402756,-0.012466585263609886,-0.024728422984480858,0.01836290955543518,0.0,0.0,1.425764560699463,-0.02,0.04,-0.03,0.0
25.99324000,25993240,2,0.0,0.73,111.04,0.02270014025270939,-0.013924306258559227,-0.022333210334181786,0.04287116602063179,0.0,0.0,1.4290082454681396,-0.02,0.04,-0.03,0.0
26.09321900,26093219,2,0.0,0.73,111.04,0.02270287275314331,-0.01556910015642643,-0.02014048397541046,0.03971634432673454,0.0,0.0,1.4315550327301025,-0.02,0.04,-0.02,0.0
26.19322700,26193227,2,0.0,0.73,111.04,0.024326959624886513,-0.016368038952350616,-0.018879489973187447,0.020556006580591202,0.0,0.0,1.4328950643539429,-0.02,0.04,-0.02,0.0
26.29321400,26293214,2,0.0,0.73,111.02,0.024220146238803864,-0.016710707917809486,-0.018903348594903946,0.0032980102114379406,0.0,0.0,1.4332191944122314,-0.02,0.04,-0.01,0.0
26.39326400,26393264,2,-0.01,0.73,110.99000000000001,0.024917731061577797,-0.016986403614282608,-0.017936615273356438,-0.00692735007032752,0.0,0.0,1.4328557252883911,-0.03,0.04,-0.01,0.0
26.49328200,26493282,2,-0.01,0.73,110.97,0.024790721014142036,-0.01680837757885456,-0.017697401344776154,-0.02454264648258686,0.0,0.0,1.4305707216262817,-0.03,0.04,-0.01,0.0
26.59330300,26593303,2,0.0,0.73,110.96000000000001,0.025319719687104225,-0.0166771300137043,-0.0179250817745924,-0.035526975989341736,0.0,0.0,1.4279512166976929,-0.03,0.04,-0.01,0.0
26.69330800,26693308,2,-0.01,0.73,110.95,0.025545785203576088,-0.016937194392085075,-0.01781119406223297,-0.024670496582984924,0.0,0.0,1.4262957572937012,-0.03,0.04,-0.02,0.0
26.79331200,26793312,2,-0.01,0.73,110.96000000000001,0.025837982073426247,-0.01672300137579441,-0.017858194187283516,-0.009647506289184093,0.0,0.0,1.4255646467208862,-0.03,0.04,-0.02,0.0
26.89324900,26893249,2,0.0,0.74,110.96000000000001,0.02679317444562912,-0.016644420102238655,-0.0173823069781065,-0.005971711128950119,0.0,0.0,1.4245635271072388,-0.03,0.04,-0.01,0.0
26.99321400,26993214,2,0.0,0.74,110.95,0.026749154552817345,-0.01648491434752941,-0.01820928230881691,-0.029597759246826172,0.0,0.0,1.421002984046936,-0.03,0.04,-0.01,0.0
27.09322400,27093224,2,0.0,0.74,110.94,0.027098054066300392,-0.015791671350598335,-0.018597928807139397,-0.04232770577073097,0.0,0.0,1.4175902605056763,-0.03,0.05,-0.01,0.0
27.19322100,27193221,2,0.0,0.74,110.95,0.02818177454173565,-0.016330622136592865,-0.01953979954123497,-0.050807803869247437,0.0,0.0,1.4125889539718628,-0.03,0.05,-0.01,0.0
27.29328000,27293280,2,0.0,0.74,110.95,0.028906207531690598,-0.016690824180841446,-0.021603893488645554,-0.07246707379817963,0.0,0.0,1.4059628248214722,-0.03,0.05,-0.01,0.0
27.39326700,27393267,2,0.0,0.74,110.96000000000001,0.029696928337216377,-0.016901101917028427,-0.022392431274056435,-0.07358181476593018,0.0,0.0,1.3995885848999023,-0.03,0.05,-0.01,0.0
27.49329200,27493292,2,0.0,0.74,110.95,0.0294963251799345,-0.016928507015109062,-0.023830043151974678,-0.082382932305336,0.0,0.0,1.3914562463760376,-0.03,0.05,-0.01,0.0
27.59330200,27593302,2,0.0,0.74,110.95,0.030032102018594742,-0.0167828518897295,-0.025462841615080833,-0.09110626578330994,0.0,0.0,1.3832595348358154,-0.03,0.05,-0.01,0.0
27.69329800,27693298,2,0.0,0.73,110.96000000000001,0.029261590912938118,-0.01640593633055687,-0.0270081739872694,-0.0861441045999527,0.0,0.0,1.375209093093872,-0.03,0.05,-0.01,0.0
27.79324300,27793243,2,0.0,0.73,110.96000000000001,0.02988533489406109,-0.015795258805155754,-0.028043176978826523,-0.05771402642130852,0.0,0.0,1.3704543113708496,-0.03,0.05,-0.01,0.0
27.89321300,27893213,2,0.0,0.73,110.97,0.030809948220849037,-0.015243847854435444,-0.029034053906798363,-0.030310845002532005,0.0,0.0,1.3666036128997803,-0.03,0.05,-0.01,0.0
27.99321000,27993210,2,0.0,0.73,110.99000000000001,0.03125931695103645,-0.014557156711816788,-0.029359543696045876,-0.030338849872350693,0.0,0.0,1.3626983165740967,-0.03,0.05,-0.01,0.0
28.09321600,28093216,2,0.0,0.72,111.01,0.031035609543323517,-0.013913026079535484,-0.029048731550574303,-0.024550067260861397,0.0,0.0,1.3597766160964966,-0.03,0.05,-0.01,0.0
28.19329400,28193294,2,0.01,0.72,111.02,0.03075476363301277,-0.013727129437029362,-0.029079686850309372,-0.012962180189788342,0.0,0.0,1.35811185836792,-0.03,0.05,-0.01,0.0
28.29327800,28293278,2,0.0,0.71,111.03,0.03074638918042183,-0.01311976183205843,-0.029951682314276695,-0.0153921227902174,0.0,0.0,1.3557928800582886,-0.03,0.05,-0.01,0.0
28.39329700,28393297,2,0.0,0.71,111.02,0.03043227642774582,-0.012768223881721497,-0.02930183708667755,-0.032808009535074234,0.0,0.0,1.3519632816314697,-0.03,0.05,-0.01,0.0
28.49330100,28493301,2,0.0,0.71,111.02,0.030416807159781456,-0.011339831165969372,-0.030093472450971603,-0.04198898747563362,0.0,0.0,1.3481860160827637,-0.03,0.05,-0.01,0.0
28.59331800,28593318,2,0.0,0.71,111.01,0.029958102852106094,-0.010368003509938717,-0.030973143875598907,-0.025211554020643234,0.0,0.0,1.3463783264160156,-0.03,0.05,-0.01,0.0
28.69323900,28693239,2,0.0,0.7000000000000001,111.0,0.029710596427321434,-0.00933961383998394,-0.0306863971054554,5.349145067157224e-05,0.0,0.0,1.3461905717849731,-0.03,0.05,-0.01,0.0
28.79322000,28793220,2,0.0,0.7000000000000001,110.99000000000001,0.02942090481519699,-0.007724153809249401,-0.030437540262937546,0.00339490850456059,0.0,0.0,1.3455334901809692,-0.03,0.05,-0.01,0.0
28.89321400,28893214,2,0.0,0.7000000000000001,110.99000000000001,0.02922348864376545,-0.006580292247235775,-0.030046282336115837,-0.0024648334365338087,0.0,0.0,1.344847321510315,-0.03,0.05,-0.01,0.0
28.99321700,28993217,2,0.0,0.7000000000000001,110.99000000000001,0.028078019618988037,-0.0065390970557928085,-0.03021947108209133,-0.012217765673995018,0.0,0.0,1.343174695968628,-0.03,0.05,-0.01,0.0
29.09328700,29093287,2,0.0,0.6900000000000001,110.99000000000001,0.027513086795806885,-0.00602698652073741,-0.030166679993271828,-0.011495602317154408,0.0,0.0,1.3424403667449951,-0.03,0.05,-0.01,0.0
29.19326700,29193267,2,0.0,0.6900000000000001,110.99000000000001,0.027842644602060318,-0.005619187373667955,-0.029986640438437462,-0.00020586210303008556,0.0,0.0,1.3423625230789185,-0.03,0.05,-0.01,0.0
29.29329600,29293296,2,0.0,0.6900000000000001,110.99000000000001,0.028037725016474724,-0.004078039899468422,-0.029424067586660385,0.0017160035204142332,0.0,0.0,1.3424413204193115,-0.03,0.05,-0.01,0.0
29.39328900,29393289,2,0.0,0.6900000000000001,110.98,0.027770964428782463,-0.003332083113491535,-0.029416784644126892,-0.005138090346008539,0.0,0.0,1.341315746307373,-0.03,0.05,-0.01,0.0
29.49329400,29493294,2,0.0,0.6900000000000001,110.97,0.02736639976501465,-0.001980824861675501,-0.030204949900507927,-0.021428564563393593,0.0,0.0,1.339174509048462,-0.03,0.05,0.0,0.0
29.59324600,29593246,2,0.0,0.68,110.97,0.02686149999499321,-0.001351277343928814,-0.03016700968146324,-0.014682255685329437,0.0,0.0,1.3384933471679688,-0.03,0.05,0.0,0.0
29.69320900,29693209,2,0.0,0.68,110.97,0.025997547432780266,-0.0005484432331286371,-0.030345043167471886,-0.0019135413458570838,0.0,0.0,1.3383196592330933,-0.03,0.05,-0.01,0.0
29.79321300,29793213,2,0.0,0.68,110.98,0.02540850080549717,0.0011143330484628677,-0.03074006177484989,0.00019562654779292643,0.0,0.0,1.3379909992218018,-0.03,0.05,-0.01,0.0
29.89321800,29893218,2,0.0,0.68,110.99000000000001,0.025237172842025757,0.003298940369859338,-0.030792253091931343,-0.017166193574666977,0.0,0.0,1.3355685472488403,-0.03,0.05,-0.01,0.0
29.99325900,29993259,2,0.0,0.68,111.0,0.025165162980556488,0.004623599350452423,-0.03313136100769043,-0.048676904290914536,0.0,0.0,1.3307677507400513,-0.03,0.05,-0.01,0.0
30.09325200,30093252,2,0.0,0.68,111.02,0.024939458817243576,0.006138601340353489,-0.0345444455742836,-0.06690160185098648,0.0,0.0,1.325018048286438,-0.03,0.05,-0.01,0.0
30.19328300,30193283,2,0.0,0.68,111.04,0.02449651062488556,0.007999979890882969,-0.036209508776664734,-0.08525112271308899,0.0,0.0,1.317025899887085,-0.03,0.05,-0.01,0.0
30.29328500,30293285,2,0.0,0.68,111.05,0.024901045486330986,0.009339164942502975,-0.03883665055036545,-0.10123738646507263,0.0,0.0,1.3080124855041504,-0.03,0.05,-0.01,0.0
30.39329200,30393292,2,0.0,0.68,111.05,0.02466929331421852,0.011021281592547894,-0.04034527763724327,-0.08145046979188919,0.0,0.0,1.3016396760940552,-0.03,0.05,-0.01,0.0
30.49323400,30493234,2,0.0,0.67,111.05,0.024998823180794716,0.011535380966961384,-0.04179028049111366,-0.04871641471982002,0.0,0.0,1.2971211671829224,-0.03,0.05,0.0,0.0
30.59319700,30593197,2,0.0,0.68,111.04,0.02513277716934681,0.011687302961945534,-0.0424877293407917,-0.0369684062898159,0.0,0.0,1.2926321029663086,-0.03,0.05,0.0,0.0
30.69319800,30693198,2,0.0,0.67,111.02,0.02506818063557148,0.011309567838907242,-0.04214167222380638,-0.025820277631282806,0.0,0.0,1.289758324623108,-0.03,0.05,0.0,0.0
30.79320200,30793202,2,0.0,0.67,111.01,0.024133041501045227,0.011560088023543358,-0.04142693802714348,-0.006862222217023373,0.0,0.0,1.288565993309021,-0.03,0.05,0.0,0.0
30.89323700,30893237,2,0.01,0.66,110.99000000000001,0.02372146025300026,0.011953874491155148,-0.04007389768958092,0.009916921146214008,0.0,0.0,1.2888593673706055,-0.03,0.05,0.0,0.0
30.99325900,30993259,2,0.01,0.66,110.97,0.02339751273393631,0.013075246475636959,-0.039229217916727066,0.009913476184010506,0.0,0.0,1.2882921695709229,-0.03,0.05,0.0,0.0
31.09329000,31093290,2,0.01,0.67,110.97,0.022906679660081863,0.01366155594587326,-0.039585184305906296,-0.0038637593388557434,0.0,0.0,1.2872658967971802,-0.03,0.05,0.0,0.0
31.19328300,31193283,2,0.02,0.68,110.98,0.022641649469733238,0.014603516086935997,-0.03962340205907822,-0.019266674295067787,0.0,0.0,1.2851595878601074,-0.03,0.05,0.0,0.0
31.29330000,31293300,2,0.02,0.68,110.99000000000001,0.022038534283638,0.01381455734372139,-0.03940220922231674,-0.025904223322868347,0.0,0.0,1.2829444408416748,-0.03,0.05,0.0,0.0
31.39322900,31393229,2,0.02,0.68,110.99000000000001,0.02118200622498989,0.01350743230432272,-0.03924434259533882,-0.03239493817090988,0.0,0.0,1.279795527458191,-0.03,0.05,0.0,0.0
31.49320000,31493200,2,0.02,0.68,111.0,0.020764274522662163,0.012034207582473755,-0.03998697176575661,-0.048642877489328384,0.0,0.0,1.2751681804656982,-0.03,0.05,0.0,0.0
31.59320300,31593203,2,0.02,0.68,110.99000000000001,0.019731998443603516,0.012244007550179958,-0.041512176394462585,-0.0503680557012558,0.0,0.0,1.2710016965866089,-0.03,0.05,0.0,0.0
31.69319900,31693199,2,0.02,0.68,110.99000000000001,0.01981031522154808,0.011001977138221264,-0.041010770946741104,-0.03364850953221321,0.0,0.0,1.2680541276931763,-0.03,0.05,0.0,0.0
31.79326200,31793262,2,0.02,0.68,110.98,0.018786849454045296,0.011264145374298096,-0.0401003398001194,-0.020118430256843567,0.0,0.0,1.265875220298767,-0.03,0.05,0.0,0.0
31.89327200,31893272,2,0.02,0.68,110.99000000000001,0.018079500645399094,0.010009736754000187,-0.04007197916507721,-0.01874511130154133,0.0,0.0,1.263590931892395,-0.03,0.05,0.0,0.0
31.99328700,31993287,2,0.02,0.68,110.99000000000001,0.017924346029758453,0.009191862307488918,-0.03880137577652931,-0.02477455325424671,0.0,0.0,1.260715126991272,-0.03,0.05,0.0,0.0
32.09327700,32093277,2,0.02,0.68,110.99000000000001,0.01714891567826271,0.008298028260469437,-0.03831692785024643,-0.02529251016676426,0.0,0.0,1.2582712173461914,-0.03,0.05,0.0,0.0
32.19328800,32193288,2,0.02,0.68,111.0,0.01677587255835533,0.00817238911986351,-0.037959158420562744,-0.022949060425162315,0.0,0.0,1.2558807134628296,-0.03,0.05,0.0,0.0
32.29322700,32293227,2,0.02,0.67,110.99000000000001,0.016205908730626106,0.007996484637260437,-0.03717217221856117,-0.008227082900702953,0.0,0.0,1.2553319931030273,-0.04,0.05,0.0,0.0
32.39319800,32393198,2,0.02,0.67,110.98,0.0164084043353796,0.008514387533068657,-0.03644465655088425,-0.0027742660604417324,0.0,0.0,1.2543162107467651,-0.04,0.05,0.0,0.0
32.49320400,32493204,2,0.02,0.67,110.98,0.016628503799438477,0.008763350546360016,-0.03705466538667679,-0.013951396569609642,0.0,0.0,1.2526562213897705,-0.04,0.05,0.0,0.0
32.59319900,32593199,2,0.02,0.68,110.96000000000001,0.01750466600060463,0.009103993885219097,-0.03681671619415283,-0.023449985310435295,0.0,0.0,1.2501479387283325,-0.04,0.05,0.0,0.0
32.69325700,32693257,2,0.02,0.68,110.95,0.01697143353521824,0.00940022338181734,-0.03721156343817711,-0.04253220185637474,0.0,0.0,1.2459028959274292,-0.04,0.05,0.0,0.0
32.79326900,32793269,2,0.02,0.68,110.93,0.017296990379691124,0.009671006351709366,-0.03792371600866318,-0.055921051651239395,0.0,0.0,1.2410285472869873,-0.04,0.05,0.0,0.0
32.89329400,32893294,2,0.02,0.68,110.92,0.018484100699424744,0.010281185619533062,-0.037684787064790726,-0.04268459975719452,0.0,0.0,1.2378027439117432,-0.04,0.05,0.0,0.0
32.99328100,32993281,2,0.02,0.68,110.9,0.018141448497772217,0.009724710136651993,-0.037782080471515656,-0.019458189606666565,0.0,0.0,1.2359862327575684,-0.04,0.05,0.0,0.0
33.09325400,33093254,2,0.02,0.6900000000000001,110.89,0.019135208800435066,0.009606145322322845,-0.03650346025824547,-0.0031944275833666325,0.0,0.0,1.2351994514465332,-0.04,0.05,0.0,0.0
33.19323400,33193234,2,0.02,0.68,110.89,0.018230486661195755,0.009527910500764847,-0.035759586840867996,0.014705087058246136,0.0,0.0,1.2362154722213745,-0.04,0.05,0.0,0.0
33.29319800,33293198,2,0.02,0.68,110.89,0.01775524765253067,0.009772303514182568,-0.035470202565193176,0.014991997741162777,0.0,0.0,1.2364670038223267,-0.04,0.05,0.0,0.0
33.39320000,33393200,2,0.01,0.68,110.89,0.017189158126711845,0.00984109751880169,-0.03494759276509285,-0.007630190346390009,0.0,0.0,1.2349387407302856,-0.04,0.05,0.0,0.0
33.49320800,33493208,2,0.02,0.68,110.91,0.017687369138002396,0.0093243308365345,-0.033715542405843735,-0.016026386991143227,0.0,0.0,1.233642578125,-0.04,0.05,0.0,0.0
33.59324000,33593240,2,0.02,0.68,110.92,0.01808861829340458,0.008274761959910393,-0.0316162109375,0.004199134185910225,0.0,0.0,1.234598159790039,-0.04,0.05,0.0,0.0
33.69326200,33693262,2,0.02,0.68,110.92,0.01751995086669922,0.007895922288298607,-0.031027348712086678,0.020991597324609756,0.0,0.0,1.2363203763961792,-0.04,0.05,0.0,0.0
33.79328000,33793280,2,0.02,0.68,110.92,0.01790720783174038,0.007011118810623884,-0.029740823432803154,0.024823974817991257,0.0,0.0,1.2382676601409912,-0.04,0.05,0.0,0.0
33.89328200,33893282,2,0.03,0.68,110.91,0.018399782478809357,0.0075451391749084,-0.028871122747659683,0.015602714382112026,0.0,0.0,1.2390183210372925,-0.04,0.05,0.0,0.0
33.99325300,33993253,2,0.02,0.68,110.92,0.018516167998313904,0.006959483027458191,-0.027233710512518883,0.006126208230853081,0.0,0.0,1.2396374940872192,-0.04,0.05,0.0,0.0
34.09323100,34093231,2,0.02,0.68,110.92,0.01845751330256462,0.0074533093720674515,-0.02644740417599678,0.01133226603269577,0.0,0.0,1.2409796714782715,-0.04,0.05,0.0,0.0
34.19320500,34193205,2,0.02,0.67,110.92,0.01859508454799652,0.007039378862828016,-0.024913713335990906,0.017283927649259567,0.0,0.0,1.2427176237106323,-0.04,0.05,0.0,0.0
34.29319900,34293199,2,0.02,0.67,110.93,0.018331343308091164,0.006674696691334248,-0.02429269254207611,0.02466493472456932,0.0,0.0,1.2450718879699707,-0.04,0.05,0.0,0.0
34.39320500,34393205,2,0.02,0.67,110.94,0.01767900586128235,0.006522611249238253,-0.022344186902046204,0.031110450625419617,0.0,0.0,1.2477785348892212,-0.04,0.05,0.0,0.0
34.49326500,34493265,2,0.02,0.68,110.94,0.017751140519976616,0.006700103636831045,-0.021165823563933372,0.040351249277591705,0.0,0.0,1.2517330646514893,-0.04,0.05,0.0,0.0
34.59325300,34593253,2,0.02,0.67,110.93,0.01750861667096615,0.006920114159584045,-0.019007308408617973,0.04674696922302246,0.0,0.0,1.2557342052459717,-0.04,0.05,0.0,0.0
34.69328200,34693282,2,0.02,0.67,110.93,0.017364665865898132,0.006373141426593065,-0.01600228250026703,0.04687731713056564,0.0,0.0,1.2600444555282593,-0.04,0.05,0.0,0.0
34.79328700,34793287,2,0.02,0.67,110.92,0.01659669168293476,0.006004315800964832,-0.013983186334371567,0.044992901384830475,0.0,0.0,1.2642593383789062,-0.04,0.05,0.0,0.0
34.89326400,34893264,2,0.02,0.67,110.91,0.016022145748138428,0.005350148305296898,-0.01287935022264719,0.04124730825424194,0.0,0.0,1.2683128118515015,-0.04,0.05,0.0,0.0
34.99322700,34993227,2,0.02,0.67,110.9,0.015590561553835869,0.00465215602889657,-0.010744723491370678,0.040472857654094696,0.0,0.0,1.2723489999771118,-0.04,0.05,0.0,0.0
35.09320100,35093201,2,0.02,0.67,110.88,0.01575276255607605,0.004180371295660734,-0.008613373152911663,0.03480823338031769,0.0,0.0,1.2755680084228516,-0.04,0.05,0.0,0.0
35.19320100,35193201,2,0.02,0.67,110.88,0.015724273398518562,0.0035719347652047873,-0.006612834054976702,0.013133512809872627,0.0,0.0,1.276411533355713,-0.04,0.05,0.0,0.0
35.29319700,35293197,2,0.02,0.67,110.87,0.016113752499222755,0.0032649009954184294,-0.005488583352416754,0.0009127210360020399,0.0,0.0,1.2774100303649902,-0.04,0.05,0.0,0.0
35.39324200,35393242,2,0.02,0.67,110.87,0.014925186522305012,0.0030137451831251383,-0.00472867488861084,0.012770755216479301,0.0,0.0,1.2796056270599365,-0.04,0.05,0.0,0.0
35.49325800,35493258,2,0.03,0.68,110.87,0.015047132037580013,0.0009934493573382497,-0.0034180262591689825,0.022748975083231926,0.0,0.0,1.2818702459335327,-0.04,0.05,0.0,0.0
35.59328600,35593286,2,0.03,0.68,110.87,0.01420909445732832,-2.9229133360786363e-05,-0.0015690590953454375,0.017836062237620354,0.0,0.0,1.2830700874328613,-0.04,0.05,0.0,0.0
35.69327900,35693279,2,0.03,0.67,110.88,0.014046327210962772,-0.0008992148214019835,-0.00022012159752193838,0.016688423231244087,0.0,0.0,1.2849217653274536,-0.04,0.05,0.0,0.0
35.79328000,35793280,2,0.02,0.66,110.9,0.013152971863746643,-0.0011507079470902681,0.001258628093637526,0.016531605273485184,0.0,0.0,1.2864645719528198,-0.04,0.05,0.0,0.0
35.89323500,35893235,2,0.02,0.66,110.91,0.013328480534255505,-0.0021453979425132275,0.002494859742000699,0.015342846512794495,0.0,0.0,1.288166880607605,-0.04,0.05,0.0,0.0
35.99319900,35993199,2,0.02,0.65,110.92,0.012938781641423702,-0.0023687214124947786,0.0023377868346869946,0.008380965329706669,0.0,0.0,1.2889008522033691,-0.04,0.05,0.0,0.0
36.09320100,36093201,2,0.02,0.65,110.94,0.011806732974946499,-0.0025929566472768784,0.002628174377605319,-0.017947206273674965,0.0,0.0,1.2870197296142578,-0.04,0.05,0.0,0.0
36.19320700,36193207,2,0.02,0.66,110.95,0.0117314662784338,-0.002810649573802948,0.0025973429437726736,-0.04158410802483559,0.0,0.0,1.2836687564849854,-0.04,0.05,0.0,0.0
36.29325000,36293250,2,0.02,0.66,110.95,0.011201043613255024,-0.0023975051008164883,0.0028647028375416994,-0.04323617368936539,0.0,0.0,1.2804539203643799,-0.04,0.05,0.0,0.0
36.39325800,36393258,2,0.02,0.65,110.96000000000001,0.010345476679503918,-0.002796362852677703,0.0023630200885236263,-0.05020620673894882,0.0,0.0,1.275846004486084,-0.04,0.05,0.0,0.0
36.49328900,36493289,2,0.02,0.65,110.96000000000001,0.009887564927339554,-0.0028943473007529974,0.0019324015593156219,-0.06957187503576279,0.0,0.0,1.2694207429885864,-0.04,0.05,0.0,0.0
36.59329600,36593296,2,0.02,0.65,110.96000000000001,0.00952245108783245,-0.002573614474385977,0.002457717666402459,-0.06689807772636414,0.0,0.0,1.263871669769287,-0.04,0.05,0.0,0.0
36.69325200,36693252,2,0.02,0.65,110.97,0.009884237311780453,-0.0021010462660342455,0.0030516134575009346,-0.04410546272993088,0.0,0.0,1.2600693702697754,-0.04,0.05,0.0,0.0
36.79323000,36793230,2,0.03,0.65,110.98,0.008944184519350529,-0.0016621293034404516,0.002678915159776807,-0.0326254703104496,0.0,0.0,1.2565581798553467,-0.04,0.05,0.0,0.0
36.89319800,36893198,2,0.03,0.64,110.98,0.008991038426756859,-0.0016448884271085262,0.002866075374186039,-0.05159373581409454,0.0,0.0,1.2505866289138794,-0.04,0.05,0.0,0.0
36.99319900,36993199,2,0.03,0.64,110.98,0.008533366955816746,-0.0023014021571725607,0.0038411500863730907,-0.05174630880355835,0.0,0.0,1.2461564540863037,-0.04,0.05,0.0,0.0
37.09320700,37093207,2,0.03,0.65,110.96000000000001,0.008302794769406319,-0.0020587982144206762,0.0037827708292752504,-0.03273755684494972,0.0,0.0,1.2429652214050293,-0.04,0.05,0.0,0.0
37.19324400,37193244,2,0.03,0.65,110.94,0.00796063244342804,-0.0022356680128723383,0.003892811480909586,-0.0161725003272295,0.0,0.0,1.241308331489563,-0.04,0.05,0.0,0.0
37.29326200,37293262,2,0.03,0.65,110.94,0.007239381317049265,-0.0022735854145139456,0.005050261039286852,-0.002411180641502142,0.0,0.0,1.240358591079712,-0.04,0.05,0.0,0.0
37.39328800,37393288,2,0.03,0.65,110.93,0.007094082422554493,-0.0023751375265419483,0.005886089988052845,-0.0005473346682265401,0.0,0.0,1.2396951913833618,-0.04,0.05,0.0,0.0
37.49328400,37493284,2,0.03,0.65,110.92,0.0076545849442481995,-0.0022425753995776176,0.006777851842343807,-0.002261739457026124,0.0,0.0,1.2389333248138428,-0.04,0.05,0.0,0.0
37.59326800,37593268,2,0.03,0.65,110.91,0.008505390956997871,-0.0016589527949690819,0.006690068170428276,-0.015345722436904907,0.0,0.0,1.2370120286941528,-0.04,0.05,0.0,0.0
37.69322800,37693228,2,0.02,0.66,110.92,0.009106307290494442,-0.0015159082831814885,0.008788383565843105,-0.007133213337510824,0.0,0.0,1.2368885278701782,-0.04,0.05,0.0,0.0
37.79320800,37793208,2,0.02,0.66,110.92,0.009214697405695915,-0.001678964588791132,0.009280356578528881,0.005581649485975504,0.0,0.0,1.237135887145996,-0.04,0.05,0.0,0.0
37.89321600,37893216,2,0.02,0.66,110.92,0.008642332628369331,-0.0019715134985744953,0.009637813083827496,-0.0022363518364727497,0.0,0.0,1.236548900604248,-0.04,0.05,0.0,0.0
37.99320200,37993202,2,0.02,0.66,110.91,0.009378672577440739,-0.0019465183140709996,0.010098451748490334,-0.008905885741114616,0.0,0.0,1.2356549501419067,-0.04,0.05,0.0,0.0
38.09327700,38093277,2,0.02,0.66,110.91,0.009876647032797337,-0.0022120089270174503,0.010372824966907501,-0.015199913643300533,0.0,0.0,1.234224796295166,-0.04,0.05,0.0,0.0
38.19327400,38193274,2,0.03,0.66,110.91,0.009607097133994102,-0.0026347471866756678,0.010373635217547417,-0.021200494840741158,0.0,0.0,1.2323182821273804,-0.04,0.05,0.0,0.0
38.29328200,38293282,2,0.03,0.66,110.9,0.009946273639798164,-0.0020687200594693422,0.011533248238265514,-0.007728829514235258,0.0,0.0,1.2322540283203125,-0.04,0.05,0.0,0.0
38.39327900,38393279,2,0.03,0.65,110.9,0.009987285360693932,-0.0019688354805111885,0.013383984565734863,0.02922026254236698,0.0,0.0,1.2353962659835815,-0.04,0.05,0.0,0.0
38.49329100,38493291,2,0.03,0.66,110.9,0.01057230681180954,-0.0013129872968420386,0.014823772944509983,0.05723902955651283,0.0,0.0,1.2401047945022583,-0.04,0.05,0.0,0.0
38.59322900,38593229,2,0.03,0.66,110.9,0.011343171820044518,-0.001331019215285778,0.015950193628668785,0.04402314871549606,0.0,0.0,1.2427476644515991,-0.04,0.05,0.0,0.0
38.69320500,38693205,2,0.03,0.66,110.89,0.011508605442941189,-0.0015190967824310064,0.016689693555235863,0.024895669892430305,0.0,0.0,1.2450742721557617,-0.04,0.05,0.0,0.0
38.79321100,38793211,2,0.03,0.66,110.88,0.011394869536161423,-0.0007499807979911566,0.017255065962672234,0.012682794593274593,0.0,0.0,1.2461646795272827,-0.04,0.05,0.0,0.0
38.89320600,38893206,2,0.03,0.66,110.88,0.011401616968214512,-0.0005806858534924686,0.017037013545632362,-0.0051221395842731,0.0,0.0,1.24605393409729,-0.04,0.05,0.0,0.0
38.99327400,38993274,2,0.03,0.66,110.87,0.011621394194662571,0.000730662199202925,0.01742948405444622,-0.019279321655631065,0.0,0.0,1.244564175605774,-0.04,0.05,0.0,0.0
39.09326400,39093264,2,0.03,0.66,110.86,0.011451849713921547,0.0005315485177561641,0.017263058573007584,-0.023677850142121315,0.0,0.0,1.2431542873382568,-0.04,0.05,0.0,0.0
39.19329800,39193298,2,0.03,0.65,110.85000000000001,0.011211207136511803,0.0007346575730480254,0.01655389927327633,-0.012681186199188232,0.0,0.0,1.2425808906555176,-0.04,0.05,0.0,0.0
39.29328000,39293280,2,0.03,0.65,110.86,0.01042081043124199,0.0006680642836727202,0.016893701627850533,-0.0024278212804347277,0.0,0.0,1.2424466609954834,-0.04,0.05,0.0,0.0
39.39329300,39393293,2,0.03,0.65,110.87,0.009977542795240879,0.0017515211366117,0.017975088208913803,0.013461243361234665,0.0,0.0,1.2439061403274536,-0.04,0.05,0.0,0.0
39.49323100,39493231,2,0.04,0.65,110.87,0.010134553536772728,0.0020177073311060667,0.018701035529375076,0.02204940840601921,0.0,0.0,1.2454394102096558,-0.04,0.05,0.0,0.0
39.59320200,39593202,2,0.04,0.65,110.87,0.010059414431452751,0.002255069324746728,0.01923316903412342,0.03231484815478325,0.0,0.0,1.2486413717269897,-0.04,0.05,0.0,0.0
39.69319900,39693199,2,0.03,0.65,110.87,0.010220356285572052,0.0021491379011422396,0.020675532519817352,0.03260539099574089,0.0,0.0,1.2508323192596436,-0.04,0.05,0.0,0.0
39.79320200,39793202,2,0.03,0.65,110.87,0.010394332930445671,0.0023014508187770844,0.02146618627011776,0.01159478910267353,0.0,0.0,1.2516822814941406,-0.04,0.05,0.0,0.0
39.89324900,39893249,2,0.04,0.64,110.87,0.010071143507957458,0.0029098389204591513,0.022477466613054276,0.020276373252272606,0.0,0.0,1.2544786930084229,-0.04,0.05,0.0,0.0
39.99326400,39993264,2,0.04,0.65,110.87,0.009598071686923504,0.0033271610736846924,0.02478121779859066,0.05042503401637077,0.0,0.0,1.2595317363739014,-0.04,0.05,0.0,0.0
40.09328600,40093286,2,0.04,0.64,110.86,0.009945916011929512,0.0033228376414626837,0.026236074045300484,0.03730354085564613,0.0,0.0,1.2616126537322998,-0.04,0.05,0.0,0.0
40.19328400,40193284,2,0.04,0.64,110.85000000000001,0.010044987313449383,0.00396211352199316,0.026319021359086037,0.005030274391174316,0.0,0.0,1.262328028678894,-0.04,0.05,0.0,0.0
40.29329600,40293296,2,0.04,0.65,110.85000000000001,0.009776726365089417,0.00411602109670639,0.026656486093997955,-0.004972957074642181,0.0,0.0,1.2623918056488037,-0.04,0.05,0.0,0.0
40.39324100,40393241,2,0.04,0.65,110.85000000000001,0.010280949994921684,0.004811882507055998,0.027253493666648865,-0.01388953160494566,0.0,0.0,1.2615973949432373,-0.04,0.05,0.0,0.0
40.49321300,40493213,2,0.04,0.65,110.86,0.011276189237833023,0.005561312194913626,0.02728690393269062,-0.01243584230542183,0.0,0.0,1.2611721754074097,-0.04,0.05,0.0,0.0
40.59321000,40593210,2,0.05,0.65,110.86,0.011869632638990879,0.006006552837789059,0.02714584209024906,-0.0014639664441347122,0.0,0.0,1.2615503072738647,-0.04,0.05,0.0,0.0
40.69320300,40693203,2,0.05,0.65,110.86,0.012043655849993229,0.005516771227121353,0.028268516063690186,0.014159559272229671,0.0,0.0,1.263049602508545,-0.04,0.05,0.0,0.0
40.79328300,40793283,2,0.05,0.65,110.86,0.012411168776452541,0.00586041621863842,0.02811031974852085,0.015074847266077995,0.0,0.0,1.263929009437561,-0.04,0.05,0.0,0.0
40.89326800,40893268,2,0.05,0.64,110.86,0.01234491914510727,0.006656978745013475,0.028178859502077103,0.009271220304071903,0.0,0.0,1.2648035287857056,-0.04,0.05,0.0,0.0
40.99331100,40993311,2,0.06,0.63,110.86,0.01222934015095234,0.007116714026778936,0.02812260575592518,0.013713885098695755,0.0,0.0,1.266273021697998,-0.04,0.05,0.0,0.0
41.09330400,41093304,2,0.06,0.63,110.86,0.011581574566662312,0.008058524690568447,0.028702512383461,0.013690486550331116,0.0,0.0,1.2673689126968384,-0.04,0.05,0.0,0.0
41.19329700,41193297,2,0.06,0.63,110.87,0.010726596228778362,0.0085623599588871,0.028559736907482147,-0.002214777981862426,0.0,0.0,1.2667748928070068,-0.04,0.05,0.0,0.0
41.29324100,41293241,2,0.06,0.63,110.88,0.01066870242357254,0.008311044424772263,0.027840500697493553,-0.033580292016267776,0.0,0.0,1.2633856534957886,-0.04,0.05,0.0,0.0
41.39319700,41393197,2,0.06,0.64,110.89,0.009704669006168842,0.008261696435511112,0.027332931756973267,-0.059135884046554565,0.0,0.0,1.2585071325302124,-0.04,0.05,0.0,0.0
41.49321100,41493211,2,0.06,0.64,110.9,0.009015016257762909,0.007765119429677725,0.026210865005850792,-0.07122353464365005,0.0,0.0,1.2525213956832886,-0.04,0.05,0.0,0.0
41.59320500,41593205,2,0.06,0.64,110.91,0.008218749426305294,0.008180319331586361,0.025946475565433502,-0.06814812123775482,0.0,0.0,1.247048020362854,-0.04,0.05,0.0,0.0
41.69325200,41693252,2,0.06,0.64,110.92,0.007960071787238121,0.008011792786419392,0.026449669152498245,-0.04415961354970932,0.0,0.0,1.2435590028762817,-0.04,0.05,0.0,0.0
41.79325600,41793256,2,0.07,0.64,110.93,0.007352177519351244,0.006982199847698212,0.026554759591817856,-0.022862019017338753,0.0,0.0,1.2411458492279053,-0.04,0.05,0.0,0.0
41.89328800,41893288,2,0.06,0.64,110.94,0.006324432790279388,0.007392582483589649,0.026186149567365646,-0.009160630404949188,0.0,0.0,1.2399848699569702,-0.04,0.05,0.0,0.0
41.99328300,41993283,2,0.07,0.64,110.95,0.005467287264764309,0.00792266521602869,0.026601403951644897,0.002195850247517228,0.0,0.0,1.2395899295806885,-0.04,0.05,0.0,0.0
42.09328100,42093281,2,0.07,0.64,110.95,0.00498510617762804,0.007716050837188959,0.02697962336242199,0.002626510104164481,0.0,0.0,1.2391620874404907,-0.04,0.05,0.0,0.0
42.19323200,42193232,2,0.07,0.64,110.95,0.005587744526565075,0.008058355189859867,0.02671043947339058,-0.005239435005933046,0.0,0.0,1.2381837368011475,-0.04,0.05,0.0,0.0
42.29320300,42293203,2,0.07,0.64,110.95,0.004753551445901394,0.008222677744925022,0.027518779039382935,0.001676770974881947,0.0,0.0,1.2387334108352661,-0.04,0.05,0.0,0.0
42.39320700,42393207,2,0.07,0.64,110.95,0.0037931776605546474,0.008475257083773613,0.02877504751086235,0.02049361541867256,0.0,0.0,1.240553617477417,-0.04,0.05,0.0,0.0
42.49322900,42493229,2,0.07,0.64,110.95,0.0028264187276363373,0.007998236455023289,0.030289936810731888,0.03271156921982765,0.0,0.0,1.2434087991714478,-0.04,0.05,0.0,0.0
42.59328000,42593280,2,0.07,0.65,110.94,0.002234106883406639,0.007724958937615156,0.030667133629322052,0.036688610911369324,0.0,0.0,1.2463690042495728,-0.04,0.05,0.0,0.0
42.69326200,42693262,2,0.07,0.64,110.93,0.0014295896980911493,0.008105304092168808,0.03040369786322117,0.02500789426267147,0.0,0.0,1.2481807470321655,-0.04,0.05,0.0,0.0
42.79328600,42793286,2,0.07,0.65,110.93,0.0011755999876186252,0.008554383181035519,0.03005535714328289,0.007210027426481247,0.0,0.0,1.2487648725509644,-0.04,0.05,0.0,0.0
42.89327800,42893278,2,0.08,0.65,110.92,0.0004017840255983174,0.008482723496854305,0.030159464105963707,-0.0022393774706870317,0.0,0.0,1.2489705085754395,-0.04,0.05,0.0,0.0
42.99328300,42993283,2,0.08,0.65,110.92,-0.0004870971024502069,0.008501237258315086,0.029634620994329453,0.0020212996751070023,0.0,0.0,1.2498918771743774,-0.04,0.05,0.0,0.0
43.09323100,43093231,2,0.07,0.65,110.92,-0.0009493366815149784,0.008156493306159973,0.02951221354305744,0.004853245336562395,0.0,0.0,1.2502028942108154,-0.04,0.05,0.0,0.0
43.19320200,43193202,2,0.07,0.65,110.93,-0.0018791798502206802,0.007233957294374704,0.02981044352054596,-0.00857971515506506,0.0,0.0,1.2491488456726074,-0.04,0.05,0.0,0.0
43.29319700,43293197,2,0.07,0.65,110.94,-0.002496910048648715,0.006244585383683443,0.029236646369099617,-0.022861367091536522,0.0,0.0,1.2472211122512817,-0.04,0.05,0.0,0.0
43.39321100,43393211,2,0.07,0.66,110.95,-0.0022875014692544937,0.006037786137312651,0.02847246825695038,-0.053961075842380524,0.0,0.0,1.2417855262756348,-0.04,0.05,0.0,0.0
43.49322100,43493221,2,0.07,0.66,110.96000000000001,-0.003162393346428871,0.005446603987365961,0.027794361114501953,-0.06982214003801346,0.0,0.0,1.2363169193267822,-0.04,0.05,0.0,0.0
43.59327600,43593276,2,0.07,0.66,110.96000000000001,-0.002976394025608897,0.004546847194433212,0.02777266874909401,-0.0551561564207077,0.0,0.0,1.2320940494537354,-0.04,0.05,0.0,0.0
43.69328200,43693282,2,0.06,0.66,110.96000000000001,-0.003155512036755681,0.0038292892277240753,0.027221260592341423,-0.03994433954358101,0.0,0.0,1.2284985780715942,-0.04,0.05,0.0,0.0
43.79327800,43793278,2,0.06,0.66,110.97,-0.003995643462985754,0.0029634402599185705,0.02759021706879139,-0.030099250376224518,0.0,0.0,1.2254557609558105,-0.04,0.05,0.0,0.0
43.89330000,43893300,2,0.06,0.66,110.98,-0.003714256454259157,0.001483720145188272,0.02766023576259613,-0.024328265339136124,0.0,0.0,1.2228257656097412,-0.04,0.05,0.0,0.0
43.99322700,43993227,2,0.06,0.67,110.98,-0.00411492632701993,0.002139279618859291,0.027372462674975395,-0.022893356159329414,0.0,0.0,1.2202974557876587,-0.04,0.05,0.0,0.0
44.09320100,44093201,2,0.06,0.68,111.0,-0.0038098387885838747,0.0021724000107496977,0.026357315480709076,-0.03547108918428421,0.0,0.0,1.2162727117538452,-0.04,0.05,0.0,0.0
44.19320600,44193206,2,0.06,0.68,111.01,-0.003162702079862356,0.0011965332087129354,0.02616105228662491,-0.03825204446911812,0.0,0.0,1.2130095958709717,-0.04,0.05,0.0,0.0
44.29319900,44293199,2,0.06,0.68,111.01,-0.002692117588594556,0.0007893925649113953,0.025639822706580162,-0.029412753880023956,0.0,0.0,1.2103692293167114,-0.04,0.05,0.0,0.0
44.39324400,44393244,2,0.06,0.68,111.0,-0.0022347792983055115,5.0372909754514694e-05,0.02412187121808529,-0.02388448640704155,0.0,0.0,1.2080492973327637,-0.04,0.05,0.0,0.0
44.49326700,44493267,2,0.05,0.68,110.99000000000001,-0.0019234271021559834,-0.00023883928952272981,0.022648995742201805,-0.023255161941051483,0.0,0.0,1.2055699825286865,-0.04,0.05,0.0,0.0
44.59328200,44593282,2,0.05,0.6900000000000001,110.98,-0.0017049341695383191,-0.0014958448009565473,0.022321660071611404,-0.025637824088335037,0.0,0.0,1.202838659286499,-0.04,0.05,0.0,0.0
44.69328300,44693283,2,0.05,0.6900000000000001,110.97,-0.0015375175280496478,-0.0015369346365332603,0.022199131548404694,-0.03660186007618904,0.0,0.0,1.198907494544983,-0.04,0.05,0.0,0.0
44.79325400,44793254,2,0.04,0.6900000000000001,110.96000000000001,-0.0007496203179471195,-0.0023828090634196997,0.021557066589593887,-0.03591524809598923,0.0,0.0,1.1960452795028687,-0.04,0.05,0.0,0.0
44.89323000,44893230,2,0.05,0.7000000000000001,110.96000000000001,-0.000713044311851263,-0.0026901899836957455,0.021057862788438797,-0.04203145205974579,0.0,0.0,1.19144868850708,-0.04,0.05,0.0,0.0
44.99319700,44993197,2,0.05,0.71,110.96000000000001,0.0005707575473934412,-0.003403779584914446,0.02083958126604557,-0.055493563413619995,0.0,0.0,1.186195969581604,-0.04,0.05,0.0,0.0
45.09320100,45093201,2,0.05,0.71,110.97,0.001500546932220459,-0.004455156158655882,0.019576651975512505,-0.06388802826404572,0.0,0.0,1.180310606956482,-0.04,0.05,0.0,0.0
45.19320900,45193209,2,0.05,0.71,110.97,0.00240115518681705,-0.005041482858359814,0.01779940538108349,-0.07026559859514236,0.0,0.0,1.1734707355499268,-0.04,0.05,0.0,0.0
45.29328400,45293284,2,0.04,0.72,110.99000000000001,0.003680478548631072,-0.0066715446300804615,0.017948206514120102,-0.04749392345547676,0.0,0.0,1.170237421989441,-0.04,0.05,0.0,0.0
45.39328700,45393287,2,0.04,0.72,110.99000000000001,0.004716570023447275,-0.007383845280855894,0.017774518579244614,-0.021127143874764442,0.0,0.0,1.1676828861236572,-0.04,0.05,0.0,0.0
45.49329000,45493290,2,0.03,0.73,111.01,0.005685797426849604,-0.008794781751930714,0.018758583813905716,-0.005423186346888542,0.0,0.0,1.1668334007263184,-0.04,0.05,0.0,0.0
45.59329700,45593297,2,0.03,0.73,111.02,0.005720371380448341,-0.00903046689927578,0.018653390929102898,-0.011426337994635105,0.0,0.0,1.1642144918441772,-0.04,0.05,0.0,0.0
45.69329200,45693292,2,0.03,0.73,111.03,0.006669416092336178,-0.010738441720604897,0.018729986622929573,-0.03932112082839012,0.0,0.0,1.1596572399139404,-0.04,0.05,0.0,0.0
45.79323100,45793231,2,0.03,0.73,111.03,0.007266972679644823,-0.012148549780249596,0.01796078309416771,-0.06912832707166672,0.0,0.0,1.1527212858200073,-0.04,0.05,0.0,0.0
45.89320200,45893202,2,0.02,0.74,111.02,0.007861695252358913,-0.014324590563774109,0.01714947447180748,-0.07185907661914825,0.0,0.0,1.147149920463562,-0.04,0.05,0.0,0.0
45.99319900,45993199,2,0.02,0.74,111.02,0.008905154652893543,-0.01567191258072853,0.018030239269137383,-0.04987771064043045,0.0,0.0,1.1434485912322998,-0.04,0.05,0.0,0.0
46.09320100,46093201,2,0.02,0.74,111.01,0.009784533642232418,-0.017804574221372604,0.01748657040297985,-0.048251211643218994,0.0,0.0,1.1383816003799438,-0.04,0.05,0.0,0.0
46.19324700,46193247,2,0.01,0.74,111.01,0.010619170032441616,-0.018983328714966774,0.017177024856209755,-0.053529027849435806,0.0,0.0,1.133091688156128,-0.04,0.05,0.0,0.0
