timestamp,TimeUS,C,Q1,Q2,Q3,Q4
11.49329700,11493297,2,1.0,0.0,0.0,0.0
11.59325200,11593252,2,1.0,0.0,0.0,0.0
11.69322100,11693221,2,1.0,0.0,0.0,0.0
11.79322300,11793223,2,1.0,0.0,0.0,0.0
11.89322700,11893227,2,1.0,0.0,0.0,0.0
11.99324600,11993246,2,1.0,0.0,0.0,0.0
12.09328300,12093283,2,1.0,0.0,0.0,0.0
12.19331200,12193312,2,1.0,0.0,0.0,0.0
12.29331000,12293310,2,1.0,0.0,0.0,0.0
12.39328500,12393285,2,1.0,0.0,0.0,0.0
12.49324300,12493243,2,0.9999780654907227,0.0008332794532179832,0.006568090058863163,3.0152925319271162e-05
12.59321100,12593211,2,0.9999778270721436,0.0008266438380815089,0.00660271430388093,9.661422518547624e-05
12.69321800,12693218,2,0.999977707862854,0.0007772704120725393,0.006629669573158026,0.00016547742416150868
12.79322900,12793229,2,0.9999770522117615,0.0007404041243717074,0.006733311340212822,0.0001661111309658736
12.89328400,12893284,2,0.9999767541885376,0.0006935420096851885,0.0067819273099303246,0.00014042296970728785
12.99328100,12993281,2,0.9999766945838928,0.0006681737140752375,0.006795517634600401,0.0001434566656826064
13.09329500,13093295,2,0.999976396560669,0.0006294441991485655,0.0068391598761081696,0.00015402196731884032
13.19329100,13193291,2,0.9999761581420898,0.0005785952089354396,0.006878875661641359,0.0001521900703664869
13.29330000,13293300,2,0.9999760389328003,0.0005643137264996767,0.006897615268826485,0.00016087670519482344
13.39323800,13393238,2,0.9999757409095764,0.0005867013242095709,0.006941008847206831,0.0001868873805506155
13.49321300,13493213,2,0.9999757409095764,0.0005791091825813055,0.006942449603229761,0.0002024108252953738
13.59322300,13593223,2,0.9999756217002869,0.0005399455549195409,0.006955045275390148,0.00024039280833676457
13.69321600,13693216,2,0.9999760389328003,0.00047624154831282794,0.006901811808347702,0.0002667852386366576
13.79326000,13793260,2,0.999975860118866,0.00048258493188768625,0.00692336168140173,0.0003090585523750633
13.89327000,13893270,2,0.9999759793281555,0.00047997786896303296,0.00690751988440752,0.00035909056896343827
13.99329600,13993296,2,0.5681968331336975,-0.005091576371341944,0.004401177167892456,0.8228651881217957
14.09329800,14093298,2,0.5683088898658752,-0.005203666631132364,0.0043470123782753944,0.822787344455719
14.19331300,14193313,2,0.5685759782791138,-0.005338417366147041,0.004289468750357628,0.8226022720336914
14.29324000,14293240,2,0.568869411945343,-0.005453239195048809,0.0042568533681333065,0.8223987817764282
14.39321400,14393214,2,0.5691620111465454,-0.005549794994294643,0.00426702992990613,0.8221955895423889
14.49322800,14493228,2,0.5694637894630432,-0.005642988719046116,0.004226837307214737,0.8219861388206482
14.59321800,14593218,2,0.5696606040000916,-0.0056965164840221405,0.00421264348551631,0.821849524974823
14.69327800,14693278,2,0.5697004199028015,-0.005724828690290451,0.0042173247784376144,0.8218216896057129
14.79327200,14793272,2,0.5697700381278992,-0.005775143392384052,0.004246834199875593,0.8217729330062866
14.89330800,14893308,2,0.5699464678764343,-0.0058437371626496315,0.004261175636202097,0.821649968624115
14.99329300,14993293,2,0.5701378583908081,-0.005825411528348923,0.0042903427965939045,0.8215171694755554
15.09329500,15093295,2,0.5703886151313782,-0.005769615527242422,0.004250322934240103,0.821343719959259
15.19323800,15193238,2,0.5706716179847717,-0.0057939752005040646,0.004277058411389589,0.8211467862129211
15.29322900,15293229,2,0.5708682537078857,-0.005763931665569544,0.004359161015599966,0.8210098743438721
15.39321200,15393212,2,0.5709357261657715,-0.005705502815544605,0.004388113040477037,0.8209632039070129
15.49321200,15493212,2,0.5707972049713135,-0.005680365022271872,0.004412837792187929,0.8210595846176147
15.59327800,15593278,2,0.5704509615898132,-0.005632428452372551,0.00447337981313467,0.8213001489639282
15.69326300,15693263,2,0.5700551867485046,-0.00556386262178421,0.004452553112059832,0.8215754628181458
15.79330400,15793304,2,0.5697374939918518,-0.005402983166277409,0.004498845431953669,0.8217966556549072
15.89329200,15893292,2,0.5695592164993286,-0.005300990305840969,0.004514583386480808,0.8219208121299744
15.99328900,15993289,2,0.569474458694458,-0.005218458827584982,0.004503907635807991,0.8219801187515259
16.09324500,16093245,2,0.5694637894630432,-0.005172803066670895,0.004519083071500063,0.8219877481460571
16.19321400,16193214,2,0.5694741606712341,-0.00509642343968153,0.004517753142863512,0.8219810128211975
16.29320900,16293209,2,0.5694574117660522,-0.005024709273129702,0.004537020809948444,0.8219929933547974
16.39321200,16393212,2,0.5695348978042603,-0.005006600171327591,0.004534226842224598,0.8219394087791443
16.49325900,16493259,2,0.5695425868034363,-0.004953079856932163,0.0045967609621584415,0.8219340443611145
16.59329400,16593294,2,0.569520115852356,-0.004882885608822107,0.004557227715849876,0.8219502568244934
16.69329000,16693290,2,0.5695087909698486,-0.0047926330007612705,0.004503143485635519,0.8219589591026306
16.79329400,16793294,2,0.569481611251831,-0.004779537208378315,0.004488697741180658,0.8219779133796692
16.89329200,16893292,2,0.5695451498031616,-0.0047182077541947365,0.004457810893654823,0.8219344019889832
16.99323700,16993237,2,0.5696203112602234,-0.004662350285798311,0.004378805868327618,0.8218830823898315
17.09321500,17093215,2,0.569638192653656,-0.004577186889946461,0.00435006944462657,0.8218713402748108
17.19321000,17193210,2,0.5696609616279602,-0.004515102598816156,0.00432970467954874,0.8218560218811035
17.29321900,17293219,2,0.569688081741333,-0.0045008729211986065,0.004254334140568972,0.8218376636505127
17.39325700,17393257,2,0.5696905255317688,-0.004450884182006121,0.004218527115881443,0.8218364119529724
17.49326400,17493264,2,0.5696250200271606,-0.0044357250444591045,0.004156316164880991,0.8218822479248047
17.59330400,17593304,2,0.569560170173645,-0.0043819742277264595,0.004162059165537357,0.8219274282455444
17.69328500,17693285,2,0.5695886611938477,-0.004324484616518021,0.004063541069626808,0.8219084739685059
17.79329300,17793293,2,0.5695858597755432,-0.0042547970078885555,0.004023804794996977,0.8219109773635864
17.89324400,17893244,2,0.5695509314537048,-0.004199040122330189,0.004013096448034048,0.8219355344772339
17.99320800,17993208,2,0.5695590972900391,-0.004171849228441715,0.003996286541223526,0.8219301104545593
18.09321300,18093213,2,0.5696338415145874,-0.004140354227274656,0.0039611258544027805,0.8218786120414734
18.19321500,18193215,2,0.5697334408760071,-0.004094810225069523,0.00391997629776597,0.8218100070953369
18.29326400,18293264,2,0.5698339343070984,-0.0040658870711922646,0.00393238989636302,0.8217403888702393
18.39329000,18393290,2,0.5698161721229553,-0.0039925044402480125,0.003894184483215213,0.8217532634735107
18.49329500,18493295,2,0.569848358631134,-0.004006264731287956,0.003880720119923353,0.8217309713363647
18.59329200,18593292,2,0.5699065327644348,-0.004002333153039217,0.003873148001730442,0.8216906785964966
18.69329700,18693297,2,0.5699228644371033,-0.003964213654398918,0.0038510034792125225,0.8216796517372131
18.79324300,18793243,2,0.5698878169059753,-0.003953110426664352,0.0037823785096406937,0.8217042684555054
18.89320800,18893208,2,0.569869875907898,-0.003980244509875774,0.0037323860451579094,0.821716845035553
18.99320700,18993207,2,0.5697993636131287,-0.003996364306658506,0.0037191498558968306,0.8217657208442688
19.09322100,19093221,2,0.5697342157363892,-0.004035260062664747,0.00370994140394032,0.8218107223510742
19.19324800,19193248,2,0.5696626901626587,-0.004083105828613043,0.003687036456540227,0.8218601942062378
19.29327400,19293274,2,0.5696043372154236,-0.004077856428921223,0.0036869028117507696,0.8219006657600403
19.39329600,19393296,2,0.5695510506629944,-0.004066128749400377,0.0036604036577045918,0.8219377398490906
19.49328900,19493289,2,0.5694558024406433,-0.004068239592015743,0.003685668343678117,0.8220036625862122
19.59329500,19593295,2,0.5692160725593567,-0.0041215610690414906,0.0036545060575008392,0.8221694827079773
19.69324900,19693249,2,0.5690449476242065,-0.004180912859737873,0.0036385315470397472,0.8222877383232117
19.79321200,19793212,2,0.5688586831092834,-0.004188702441751957,0.003611601423472166,0.8224167227745056
19.89321200,19893212,2,0.5685855150222778,-0.004268663004040718,0.0035702744498848915,0.822605311870575
19.99322200,19993222,2,0.5683181881904602,-0.004319437313824892,0.0035684697795659304,0.8227897882461548
20.09328100,20093281,2,0.5681554079055786,-0.004348330199718475,0.0035833767615258694,0.8229019641876221
20.19328900,20193289,2,0.5681679248809814,-0.004385491367429495,0.0035780451726168394,0.8228931427001953
20.29329500,20293295,2,0.5681760311126709,-0.004390717949718237,0.0035941037349402905,0.8228874802589417
20.39329000,20393290,2,0.5682013630867004,-0.004401644226163626,0.003594176145270467,0.8228698968887329
20.49330100,20493301,2,0.5682416558265686,-0.004408401902765036,0.003563163336366415,0.8228421807289124
20.59324200,20593242,2,0.5682135820388794,-0.004423032980412245,0.0035509327426552773,0.8228615522384644
20.69323300,20693233,2,0.5680956244468689,-0.0044454773887991905,0.0035221537109464407,0.8229430317878723
20.79322200,20793222,2,0.5678816437721252,-0.004463159944862127,0.003576867049559951,0.8230903744697571
20.89322400,20893224,2,0.5676582455635071,-0.004475421272218227,0.0035455957986414433,0.8232445120811462
20.99328700,20993287,2,0.5674455761909485,-0.004517645109444857,0.0036213353741914034,0.823390543460846
21.09326700,21093267,2,0.5672174096107483,-0.0045524053275585175,0.003643789328634739,0.8235474824905396
21.19330100,21193301,2,0.5670496821403503,-0.004603148438036442,0.0036095597315579653,0.8236628174781799
21.29328800,21293288,2,0.5670480728149414,-0.004629987757652998,0.0036263742949813604,0.8236637115478516
21.39329000,21393290,2,0.5671896934509277,-0.004614662379026413,0.003658474190160632,0.8235661387443542
21.49324200,21493242,2,0.5673437118530273,-0.004523322917521,0.003663400188088417,0.8234605193138123
21.59321000,21593210,2,0.5674493908882141,-0.004542125388979912,0.003662539878860116,0.823387622833252
21.69320800,21693208,2,0.5673897862434387,-0.004571088589727879,0.0036528902128338814,0.8234285712242126
21.79321100,21793211,2,0.5673536658287048,-0.004586130380630493,0.003649297868832946,0.8234533667564392
21.89327300,21893273,2,0.5673450231552124,-0.004555602092295885,0.0036802885588258505,0.8234593868255615
21.99326600,21993266,2,0.5673097968101501,-0.0045038252137601376,0.0036595871206372976,0.8234840035438538
22.09330500,22093305,2,0.567348062992096,-0.004517022054642439,0.003637818619608879,0.8234577178955078
22.19329500,22193295,2,0.5673285126686096,-0.004503356292843819,0.0036871442571282387,0.8234710097312927
22.29328200,22293282,2,0.5673012733459473,-0.004503530450165272,0.0037066186778247356,0.8234896659851074
22.39323700,22393237,2,0.5672460198402405,-0.004519165493547916,0.003688475117087364,0.8235277533531189
22.49321500,22493215,2,0.5671562552452087,-0.00449658278375864,0.003726935014128685,0.8235895037651062
22.59320900,22593209,2,0.5671102404594421,-0.0045060086995363235,0.003725993912667036,0.8236211538314819
22.69322000,22693220,2,0.5671346783638,-0.0045918491668999195,0.0037346191238611937,0.8236038088798523
22.79328800,22793288,2,0.567194402217865,-0.004627689719200134,0.0037091998383402824,0.8235625624656677
22.89327600,22893276,2,0.5672865509986877,-0.004629836417734623,0.00369924190454185,0.8234991431236267
22.99330400,22993304,2,0.5674183368682861,-0.004689463879913092,0.0037248427979648113,0.8234078884124756
23.09329000,23093290,2,0.5675066113471985,-0.004685613326728344,0.003723169444128871,0.8233470916748047
23.19329700,23193297,2,0.5676475167274475,-0.004691607318818569,0.00368791026994586,0.8232500553131104
23.29325400,23293254,2,0.5677456259727478,-0.004750366322696209,0.0037242586258798838,0.8231819272041321
23.39320900,23393209,2,0.5677938461303711,-0.004824597388505936,0.003634004620835185,0.8231486082077026
23.49321200,23493212,2,0.5679166913032532,-0.004853794351220131,0.0035976117942482233,0.823063850402832
23.59322100,23593221,2,0.5680055022239685,-0.00487444968894124,0.0036035552620887756,0.8230024576187134
23.69324900,23693249,2,0.5681192278862,-0.004890239331871271,0.0036388097796589136,0.8229236602783203
23.79327700,23793277,2,0.5681658387184143,-0.004923621192574501,0.0036183055490255356,0.822891354560852
23.89330200,23893302,2,0.5681717991828918,-0.004929861985146999,0.0035922862589359283,0.8228873610496521
23.99329300,23993293,2,0.5681476593017578,-0.0049451724626123905,0.003615105524659157,0.8229038119316101
24.09330100,24093301,2,0.568043053150177,-0.004892614204436541,0.0035953025799244642,0.8229764103889465
24.19324900,24193249,2,0.5677703619003296,-0.004903413355350494,0.003600160591304302,0.8231645226478577
24.29321900,24293219,2,0.5674035549163818,-0.004874497186392546,0.0035867353435605764,0.823417603969574
24.39322100,24393221,2,0.5670828819274902,-0.0049021923914551735,0.00359712028875947,0.8236383199691772
24.49322400,24493224,2,0.5668652653694153,-0.004920002073049545,0.003575254464522004,0.823788046836853
24.59326800,24593268,2,0.5667476654052734,-0.004944377578794956,0.0036217975430190563,0.8238686323165894
24.69327200,24693272,2,0.5666880011558533,-0.004980949684977531,0.0036493863444775343,0.823909342288971
24.79329600,24793296,2,0.5666179060935974,-0.0049974387511610985,0.0036508357152342796,0.8239574432373047
24.89328800,24893288,2,0.566552996635437,-0.005078087095171213,0.00369279901497066,0.8240013718605042
24.99330000,24993300,2,0.566511332988739,-0.005091862753033638,0.0037200264632701874,0.824029803276062
25.09324100,25093241,2,0.5665355920791626,-0.005061598028987646,0.003700729226693511,0.8240134119987488
25.19321600,25193216,2,0.5665311217308044,-0.005097139626741409,0.003654186613857746,0.8240164518356323
25.29322900,25293229,2,0.5665202736854553,-0.00509279128164053,0.003664683550596237,0.8240239024162292
25.39321300,25393213,2,0.5663847327232361,-0.0051010288298130035,0.00363358692266047,0.8241171836853027
25.49328400,25493284,2,0.5662163496017456,-0.005119945388287306,0.003591821063309908,0.8242329359054565
25.59328700,25593287,2,0.5661264657974243,-0.005153982900083065,0.0035552980843931437,0.8242946267127991
25.69329300,25693293,2,0.5661060810089111,-0.005174735095351934,0.0035584643483161926,0.824308454990387
25.79328900,25793289,2,0.5660923719406128,-0.005221075378358364,0.003509928472340107,0.8243178129196167
25.89330100,25893301,2,0.5660976767539978,-0.005269745364785194,0.003561269259080291,0.8243136405944824
25.99324000,25993240,2,0.5660623908042908,-0.005297462921589613,0.0035616711247712374,0.8243376612663269
26.09321900,26093219,2,0.566049337387085,-0.005313964560627937,0.003571114968508482,0.8243465423583984
26.19322700,26193227,2,0.5660808682441711,-0.005323431454598904,0.0035738784354180098,0.8243247866630554
26.29321400,26293214,2,0.5662398338317871,-0.0053617218509316444,0.003594291629269719,0.8242152333259583
26.39326400,26393264,2,0.5664503574371338,-0.0053423321805894375,0.003562773112207651,0.8240708112716675
26.49328200,26493282,2,0.5665745139122009,-0.005336602684110403,0.0035374376457184553,0.8239856362342834
26.59330300,26593303,2,0.5666674375534058,-0.005350650288164616,0.003587678074836731,0.8239214420318604
26.69330800,26693308,2,0.5667197108268738,-0.005369663704186678,0.0035779927857220173,0.8238853812217712
26.79331200,26793312,2,0.566659688949585,-0.005357498303055763,0.0035690292716026306,0.8239268064498901
26.89324900,26893249,2,0.5666405558586121,-0.005383579526096582,0.003606080077588558,0.8239396214485168
26.99321400,26993214,2,0.5667099356651306,-0.005369061138480902,0.003616892034187913,0.8238919377326965
27.09322400,27093224,2,0.5667994022369385,-0.00539457006379962,0.003640349954366684,0.8238301277160645
27.19322100,27193221,2,0.5667498707771301,-0.005377522204071283,0.0036811032332479954,0.8238641023635864
27.29328000,27293280,2,0.5667083859443665,-0.005382090341299772,0.0036522543523460627,0.8238927721977234
27.39326700,27393267,2,0.5666571259498596,-0.0053447578102350235,0.003649109974503517,0.8239282965660095
27.49329200,27493292,2,0.5667033791542053,-0.005335843190550804,0.0036531034857034683,0.8238965272903442
27.59330200,27593302,2,0.5667184591293335,-0.005360369570553303,0.0036288031842559576,0.8238860964775085
27.69329800,27693298,2,0.5666781663894653,-0.005313498433679342,0.003600429743528366,0.8239142298698425
27.79324300,27793243,2,0.5666375160217285,-0.005307879764586687,0.0036021347623318434,0.8239421844482422
27.89321300,27893213,2,0.5665671229362488,-0.005277799442410469,0.0036565421614795923,0.8239905834197998
27.99321000,27993210,2,0.56642746925354,-0.005267617292702198,0.0036566248163580894,0.8240866661071777
28.09321600,28093216,2,0.5662891864776611,-0.005191012751311064,0.0036702107172459364,0.8241820931434631
28.19329400,28193294,2,0.5662153959274292,-0.005141482688486576,0.0036752023734152317,0.8242331147193909
28.29327800,28293278,2,0.5661792159080505,-0.005118710920214653,0.0036141981836408377,0.8242583870887756
28.39329700,28393297,2,0.5662024617195129,-0.005105296615511179,0.003541959449648857,0.8242427706718445
28.49330100,28493301,2,0.5662285685539246,-0.005128225311636925,0.0035505485720932484,0.8242246508598328
28.59331800,28593318,2,0.5662967562675476,-0.005120496731251478,0.0035087806172668934,0.8241780400276184
28.69323900,28693239,2,0.5663608908653259,-0.005072223488241434,0.0034709160681813955,0.8241344094276428
28.79322000,28793220,2,0.5664320588111877,-0.005050069186836481,0.003481784136965871,0.8240855932235718
28.89321400,28893214,2,0.5664057731628418,-0.005040518473833799,0.003484440501779318,0.8241037130355835
28.99321700,28993217,2,0.5664165616035461,-0.005049541592597961,0.0034966811072081327,0.8240962028503418
29.09328700,29093287,2,0.5664145350456238,-0.0050108530558645725,0.0034718173556029797,0.8240979313850403
29.19326700,29193267,2,0.5664114952087402,-0.004965759348124266,0.003450151067227125,0.8241003751754761
29.29329600,29293296,2,0.5664334297180176,-0.004980904050171375,0.0034301970154047012,0.8240852952003479
29.39328900,29393289,2,0.5664783120155334,-0.004949280060827732,0.0034462139010429382,0.8240545988082886
29.49329400,29493294,2,0.5665402412414551,-0.004985596984624863,0.0034342657309025526,0.8240118622779846
29.59324600,29593246,2,0.5665497183799744,-0.004944084212183952,0.003412471851333976,0.824005663394928
29.69320900,29693209,2,0.5665460228919983,-0.004917628597468138,0.0033743244130164385,0.8240085244178772
29.79321300,29793213,2,0.566521406173706,-0.004913930781185627,0.003391402307897806,0.8240253925323486
29.89321800,29893218,2,0.5664586424827576,-0.004914385266602039,0.0034205778501927853,0.8240684270858765
29.99325900,29993259,2,0.5663371682167053,-0.00487943273037672,0.0034045313950628042,0.8241521716117859
30.09325200,30093252,2,0.5661998391151428,-0.004894011188298464,0.0034134681336581707,0.8242464065551758
30.19328300,30193283,2,0.5660971999168396,-0.004871499724686146,0.0034331262577325106,0.8243169784545898
30.29328500,30293285,2,0.5659688115119934,-0.004864607937633991,0.0034324591979384422,0.8244051337242126
30.39329200,30393292,2,0.5659745335578918,-0.004890413023531437,0.0034015891142189503,0.8244011998176575
30.49323400,30493234,2,0.5660179257392883,-0.004840991925448179,0.0034095034934580326,0.8243716359138489
30.59319700,30593197,2,0.5660971403121948,-0.004860400687903166,0.003408024087548256,0.8243171572685242
30.69319800,30693198,2,0.5662204623222351,-0.0048581440933048725,0.0033851719927042723,0.8242325782775879
30.79320200,30793202,2,0.566322386264801,-0.004807493649423122,0.003383834846317768,0.8241628408432007
30.89323700,30893237,2,0.5664651989936829,-0.0047141476534307,0.0033628889359533787,0.8240653276443481
30.99325900,30993259,2,0.5665879249572754,-0.004736121278256178,0.0034024491906166077,0.8239806294441223
31.09329000,31093290,2,0.5665776133537292,-0.004759513307362795,0.003442056244239211,0.8239874243736267
31.19328300,31193283,2,0.5665320158004761,-0.004787747282534838,0.0035128348972648382,0.8240182995796204
31.29330000,31293300,2,0.5664633512496948,-0.00475692143663764,0.0035631766077131033,0.8240655064582825
31.39322900,31393229,2,0.5664104223251343,-0.004803467076271772,0.0035855823662132025,0.8241015076637268
31.49320000,31493200,2,0.5663827061653137,-0.004812706261873245,0.003591767977923155,0.8241204619407654
31.59320300,31593203,2,0.566437840461731,-0.004829987417906523,0.003576874965801835,0.8240825533866882
31.69319900,31693199,2,0.5664514303207397,-0.004822994116693735,0.0035769641399383545,0.8240732550621033
31.79326200,31793262,2,0.5664719343185425,-0.004784078802913427,0.0035523464903235435,0.8240594863891602
31.89327200,31893272,2,0.5664544701576233,-0.004766763653606176,0.003587419632822275,0.8240714073181152
31.99328700,31993287,2,0.5664218068122864,-0.004787848796695471,0.0035937160719186068,0.824093759059906
32.09327700,32093277,2,0.5663990378379822,-0.0047920881770551205,0.0036075981333851814,0.8241093158721924
32.19328800,32193288,2,0.5663913488388062,-0.004792571533471346,0.003601944772526622,0.8241146206855774
32.29322700,32293227,2,0.5664380192756653,-0.004766377620398998,0.0035376157611608505,0.8240829706192017
32.39319800,32393198,2,0.5665004253387451,-0.004729091189801693,0.003532406874001026,0.8240402936935425
32.49320400,32493204,2,0.5665307641029358,-0.00475712213665247,0.0035228042397648096,0.8240193128585815
32.59319900,32593199,2,0.5666244029998779,-0.0047593130730092525,0.0035547141451388597,0.8239548206329346
32.69325700,32693257,2,0.5667383670806885,-0.004775439854711294,0.003531654365360737,0.8238764405250549
32.79326900,32793269,2,0.566836416721344,-0.004797386005520821,0.003539523808285594,0.8238087892532349
32.89329400,32893294,2,0.5669406056404114,-0.004828433506190777,0.0035533863119781017,0.823736846446991
32.99328100,32993281,2,0.5670689344406128,-0.004830159246921539,0.003559785895049572,0.8236484527587891
33.09325400,33093254,2,0.5671408176422119,-0.004840030800551176,0.003588851308450103,0.8235988020896912
33.19323400,33193234,2,0.5671670436859131,-0.004796384833753109,0.0035404048394411802,0.8235812187194824
33.29319800,33293198,2,0.5671501159667969,-0.004810445476323366,0.0035350462421774864,0.8235928416252136
33.39320000,33393200,2,0.5671287178993225,-0.0048118592239916325,0.0035113622434437275,0.8236076235771179
33.49320800,33493208,2,0.5670222043991089,-0.004813096486032009,0.0035320548340678215,0.8236808776855469
33.59324000,33593240,2,0.5669662952423096,-0.004776114597916603,0.003567192004993558,0.8237193822860718
33.69326200,33693262,2,0.5669466853141785,-0.004793211817741394,0.003566104220226407,0.823732852935791
33.79328000,33793280,2,0.5669711828231812,-0.004780198913067579,0.003593271132558584,0.8237159252166748
33.89328200,33893282,2,0.5669744610786438,-0.004749756306409836,0.003601767122745514,0.8237138390541077
33.99325300,33993253,2,0.5669418573379517,-0.004761125426739454,0.003582044504582882,0.8237362504005432
34.09323100,34093231,2,0.5669487118721008,-0.0047789993695914745,0.0035567088052630424,0.823731541633606
34.19320500,34193205,2,0.5669259428977966,-0.004738607909530401,0.003546401159837842,0.8237475156784058
34.29319900,34293199,2,0.5668792128562927,-0.004739942494779825,0.0035366639494895935,0.8237797021865845
34.39320500,34393205,2,0.5668066740036011,-0.00475974939763546,0.003530405694618821,0.8238294720649719
34.49326500,34493265,2,0.5667898654937744,-0.004767595790326595,0.0035537034273147583,0.8238409161567688
34.59325300,34593253,2,0.5668313503265381,-0.0047293719835579395,0.0035541921388357878,0.8238126039505005
34.69328200,34693282,2,0.5668890476226807,-0.004713376518338919,0.003540094243362546,0.8237730860710144
34.79328700,34793287,2,0.5669427514076233,-0.004723198711872101,0.0035507609136402607,0.8237360119819641
34.89326400,34893264,2,0.5670081973075867,-0.0047061811201274395,0.0035563709679991007,0.8236910104751587
34.99322700,34993227,2,0.5670912861824036,-0.004712538328021765,0.003541418584063649,0.8236338496208191
35.09320100,35093201,2,0.5671937465667725,-0.004747018683701754,0.003558655269443989,0.8235630393028259
35.19320100,35193201,2,0.5672224164009094,-0.004745530895888805,0.0035314608830958605,0.8235434293746948
35.29319700,35293197,2,0.5672782063484192,-0.004755646921694279,0.003550647059455514,0.8235048651695251
35.39324200,35393242,2,0.56727534532547,-0.004741267766803503,0.0035718365106731653,0.823506772518158
35.49325800,35493258,2,0.5673081874847412,-0.0047403923235833645,0.0036316360346972942,0.8234838843345642
35.59328600,35593286,2,0.567299485206604,-0.004733338486403227,0.0035952560137957335,0.8234900832176208
35.69327900,35693279,2,0.5672518014907837,-0.004699058830738068,0.003561371937394142,0.8235232830047607
35.79328000,35793280,2,0.5671120882034302,-0.004666940774768591,0.003486401168629527,0.8236200213432312
35.89323500,35893235,2,0.5670139193534851,-0.004653342999517918,0.0034584312234073877,0.8236877918243408
35.99319900,35993199,2,0.5669026374816895,-0.004604068584740162,0.0034693158231675625,0.8237646222114563
36.09320100,36093201,2,0.566807210445404,-0.004591428209096193,0.0034320044796913862,0.8238305449485779
36.19320700,36193207,2,0.5667271614074707,-0.00465566199272871,0.0034788225311785936,0.8238850235939026
36.29325000,36293250,2,0.5666998028755188,-0.00461120530962944,0.003465367015451193,0.8239041566848755
36.39325800,36393258,2,0.5666606426239014,-0.004610251169651747,0.003455430269241333,0.8239311575889587
36.49328900,36493289,2,0.5666713714599609,-0.004574955441057682,0.0034193091560155153,0.8239241242408752
36.59329600,36593296,2,0.5666182041168213,-0.004555757623165846,0.0033955706749111414,0.8239609003067017
36.69325200,36693252,2,0.5665849447250366,-0.004558052401989698,0.0034107102546840906,0.8239836692810059
36.79323000,36793230,2,0.5665273666381836,-0.004563865251839161,0.0034632727038115263,0.8240230083465576
36.89319800,36893198,2,0.5664857029914856,-0.0045007565058767796,0.003447973169386387,0.8240520358085632
36.99319900,36993199,2,0.5665395259857178,-0.004503542557358742,0.003440447384491563,0.8240150809288025
37.09320700,37093207,2,0.5666519999504089,-0.004515399225056171,0.0034770609345287085,0.8239375352859497
37.19324400,37193244,2,0.5667617321014404,-0.004559322260320187,0.0034584435634315014,0.8238618969917297
37.29326200,37293262,2,0.5668249130249023,-0.0045362673699855804,0.0034563031513243914,0.8238185048103333
37.39328800,37393288,2,0.5668940544128418,-0.004570562858134508,0.0034669104497879744,0.8237707614898682
37.49328400,37493284,2,0.5669617652893066,-0.0045428150333464146,0.003445262089371681,0.8237243890762329
37.59326800,37593268,2,0.5669742822647095,-0.004579659551382065,0.0034869711380451918,0.8237153887748718
37.69322800,37693228,2,0.5669711232185364,-0.004613796249032021,0.003471603151410818,0.823717474937439
37.79320800,37793208,2,0.5669311285018921,-0.004634220153093338,0.0034806367475539446,0.8237447738647461
37.89321600,37893216,2,0.5669562816619873,-0.004693168681114912,0.0034677747171372175,0.8237271904945374
37.99320200,37993202,2,0.5669760704040527,-0.004713422618806362,0.0034569851122796535,0.8237135410308838
38.09327700,38093277,2,0.5669793486595154,-0.004642900079488754,0.0035078502260148525,0.8237114548683167
38.19327400,38193274,2,0.5670123100280762,-0.004628031514585018,0.003531205467879772,0.8236887454986572
38.29328200,38293282,2,0.5670647025108337,-0.004605784080922604,0.003517784643918276,0.8236528635025024
38.39327900,38393279,2,0.5670959949493408,-0.004590331576764584,0.0034831457305699587,0.8236315250396729
38.49329100,38493291,2,0.5670635104179382,-0.004602902103215456,0.0035309873055666685,0.8236536383628845
38.59322900,38593229,2,0.5670956373214722,-0.004595608450472355,0.003538913791999221,0.8236315250396729
38.69320500,38693205,2,0.567164421081543,-0.00463199894875288,0.003524323459714651,0.8235840201377869
38.79321100,38793211,2,0.5672032237052917,-0.004616559483110905,0.0035299386363476515,0.8235573768615723
38.89320600,38893206,2,0.5672532320022583,-0.004598145838826895,0.0035512305330485106,0.8235229253768921
38.99327400,38993274,2,0.5673209428787231,-0.0046016075648367405,0.003537557553499937,0.8234763145446777
39.09326400,39093264,2,0.5673728585243225,-0.004591659177094698,0.0035183927975594997,0.823440670967102
39.19329800,39193298,2,0.5674188137054443,-0.004564659669995308,0.003515913151204586,0.8234091997146606
39.29328000,39293280,2,0.5673440098762512,-0.004532599821686745,0.003523624036461115,0.8234608769416809
39.39329300,39393293,2,0.5673283934593201,-0.004513697233051062,0.0035216023679822683,0.8234717845916748
39.49323100,39493231,2,0.5673037767410278,-0.004494764376431704,0.0035728351213037968,0.8234885931015015
39.59320200,39593202,2,0.5672791004180908,-0.004525607451796532,0.0035702071618288755,0.8235054612159729
39.69319900,39693199,2,0.5672760009765625,-0.004524688236415386,0.0035155294463038445,0.8235077857971191
39.79320200,39793202,2,0.567287802696228,-0.004484857898205519,0.003502420149743557,0.8234999179840088
39.89324900,39893249,2,0.5673022866249084,-0.004439185839146376,0.003500626888126135,0.8234902620315552
39.99326400,39993264,2,0.5673125386238098,-0.004500955808907747,0.0035366511438041925,0.8234826326370239
40.09328600,40093286,2,0.5673509836196899,-0.004454924259334803,0.0035135147627443075,0.8234565258026123
40.19328400,40193284,2,0.5674142837524414,-0.004463532008230686,0.0035179592669010162,0.8234128355979919
40.29329600,40293296,2,0.567438542842865,-0.004460189491510391,0.0035671021323651075,0.8233959674835205
40.39324100,40393241,2,0.5674311518669128,-0.004468027036637068,0.0035879698116332293,0.8234009146690369
40.49321300,40493213,2,0.5673672556877136,-0.004451494198292494,0.0035930622834712267,0.8234450221061707
40.59321000,40593210,2,0.5673679709434509,-0.004457125440239906,0.003648835700005293,0.8234442472457886
40.69320300,40693203,2,0.5673726797103882,-0.004399047698825598,0.0036554338876158,0.8234412670135498
40.79328300,40793283,2,0.5673482418060303,-0.00438110763207078,0.0036406703293323517,0.8234582543373108
40.89326800,40893268,2,0.5673573017120361,-0.0043285503052175045,0.0036153029650449753,0.8234524130821228
40.99331100,40993311,2,0.5673590898513794,-0.004272058140486479,0.003633508225902915,0.8234513998031616
41.09330400,41093304,2,0.5673611760139465,-0.0042683822102844715,0.0036367399152368307,0.823449969291687
41.19329700,41193297,2,0.5673176050186157,-0.0042493632063269615,0.003615588415414095,0.8234801888465881
41.29324100,41293241,2,0.5672495365142822,-0.0042497930116951466,0.0036497500259429216,0.823526918888092
41.39319700,41393197,2,0.5671783685684204,-0.004292439669370651,0.0036894395016133785,0.823575496673584
41.49321100,41493211,2,0.567112386226654,-0.004281480330973864,0.003675957443192601,0.8236210942268372
41.59320500,41593205,2,0.5670427680015564,-0.004258054308593273,0.003669110592454672,0.8236691951751709
41.69325200,41693252,2,0.5669636726379395,-0.004275697283446789,0.0036605889908969402,0.823723554611206
41.79325600,41793256,2,0.5668719410896301,-0.004261425230652094,0.0037042247131466866,0.8237865567207336
41.89328800,41893288,2,0.5667803883552551,-0.004266868811100721,0.0036747977137565613,0.8238496780395508
41.99328300,41993283,2,0.5667225122451782,-0.004253759514540434,0.0037127858959138393,0.8238893747329712
42.09328100,42093281,2,0.5667439103126526,-0.004246679600328207,0.003719568019732833,0.8238747119903564
42.19323200,42193232,2,0.5667355060577393,-0.004273833706974983,0.0037348386831581593,0.8238802552223206
42.29320300,42293203,2,0.5667242407798767,-0.004296829923987389,0.0037493177223950624,0.823887825012207
42.39320700,42393207,2,0.5666913986206055,-0.004297767300158739,0.0037545375525951385,0.8239103555679321
42.49322900,42493229,2,0.5667280554771423,-0.004283066838979721,0.0037475470453500748,0.8238852620124817
42.59328000,42593280,2,0.5667659640312195,-0.004306928254663944,0.003748950082808733,0.8238590359687805
42.69326200,42693262,2,0.566849946975708,-0.004282299429178238,0.003751973155885935,0.8238013386726379
42.79328600,42793286,2,0.5668930411338806,-0.004305965732783079,0.0038014291785657406,0.8237713575363159
42.89327800,42893278,2,0.5669084191322327,-0.004333211574703455,0.0038409254048019648,0.823760449886322
42.99328300,42993283,2,0.5669282674789429,-0.004296672996133566,0.0038120083045214415,0.8237471580505371
43.09323100,43093231,2,0.566946268081665,-0.004294704180210829,0.003790799994021654,0.8237348198890686
43.19320200,43193202,2,0.5668566823005676,-0.00434763403609395,0.0038081880193203688,0.8237961530685425
43.29319700,43293197,2,0.5667649507522583,-0.004356888122856617,0.0037978277541697025,0.8238592743873596
43.39321100,43393211,2,0.5667238831520081,-0.004389617592096329,0.0038081633392721415,0.823887288570404
43.49322100,43493221,2,0.5666709542274475,-0.004384154453873634,0.0038135063368827105,0.8239237070083618
43.59327600,43593276,2,0.5666502714157104,-0.004418398719280958,0.00379110686480999,0.8239378333091736
43.69328200,43693282,2,0.5666523575782776,-0.0044232564978301525,0.0037739030085504055,0.8239364624023438
43.79327800,43793278,2,0.5666075944900513,-0.004462086129933596,0.003808162175118923,0.8239668607711792
43.89330000,43893300,2,0.5665208101272583,-0.0044685169123113155,0.0038085486739873886,0.8240265250205994
43.99322700,43993227,2,0.5664831399917603,-0.004521538969129324,0.0038268084172159433,0.8240520358085632
44.09320100,44093201,2,0.5663639903068542,-0.004579691216349602,0.0038145151920616627,0.8241336941719055
44.19320600,44193206,2,0.5663256645202637,-0.00457712123170495,0.0038416599854826927,0.8241599202156067
44.29319900,44293199,2,0.5663246512413025,-0.004596665035933256,0.0038540703244507313,0.8241603970527649
44.39324400,44393244,2,0.5663639307022095,-0.0045816320925951,0.003825036808848381,0.8241336345672607
44.49326700,44493267,2,0.5664102435112,-0.004649308044463396,0.0038162406999617815,0.8241015076637268
44.59328200,44593282,2,0.566521167755127,-0.004719458986073732,0.0038153736386448145,0.8240248560905457
44.69328300,44693283,2,0.5665854215621948,-0.004738363903015852,0.0038188286125659943,0.8239805102348328
44.79325400,44793254,2,0.5666248798370361,-0.004776457324624062,0.003803988453000784,0.8239532113075256
44.89323000,44893230,2,0.5666415691375732,-0.004831906408071518,0.003861292265355587,0.823941171169281
44.99319700,44993197,2,0.5666516423225403,-0.004851359408348799,0.0038902522064745426,0.823934018611908
45.09320100,45093201,2,0.5666111707687378,-0.004879303276538849,0.00388717046007514,0.8239616751670837
45.19320900,45193209,2,0.5665494799613953,-0.004894716665148735,0.003906380385160446,0.8240039348602295
45.29328400,45293284,2,0.5664640665054321,-0.004970066715031862,0.0039100428111851215,0.824062168598175
45.39328700,45393287,2,0.5663979053497314,-0.005047920159995556,0.003899751929566264,0.8241072297096252
45.49329000,45493290,2,0.5663151144981384,-0.005075803957879543,0.0038791480474174023,0.8241640329360962
45.59329700,45593297,2,0.5662373900413513,-0.005107727367430925,0.0038973758928477764,0.8242171406745911
45.69329200,45693292,2,0.5661749243736267,-0.005122974049299955,0.0039011621847748756,0.8242599368095398
45.79323100,45793231,2,0.5661654472351074,-0.005163515917956829,0.0038841685745865107,0.8242663145065308
45.89320200,45893202,2,0.5661811232566833,-0.005218519829213619,0.0038770216051489115,0.8242552280426025
45.99319900,45993199,2,0.5662102699279785,-0.0051979003474116325,0.0038712688256055117,0.8242353796958923
46.09320100,46093201,2,0.5662567615509033,-0.005228749942034483,0.0038362068589776754,0.824203372001648
46.19324700,46193247,2,0.5662781000137329,-0.005268843378871679,0.0037906027864664793,0.8241887092590332
46.29325200,46293252,2,0.566310465335846,-0.005279724486172199,0.003802310908213258,0.8241662979125977
46.39328700,46393287,2,0.5663115978240967,-0.005304985214024782,0.003818527329713106,0.8241652846336365
46.49329000,46493290,2,0.5663645267486572,-0.005283923353999853,0.00381827331148088,0.824129045009613
46.59325500,46593255,2,0.5663738250732422,-0.0053261881694197655,0.003831686684861779,0.8241223692893982
46.69323100,46693231,2,0.5663678646087646,-0.0053139012306928635,0.0037981667555868626,0.824126660823822
46.79320200,46793202,2,0.566369891166687,-0.005307673942297697,0.0037883787881582975,0.824125349521637
46.89319700,46893197,2,0.5664189457893372,-0.0053001949563622475,0.003804139094427228,0.8240916132926941
46.99320500,46993205,2,0.5664494633674622,-0.005314164329320192,0.0037502965424209833,0.8240708112716675
47.09324600,47093246,2,0.5664299726486206,-0.005326983518898487,0.0037266449071466923,0.8240842223167419
47.19328400,47193284,2,0.5664567351341248,-0.005352862644940615,0.0037316770758479834,0.8240656852722168
47.29328500,47293285,2,0.5664454698562622,-0.005286673083901405,0.003715289058163762,0.824073851108551
47.39328400,47393284,2,0.5664180517196655,-0.005292929243296385,0.0037126324605196714,0.8240926861763
47.49325400,47493254,2,0.5663902163505554,-0.005311721004545689,0.0037216267082840204,0.8241117000579834
47.59323000,47593230,2,0.566392719745636,-0.005315248854458332,0.00373782473616302,0.8241098523139954
47.69320000,47693200,2,0.5663775205612183,-0.005271061323583126,0.0037374927196651697,0.8241205811500549
47.79320000,47793200,2,0.5664145946502686,-0.005246409215033054,0.0037419237196445465,0.8240952491760254
47.89320100,47893201,2,0.5664169192314148,-0.005197248421609402,0.0037203964311629534,0.8240940570831299
47.99326100,47993261,2,0.5664582848548889,-0.005158001556992531,0.0036684779915958643,0.8240661025047302
48.09327000,48093270,2,0.5665076375007629,-0.0051108296029269695,0.0036214771680533886,0.8240326642990112
48.19329300,48193293,2,0.5665318369865417,-0.005148938857018948,0.0036054616793990135,0.8240158557891846
48.29328900,48293289,2,0.5665084719657898,-0.00513443723320961,0.0035991922486573458,0.8240320682525635
48.39326500,48393265,2,0.566469669342041,-0.005151368677616119,0.0035993847995996475,0.8240585923194885
48.49323200,48493232,2,0.5664806365966797,-0.005147628020495176,0.0035990304313600063,0.8240511417388916
48.59319600,48593196,2,0.5664848685264587,-0.005174699239432812,0.0035949833691120148,0.8240480422973633
48.69320000,48693200,2,0.5665150284767151,-0.005192392971366644,0.003598900744691491,0.8240271806716919
48.79321000,48793210,2,0.5665237903594971,-0.005184201058000326,0.003516250289976597,0.824021577835083
48.89324700,48893247,2,0.5665059089660645,-0.005262730643153191,0.0034681225661188364,0.8240335583686829
48.99326400,48993264,2,0.5665232539176941,-0.005220480263233185,0.0034314855001866817,0.8240220546722412
49.09328100,49093281,2,0.5664921402931213,-0.005181517452001572,0.003427577903494239,0.8240436911582947
49.19328100,49193281,2,0.5665361285209656,-0.005146249197423458,0.0033931864891201258,0.8240138292312622
49.29327200,49293272,2,0.5665048956871033,-0.005150212906301022,0.003380013396963477,0.8240353465080261
49.39322800,49393228,2,0.5664613246917725,-0.005150116980075836,0.003356825327500701,0.8240653872489929
49.49319900,49493199,2,0.5664206743240356,-0.005143467802554369,0.0033252802677452564,0.8240934610366821
49.59320400,49593204,2,0.5663660168647766,-0.005144225433468819,0.0032654921524226665,0.8241313099861145
49.69320700,49693207,2,0.5663149952888489,-0.005131137557327747,0.0032867644913494587,0.8241663575172424
49.79326600,49793266,2,0.5662134885787964,-0.005168301053345203,0.0032507756259292364,0.8242360353469849
49.89327800,49893278,2,0.5661863088607788,-0.005165628157556057,0.0032632232178002596,0.8242546319961548
49.99329600,49993296,2,0.5661049485206604,-0.005119034089148045,0.0032374546863138676,0.8243109583854675
50.09328600,50093286,2,0.5660327672958374,-0.005103276111185551,0.0032337456941604614,0.8243606090545654
50.19329500,50193295,2,0.5659688711166382,-0.005116857122629881,0.00323804491199553,0.8244043588638306
50.29323500,50293235,2,0.5658876895904541,-0.005111015867441893,0.0033037629909813404,0.8244598507881165
50.39319700,50393197,2,0.5658059120178223,-0.0051608313806355,0.0033212979324162006,0.8245156407356262
50.49321100,50493211,2,0.5657888054847717,-0.005121747497469187,0.0033047969918698072,0.8245276808738708
50.59320100,50593201,2,0.5657867789268494,-0.005157385487109423,0.0032970630563795567,0.8245288729667664
50.69327600,50693276,2,0.5657843947410583,-0.005175422411412001,0.0033348381984978914,0.8245302438735962
50.79327100,50793271,2,0.565791130065918,-0.005205144174396992,0.0033415996003896,0.8245254158973694
50.89329800,50893298,2,0.5657330751419067,-0.00528805423527956,0.003315313020721078,0.8245648145675659
50.99329700,50993297,2,0.5656816959381104,-0.0052837468683719635,0.003298605792224407,0.8246001601219177
51.09327000,51093270,2,0.5656437277793884,-0.005288846790790558,0.003271924564614892,0.8246262669563293
51.19323900,51193239,2,0.5655738711357117,-0.005285189021378756,0.003269628621637821,0.8246741890907288
51.29320800,51293208,2,0.5655498504638672,-0.005232371389865875,0.0033058514818549156,0.8246908783912659
51.39320700,51393207,2,0.5655282735824585,-0.005232472438365221,0.003336613764986396,0.8247056007385254
51.49322100,51493221,2,0.5655330419540405,-0.005225445609539747,0.003341976786032319,0.8247023224830627
51.59324900,51593249,2,0.5655466914176941,-0.005167793482542038,0.0033234560396522284,0.8246933817863464
51.69326600,51693266,2,0.5655725002288818,-0.0051770517602562904,0.003307425184175372,0.8246757388114929
51.79328100,51793281,2,0.5655699372291565,-0.005195277277380228,0.003318350063636899,0.8246772885322571
51.89328400,51893284,2,0.5656232833862305,-0.005178228951990604,0.003321978962048888,0.8246408104896545
51.99329300,51993293,2,0.5656812191009521,-0.005146450363099575,0.003317700931802392,0.8246012926101685
52.09322900,52093229,2,0.5657402276992798,-0.005128627642989159,0.003289629239588976,0.8245609998703003
52.19320400,52193204,2,0.5657708644866943,-0.005103351082652807,0.0032844883389770985,0.8245401978492737
52.29319700,52293197,2,0.565844714641571,-0.005047527141869068,0.0033623836934566498,0.8244895339012146
52.39319600,52393196,2,0.5659063458442688,-0.005020876880735159,0.003336780471727252,0.824447512626648
52.49326200,52493262,2,0.5659386515617371,-0.005024012643843889,0.003332453779876232,0.8244253396987915
52.59326500,52593265,2,0.5659660696983337,-0.005035111680626869,0.0033553391695022583,0.8244063258171082
52.69328900,52693289,2,0.5659809708595276,-0.005061523523181677,0.0033422133419662714,0.8243959546089172
52.79328300,52793283,2,0.5660190582275391,-0.005032351240515709,0.0032537037041038275,0.8243703842163086
52.89325500,52893255,2,0.5660250186920166,-0.0050294529646635056,0.003310283413156867,0.8243660926818848
52.99323000,52993230,2,0.5660039782524109,-0.005053464788943529,0.003319953568279743,0.8243803381919861
53.09319700,53093197,2,0.5660291910171509,-0.005073592532426119,0.0033718403428792953,0.8243626952171326
53.19320100,53193201,2,0.5660403966903687,-0.005100157577544451,0.003401032881811261,0.8243547081947327
53.29320300,53293203,2,0.5659893751144409,-0.005077940411865711,0.003376318607479334,0.8243899941444397
53.39325800,53393258,2,0.5659632682800293,-0.005093390122056007,0.0033947485499083996,0.8244077563285828
53.49325300,53493253,2,0.5659505128860474,-0.005097786895930767,0.003427573712542653,0.8244163393974304
53.59328500,53593285,2,0.5659046173095703,-0.005135396961122751,0.0034645525738596916,0.8244474530220032
53.69327600,53693276,2,0.5658819079399109,-0.005135917570441961,0.003414185019209981,0.8244632482528687
53.79325400,53793254,2,0.5658849477767944,-0.005192053038626909,0.0034253140911459923,0.8244607448577881
53.89323500,53893235,2,0.5658726096153259,-0.005176745355129242,0.0034272675402462482,0.8244693279266357
53.99319700,53993197,2,0.5658679604530334,-0.005227881018072367,0.003431599820032716,0.824472188949585
54.09319700,54093197,2,0.5658857822418213,-0.005261071026325226,0.0034298470709472895,0.8244597315788269
54.19321100,54193211,2,0.5659161806106567,-0.005246353335678577,0.0034447454381734133,0.8244388699531555
54.29324500,54293245,2,0.5659154057502747,-0.005194763652980328,0.003465112764388323,0.8244396448135376
54.39326300,54393263,2,0.5659340620040894,-0.005149242002516985,0.0034622508101165295,0.8244271278381348
54.49328300,54493283,2,0.5659487247467041,-0.005165594629943371,0.003452944103628397,0.8244170546531677
54.59328100,54593281,2,0.5659707188606262,-0.005177535116672516,0.0034413516987115145,0.82440185546875
54.69328100,54693281,2,0.5659535527229309,-0.005226575769484043,0.0034301462583243847,0.8244134187698364
54.79323100,54793231,2,0.565916121006012,-0.0052617634646594524,0.0034635672345757484,0.824438750743866
54.89320000,54893200,2,0.5658535957336426,-0.005218805745244026,0.0034329926129430532,0.8244820833206177
54.99321200,54993212,2,0.5658031702041626,-0.005196860525757074,0.0034452436957508326,0.824516773223877
55.09320500,55093205,2,0.5657651424407959,-0.005227289162576199,0.0034502383787184954,0.8245426416397095
55.19325700,55193257,2,0.5657057166099548,-0.005186230409890413,0.003428779076784849,0.8245837688446045
55.29329200,55293292,2,0.5657086968421936,-0.005150545388460159,0.0034174814354628325,0.8245819807052612
55.39328000,55393280,2,0.5657886862754822,-0.005091085098683834,0.003371537197381258,0.8245276808738708
55.49329300,55493293,2,0.5658246874809265,-0.00510210357606411,0.003363006981089711,0.8245029449462891
55.59329800,55593298,2,0.5659148693084717,-0.005123203154653311,0.0033275505993515253,0.8244410753250122
55.69322600,55693226,2,0.5659891366958618,-0.005153953097760677,0.003307461505755782,0.8243899345397949
55.79320000,55793200,2,0.5660271048545837,-0.005137551110237837,0.0032872422598302364,0.8243640661239624
55.89320200,55893202,2,0.5660326480865479,-0.0051329052075743675,0.00330512342043221,0.824360191822052
55.99319800,55993198,2,0.5660265684127808,-0.005097819492220879,0.0032793304417282343,0.8243647217750549
56.09326200,56093262,2,0.5660240054130554,-0.005117969121783972,0.0032638399861752987,0.8243663907051086
56.19326600,56193266,2,0.566013753414154,-0.005106442607939243,0.0032267067581415176,0.8243736624717712
56.29329800,56293298,2,0.5660274624824524,-0.005064943339675665,0.0032377897296100855,0.8243644833564758
56.39327800,56393278,2,0.5660188794136047,-0.005110966041684151,0.0032464254181832075,0.8243700265884399
56.49329000,56493290,2,0.5660232305526733,-0.00512285903096199,0.003265537554398179,0.8243668675422668
56.59322800,56593228,2,0.5660790801048279,-0.005122540518641472,0.0033118901774287224,0.8243283629417419
56.69320100,56693201,2,0.5661545991897583,-0.005120605695992708,0.003318896982818842,0.8242765069007874
56.79319900,56793199,2,0.5661727786064148,-0.005108447279781103,0.0032686572521924973,0.8242642879486084
56.89320000,56893200,2,0.5662068724632263,-0.0050727929919958115,0.003301838878542185,0.8242409825325012
56.99327700,56993277,2,0.5662332773208618,-0.00504593551158905,0.003335460787639022,0.8242228627204895
57.09326600,57093266,2,0.5662381052970886,-0.005042118951678276,0.0033372046891599894,0.8242195248603821
57.19330100,57193301,2,0.5662001371383667,-0.005003947764635086,0.0033354556653648615,0.8242458701133728
57.29329500,57293295,2,0.5661531686782837,-0.005053697619587183,0.0033597189467400312,0.8242776989936829
57.39325100,57393251,2,0.5660855770111084,-0.005033173132687807,0.0033922491129487753,0.8243241310119629
57.49323000,57493230,2,0.5660054087638855,-0.0050435555167496204,0.0034419039729982615,0.8243789076805115
57.59320100,57593201,2,0.5658836364746094,-0.005041603930294514,0.0034455519635230303,0.8244625329971313
57.69319600,57693196,2,0.5658507347106934,-0.005071766674518585,0.0034684452693909407,0.8244848251342773
57.79320000,57793200,2,0.5657907128334045,-0.005054387729614973,0.003468513721600175,0.8245260715484619
57.89326200,57893262,2,0.5656920671463013,-0.005038992501795292,0.0034796653781086206,0.8245938420295715
57.99325700,57993257,2,0.5656648874282837,-0.005048890132457018,0.0034765899181365967,0.8246124386787415
58.09327900,58093279,2,0.5656509399414062,-0.00503134960308671,0.0034892582334578037,0.8246220350265503
58.19328800,58193288,2,0.5656009912490845,-0.005047495011240244,0.003537955228239298,0.8246560096740723
58.29326700,58293267,2,0.5655395984649658,-0.005062218755483627,0.0035374655853956938,0.8246979713439941
58.39322700,58393227,2,0.5655068159103394,-0.005056093446910381,0.0035871025174856186,0.8247203230857849
58.49320000,58493200,2,0.5655216574668884,-0.005024037789553404,0.0035632047802209854,0.8247104287147522
58.59320100,58593201,2,0.5654861330986023,-0.005004321224987507,0.003564849030226469,0.8247349262237549
58.69320300,58693203,2,0.5654464364051819,-0.0050435238517820835,0.003548793960362673,0.8247619867324829
58.79325400,58793254,2,0.5653970837593079,-0.005054208915680647,0.003502421546727419,0.8247959017753601
58.89327100,58893271,2,0.5653571486473083,-0.005066378507763147,0.0035393666476011276,0.8248230814933777
58.99328500,58993285,2,0.5653463006019592,-0.00509668281301856,0.003521827282384038,0.8248304128646851
59.09327400,59093274,2,0.5653278231620789,-0.005095025058835745,0.0035129704046994448,0.8248431086540222
59.19328900,59193289,2,0.5652865767478943,-0.00511014461517334,0.003518767422065139,0.8248712420463562
59.29323200,59293232,2,0.5652937293052673,-0.005102561321109533,0.003524169558659196,0.8248663544654846
59.39319600,59393196,2,0.5652973651885986,-0.005113956052809954,0.0034957746975123882,0.8248639702796936
59.49320100,59493201,2,0.5653001666069031,-0.00513420021161437,0.003447327995672822,0.8248621225357056
59.59320400,59593204,2,0.5653629899024963,-0.005118556786328554,0.003398151369765401,0.8248193264007568
59.69326400,59693264,2,0.5653273463249207,-0.005112131591886282,0.0034099810291081667,0.8248437643051147
59.79327400,59793274,2,0.5653099417686462,-0.005101888440549374,0.0034062343183904886,0.8248557448387146
59.89330200,59893302,2,0.5652843117713928,-0.005054606590420008,0.003419975284487009,0.8248735666275024
59.99327800,59993278,2,0.5652685165405273,-0.005114682950079441,0.003405031282454729,0.8248840570449829
60.09325000,60093250,2,0.5652225017547607,-0.005122353322803974,0.003402536967769265,0.8249155879020691
60.19323200,60193232,2,0.5652281045913696,-0.005093768239021301,0.0033839803654700518,0.8249120116233826
60.29319700,60293197,2,0.5652478337287903,-0.005074739456176758,0.0033913387451320887,0.8248986005783081
60.39319700,60393197,2,0.5652709603309631,-0.00504089193418622,0.0033782089594751596,0.824882984161377
60.49320800,60493208,2,0.5653136372566223,-0.005020853132009506,0.0033518446143716574,0.8248539566993713
60.59325100,60593251,2,0.565363883972168,-0.0050110723823308945,0.0033472441136837006,0.8248195648193359
60.69328000,60693280,2,0.5654390454292297,-0.004960488993674517,0.0033425684086978436,0.8247684240341187
60.79328000,60793280,2,0.5655156373977661,-0.004963056184351444,0.003380167530849576,0.8247156739234924
60.89328900,60893289,2,0.5655750632286072,-0.004952538292855024,0.003406642470508814,0.8246749639511108
60.99326600,60993266,2,0.5656197667121887,-0.0049574063159525394,0.0033779239747673273,0.8246443867683411
61.09322400,61093224,2,0.5656558275222778,-0.005007101222872734,0.0033605508506298065,0.8246193528175354
61.19320000,61193200,2,0.5656120181083679,-0.005032894667237997,0.003363046795129776,0.8246492743492126
61.29320100,61293201,2,0.5656212568283081,-0.005024554207921028,0.0033434543292969465,0.824643075466156
61.39319800,61393198,2,0.5656065940856934,-0.005047488491982222,0.003332387423142791,0.8246530294418335
61.49325100,61493251,2,0.565568745136261,-0.005033815745264292,0.003314883215352893,0.8246791362762451
61.59326000,61593260,2,0.5655642747879028,-0.005040179938077927,0.0033047813922166824,0.8246822357177734
61.69328800,61693288,2,0.5655285120010376,-0.005082203075289726,0.003288357052952051,0.8247065544128418
61.79328000,61793280,2,0.5655480027198792,-0.005120151676237583,0.0032834666781127453,0.824692964553833
61.89325800,61893258,2,0.5655003786087036,-0.005109039135277271,0.0032572925556451082,0.8247258067131042
61.99322600,61993226,2,0.5654911994934082,-0.005182263907045126,0.0032457816414535046,0.8247316479682922
62.09319700,62093197,2,0.5655096173286438,-0.005232717376202345,0.0032105031423270702,0.8247188329696655
62.19320800,62193208,2,0.5655622482299805,-0.005279770120978355,0.0032702165190130472,0.8246822357177734
62.29319700,62293197,2,0.5656185746192932,-0.005266500171273947,0.003244983498007059,0.8246437907218933
62.39326700,62393267,2,0.5656530261039734,-0.005277471151202917,0.0032936041243374348,0.8246198892593384
62.49328800,62493288,2,0.5656886100769043,-0.005296202842146158,0.003239882178604603,0.82459557056427
62.59329600,62593296,2,0.5657297968864441,-0.005315734073519707,0.0032316020224243402,0.8245672583580017
62.69328500,62693285,2,0.5657543540000916,-0.0053007034584879875,0.0031811119988560677,0.8245506882667542
62.79325200,62793252,2,0.5657702684402466,-0.005299973301589489,0.0032334337010979652,0.8245395421981812
62.89322800,62893228,2,0.5658112168312073,-0.005325955338776112,0.003238973207771778,0.8245112299919128
62.99319600,62993196,2,0.5658544301986694,-0.005323739722371101,0.0032719175796955824,0.8244814872741699
63.09319500,63093195,2,0.5658562183380127,-0.00534268980845809,0.0033111260272562504,0.8244799971580505
63.19320300,63193203,2,0.5658880472183228,-0.005386400036513805,0.0033606868237257004,0.8244576454162598
63.29323700,63293237,2,0.56589674949646,-0.005344872362911701,0.0033653394784778357,0.8244519233703613
63.39325700,63393257,2,0.5658819079399109,-0.005310427397489548,0.0033227207604795694,0.8244624733924866
63.49330800,63493308,2,0.5659098029136658,-0.005308922380208969,0.003345878329128027,0.8244432806968689
63.59329400,63593294,2,0.5659269094467163,-0.005364855285733938,0.00335805956274271,0.8244311213493347
63.69325100,63693251,2,0.565922200679779,-0.005337145645171404,0.0032938241492956877,0.8244348168373108
63.79322900,63793229,2,0.5659218430519104,-0.005350029561668634,0.0032372833229601383,0.8244351744651794
63.89320300,63893203,2,0.565912127494812,-0.0053883143700659275,0.003215153468772769,0.8244417309761047
63.99319700,63993197,2,0.5658574104309082,-0.005444351118057966,0.0031944471411406994,0.8244789242744446
64.09321100,64093211,2,0.5658227801322937,-0.005413025617599487,0.0031963340006768703,0.8245028853416443
64.19327000,64193270,2,0.5657737255096436,-0.00544178020209074,0.0031545660458505154,0.8245365619659424
64.29326200,64293262,2,0.5657879710197449,-0.0054498580284416676,0.0031431373208761215,0.8245267868041992
64.39328300,64393283,2,0.5657455325126648,-0.005444912705570459,0.0031216347124427557,0.8245559930801392
64.49328800,64493288,2,0.5657312870025635,-0.005427556578069925,0.003097674809396267,0.8245660066604614
64.59325300,64593253,2,0.5657666921615601,-0.005408850964158773,0.003077862085774541,0.8245419263839722
64.69322700,64693227,2,0.5657576322555542,-0.005374052096158266,0.003068583318963647,0.8245483636856079
64.79319900,64793199,2,0.5657687187194824,-0.005319150164723396,0.0030522244051098824,0.8245411515235901
64.89320500,64893205,2,0.5657398104667664,-0.0053265951573848724,0.003075681859627366,0.8245608806610107
64.99319600,64993196,2,0.5657317638397217,-0.0052689057774841785,0.003101734211668372,0.824566662311554
65.09324600,65093246,2,0.5657879710197449,-0.005211676936596632,0.0030298440251499414,0.8245287537574768
65.19326700,65193267,2,0.565831184387207,-0.005227282643318176,0.0030461533460766077,0.8244988918304443
65.29328300,65293283,2,0.5658791065216064,-0.005200895480811596,0.0030591003596782684,0.8244661688804626
65.39327400,65393274,2,0.5658182501792908,-0.005224642809480429,0.0030467116739600897,0.8245078325271606
65.49325200,65493252,2,0.565840482711792,-0.005198755767196417,0.0030547489877790213,0.8244926929473877
65.59323900,65593239,2,0.5658128261566162,-0.005170916207134724,0.003059372305870056,0.8245118260383606
65.69320400,65693204,2,0.5658071637153625,-0.005145872477442026,0.003042335622012615,0.8245159387588501
65.79320700,65793207,2,0.5658590793609619,-0.005118208471685648,0.0030461782589554787,0.824480414390564
65.89320800,65893208,2,0.5658236145973206,-0.00515945628285408,0.0030958852730691433,0.8245043754577637
65.99326700,65993267,2,0.5658169984817505,-0.005199984181672335,0.00307816662825644,0.8245087265968323
66.09326300,66093263,2,0.5658484697341919,-0.005192840471863747,0.003138159867376089,0.8244869112968445
66.19329400,66193294,2,0.5658702254295349,-0.005192278418689966,0.0031458872836083174,0.8244720101356506
66.29329300,66293293,2,0.5659105181694031,-0.00516275642439723,0.0031222430989146233,0.824444591999054
66.39325100,66393251,2,0.5658996105194092,-0.0051800888031721115,0.0031458274461328983,0.8244518637657166
66.49322800,66493228,2,0.5659428834915161,-0.005162868648767471,0.0030787624418735504,0.8244225382804871
66.59319800,66593198,2,0.5659878253936768,-0.005145268514752388,0.003020607866346836,0.8243920207023621
66.69319800,66693198,2,0.5660064220428467,-0.005101087037473917,0.0030388568993657827,0.8243794441223145
66.79320000,66793200,2,0.5660095810890198,-0.0050852494314312935,0.0030323683749884367,0.8243773579597473
66.89325200,66893252,2,0.5659557580947876,-0.005079988390207291,0.003021520795300603,0.8244144320487976
66.99326100,66993261,2,0.5659570097923279,-0.005085766781121492,0.0030212928541004658,0.824413537979126
67.09329300,67093293,2,0.565934419631958,-0.0050652725622057915,0.0030267233960330486,0.8244291543960571
67.19327600,67193276,2,0.5659409761428833,-0.005023407284170389,0.0029855207540094852,0.8244250416755676
67.29329400,67293294,2,0.5659276843070984,-0.00504197645932436,0.002980635967105627,0.8244341015815735
67.39322500,67393225,2,0.5659364461898804,-0.005063627380877733,0.0029651918448507786,0.8244279623031616
67.49320500,67493205,2,0.5659518241882324,-0.005057430360466242,0.0029602975118905306,0.8244174718856812
67.59320500,67593205,2,0.5659664869308472,-0.005046674516052008,0.0029553319327533245,0.8244074583053589
67.69320600,67693206,2,0.5659523010253906,-0.00500341784209013,0.0029439651407301426,0.8244175314903259
67.79324700,67793247,2,0.5659452676773071,-0.004935162141919136,0.0029269838705658913,0.8244228363037109
67.89326900,67893269,2,0.565952718257904,-0.004949405323714018,0.0029034295585006475,0.8244177103042603
67.99329000,67993290,2,0.5659521818161011,-0.004903814289718866,0.0028225737623870373,0.8244186639785767
68.09327700,68093277,2,0.5659247636795044,-0.004958484787493944,0.0028504503425210714,0.8244370818138123
68.19329900,68193299,2,0.56585294008255,-0.004896047990769148,0.0028089520055800676,0.8244868516921997
68.29322800,68293228,2,0.5658349990844727,-0.004874648526310921,0.0028151022270321846,0.824499249458313
68.39320000,68393200,2,0.5657667517662048,-0.004861351102590561,0.0028427510987967253,0.8245460987091064
68.49319900,68493199,2,0.5657763481140137,-0.004883250687271357,0.0028658309020102024,0.824539303779602
68.59319700,68593197,2,0.5657509565353394,-0.004880102816969156,0.0028746244497597218,0.8245567083358765
68.69324900,68693249,2,0.5657520890235901,-0.004851513542234898,0.0028601870872080326,0.8245561718940735
68.79326900,68793269,2,0.5657103657722473,-0.004797032568603754,0.0028446491342037916,0.8245851397514343
68.89328100,68893281,2,0.5657251477241516,-0.0047788494266569614,0.002805034862831235,0.8245752453804016
68.99328700,68993287,2,0.5657055377960205,-0.004746680147945881,0.00278112362138927,0.8245889544487
69.09325100,69093251,2,0.5657261610031128,-0.004728923086076975,0.0027773603796958923,0.8245749473571777
69.19322900,69193229,2,0.5657065510749817,-0.004711017478257418,0.002789322519674897,0.8245884776115417
69.29320900,69293209,2,0.5657510757446289,-0.004765179939568043,0.0028138719499111176,0.8245575428009033
69.39320700,69393207,2,0.5657224655151367,-0.004777064081281424,0.0027790165040642023,0.8245771527290344
