timestamp,TimeUS,DesRoll,Roll,DesPitch,Pitch,DesYaw,Yaw,ErrRP,ErrYaw,AEKF
1682372376.40028691,64006904,0.0,-0.96,0.0,-0.11,187.73,187.74,0.01,0.01,3
1682372376.50028992,64106907,0.0,-0.96,0.0,-0.11,187.73,187.73,0.01,0.0,3
1682372376.59985113,64206468,0.0,-0.96,0.0,-0.12,187.73,187.73,0.01,0.0,3
1682372376.69995499,64306572,0.0,-0.96,0.0,-0.12,187.73,187.74,0.01,0.0,3
1682372376.79994297,64406560,0.0,-0.96,0.0,-0.11,187.73,187.74,0.01,0.0,3
1682372376.90000892,64506626,0.0,-0.97,0.0,-0.11,187.73,187.74,0.01,0.0,3
1682372376.99999404,64606611,0.0,-0.97,0.0,-0.11,187.73,187.74,0.01,0.0,3
1682372377.10000300,64706620,0.0,-0.97,0.0,-0.11,187.73,187.73,0.01,0.0,3
1682372377.20001292,64806630,0.0,-0.97,0.0,-0.11,187.73,187.73,0.01,0.0,3
1682372377.30000496,64906622,0.0,-0.97,0.0,-0.11,187.73,187.74,0.01,0.0,3
1682372377.40029407,65006911,0.0,-0.96,0.0,-0.11,187.73,187.74,0.01,0.0,3
1682372377.49984908,65106466,0.0,-0.96,0.0,-0.11,187.73,187.74,0.01,0.0,3
1682372377.60032105,65206938,0.0,-0.9500000000000001,0.0,-0.11,187.73,187.75,0.01,0.0,3
1682372377.70031905,65306936,0.0,-0.9500000000000001,0.0,-0.11,187.73,187.74,0.01,0.01,3
1682372377.80019212,65406809,0.0,-0.9400000000000001,0.0,-0.11,187.74,187.75,0.01,0.01,3
1682372377.90022206,65506839,0.0,-0.9400000000000001,0.0,-0.11,187.74,187.75,0.01,0.0,3
1682372378.00042796,65607045,0.0,-0.93,0.0,-0.11,187.74,187.75,0.01,0.01,3
1682372378.10029411,65706911,0.0,-0.93,0.0,-0.11,187.73,187.74,0.01,0.01,3
1682372378.20026803,65806885,0.0,-0.92,0.0,-0.11,187.74,187.75,0.0,0.01,3
1682372378.30049896,65907116,0.0,-0.92,0.0,-0.11,187.74,187.75,0.0,0.0,3
1682372378.40024400,66006861,0.0,-0.92,0.0,-0.11,187.74,187.75,0.01,0.01,3
1682372378.50026798,66106885,0.0,-0.91,0.0,-0.11,187.74,187.75,0.01,0.01,3
1682372378.60027003,66206887,0.0,-0.91,0.0,-0.11,187.75,187.76,0.01,0.01,3
1682372378.70031500,66306932,0.0,-0.9,0.0,-0.11,187.76,187.77,0.01,0.01,3
1682372378.80022907,66406846,0.0,-0.9,0.0,-0.12,187.76,187.77,0.01,0.0,3
1682372378.90024209,66506859,0.0,-0.89,0.0,-0.12,187.77,187.78,0.01,0.01,3
1682372379.00033498,66606952,0.0,-0.89,0.0,-0.11,187.77,187.79,0.01,0.01,3
1682372379.10027504,66706892,0.0,-0.88,0.0,-0.12,187.77,187.79,0.01,0.0,3
1682372379.20031214,66806929,0.0,-0.88,0.0,-0.12,187.77,187.79,0.01,0.0,3
1682372379.30049610,66907113,0.0,-0.88,0.0,-0.12,187.77,187.79,0.01,0.0,3
1682372379.40027714,67006894,0.0,-0.87,0.0,-0.12,187.77,187.79,0.01,0.0,3
1682372379.50026107,67106878,0.0,-0.87,0.0,-0.12,187.77,187.79,0.01,0.0,3
1682372379.59995794,67206575,0.0,-0.87,0.0,-0.13,187.77,187.8,0.01,0.01,3
1682372379.70002007,67306637,0.0,-0.88,0.0,-0.13,187.77,187.78,0.01,0.0,3
1682372379.80002403,67406641,0.0,-0.86,0.0,-0.13,187.77,187.76,0.01,0.0,3
1682372379.90005112,67506668,0.01,-0.9400000000000001,0.0,-0.16,187.77,187.77,0.01,0.01,3
1682372380.00006294,67606680,0.01,-1.26,0.23,-0.28,187.77,187.74,0.01,0.0,3
1682372380.10011697,67706734,0.85,-0.49,0.52,-0.21,187.77,187.63,0.01,0.01,3
1682372380.19987202,67806489,0.51,1.59,0.7000000000000001,0.44,187.78,187.5,0.02,0.03,3
1682372380.29994893,67906566,0.84,2.37,0.74,0.63,187.78,187.25,0.02,0.04,3
1682372380.39999795,68006615,0.9500000000000001,1.8,0.73,0.54,187.78,187.02,0.02,0.04,3
1682372380.50024605,68106863,0.67,1.3800000000000001,0.74,0.43,187.78,186.76,0.02,0.03,3
1682372380.60031509,68206932,0.64,0.79,0.8300000000000001,0.45,187.78,186.51,0.04,0.03,3
1682372380.70007110,68306688,0.63,0.34,0.8200000000000001,0.52,187.78,186.29,0.04,0.03,3
1682372380.80006409,68406681,0.6900000000000001,0.37,0.81,0.43,187.78,186.07,0.04,0.02,3
1682372380.90005612,68506673,1.02,0.24,0.67,0.28,187.77,185.92000000000002,0.04,0.03,3
1682372380.99999094,68606608,1.26,0.76,0.54,0.19,187.77,185.73,0.04,0.02,3
1682372381.09999895,68706616,1.45,1.37,0.39,0.04,187.77,185.62,0.04,0.03,3
1682372381.20028305,68806900,1.6,1.45,0.28,-0.12,187.77,185.53,0.06,0.02,3
1682372381.30026793,68906885,1.71,1.72,0.44,-0.12,187.77,185.46,0.06,0.03,3
1682372381.40017104,69006788,1.85,1.74,0.67,0.25,187.78,185.45000000000002,0.06,0.03,3
1682372381.50018597,69106803,1.8800000000000001,1.73,1.0,0.66,187.79,185.46,0.06,0.02,3
1682372381.60021305,69206830,1.8800000000000001,1.33,1.24,1.01,187.8,185.49,0.06,0.02,3
1682372381.70030713,69306924,2.02,1.26,1.3800000000000001,1.33,187.8,185.54,0.06,0.03,3
1682372381.80024409,69406861,2.0100000000000002,1.56,1.44,1.37,187.8,185.54,0.05,0.02,3
1682372381.90047193,69507089,2.17,1.73,1.4000000000000001,1.35,187.8,185.62,0.05,0.02,3
1682372382.00026512,69606882,2.18,1.94,1.4000000000000001,1.4000000000000001,187.8,185.66,0.05,0.02,3
1682372382.09994411,69706561,2.2,2.13,1.44,1.44,187.8,185.69,0.04,0.02,3
1682372382.20002103,69806638,2.24,1.97,1.52,1.5,187.81,185.70000000000002,0.04,0.02,3
1682372382.29997611,69906593,2.12,2.05,1.55,1.57,187.81,185.68,0.04,0.01,3
1682372382.40000200,70006619,2.1,1.84,1.6,1.6400000000000001,187.81,185.67000000000002,0.03,0.01,3
1682372382.50003791,70106655,2.0300000000000002,1.71,1.58,1.74,187.81,185.66,0.03,0.01,3
1682372382.60030293,70206920,1.93,1.69,1.58,1.6500000000000001,187.81,185.62,0.03,0.01,3
1682372382.70034099,70306958,1.84,1.58,1.61,1.6500000000000001,187.81,185.61,0.03,0.01,3
1682372382.80032802,70406945,1.73,1.41,1.6300000000000001,1.7,187.81,185.6,0.03,0.01,3
1682372382.89985800,70506475,1.71,1.34,1.6400000000000001,1.75,187.81,185.61,0.03,0.01,3
1682372382.99996805,70606585,1.67,1.32,1.62,1.73,187.81,185.59,0.03,0.01,3
1682372383.09999514,70706612,1.6500000000000001,1.6500000000000001,1.61,1.68,187.81,185.6,0.03,0.02,3
1682372383.20002794,70806645,1.58,1.46,1.58,1.6500000000000001,187.81,185.62,0.04,0.02,3
1682372383.30000806,70906625,1.42,1.36,1.72,1.72,187.81,185.6,0.04,0.02,3
1682372383.40002298,71006640,1.26,1.1500000000000001,1.84,1.85,187.81,185.62,0.06,0.02,3
1682372383.50033402,71106951,1.23,1.25,1.74,2.0,187.81,185.64000000000001,0.06,0.02,3
1682372383.60029793,71206915,1.25,0.99,1.6400000000000001,1.72,187.81,185.72,0.07,0.03,3
1682372383.70037699,71306994,1.28,1.08,1.49,1.55,187.81,185.78,0.07,0.03,3
1682372383.80023909,71406856,1.29,0.89,1.41,1.3800000000000001,187.81,185.89000000000001,0.06,0.03,3
1682372383.90035892,71506976,1.33,0.85,1.44,1.33,187.81,186.0,0.06,0.03,3
1682372384.00028491,71606902,1.35,0.9500000000000001,1.46,1.49,187.81,186.07,0.06,0.03,3
1682372384.10060501,71707222,1.4000000000000001,1.0,1.4000000000000001,1.53,187.81,186.15,0.06,0.02,3
1682372384.20025492,71806872,1.4000000000000001,1.34,1.32,1.4000000000000001,187.8,186.19,0.07,0.03,3
1682372384.30007601,71906693,1.27,1.45,1.31,1.26,187.8,186.25,0.07,0.03,3
1682372384.40007496,72006692,1.19,0.96,1.27,1.2,187.8,186.28,0.07,0.03,3
1682372384.50005507,72106672,1.21,1.08,1.12,1.21,187.08,185.56,0.07,0.02,3
1682372384.60007501,72206692,1.1500000000000001,1.04,1.06,1.1,187.08,185.5,0.07,0.02,3
1682372384.69999814,72306615,1.16,0.93,1.06,0.97,187.08,185.4,0.07,0.02,3
1682372384.80032396,72406941,1.11,1.17,1.06,1.06,187.08,185.29,0.07,0.02,3
1682372384.90026712,72506884,1.07,0.97,0.9400000000000001,1.01,187.08,185.20000000000002,0.07,0.02,3
1682372385.00018811,72606805,1.02,0.98,0.8,0.92,187.08,185.06,0.07,0.02,3
1682372385.10017109,72706788,1.0,1.01,0.71,0.6900000000000001,187.08,184.96,0.07,0.03,3
1682372385.20023298,72806850,1.02,1.1500000000000001,0.65,0.71,187.08,184.8,0.06,0.03,3
1682372385.30029106,72906908,1.03,1.16,0.78,0.62,187.08,184.83,0.06,0.03,3
1682372385.40024614,73006863,1.0,1.1400000000000001,0.9500000000000001,0.86,187.08,184.83,0.06,0.03,3
1682372385.50026512,73106882,1.1,0.92,0.98,1.1,187.08,184.78,0.06,0.02,3
1682372385.60045004,73207067,1.1,1.06,0.98,1.08,187.08,184.76,0.06,0.02,3
1682372385.70039296,73307010,1.07,1.17,0.98,1.06,187.08,184.76,0.06,0.02,3
1682372385.80026913,73406886,0.99,1.18,0.99,0.96,187.08,184.83,0.06,0.01,3
1682372385.89997697,73506594,1.04,1.03,0.99,0.97,187.08,184.78,0.06,0.02,3
1682372386.00002599,73606643,1.11,1.19,0.9500000000000001,0.97,187.08,184.79,0.05,0.02,3
1682372386.10003114,73706648,1.16,1.16,0.89,0.86,187.08,184.78,0.05,0.01,3
1682372386.20006394,73806681,1.2,1.25,0.85,0.8200000000000001,187.08,184.79,0.05,0.01,3
1682372386.30006313,73906680,1.2,1.27,0.97,0.75,187.08,184.96,0.05,0.01,3
1682372386.40011597,74006733,1.21,1.36,1.1,0.91,187.08,185.12,0.06,0.01,3
1682372386.49988103,74106498,1.42,1.22,0.96,1.21,187.08,185.15,0.06,0.01,3
1682372386.59995914,74206576,1.58,1.35,0.84,0.99,187.08,185.18,0.06,0.01,3
1682372386.70007706,74306694,1.6500000000000001,1.78,0.78,0.7000000000000001,187.08,185.21,0.06,0.02,3
1682372386.79996705,74406584,1.68,1.8900000000000001,0.75,0.71,187.08,185.29,0.06,0.02,3
1682372386.90001011,74506627,1.57,1.7,0.88,0.75,187.08,185.43,0.06,0.02,3
1682372387.00026202,74606879,1.43,1.55,1.0,0.97,187.08,185.6,0.05,0.02,3
1682372387.10028911,74706906,1.3900000000000001,1.28,1.1300000000000001,1.18,187.09,185.72,0.05,0.02,3
1682372387.20029402,74806911,1.36,1.24,1.25,1.27,187.09,185.91,0.05,0.02,3
1682372387.30033803,74906955,1.42,1.08,1.28,1.43,187.1,185.92000000000002,0.05,0.01,3
1682372387.40030813,75006925,1.47,1.46,1.11,1.27,187.1,185.96,0.04,0.02,3
1682372387.50037003,75106987,1.35,1.31,0.76,0.96,187.09,185.96,0.04,0.02,3
1682372387.60027814,75206895,1.18,1.19,0.22,0.45,187.06,185.96,0.03,0.02,3
1682372387.70036006,75306977,0.88,1.05,-0.34,-0.19,186.38,185.88,0.03,0.02,3
1682372387.80030203,75406919,0.63,0.6,-0.92,-0.96,184.83,185.69,0.03,0.02,3
1682372387.90031195,75506929,0.4,0.16,-1.52,-1.58,182.4,185.26,0.03,0.01,3
1682372388.00032592,75606943,0.25,-0.17,-2.11,-2.32,179.09,184.44,0.03,0.01,3
1682372388.10031104,75706928,0.32,-0.31,-2.66,-2.72,174.9,183.09,0.02,0.01,3
1682372388.20031095,75806928,0.46,-0.3,-3.0500000000000003,-3.0700000000000003,170.6,181.23,0.02,0.02,3
1682372388.30025411,75906871,0.71,-0.36,-3.24,-3.38,167.18,178.91,0.02,0.03,3
1682372388.40036607,76006983,0.9,-0.17,-3.25,-3.44,164.64000000000001,176.36,0.02,0.04,3
1682372388.50033593,76106953,1.18,0.42,-2.99,-3.27,162.99,173.58,0.02,0.04,3
1682372388.60002398,76206641,1.34,0.9400000000000001,-2.5,-2.83,162.12,170.84,0.02,0.04,3
1682372388.70008397,76306701,1.6400000000000001,1.36,-1.8,-2.15,161.68,167.81,0.02,0.04,3
1682372388.80003595,76406653,1.83,1.95,-1.08,-1.27,161.46,164.92000000000002,0.03,0.04,3
1682372388.90007591,76506693,2.08,2.21,-0.47000000000000003,-0.41000000000000003,161.35,161.96,0.03,0.04,3
1682372389.00013304,76606750,2.2,2.47,0.13,0.22,161.3,159.15,0.03,0.04,3
1682372389.10009694,76706714,2.35,2.75,0.58,0.75,161.28,156.43,0.03,0.04,3
1682372389.19997501,76806592,2.44,2.67,0.96,1.27,161.28,154.09,0.03,0.05,3
1682372389.29996705,76906584,2.45,2.82,1.16,1.71,161.27,151.99,0.03,0.06,3
1682372389.40000200,77006619,2.2800000000000002,2.87,1.28,1.92,161.27,150.25,0.03,0.06,3
1682372389.50034308,77106960,2.31,2.6,1.1400000000000001,1.85,161.26,148.76,0.03,0.05,3
1682372389.60030699,77206924,2.09,2.48,1.05,1.6500000000000001,161.26,147.58,0.03,0.06,3
1682372389.70031905,77306936,2.02,2.16,0.93,1.37,161.26,146.73,0.03,0.06,3
1682372389.80031395,77406931,1.78,1.8800000000000001,0.88,1.26,161.25,146.18,0.02,0.06,3
1682372389.90013313,77506750,1.69,1.83,0.85,1.22,161.25,145.87,0.02,0.07,3
1682372390.00012994,77606747,1.49,1.45,0.8300000000000001,1.21,161.25,145.83,0.02,0.07,3
1682372390.09997201,77706589,1.42,1.41,0.8300000000000001,1.07,161.25,145.97,0.02,0.07,3
1682372390.19995093,77806568,1.27,1.1,0.84,0.99,161.25,146.34,0.02,0.06,3
1682372390.29999900,77906616,1.25,0.93,0.88,0.96,161.25,146.76,0.02,0.06,3
1682372390.40030193,78006919,1.19,1.31,0.9500000000000001,1.02,161.25,147.36,0.03,0.06,3
1682372390.50028110,78106898,1.16,0.84,0.9400000000000001,1.06,161.25,148.08,0.03,0.06,3
1682372390.60028791,78206905,1.11,0.8300000000000001,0.9500000000000001,1.1400000000000001,161.25,148.9,0.03,0.06,3
1682372390.70030212,78306919,1.1400000000000001,0.93,0.93,1.11,161.25,149.82,0.03,0.05,3
1682372390.80023503,78406852,1.09,1.07,0.92,1.17,161.25,150.87,0.03,0.04,3
1682372390.90029812,78506915,1.03,0.68,0.85,1.03,161.25,152.04,0.03,0.04,3
1682372391.00022292,78606840,0.9400000000000001,0.9,0.79,0.99,161.25,153.24,0.03,0.04,3
1682372391.10023403,78706851,0.87,0.77,0.7000000000000001,0.89,161.24,154.51,0.03,0.04,3
1682372391.20023012,78806847,0.77,0.46,0.68,0.81,161.24,155.73,0.02,0.04,3
1682372391.30054092,78907158,0.75,0.52,0.63,0.72,161.24,156.96,0.02,0.03,3
1682372391.40028906,79006906,0.74,0.5,0.61,0.67,161.24,158.15,0.03,0.03,3
1682372391.50028992,79106907,0.85,0.58,0.49,0.65,161.24,159.33,0.03,0.03,3
1682372391.60035801,79206975,0.91,0.61,0.4,0.54,161.24,160.4,0.03,0.03,3
1682372391.70035410,79306971,0.9500000000000001,0.6900000000000001,0.35000000000000003,0.36,161.24,161.35,0.03,0.02,3
1682372391.80033398,79406951,0.97,0.53,0.36,0.35000000000000003,161.24,162.19,0.04,0.02,3
1682372391.90049601,79507113,1.04,0.64,0.55,0.41000000000000003,161.24,162.83,0.04,0.02,3
1682372392.00036597,79606983,1.1300000000000001,0.75,0.73,0.64,161.25,163.35,0.05,0.02,3
1682372392.10030293,79706920,1.27,0.96,0.71,0.89,161.25,163.77,0.05,0.02,3
1682372392.20000911,79806626,1.36,1.1500000000000001,0.67,0.84,161.25,163.99,0.06,0.01,3
1682372392.30004001,79906657,1.41,1.34,0.63,0.73,161.25,164.16,0.06,0.02,3
1682372392.40006113,80006678,1.4000000000000001,1.36,0.62,0.78,161.25,164.21,0.06,0.01,3
1682372392.50007010,80106687,1.41,1.22,0.63,0.71,161.25,164.20000000000002,0.06,0.01,3
1682372392.60006595,80206683,1.4000000000000001,1.19,0.66,0.6900000000000001,161.25,164.07,0.05,0.01,3
1682372392.70042014,80307037,1.36,1.17,0.64,0.73,161.25,163.92000000000002,0.05,0.01,3
1682372392.79990101,80406518,1.3,1.1500000000000001,0.6900000000000001,0.65,161.25,163.68,0.05,0.01,3
1682372392.89996910,80506586,1.31,1.1300000000000001,0.75,0.64,161.25,163.4,0.05,0.01,3
1682372393.00006104,80606678,1.31,1.11,0.84,0.67,161.25,163.11,0.06,0.01,3
1682372393.10000801,80706625,1.28,1.44,1.11,0.77,161.25,162.81,0.06,0.01,3
1682372393.20002604,80806643,1.23,1.19,1.34,1.19,161.25,162.51,0.07,0.01,3
1682372393.30003500,80906652,1.28,1.1400000000000001,1.41,1.5,161.25,162.17000000000002,0.07,0.01,3
1682372393.40033293,81006950,1.31,1.23,1.44,1.43,161.26,161.88,0.07,0.01,3
1682372393.50013614,81106753,1.26,1.49,1.41,1.4000000000000001,161.25,161.61,0.07,0.01,3
1682372393.60028791,81206905,1.24,1.34,1.4000000000000001,1.33,161.25,161.37,0.06,0.01,3
1682372393.70030999,81306927,1.16,1.33,1.3800000000000001,1.31,161.25,161.12,0.06,0.01,3
1682372393.80022192,81406839,1.09,1.34,1.37,1.28,161.25,160.9,0.05,0.02,3
1682372393.90022612,81506843,1.03,0.99,1.3900000000000001,1.3,161.25,160.71,0.05,0.02,3
1682372394.00020599,81606823,0.9500000000000001,1.1500000000000001,1.3900000000000001,1.42,161.25,160.59,0.05,0.02,3
1682372394.10023808,81706855,0.85,1.05,1.36,1.47,161.25,160.49,0.05,0.02,3
1682372394.20022702,81806844,0.68,0.9400000000000001,1.32,1.45,161.25,160.38,0.05,0.01,3
1682372394.30044007,81907057,0.62,0.76,1.3,1.35,161.25,160.32,0.05,0.02,3
1682372394.40031600,82006933,0.6,0.64,1.27,1.26,161.25,160.3,0.04,0.02,3
1682372394.50036192,82106979,0.67,0.62,1.25,1.22,161.25,160.32,0.04,0.02,3
1682372394.60028100,82206898,0.74,0.65,1.24,1.16,161.25,160.41,0.04,0.03,3
1682372394.70042205,82307039,0.8200000000000001,1.11,1.22,1.24,161.25,160.47,0.04,0.02,3
1682372394.80034113,82406958,0.89,0.79,1.25,1.19,161.25,160.56,0.04,0.03,3
1682372394.90027905,82506896,0.93,0.9,1.32,1.25,161.25,160.70000000000002,0.04,0.03,3
1682372395.00032091,82606938,0.97,0.85,1.42,1.3800000000000001,161.25,160.81,0.03,0.03,3
1682372395.10028696,82706904,0.96,0.97,1.47,1.49,161.25,160.92000000000002,0.03,0.04,3
1682372395.20013714,82806754,0.98,0.93,1.5,1.3800000000000001,161.25,161.0,0.03,0.04,3
1682372395.30006909,82906686,0.96,0.86,1.48,1.3800000000000001,161.25,161.07,0.03,0.04,3
1682372395.40007496,83006692,0.9500000000000001,0.8200000000000001,1.44,1.41,161.25,161.11,0.03,0.04,3
1682372395.49997091,83106588,0.96,0.87,1.4000000000000001,1.4000000000000001,161.25,161.13,0.03,0.04,3
1682372395.59997201,83206589,0.98,0.9500000000000001,1.3900000000000001,1.41,161.25,161.12,0.03,0.03,3
1682372395.70009398,83306711,1.08,1.05,1.3800000000000001,1.43,161.25,161.15,0.03,0.04,3
1682372395.80036402,83406981,1.1400000000000001,1.11,1.4000000000000001,1.41,161.25,161.19,0.03,0.03,3
1682372395.90005612,83506673,1.24,1.18,1.43,1.3800000000000001,161.25,161.19,0.03,0.03,3
1682372396.00006008,83606677,1.27,1.3900000000000001,1.44,1.41,161.26,161.25,0.03,0.03,3
1682372396.10007596,83706693,1.34,1.29,1.47,1.44,161.26,161.3,0.03,0.02,3
1682372396.20006299,83806680,1.3800000000000001,1.44,1.49,1.49,161.26,161.27,0.02,0.02,3
1682372396.30006814,83906685,1.4000000000000001,1.27,1.46,1.49,161.26,161.24,0.02,0.02,3
1682372396.39997602,84006593,1.42,1.36,1.46,1.4000000000000001,161.26,161.22,0.02,0.02,3
1682372396.50036502,84106982,1.52,1.28,1.46,1.37,161.26,161.21,0.02,0.01,3
1682372396.60030603,84206923,1.57,1.56,1.47,1.45,161.26,161.13,0.02,0.01,3
1682372396.70032001,84306937,1.59,1.32,1.57,1.32,161.26,161.05,0.02,0.01,3
1682372396.80022812,84406845,1.58,1.53,1.6400000000000001,1.37,161.26,160.92000000000002,0.02,0.01,3
1682372396.90027094,84506888,1.6300000000000001,1.57,1.7,1.47,161.26,160.86,0.02,0.01,3
1682372397.00029492,84606912,1.6600000000000001,1.52,1.79,1.61,161.26,160.77,0.02,0.01,3
1682372397.10024905,84706866,1.68,1.85,1.86,1.6300000000000001,161.27,160.73,0.02,0.01,3
1682372397.20029998,84806917,1.67,1.8800000000000001,1.85,1.73,161.27,160.67000000000002,0.02,0.02,3
1682372397.30016804,84906785,1.6500000000000001,2.0,1.87,1.76,161.27,160.58,0.02,0.02,3
1682372397.40034795,85006965,1.6,1.8,1.83,1.82,161.26,160.55,0.02,0.02,3
1682372397.50029802,85106915,1.5,1.74,1.83,1.8,161.26,160.61,0.02,0.02,3
1682372397.60002112,85206638,1.41,1.48,1.81,1.86,161.26,160.64000000000001,0.03,0.02,3
1682372397.70006895,85306686,1.42,1.47,1.75,1.79,161.26,160.72,0.03,0.02,3
1682372397.80006909,85406686,1.48,1.5,1.68,1.81,161.26,160.79,0.03,0.02,3
1682372397.90018797,85506805,1.58,1.46,1.6400000000000001,1.7,161.26,160.83,0.03,0.02,3
1682372398.00014114,85606758,1.62,1.45,1.61,1.69,161.26,160.9,0.03,0.02,3
1682372398.10036993,85706987,1.72,1.59,1.59,1.54,161.26,160.9,0.03,0.02,3
1682372398.20026493,85806882,1.76,1.68,1.56,1.3900000000000001,161.26,160.92000000000002,0.04,0.02,3
1682372398.30036402,85906981,1.81,1.58,1.6500000000000001,1.24,161.27,160.92000000000002,0.04,0.02,3
1682372398.40029001,86006907,1.81,1.45,1.75,1.46,161.27,160.94,0.03,0.01,3
1682372398.50031114,86106928,1.8800000000000001,1.5,1.9000000000000001,1.68,161.27,161.02,0.03,0.01,3
1682372398.60031700,86206934,1.8800000000000001,1.48,2.02,1.94,161.27,161.02,0.04,0.01,3
1682372398.70034599,86306963,1.94,1.77,1.98,2.05,161.27,161.06,0.04,0.01,3
1682372398.80029392,86406911,1.95,1.77,1.93,1.96,161.27,161.03,0.03,0.01,3
1682372398.90031099,86506928,1.95,1.74,1.84,1.83,161.27,161.06,0.03,0.01,3
1682372399.00042605,86607043,1.94,1.76,1.76,1.78,161.27,161.03,0.03,0.02,3
1682372399.10028791,86706905,1.9100000000000001,1.82,1.73,1.7,161.27,160.99,0.03,0.02,3
1682372399.20037103,86806988,1.8800000000000001,1.83,1.72,1.7,161.27,160.94,0.03,0.02,3
1682372399.30030012,86906917,1.78,1.67,1.75,1.67,161.27,160.91,0.03,0.01,3
1682372399.40058303,87007200,1.67,1.42,1.74,1.71,161.26,160.86,0.02,0.01,3
1682372399.50002599,87106643,1.6400000000000001,1.46,1.77,1.7,161.26,160.8,0.02,0.01,3
1682372399.60005093,87206668,1.6,1.76,1.74,1.83,161.26,160.77,0.03,0.01,3
1682372399.70018101,87306798,1.61,1.75,1.67,1.85,161.26,160.77,0.03,0.02,3
1682372399.80013704,87406754,1.57,1.59,1.59,1.71,161.26,160.78,0.02,0.01,3
1682372399.90007114,87506688,1.47,1.53,1.49,1.53,161.26,160.86,0.02,0.01,3
1682372400.00002313,87606640,1.34,1.6500000000000001,1.4000000000000001,1.53,161.26,160.92000000000002,0.02,0.01,3
1682372400.10037613,87706993,1.25,1.19,1.42,1.36,161.25,161.0,0.02,0.01,3
1682372400.20023608,87806853,1.18,1.1,1.44,1.37,161.25,161.16,0.02,0.02,3
1682372400.30019712,87906814,1.1500000000000001,0.86,1.5,1.51,161.25,161.26,0.02,0.02,3
1682372400.40021896,88006836,1.08,0.85,1.54,1.59,161.25,161.39000000000001,0.02,0.02,3
1682372400.50024414,88106861,1.1500000000000001,0.7000000000000001,1.5,1.6400000000000001,161.25,161.52,0.02,0.02,3
1682372400.60028100,88206898,1.21,1.1400000000000001,1.45,1.6600000000000001,161.25,161.6,0.03,0.01,3
1682372400.70031095,88306928,1.3900000000000001,1.22,1.41,1.6500000000000001,161.26,161.69,0.03,0.02,3
1682372400.80033803,88406955,1.48,1.3800000000000001,1.35,1.61,161.26,161.78,0.03,0.02,3
1682372400.89989901,88506516,1.6600000000000001,1.54,1.28,1.59,161.26,161.77,0.03,0.02,3
1682372400.99997497,88606592,1.69,1.81,1.2,1.47,161.26,161.79,0.03,0.02,3
1682372401.10007191,88706689,1.62,1.79,1.07,1.32,161.25,161.81,0.03,0.02,3
1682372401.20001006,88806627,1.52,1.6400000000000001,0.96,1.12,161.25,161.8,0.03,0.02,3
1682372401.30005097,88906668,1.45,1.49,0.88,1.0,161.25,161.76,0.03,0.02,3
1682372401.40004110,89006658,1.45,1.58,0.91,0.92,161.25,161.77,0.03,0.02,3
1682372401.50013208,89106749,1.3800000000000001,1.3800000000000001,1.02,0.9,161.25,161.71,0.03,0.01,3
1682372401.60013413,89206751,1.33,1.55,1.12,1.05,161.25,161.68,0.03,0.01,3
1682372401.70040512,89307022,1.19,1.27,1.23,1.1300000000000001,161.25,161.63,0.03,0.01,3
1682372401.80026698,89406884,1.1400000000000001,1.3,1.31,1.26,161.25,161.58,0.03,0.02,3
1682372401.90033507,89506952,1.25,0.98,1.3,1.3900000000000001,161.25,161.48,0.03,0.01,3
1682372402.00031114,89606928,1.33,1.09,1.29,1.34,161.25,161.4,0.03,0.01,3
1682372402.10034609,89706963,1.49,1.22,1.27,1.28,161.26,161.3,0.03,0.01,3
1682372402.20028496,89806902,1.58,1.31,1.25,1.27,161.26,161.13,0.02,0.01,3
1682372402.30029392,89906911,1.6400000000000001,1.69,1.3,1.17,161.26,161.06,0.02,0.01,3
1682372402.40032101,90006938,1.62,1.74,1.32,1.23,161.26,160.92000000000002,0.03,0.01,3
1682372402.50033498,90106952,1.62,1.59,1.33,1.17,161.26,160.84,0.03,0.01,3
1682372402.60034609,90206963,1.58,1.47,1.34,1.1,161.26,160.76,0.02,0.01,3
1682372402.70001006,90306627,1.62,1.67,1.33,1.02,161.26,160.71,0.02,0.0,3
1682372402.79996610,90406583,1.6,1.75,1.34,1.08,161.26,160.69,0.02,0.0,3
1682372402.90000510,90506622,1.6600000000000001,1.76,1.42,1.16,161.26,160.70000000000002,0.02,0.0,3
1682372403.00001097,90606628,1.69,1.68,1.44,1.3900000000000001,161.26,160.76,0.02,0.01,3
1682372403.10003114,90706648,1.76,1.6400000000000001,1.5,1.55,161.26,160.78,0.02,0.01,3
1682372403.20017195,90806789,1.84,1.6600000000000001,1.54,1.6600000000000001,161.26,160.82,0.03,0.01,3
1682372403.30031013,90906927,1.9000000000000001,1.86,1.51,1.67,161.26,160.93,0.03,0.01,3
1682372403.40031695,91006934,1.8900000000000001,1.83,1.5,1.54,161.26,161.02,0.03,0.01,3
1682372403.50028014,91106897,1.93,1.82,1.3800000000000001,1.45,161.26,161.17000000000002,0.03,0.01,3
1682372403.60019708,91206814,1.97,1.6300000000000001,1.3,1.33,161.26,161.26,0.02,0.01,3
1682372403.70035791,91306975,1.98,1.74,1.19,1.22,161.26,161.4,0.02,0.01,3
1682372403.80022311,91406840,1.97,1.56,1.11,1.25,161.26,161.52,0.03,0.01,3
1682372403.90017891,91506796,1.95,1.6500000000000001,1.1300000000000001,1.29,161.26,161.62,0.03,0.01,3
1682372404.00020504,91606822,1.9100000000000001,1.6600000000000001,1.17,1.37,161.26,161.65,0.03,0.01,3
1682372404.10044909,91707066,1.8800000000000001,1.9000000000000001,1.26,1.33,161.26,161.67000000000002,0.03,0.01,3
1682372404.20034814,91806965,1.79,1.81,1.37,1.3800000000000001,161.26,161.62,0.02,0.01,3
1682372404.30006599,91906683,1.83,1.56,1.46,1.48,161.26,161.54,0.02,0.01,3
1682372404.40009499,92006712,1.76,1.9000000000000001,1.54,1.51,161.26,161.45000000000002,0.02,0.01,3
1682372404.49998713,92106604,1.74,1.85,1.67,1.53,161.26,161.32,0.02,0.01,3
1682372404.59996796,92206585,1.67,1.74,1.74,1.6600000000000001,161.26,161.21,0.03,0.01,3
1682372404.70007300,92306690,1.59,1.73,1.73,1.85,161.26,161.11,0.03,0.01,3
1682372404.80028009,92406897,1.51,1.6300000000000001,1.7,1.78,161.26,161.07,0.03,0.01,3
1682372404.90030503,92506922,1.48,1.6600000000000001,1.5,1.69,161.26,161.02,0.03,0.01,3
1682372405.00007105,92606688,1.45,1.57,1.3800000000000001,1.4000000000000001,161.26,161.01,0.03,0.01,3
1682372405.10007596,92706693,1.44,1.45,1.27,1.16,161.26,161.03,0.03,0.01,3
1682372405.20006800,92806685,1.44,1.53,1.27,1.07,161.26,161.06,0.03,0.01,3
1682372405.30010605,92906723,1.4000000000000001,1.62,1.3800000000000001,1.11,161.26,161.09,0.03,0.01,3
1682372405.39987803,93006495,1.31,1.4000000000000001,1.46,1.42,161.26,161.12,0.03,0.01,3
1682372405.50034308,93106960,1.37,1.32,1.55,1.57,161.26,161.14000000000001,0.03,0.01,3
1682372405.60029006,93206907,1.35,1.47,1.57,1.67,161.26,161.13,0.03,0.01,3
1682372405.70035291,93306970,1.4000000000000001,1.53,1.6,1.48,161.26,161.17000000000002,0.03,0.01,3
1682372405.80028796,93406905,1.35,1.3800000000000001,1.61,1.36,161.26,161.24,0.02,0.01,3
1682372405.90026402,93506881,1.31,1.45,1.62,1.36,161.26,161.3,0.02,0.01,3
1682372406.00035214,93606969,1.3,1.35,1.67,1.36,161.26,161.4,0.02,0.01,3
1682372406.10030913,93706926,1.24,1.25,1.6500000000000001,1.48,161.26,161.57,0.02,0.01,3
1682372406.20033407,93806951,1.18,1.3900000000000001,1.59,1.49,161.26,161.65,0.02,0.01,3
1682372406.30029607,93906913,1.21,1.21,1.55,1.49,161.26,161.77,0.02,0.01,3
1682372406.40035605,94006973,1.21,1.34,1.48,1.57,161.25,161.86,0.02,0.01,3
1682372406.50029612,94106913,1.25,1.44,1.47,1.53,161.26,161.93,0.02,0.01,3
1682372406.60019302,94206810,1.18,1.41,1.43,1.44,161.25,162.0,0.02,0.01,3
1682372406.70029902,94306916,1.19,1.59,1.29,1.44,161.25,162.07,0.02,0.01,3
1682372406.80022597,94406843,1.17,1.44,1.18,1.24,161.25,162.11,0.02,0.01,3
1682372406.90024710,94506864,1.1,1.53,1.09,1.09,161.25,162.18,0.02,0.01,3
1682372407.00028014,94606897,1.03,1.23,1.05,1.16,161.25,162.22,0.02,0.01,3
1682372407.10029411,94706911,0.93,1.11,1.05,1.1500000000000001,161.25,162.22,0.02,0.01,3
1682372407.20022297,94806840,0.89,0.93,1.07,1.1400000000000001,161.25,162.22,0.02,0.01,3
1682372407.30082512,94907442,0.85,0.98,1.1,1.21,161.25,162.17000000000002,0.02,0.01,3
1682372407.40008497,95006702,0.87,1.05,1.1500000000000001,1.11,161.25,162.13,0.02,0.01,3
1682372407.50000501,95106622,0.96,1.01,1.11,1.21,161.25,162.04,0.02,0.01,3
1682372407.60001493,95206632,0.98,1.31,1.1,1.22,161.25,161.94,0.02,0.01,3
1682372407.70012808,95306745,0.99,1.2,1.1,1.1400000000000001,161.25,161.82,0.02,0.01,3
1682372407.80013013,95406747,0.9500000000000001,1.25,1.09,1.16,161.25,161.71,0.02,0.01,3
1682372407.90006304,95506680,0.99,1.27,1.1300000000000001,1.16,161.25,161.56,0.02,0.01,3
1682372408.00036001,95606977,0.98,1.31,1.2,1.25,161.25,161.43,0.02,0.01,3
1682372408.09990191,95706519,1.01,1.4000000000000001,1.31,1.33,161.25,161.31,0.02,0.0,3
1682372408.19995499,95806572,1.0,1.3800000000000001,1.42,1.51,161.25,161.19,0.01,0.01,3
1682372408.30030107,95906918,0.99,1.24,1.52,1.52,161.25,161.14000000000001,0.01,0.01,3
1682372408.40004396,96006661,0.9400000000000001,1.3,1.57,1.6400000000000001,161.25,161.09,0.02,0.01,3
1682372408.50002909,96106646,0.93,1.07,1.57,1.62,161.25,161.08,0.02,0.01,3
1682372408.60004807,96206665,0.93,1.08,1.53,1.61,161.25,161.13,0.02,0.01,3
1682372408.70017099,96306788,0.9400000000000001,0.9500000000000001,1.49,1.52,161.25,161.22,0.02,0.01,3
1682372408.80006313,96406680,0.99,0.98,1.49,1.56,161.25,161.32,0.02,0.01,3
1682372408.90034795,96506965,1.08,1.02,1.53,1.49,161.25,161.41,0.02,0.01,3
1682372409.00028300,96606900,1.17,1.08,1.56,1.52,161.25,161.53,0.02,0.01,3
1682372409.10036898,96706986,1.27,1.1400000000000001,1.59,1.59,161.26,161.64000000000001,0.02,0.01,3
1682372409.20030808,96806925,1.32,1.08,1.59,1.59,161.26,161.73,0.02,0.02,3
1682372409.30055404,96907171,1.41,1.1,1.55,1.62,161.26,161.8,0.02,0.02,3
1682372409.40028000,97006897,1.48,1.03,1.54,1.52,161.26,161.84,0.01,0.01,3
1682372409.50039601,97107013,1.5,1.08,1.45,1.5,161.26,161.81,0.01,0.01,3
1682372409.60030913,97206926,1.55,1.18,1.4000000000000001,1.51,161.26,161.75,0.02,0.01,3
1682372409.70035005,97306967,1.58,1.21,1.44,1.3900000000000001,161.26,161.68,0.02,0.01,3
1682372409.80032611,97406943,1.6400000000000001,1.03,1.47,1.45,161.26,161.55,0.02,0.01,3
1682372409.89997411,97506591,1.6300000000000001,1.44,1.51,1.58,161.26,161.45000000000002,0.02,0.01,3
1682372409.99998093,97606598,1.67,1.35,1.56,1.6,161.26,161.3,0.02,0.01,3
1682372410.10000801,97706625,1.6400000000000001,1.33,1.59,1.69,161.26,161.19,0.02,0.01,3
1682372410.20000100,97806618,1.62,1.5,1.6,1.74,161.26,161.04,0.02,0.01,3
1682372410.30004692,97906664,1.58,1.31,1.54,1.73,161.26,160.92000000000002,0.02,0.01,3
1682372410.40003896,98006656,1.53,1.43,1.49,1.6,161.26,160.83,0.02,0.01,3
1682372410.50037098,98106988,1.55,1.53,1.44,1.54,161.26,160.69,0.02,0.01,3
1682372410.60025191,98206869,1.52,1.45,1.42,1.4000000000000001,161.26,160.6,0.02,0.01,3
1682372410.70033503,98306952,1.42,1.53,1.4000000000000001,1.3800000000000001,161.26,160.53,0.02,0.01,3
1682372410.80018306,98406800,1.26,1.42,1.3900000000000001,1.3800000000000001,161.25,160.44,0.02,0.01,3
1682372410.90023303,98506850,1.09,1.4000000000000001,1.3800000000000001,1.52,161.25,160.41,0.02,0.01,3
1682372411.00027108,98606888,0.91,1.3,1.37,1.55,161.25,160.44,0.01,0.01,3
1682372411.10018301,98706800,0.8300000000000001,0.93,1.34,1.42,161.25,160.55,0.01,0.01,3
1682372411.20022607,98806843,0.75,0.92,1.33,1.31,161.25,160.59,0.02,0.01,3
1682372411.30066514,98907282,0.79,0.49,1.24,1.1500000000000001,161.25,160.68,0.02,0.01,3
1682372411.40031791,99006935,0.84,0.63,1.22,1.02,161.25,160.83,0.03,0.01,3
1682372411.50013494,99106752,0.91,0.93,1.26,1.16,161.25,160.95000000000002,0.03,0.01,3
1682372411.60011506,99206732,1.01,1.1,1.32,1.3900000000000001,161.25,161.08,0.03,0.0,3
1682372411.70004392,99306661,1.11,1.07,1.29,1.51,161.25,161.19,0.03,0.01,3
1682372411.79996395,99406581,1.1300000000000001,1.27,1.23,1.41,161.25,161.23,0.03,0.01,3
1682372411.90002608,99506643,1.2,1.27,1.1500000000000001,1.18,161.25,161.28,0.03,0.01,3
1682372412.00002098,99606638,1.21,1.22,1.12,1.03,161.25,161.27,0.03,0.01,3
1682372412.10004210,99706659,1.25,1.43,1.1,0.98,161.25,161.23,0.02,0.01,3
1682372412.20004606,99806663,1.23,1.23,1.1300000000000001,0.9500000000000001,161.25,161.22,0.02,0.01,3
1682372412.30032611,99906943,1.21,1.35,1.16,1.11,161.25,161.22,0.02,0.01,3
1682372412.40031600,100006933,1.22,1.36,1.2,1.24,161.25,161.19,0.02,0.01,3
1682372412.50038099,100106998,1.29,1.3800000000000001,1.17,1.16,161.25,161.20000000000002,0.02,0.01,3
1682372412.60032511,100206942,1.33,1.57,1.16,1.08,161.25,161.21,0.03,0.01,3
1682372412.70040393,100307021,1.37,1.67,1.21,1.07,161.25,161.24,0.03,0.01,3
1682372412.80027914,100406896,1.33,1.83,1.3,1.1,161.25,161.27,0.03,0.01,3
1682372412.90031004,100506927,1.17,1.79,1.51,1.23,161.25,161.33,0.03,0.01,3
1682372413.00033092,100606948,1.05,1.43,1.6400000000000001,1.44,161.25,161.44,0.02,0.01,3
1682372413.10029292,100706910,0.92,1.58,1.8,1.57,161.25,161.57,0.02,0.01,3
1682372413.20014000,100806757,0.73,1.2,1.8800000000000001,1.76,161.25,161.70000000000002,0.03,0.01,3
1682372413.30012393,100906741,0.73,0.84,1.9000000000000001,1.69,161.25,161.85,0.03,0.01,3
1682372413.40028691,101006904,0.7000000000000001,0.99,1.8800000000000001,1.57,161.25,162.0,0.03,0.0,3
1682372413.49996996,101106587,0.74,0.9500000000000001,1.77,1.48,161.25,162.17000000000002,0.03,0.0,3
1682372413.59997106,101206588,0.74,1.1500000000000001,1.68,1.43,161.25,162.34,0.03,0.0,3
1682372413.70018005,101306797,0.66,1.06,1.58,1.47,161.25,162.5,0.03,0.01,3
1682372413.80027509,101406892,0.61,0.93,1.51,1.43,161.25,162.68,0.02,0.01,3
1682372413.90033698,101506954,0.5700000000000001,0.79,1.42,1.33,161.25,162.85,0.02,0.01,3
1682372414.00023603,101606853,0.59,0.73,1.32,1.23,161.25,163.02,0.02,0.01,3
1682372414.10027504,101706892,0.63,0.74,1.28,1.1400000000000001,161.25,163.18,0.02,0.01,3
1682372414.20024896,101806866,0.66,0.88,1.26,1.11,161.25,163.32,0.02,0.01,3
1682372414.30028510,101906902,0.68,0.63,1.26,1.12,161.25,163.47,0.02,0.01,3
1682372414.40018296,102006800,0.63,0.8,1.26,1.1300000000000001,161.25,163.61,0.01,0.01,3
1682372414.50023794,102106855,0.64,0.7000000000000001,1.25,1.22,161.25,163.69,0.01,0.0,3
1682372414.60024405,102206861,0.63,0.58,1.21,1.29,161.25,163.82,0.01,0.01,3
1682372414.70067406,102307291,0.7000000000000001,0.56,1.2,1.27,161.25,163.86,0.01,0.01,3
1682372414.80028391,102406901,0.77,0.67,1.27,1.33,161.25,163.85,0.02,0.01,3
1682372414.90004396,102506661,0.8300000000000001,0.77,1.51,1.46,161.25,163.87,0.02,0.01,3
1682372415.00015306,102606770,0.91,0.92,1.96,1.87,161.25,163.86,0.02,0.01,3
1682372415.10013914,102706756,0.93,1.04,2.56,2.47,161.26,163.81,0.02,0.01,3
1682372415.20011401,102806731,0.91,0.99,3.22,3.18,161.26,163.76,0.01,0.02,3
1682372415.29998899,102906606,0.9500000000000001,1.1400000000000001,3.89,3.92,161.27,163.70000000000002,0.01,0.02,3
1682372415.40037608,103006993,0.87,1.18,4.54,4.61,161.27,163.6,0.01,0.02,3
1682372415.50030494,103106922,0.86,1.11,5.09,5.23,161.28,163.52,0.01,0.02,3
1682372415.60032511,103206942,0.84,1.1300000000000001,5.45,5.71,161.28,163.46,0.02,0.02,3
1682372415.70038199,103306999,0.8300000000000001,1.1500000000000001,5.48,5.9,161.28,163.4,0.02,0.01,3
1682372415.80032611,103406943,0.85,1.1500000000000001,5.36,5.65,161.28,163.34,0.02,0.02,3
1682372415.90033007,103506947,0.8300000000000001,1.07,4.97,5.24,161.28,163.3,0.02,0.02,3
1682372416.00034714,103606964,0.85,1.06,4.44,4.6000000000000005,161.27,163.24,0.02,0.02,3
1682372416.10036898,103706986,0.85,1.05,3.8000000000000003,3.8200000000000003,161.27,163.18,0.02,0.02,3
1682372416.20027208,103806889,0.86,0.97,3.14,3.0,161.26,163.16,0.02,0.01,3
1682372416.30064797,103907265,0.89,1.0,2.56,2.14,161.26,163.18,0.02,0.01,3
1682372416.40029597,104006913,0.91,0.92,2.02,1.6500000000000001,161.26,163.20000000000002,0.02,0.01,3
1682372416.50001812,104106635,0.9400000000000001,1.02,1.6400000000000001,1.06,161.25,163.22,0.02,0.02,3
1682372416.60005403,104206671,0.98,0.81,1.34,0.8,161.25,163.24,0.02,0.01,3
1682372416.70014596,104306763,0.8200000000000001,0.75,1.47,0.74,161.25,163.23,0.02,0.01,3
1682372416.80018401,104406801,0.86,0.63,1.7,1.09,161.26,163.19,0.01,0.01,3
1682372416.90007997,104506697,1.1400000000000001,0.46,1.19,1.67,161.25,163.17000000000002,0.01,0.01,3
1682372417.00011206,104606729,1.8800000000000001,1.09,-0.71,0.8300000000000001,161.20000000000002,163.12,0.01,0.01,3
1682372417.09998608,104706603,2.75,2.02,-3.29,-2.16,161.09,162.99,0.01,0.02,3
1682372417.20036197,104806979,3.23,3.0500000000000003,-4.5200000000000005,-5.7700000000000005,161.03,162.77,0.02,0.02,3
1682372417.30031109,104906928,3.4,3.47,-4.57,-6.54,161.03,162.6,0.02,0.02,3
1682372417.40019011,105006807,3.33,3.25,-3.72,-4.96,161.08,162.58,0.02,0.02,3
1682372417.50023293,105106850,2.99,2.66,-2.42,-2.85,161.15,162.52,0.02,0.02,3
1682372417.60023499,105206852,2.71,1.84,-1.37,-0.86,161.20000000000002,162.47,0.02,0.02,3
1682372417.70030999,105306927,2.5,1.43,-0.64,0.23,161.24,162.36,0.02,0.02,3
1682372417.80027199,105406889,2.33,1.5,-0.23,0.65,161.25,162.23,0.03,0.01,3
1682372417.90033603,105506953,2.41,1.4000000000000001,-0.1,0.62,161.26,162.08,0.03,0.01,3
1682372418.00024199,105606859,2.36,1.9100000000000001,0.14,0.38,161.27,161.93,0.03,0.01,3
1682372418.10024214,105706859,2.2800000000000002,2.0300000000000002,0.71,0.46,161.29,161.78,0.03,0.01,3
1682372418.20023894,105806856,2.07,1.78,1.43,1.21,161.32,161.65,0.02,0.01,3
1682372418.30053306,105907150,1.78,1.82,2.23,2.23,161.35,161.5,0.02,0.01,3
1682372418.40029597,106006913,1.49,1.32,2.79,3.14,161.36,161.41,0.03,0.01,3
1682372418.50028801,106106905,1.32,0.99,3.22,3.62,161.37,161.29,0.03,0.01,3
1682372418.60032701,106206944,1.07,0.86,3.52,3.8200000000000003,161.38,161.18,0.04,0.01,3
1682372418.70017099,106306788,1.02,0.79,3.61,3.91,161.38,161.13,0.04,0.0,3
1682372418.80008507,106406702,0.9,0.71,3.7,3.87,161.38,161.04,0.03,0.01,3
1682372418.90002108,106506638,0.92,0.8300000000000001,3.77,3.92,161.38,160.98,0.03,0.0,3
1682372418.99999905,106606616,0.8300000000000001,0.93,3.7600000000000002,4.01,161.38,160.87,0.04,0.0,3
1682372419.10005498,106706672,0.81,0.99,3.72,3.97,161.38,160.79,0.04,0.01,3
1682372419.19999409,106806611,0.7000000000000001,0.87,3.59,3.7800000000000002,161.38,160.67000000000002,0.03,0.0,3
1682372419.30004001,106906657,0.59,0.87,3.47,3.6,161.38,160.55,0.03,0.0,3
1682372419.40028214,107006899,0.47000000000000003,0.9,3.37,3.41,161.38,160.44,0.03,0.01,3
1682372419.50031495,107106932,0.37,0.6900000000000001,3.22,3.27,161.38,160.29,0.03,0.01,3
1682372419.60031199,107206929,0.29,0.7000000000000001,3.12,3.04,161.38,160.15,0.03,0.01,3
1682372419.70040703,107307024,0.17,0.48,2.98,2.91,161.38,160.05,0.03,0.01,3
1682372419.80027914,107406896,0.1,0.44,2.87,2.67,161.38,159.95000000000002,0.03,0.01,3
1682372419.90039110,107507008,0.07,0.35000000000000003,2.7600000000000002,2.5,161.38,159.92000000000002,0.03,0.01,3
1682372420.00044107,107607058,0.01,0.18,2.68,2.4,161.38,159.89000000000001,0.03,0.01,3
1682372420.10032511,107706942,0.05,0.42,2.67,2.35,161.38,159.87,0.03,0.01,3
1682372420.20030713,107806924,0.02,0.29,2.63,2.42,161.38,159.91,0.03,0.02,3
1682372420.30029607,107906913,0.12,0.22,2.56,2.42,161.38,159.99,0.03,0.01,3
1682372420.40032005,108006937,0.14,0.43,2.44,2.47,161.38,160.05,0.03,0.01,3
1682372420.50031900,108106936,0.13,0.21,2.34,2.19,161.38,160.14000000000001,0.03,0.01,3
1682372420.60035801,108206975,0.19,0.27,2.23,2.11,161.38,160.24,0.03,0.01,3
1682372420.70032096,108306938,0.21,0.46,2.17,1.99,161.38,160.37,0.03,0.01,3
1682372420.80036211,108406979,0.3,0.35000000000000003,2.17,1.93,161.38,160.54,0.03,0.01,3
1682372420.90030909,108506926,0.4,0.55,2.1,1.97,161.37,160.71,0.03,0.01,3
1682372421.00014305,108606760,0.51,0.44,2.09,2.0,161.37,160.86,0.02,0.01,3
1682372421.10006595,108706683,0.48,0.65,2.0,1.98,161.37,161.02,0.02,0.01,3
1682372421.20005798,108806675,0.55,0.6900000000000001,1.96,1.8800000000000001,161.37,161.09,0.02,0.01,3
1682372421.30013013,108906747,0.56,0.62,1.92,1.75,161.37,161.22,0.02,0.01,3
1682372421.40006804,109006685,0.56,0.42,1.9000000000000001,1.75,161.37,161.28,0.02,0.01,3
1682372421.50033498,109106952,0.63,0.31,1.93,1.75,161.37,161.37,0.02,0.02,3
1682372421.60021591,109206833,0.63,0.52,1.9100000000000001,1.8800000000000001,161.37,161.41,0.02,0.01,3
1682372421.70036101,109306978,0.72,0.5700000000000001,1.94,1.79,161.37,161.46,0.02,0.01,3
1682372421.80025792,109406875,0.81,0.71,1.94,1.73,161.37,161.47,0.02,0.01,3
1682372421.90020609,109506823,0.8300000000000001,0.86,1.92,1.78,161.37,161.52,0.02,0.01,3
1682372422.00022006,109606837,0.88,0.73,1.93,1.82,161.37,161.5,0.02,0.02,3
1682372422.10028100,109706898,0.92,0.72,1.92,1.74,161.37,161.42000000000002,0.02,0.02,3
1682372422.20028400,109806901,0.87,0.91,1.9100000000000001,1.78,161.37,161.42000000000002,0.03,0.01,3
1682372422.30028200,109906899,0.9400000000000001,0.91,2.04,1.8,161.38,161.36,0.03,0.01,3
1682372422.40042996,110007047,0.9400000000000001,0.97,2.11,1.98,161.38,161.37,0.04,0.01,3
1682372422.49999094,110106608,0.97,1.08,2.13,2.13,161.38,161.29,0.04,0.01,3
1682372422.59998512,110206602,0.97,1.1300000000000001,2.13,2.14,161.38,161.26,0.04,0.02,3
1682372422.70011997,110306737,0.9500000000000001,1.19,2.02,2.13,161.37,161.17000000000002,0.04,0.02,3
1682372422.80002093,110406638,0.9400000000000001,0.97,1.95,1.8800000000000001,161.37,161.12,0.05,0.01,3
1682372422.90004301,110506660,0.92,0.78,1.95,1.74,161.37,161.07,0.05,0.02,3
1682372423.00006509,110606682,0.9,0.96,1.93,1.85,161.37,161.01,0.04,0.01,3
1682372423.10020304,110706820,0.96,0.6900000000000001,2.0100000000000002,1.9100000000000001,161.37,160.98,0.04,0.01,3
1682372423.20013905,110806756,0.93,0.9500000000000001,2.02,1.96,161.37,160.93,0.04,0.01,3
1682372423.30012202,110906739,0.9500000000000001,1.05,1.99,1.98,161.37,160.98,0.04,0.01,3
1682372423.40027499,111006892,0.91,0.93,1.96,1.99,161.37,160.95000000000002,0.03,0.01,3
1682372423.50037313,111106990,0.89,0.88,1.85,1.93,161.37,160.93,0.03,0.01,3
1682372423.60030794,111206925,0.84,1.03,1.77,1.85,161.37,160.96,0.03,0.01,3
1682372423.70036793,111306985,0.79,0.79,1.73,1.73,161.37,160.95000000000002,0.03,0.01,3
1682372423.80032897,111406946,0.8200000000000001,0.85,1.6600000000000001,1.75,161.37,160.94,0.02,0.01,3
1682372423.90029407,111506911,0.77,1.04,1.6600000000000001,1.76,161.37,160.88,0.02,0.02,3
1682372424.00037599,111606993,0.76,1.02,1.67,1.71,161.37,160.84,0.02,0.02,3
1682372424.10033894,111706956,0.75,0.74,1.6500000000000001,1.78,161.37,160.77,0.02,0.01,3
1682372424.20041895,111807036,0.76,1.08,1.6300000000000001,1.75,161.37,160.67000000000002,0.02,0.01,3
1682372424.29997611,111906593,0.85,0.98,1.58,1.73,161.37,160.56,0.02,0.01,3
1682372424.39998102,112006598,0.79,0.8200000000000001,1.52,1.55,161.37,160.48,0.02,0.01,3
1682372424.50003314,112106650,0.8200000000000001,0.72,1.49,1.48,161.37,160.35,0.02,0.01,3
1682372424.60002208,112206639,0.8,0.51,1.46,1.43,161.37,160.36,0.02,0.01,3
1682372424.70016503,112306782,0.81,0.78,1.44,1.49,161.37,160.29,0.02,0.01,3
1682372424.80005193,112406669,0.8200000000000001,0.76,1.45,1.44,161.37,160.3,0.02,0.01,3
1682372424.90014410,112506761,0.85,0.99,1.5,1.43,161.37,160.36,0.02,0.01,3
1682372425.00014591,112606763,0.87,0.72,1.54,1.49,161.37,160.35,0.02,0.01,3
1682372425.10037112,112706988,0.89,0.89,1.57,1.55,161.37,160.4,0.02,0.01,3
1682372425.20033312,112806950,0.89,0.77,1.6400000000000001,1.61,161.37,160.45000000000002,0.02,0.01,3
1682372425.30025792,112906875,0.87,0.84,1.6,1.6500000000000001,161.37,160.51,0.02,0.01,3
1682372425.40024710,113006864,0.8300000000000001,0.85,1.59,1.6400000000000001,161.37,160.55,0.01,0.01,3
1682372425.50019693,113106814,0.87,0.97,1.58,1.53,161.37,160.54,0.01,0.01,3
1682372425.60023403,113206851,0.8,0.92,1.57,1.47,161.37,160.56,0.01,0.01,3
1682372425.70027113,113306888,0.8300000000000001,0.96,1.59,1.58,161.37,160.53,0.01,0.01,3
1682372425.80030608,113406923,0.78,0.87,1.61,1.68,161.37,160.5,0.02,0.01,3
1682372425.90030813,113506925,0.8300000000000001,0.87,1.67,1.73,161.37,160.45000000000002,0.02,0.01,3
1682372426.00037193,113606989,0.78,0.76,1.7,1.77,161.37,160.47,0.01,0.01,3
1682372426.09998512,113706602,0.8,0.88,1.71,1.78,161.37,160.44,0.01,0.01,3
1682372426.19998312,113806600,0.8,0.6,1.73,1.8,161.37,160.49,0.01,0.01,3
1682372426.30009294,113906710,0.72,0.7000000000000001,1.68,1.8900000000000001,161.37,160.52,0.01,0.0,3
1682372426.40001106,114006628,0.75,0.48,1.69,1.79,161.37,160.57,0.01,0.0,3
1682372426.50004196,114106659,0.6900000000000001,0.75,1.68,1.82,161.37,160.66,0.01,0.01,3
1682372426.60006809,114206685,0.74,0.85,1.68,1.79,161.37,160.70000000000002,0.01,0.01,3
1682372426.70018411,114306801,0.84,0.7000000000000001,1.6400000000000001,1.6600000000000001,161.37,160.8,0.01,0.01,3
1682372426.80031395,114406931,0.89,0.8300000000000001,1.61,1.6,161.37,160.87,0.01,0.01,3
1682372426.90034103,114506958,0.98,0.97,1.56,1.56,161.37,160.96,0.01,0.01,3
1682372427.00028610,114606903,0.9,0.9500000000000001,1.53,1.61,161.37,161.07,0.01,0.01,3
1682372427.10037208,114706989,0.96,1.01,1.55,1.59,161.37,161.12,0.01,0.01,3
1682372427.20030093,114806918,0.9400000000000001,0.97,1.56,1.6300000000000001,161.37,161.17000000000002,0.01,0.01,3
1682372427.30035496,114906972,0.9,1.17,1.51,1.57,161.37,161.21,0.01,0.01,3
1682372427.40031099,115006928,0.91,1.01,1.51,1.57,161.37,161.22,0.01,0.01,3
1682372427.50030613,115106923,0.9400000000000001,0.96,1.48,1.56,161.37,161.22,0.01,0.0,3
1682372427.60032010,115206937,0.9500000000000001,1.01,1.45,1.57,161.37,161.22,0.01,0.01,3
1682372427.70018911,115306806,1.02,0.96,1.44,1.48,161.37,161.22,0.01,0.0,3
1682372427.80007792,115406695,1.0,1.07,1.43,1.49,161.37,161.20000000000002,0.01,0.0,3
1682372427.89997911,115506596,1.0,0.88,1.41,1.51,161.37,161.20000000000002,0.01,0.0,3
1682372427.99999309,115606610,0.97,1.0,1.3800000000000001,1.5,161.36,161.18,0.01,0.0,3
1682372428.10004210,115706659,0.9400000000000001,0.92,1.3900000000000001,1.48,161.37,161.20000000000002,0.01,0.0,3
1682372428.20002913,115806646,0.89,0.88,1.3800000000000001,1.48,161.36,161.19,0.01,0.0,3
1682372428.30001903,115906636,0.92,0.96,1.33,1.44,161.36,161.20000000000002,0.01,0.0,3
1682372428.40011311,116006730,0.86,0.8300000000000001,1.27,1.41,161.36,161.26,0.01,0.01,3
1682372428.50013399,116106751,0.9500000000000001,0.6,1.23,1.25,161.36,161.3,0.01,0.01,3
1682372428.60013509,116206752,0.93,0.8300000000000001,1.2,1.21,161.36,161.37,0.01,0.01,3
1682372428.70040298,116307020,0.93,0.9500000000000001,1.17,1.17,161.36,161.43,0.01,0.01,3
1682372428.80022693,116406844,0.9500000000000001,0.9400000000000001,1.21,1.08,161.36,161.5,0.01,0.0,3
1682372428.90023398,116506851,0.86,1.11,1.25,1.16,161.36,161.54,0.01,0.01,3
1682372429.00026298,116606880,0.8,0.72,1.29,1.25,161.36,161.61,0.01,0.0,3
1682372429.10018802,116706805,0.75,0.75,1.36,1.33,161.36,161.61,0.01,0.01,3
1682372429.20021796,116806835,0.73,0.6900000000000001,1.3900000000000001,1.37,161.36,161.67000000000002,0.01,0.01,3
1682372429.30024910,116906866,0.74,0.59,1.42,1.44,161.37,161.58,0.01,0.01,3
1682372429.40032911,117006946,0.75,0.64,1.41,1.49,161.37,161.54,0.01,0.01,3
1682372429.50026512,117106882,0.76,0.85,1.3900000000000001,1.44,161.36,161.4,0.01,0.01,3
1682372429.60035014,117206967,0.81,0.89,1.4000000000000001,1.37,161.36,161.31,0.01,0.01,3
1682372429.70031404,117306931,0.79,0.78,1.42,1.35,161.37,161.15,0.01,0.01,3
1682372429.80036807,117406985,0.75,0.8200000000000001,1.42,1.3800000000000001,161.37,161.07,0.01,0.01,3
1682372429.90029812,117506915,0.7000000000000001,0.9500000000000001,1.41,1.54,161.37,160.94,0.01,0.01,3
1682372430.00002313,117606640,0.66,0.77,1.45,1.59,161.37,160.88,0.01,0.01,3
1682372430.10003805,117706655,0.65,0.54,1.46,1.56,161.37,160.8,0.01,0.01,3
1682372430.20007110,117806688,0.6,0.55,1.45,1.55,161.37,160.76,0.01,0.01,3
1682372430.30015612,117906773,0.62,0.51,1.3800000000000001,1.53,161.36,160.74,0.01,0.01,3
1682372430.40013599,118006753,0.66,0.85,1.35,1.36,161.36,160.74,0.01,0.01,3
1682372430.50013995,118106757,0.6900000000000001,0.72,1.35,1.33,161.36,160.73,0.01,0.01,3
1682372430.59998298,118206600,0.67,0.62,1.36,1.42,161.36,160.69,0.01,0.01,3
1682372430.70013404,118306751,0.65,0.74,1.3800000000000001,1.54,161.36,160.68,0.01,0.01,3
1682372430.80000997,118406627,0.5700000000000001,0.48,1.36,1.45,161.36,160.67000000000002,0.01,0.01,3
1682372430.90027499,118506892,0.62,0.6900000000000001,1.35,1.42,161.36,160.67000000000002,0.01,0.01,3
1682372431.00008297,118606700,0.63,0.52,1.31,1.3900000000000001,161.36,160.68,0.0,0.01,3
1682372431.10007000,118706687,0.64,0.62,1.27,1.3900000000000001,161.36,160.66,0.0,0.01,3
1682372431.20007491,118806692,0.6900000000000001,0.52,1.25,1.23,161.36,160.65,0.0,0.0,3
1682372431.30013514,118906752,0.71,0.58,1.21,1.35,161.36,160.67000000000002,0.0,0.01,3
1682372431.40002203,119006639,0.74,0.62,1.19,1.33,161.36,160.68,0.01,0.0,3
1682372431.50002694,119106644,0.81,0.67,1.19,1.26,161.36,160.65,0.01,0.0,3
1682372431.59999394,119206611,0.8300000000000001,0.6,1.19,1.22,161.36,160.67000000000002,0.0,0.0,3
1682372431.70010209,119306719,0.85,0.81,1.19,1.21,161.36,160.61,0.0,0.01,3
1682372431.80032802,119406945,0.81,0.77,1.21,1.01,161.36,160.57,0.0,0.0,3
1682372431.90031910,119506936,0.74,0.66,1.23,0.9500000000000001,161.36,160.5,0.0,0.0,3
1682372432.00013494,119606752,0.75,0.52,1.29,0.87,161.36,160.47,0.0,0.0,3
1682372432.10033202,119706949,0.72,0.46,1.31,1.07,161.36,160.41,0.0,0.0,3
1682372432.20032001,119806937,0.8,0.3,1.37,1.4000000000000001,161.37,160.43,0.01,0.01,3
1682372432.30036092,119906978,0.88,0.59,1.43,1.6300000000000001,161.37,160.42000000000002,0.01,0.01,3
1682372432.40028906,120006906,0.92,1.01,1.48,1.75,161.37,160.43,0.01,0.01,3
1682372432.50066304,120107280,0.98,0.9500000000000001,1.44,1.6400000000000001,161.37,160.42000000000002,0.01,0.01,3
1682372432.60034609,120206963,0.91,1.1500000000000001,1.4000000000000001,1.52,161.37,160.43,0.01,0.01,3
1682372432.70036697,120306984,0.86,1.06,1.3800000000000001,1.54,161.37,160.46,0.01,0.01,3
1682372432.80032611,120406943,0.85,0.81,1.42,1.57,161.37,160.54,0.01,0.01,3
1682372432.90024996,120506867,0.8300000000000001,0.65,1.44,1.52,161.37,160.62,0.01,0.0,3
1682372433.00029898,120606916,0.89,0.91,1.5,1.42,161.37,160.67000000000002,0.01,0.0,3
1682372433.10026503,120706882,0.9,1.16,1.47,1.46,161.37,160.75,0.01,0.0,3
1682372433.20030093,120806918,0.9,1.05,1.51,1.33,161.37,160.82,0.01,0.01,3
1682372433.30024195,120906859,0.88,1.16,1.51,1.3800000000000001,161.37,160.9,0.01,0.01,3
1682372433.40024114,121006858,0.8200000000000001,1.1,1.51,1.54,161.37,160.95000000000002,0.01,0.01,3
1682372433.50023699,121106854,0.84,0.81,1.47,1.58,161.37,161.0,0.01,0.01,3
1682372433.60040092,121207018,0.8,0.92,1.44,1.55,161.37,160.97,0.01,0.01,3
1682372433.70036912,121306986,0.76,0.41000000000000003,1.36,1.32,161.36,161.01,0.01,0.01,3
1682372433.80006194,121406679,0.79,0.39,1.34,1.18,161.36,161.01,0.01,0.01,3
1682372433.90007496,121506692,0.8,0.41000000000000003,1.31,1.25,161.36,160.97,0.01,0.01,3
1682372434.00012803,121606745,0.8200000000000001,0.5,1.31,1.21,161.36,160.99,0.01,0.01,3
1682372434.10011196,121706729,0.88,0.5700000000000001,1.3,1.26,161.36,161.01,0.01,0.01,3
1682372434.19998193,121806599,0.87,0.93,1.24,1.35,161.36,161.01,0.01,0.01,3
1682372434.29998112,121906598,0.86,0.84,1.24,1.31,161.36,161.02,0.01,0.01,3
1682372434.40000606,122006623,0.78,0.85,1.12,1.28,161.36,161.01,0.01,0.01,3
1682372434.50002313,122106640,0.79,0.64,1.1,1.03,161.36,161.02,0.01,0.01,3
1682372434.60031104,122206928,0.77,0.58,1.1,0.84,161.36,161.02,0.01,0.01,3
1682372434.70021296,122306830,0.73,0.58,1.1300000000000001,0.75,161.36,161.1,0.01,0.0,3
1682372434.80007696,122406694,0.71,0.6900000000000001,1.18,0.86,161.36,161.09,0.01,0.01,3
1682372434.90007591,122506693,0.6900000000000001,0.52,1.25,1.0,161.36,161.15,0.01,0.01,3
1682372435.00010014,122606717,0.64,0.51,1.23,1.1400000000000001,161.36,161.20000000000002,0.01,0.01,3
1682372435.09998393,122706601,0.68,0.48,1.22,1.16,161.36,161.23,0.01,0.01,3
1682372435.19998002,122806597,0.58,0.56,1.21,1.16,161.36,161.23,0.01,0.01,3
1682372435.30006003,122906677,0.5700000000000001,0.51,1.18,1.21,161.36,161.27,0.01,0.01,3
1682372435.40032291,123006940,0.52,0.58,1.16,1.11,161.36,161.33,0.01,0.01,3
1682372435.50006294,123106680,0.5,0.45,1.1400000000000001,1.11,161.36,161.38,0.01,0.01,3
1682372435.60028791,123206905,0.5,0.43,1.09,1.05,161.36,161.45000000000002,0.01,0.01,3
1682372435.70041108,123307028,0.54,0.44,1.05,1.18,161.36,161.5,0.01,0.01,3
1682372435.80029798,123406915,0.59,0.6900000000000001,1.0,1.19,161.36,161.57,0.01,0.01,3
1682372435.90034294,123506960,0.58,0.76,1.04,1.19,161.36,161.61,0.01,0.01,3
1682372436.00028801,123606905,0.55,0.9,1.09,1.03,161.36,161.6,0.01,0.01,3
1682372436.10037804,123706995,0.5700000000000001,0.87,1.09,1.0,161.36,161.55,0.01,0.01,3
1682372436.20029497,123806912,0.59,0.8200000000000001,1.12,1.05,161.36,161.53,0.01,0.01,3
1682372436.30061698,123907234,0.62,0.64,1.11,1.26,161.36,161.48,0.01,0.01,3
1682372436.40031695,124006934,0.6,0.61,1.1300000000000001,1.23,161.36,161.41,0.01,0.01,3
1682372436.50029707,124106914,0.55,0.55,1.11,1.26,161.36,161.37,0.01,0.01,3
1682372436.60032701,124206944,0.47000000000000003,0.8,1.09,1.25,161.36,161.33,0.01,0.01,3
1682372436.70017505,124306792,0.47000000000000003,0.63,1.22,1.06,161.36,161.33,0.01,0.01,3
1682372436.80013394,124406751,0.44,0.59,1.22,1.19,161.36,161.34,0.01,0.01,3
1682372436.89991307,124506530,0.39,0.64,1.29,1.23,161.36,161.44,0.01,0.01,3
1682372436.99998498,124606602,0.32,0.49,1.21,1.34,161.36,161.52,0.01,0.01,3
1682372437.10007501,124706692,0.28,0.54,1.16,1.47,161.36,161.65,0.01,0.01,3
1682372437.20030308,124806920,0.2,0.64,1.17,1.33,161.36,161.75,0.01,0.01,3
1682372437.30031514,124906932,0.14,0.6900000000000001,1.07,1.28,161.36,161.83,0.01,0.01,3
1682372437.40022397,125006841,0.08,0.53,1.12,1.0,161.36,161.9,0.01,0.01,3
1682372437.50028610,125106903,-0.02,0.39,1.06,1.11,161.36,161.93,0.01,0.01,3
1682372437.60025692,125206874,-0.06,0.17,1.0,1.23,161.36,161.96,0.01,0.01,3
1682372437.70035505,125306972,0.0,-0.04,1.01,1.17,161.36,161.93,0.01,0.01,3
1682372437.80024314,125406860,-0.01,0.32,0.88,1.23,161.36,161.83,0.01,0.01,3
1682372437.90022898,125506846,0.06,0.33,0.88,1.17,161.36,161.74,0.01,0.01,3
1682372438.00026298,125606880,0.06,0.38,0.92,0.89,161.36,161.59,0.01,0.01,3
1682372438.10056496,125707182,0.07,0.35000000000000003,0.85,0.9400000000000001,161.36,161.41,0.01,0.01,3
1682372438.20030999,125806927,0.07,0.19,0.87,1.0,161.36,161.22,0.01,0.01,3
1682372438.30005407,125906671,0.0,0.38,0.86,1.22,161.36,161.02,0.01,0.01,3
1682372438.40015411,126006771,0.04,0.1,0.81,1.47,161.36,160.88,0.01,0.01,3
1682372438.50014901,126106766,-0.01,0.05,0.75,1.42,161.36,160.66,0.01,0.0,3
1682372438.60009313,126206710,0.01,-0.14,0.74,0.96,161.36,160.47,0.01,0.01,3
1682372438.70005608,126306673,0.02,-0.47000000000000003,0.8,1.75,161.36,160.36,0.01,0.01,3
1682372438.79996896,126406586,0.03,-0.65,0.9,2.21,161.36,160.3,0.01,0.01,3
1682372438.90011907,126506736,-0.11,-0.91,1.1,2.68,161.36,160.28,0.01,0.01,3
1682372439.00003099,126606648,-0.2,-0.98,1.22,3.15,161.36,160.32,0.01,0.01,3
1682372439.10003805,126706655,-0.27,-1.18,1.51,3.31,161.36,160.45000000000002,0.01,0.01,3
1682372439.20007205,126806689,-0.46,-1.17,1.82,3.5300000000000002,161.36,160.59,0.01,0.01,3
1682372439.30014706,126906764,-1.25,-1.01,2.27,2.86,161.35,160.65,0.01,0.01,3
1682372439.40033102,127006948,-1.37,-0.7000000000000001,2.62,2.07,161.34,160.71,0.01,0.01,3
1682372439.50040007,127107017,-1.56,-0.05,2.4,1.68,161.35,160.63,0.01,0.01,3
1682372439.60029101,127206908,-0.78,0.06,2.11,1.3,161.36,160.58,0.01,0.01,3
1682372439.70046496,127307082,-0.41000000000000003,0.21,1.53,1.04,161.36,160.63,0.01,0.01,3
1682372439.80031109,127406928,-0.37,0.13,1.01,1.06,161.36,160.62,0.01,0.01,3
1682372439.90039802,127507015,-0.1,0.25,0.89,1.17,161.36,160.55,0.01,0.01,3
1682372440.00033998,127606957,-0.59,-0.01,1.1400000000000001,1.22,161.36,160.56,0.01,0.01,3
1682372440.10034204,127706959,-0.42,0.16,1.45,1.23,161.36,160.55,0.01,0.02,3
1682372440.20030904,127806926,-0.6,0.09,1.43,1.2,161.36,160.5,0.01,0.02,3
1682372440.30035996,127906977,-0.39,0.19,1.5,1.22,161.36,160.6,0.01,0.01,3
1682372440.40008497,128006702,-0.5700000000000001,0.12,1.51,1.2,161.36,160.6,0.01,0.01,3
1682372440.50008607,128106703,-0.53,0.11,1.3900000000000001,1.19,161.36,160.56,0.01,0.01,3
1682372440.60032606,128206943,-0.66,0.13,1.51,1.19,161.36,160.64000000000001,0.01,0.02,3
1682372440.70009804,128306715,-0.7000000000000001,0.11,1.46,1.18,161.36,160.62,0.01,0.01,3
1682372440.80027699,128406894,-0.6900000000000001,0.14,1.55,1.21,161.36,160.61,0.01,0.01,3
1682372440.90004611,128506663,-0.65,0.09,1.6600000000000001,1.19,161.36,160.63,0.01,0.01,3
1682372441.00015211,128606769,-0.65,0.14,1.68,1.22,161.36,160.66,0.01,0.02,3
1682372441.10013008,128706747,-0.73,0.11,1.73,1.2,161.36,160.66,0.01,0.02,3
1682372441.20004010,128806657,-0.51,0.11,1.33,1.2,161.36,160.67000000000002,0.01,0.02,3
1682372441.30006504,128906682,-0.26,0.22,0.67,1.11,161.36,160.66,0.01,0.02,3
1682372441.39987493,129006492,-0.13,0.17,0.34,1.07,160.75,160.75,0.01,0.02,3
1682372441.49995708,129106574,-0.06,0.18,0.17,1.1300000000000001,161.01,161.01,0.01,0.02,3
1682372441.60029006,129206907,-0.03,0.19,0.09,1.12,161.33,161.33,0.01,0.02,3
1682372441.70003295,129306650,-0.01,0.21,0.04,1.09,161.74,161.74,0.01,0.02,3
1682372441.80000901,129406626,0.0,0.22,0.02,1.1300000000000001,162.26,162.26,0.01,0.02,3
1682372441.90025496,129506872,0.0,0.2,0.01,1.12,162.75,162.75,0.01,0.02,3
1682372442.00040507,129607022,0.0,0.21,0.0,1.12,163.26,163.26,0.01,0.02,3
1682372442.10005212,129706669,0.0,0.23,0.0,1.1300000000000001,163.8,163.8,0.01,0.03,3
1682372442.20024514,129806862,0.0,0.2,0.0,1.11,164.25,164.25,0.0,0.03,3
1682372442.30019093,129906808,0.0,0.21,0.0,1.12,164.71,164.71,0.0,0.02,3
1682372442.40022397,130006841,0.0,0.21,0.0,1.12,165.18,165.18,0.0,0.02,3
1682372442.50022006,130106837,0.0,0.2,0.0,1.11,165.58,165.58,0.0,0.02,3
1682372442.60052109,130207138,0.0,0.2,0.0,1.1300000000000001,165.98,165.98,0.0,0.02,3
1682372442.70023513,130306852,0.0,0.22,0.0,1.11,166.38,166.38,0.0,0.02,3
1682372442.80020595,130406823,0.0,0.2,0.0,1.1,166.73,166.73,0.0,0.03,3
1682372442.90023804,130506855,0.0,0.21,0.0,1.11,167.08,167.08,0.0,0.02,3
1682372443.00024605,130606863,0.0,0.21,0.0,1.09,167.44,167.44,0.0,0.02,3
1682372443.10051298,130707130,0.0,0.22,0.0,1.1,167.77,167.77,0.0,0.02,3
1682372443.20009613,130806713,0.0,0.22,0.0,1.11,168.08,168.08,0.0,0.03,3
1682372443.30021405,130906831,0.0,0.23,0.0,1.1,168.41,168.41,0.0,0.03,3
1682372443.40020800,131006825,0.0,0.23,0.0,1.1,168.71,168.71,0.0,0.03,3
1682372443.50018001,131106797,0.0,0.23,0.0,1.1,169.01,169.01,0.0,0.03,3
1682372443.60019612,131206813,0.0,0.23,0.0,1.1,169.31,169.31,0.0,0.02,3
1682372443.70026898,131306886,0.0,0.24,0.0,1.1,169.58,169.58,0.0,0.02,3
1682372443.80023694,131406854,0.0,0.24,0.0,1.1,169.85,169.85,0.0,0.02,3
1682372443.90022397,131506841,0.0,0.24,0.0,1.11,170.12,170.12,0.0,0.01,3
1682372444.00034499,131606962,0.0,0.24,0.0,1.11,170.35,170.35,0.0,0.01,3
1682372444.10027909,131706896,0.0,0.23,0.0,1.1,170.59,170.59,0.0,0.01,3
1682372444.20033193,131806949,0.0,0.24,0.0,1.1,170.83,170.83,0.0,0.01,3
1682372444.30028796,131906905,0.0,0.24,0.0,1.11,171.04,171.04,0.0,0.01,3
1682372444.39999294,132006610,0.0,0.24,0.0,1.11,171.27,171.27,0.0,0.01,3
1682372444.50002503,132106642,0.0,0.24,0.0,1.11,171.49,171.49,0.0,0.02,3
1682372444.60001612,132206633,0.0,0.24,0.0,1.11,171.70000000000002,171.70000000000002,0.0,0.02,3
1682372444.70014501,132306762,0.0,0.24,0.0,1.11,171.92000000000002,171.92000000000002,0.0,0.02,3
1682372444.80004001,132406657,0.0,0.25,0.0,1.11,172.14000000000001,172.14000000000001,0.0,0.02,3
1682372444.89996409,132506581,0.0,0.24,0.0,1.11,172.33,172.33,0.0,0.02,3
1682372445.00024414,132606861,0.0,0.24,0.0,1.11,172.54,172.54,0.0,0.02,3
1682372445.10034394,132706961,0.0,0.24,0.0,1.12,172.74,172.74,0.0,0.02,3
1682372445.20033002,132806947,0.0,0.25,0.0,1.12,172.93,172.93,0.0,0.01,3
1682372445.29998994,132906607,0.0,0.24,0.0,1.12,173.12,173.12,0.0,0.01,3
1682372445.40030003,133006917,0.0,0.25,0.0,1.12,173.3,173.3,0.0,0.02,3
1682372445.50028300,133106900,0.0,0.25,0.0,1.12,173.46,173.46,0.0,0.02,3
1682372445.60030293,133206920,0.0,0.25,0.0,1.12,173.63,173.63,0.0,0.02,3
1682372445.70034814,133306965,0.0,0.25,0.0,1.1300000000000001,173.81,173.81,0.0,0.02,3
1682372445.80032492,133406942,0.0,0.25,0.0,1.1300000000000001,173.97,173.97,0.0,0.02,3
1682372445.90023994,133506857,0.0,0.25,0.0,1.1300000000000001,174.14000000000001,174.14000000000001,0.0,0.02,3
1682372446.00035906,133606976,0.0,0.25,0.0,1.1300000000000001,174.31,174.31,0.0,0.01,3
1682372446.10029507,133706912,0.0,0.25,0.0,1.1300000000000001,174.45000000000002,174.45000000000002,0.0,0.02,3
1682372446.20063996,133807257,0.0,0.25,0.0,1.1300000000000001,174.61,174.61,0.0,0.02,3
1682372446.30058813,133907205,0.0,0.25,0.0,1.1400000000000001,174.75,174.75,0.0,0.02,3
1682372446.40027809,134006895,0.0,0.24,0.0,1.1400000000000001,174.89000000000001,174.89000000000001,0.0,0.01,3
1682372446.50031614,134106933,0.0,0.25,0.0,1.1500000000000001,175.03,175.03,0.0,0.01,3
1682372446.60006309,134206680,0.0,0.24,0.0,1.1500000000000001,175.18,175.18,0.0,0.02,3
1682372446.70012712,134306744,0.0,0.24,0.0,1.1500000000000001,175.31,175.31,0.0,0.01,3
1682372446.79986405,134406481,0.0,0.24,0.0,1.1500000000000001,175.45000000000002,175.45000000000002,0.0,0.02,3
1682372446.89994192,134506559,0.0,0.25,0.0,1.16,175.58,175.58,0.0,0.01,3
1682372446.99999809,134606615,0.0,0.25,0.0,1.16,175.71,175.71,0.0,0.01,3
1682372447.09997296,134706590,0.0,0.25,0.0,1.16,175.84,175.84,0.0,0.01,3
1682372447.20004106,134806658,0.0,0.25,0.0,1.16,175.96,175.96,0.0,0.01,3
1682372447.30032206,134906939,0.0,0.25,0.0,1.16,176.08,176.08,0.0,0.01,3
1682372447.40030003,135006917,0.0,0.26,0.0,1.16,176.20000000000002,176.20000000000002,0.0,0.02,3
1682372447.50006914,135106686,0.0,0.26,0.0,1.16,176.32,176.32,0.0,0.01,3
1682372447.60026097,135206878,0.0,0.26,0.0,1.17,176.43,176.43,0.0,0.01,3
