timestamp,TimeUS,I,Status,GMS,GWk,NSats,HDop,Lat,Lng,Alt,Spd,GCrs,VZ,Yaw,U
1682372376.40000010,64006617,0,3,164394400,2259,17,0.64,42.6900079,-84.48880799999999,261.34000000000003,0.00412310566753149,14.036242485046387,0.03200000151991844,0.0,1
1682372376.57966208,64186279,0,3,164394600,2259,17,0.64,42.690008,-84.4888081,261.36,0.008602325804531574,215.53768920898438,-0.004000000189989805,0.0,1
1682372376.77961302,64386230,0,3,164394800,2259,17,0.64,42.6900082,-84.4888081,261.39,0.020124612376093864,116.5650405883789,0.1420000046491623,0.0,1
1682372376.97996092,64586578,0,3,164395000,2259,17,0.64,42.6900082,-84.48880799999999,261.4,0.021931713446974754,133.1523895263672,0.04800000041723251,0.0,1
1682372377.17999911,64786616,0,3,164395200,2259,17,0.64,42.690008299999995,-84.48880799999999,261.41,0.02280350960791111,52.1250114440918,0.007000000216066837,0.0,1
1682372377.35999799,64966615,0,3,164395400,2259,17,0.64,42.690008399999996,-84.48880799999999,261.43,0.005099019967019558,101.30992126464844,0.08500000089406967,0.0,1
1682372377.57968402,65186301,0,3,164395600,2259,17,0.64,42.6900085,-84.48880799999999,261.44,0.011401754803955555,232.12501525878906,0.05100000277161598,0.0,1
1682372377.77969503,65386312,0,3,164395800,2259,17,0.64,42.6900086,-84.48880799999999,261.46,0.011401754803955555,15.255117416381836,0.10000000149011612,0.0,1
1682372377.97972393,65586341,0,3,164396000,2259,17,0.64,42.6900087,-84.48880799999999,261.47,0.024041632190346718,163.07247924804688,0.052000001072883606,0.0,1
1682372378.17976713,65786384,0,3,164396200,2259,17,0.64,42.6900087,-84.48880799999999,261.47,0.04104875400662422,182.792724609375,0.11300000548362732,0.0,1
1682372378.37999606,65986613,0,3,164396400,2259,17,0.64,42.6900087,-84.48880799999999,261.46,0.016763055697083473,197.35403442382812,0.036000002175569534,0.0,1
1682372378.57981014,66186427,0,3,164396600,2259,17,0.64,42.6900088,-84.48880799999999,261.49,0.025806976482272148,324.46234130859375,0.02800000086426735,0.0,1
1682372378.77988100,66386498,0,3,164396800,2259,17,0.64,42.690008899999995,-84.48880799999999,261.5,0.020396079868078232,168.6900634765625,0.039000000804662704,0.0,1
1682372378.98000908,66586626,0,3,164397000,2259,17,0.64,42.690008999999996,-84.48880799999999,261.51,0.0070710680447518826,261.8699035644531,0.17800000309944153,0.0,1
1682372379.18003607,66786653,0,3,164397200,2259,17,0.64,42.690008999999996,-84.48880799999999,261.5,0.02617250569164753,186.5819549560547,0.07100000232458115,0.0,1
1682372379.37967300,66986290,0,3,164397400,2259,17,0.64,42.6900091,-84.48880799999999,261.52,0.03992493078112602,157.93209838867188,0.1340000033378601,0.0,1
1682372379.57968497,67186302,0,3,164397600,2259,17,0.64,42.6900092,-84.48880799999999,261.5,0.03623534366488457,320.5993347167969,-0.004000000189989805,0.0,1
1682372379.77973294,67386350,0,3,164397800,2259,17,0.64,42.6900093,-84.48880799999999,261.52,0.007280109915882349,164.05459594726562,0.14600001275539398,0.0,1
1682372379.97980404,67586421,0,3,164398000,2259,17,0.64,42.6900094,-84.48880799999999,261.53000000000003,0.02325940877199173,244.5366668701172,0.10500000417232513,0.0,1
1682372380.17975211,67786369,0,3,164398200,2259,17,0.64,42.690009499999995,-84.4888079,261.58,0.12761269509792328,74.54798889160156,-0.34800001978874207,0.0,1
1682372380.37963605,67986253,0,3,164398400,2259,17,0.64,42.690009499999995,-84.4888077,261.74,0.12126418203115463,139.34744262695312,-1.1710000038146973,0.0,1
1682372380.57999301,68186610,0,3,164398600,2259,17,0.64,42.690009599999996,-84.4888075,261.97,0.08523497730493546,31.079036712646484,-0.8910000324249268,0.0,1
1682372380.78002501,68386642,0,3,164398800,2259,17,0.64,42.6900097,-84.48880729999999,262.13,0.1606549173593521,72.24173736572266,-0.7950000166893005,0.0,1
1682372380.98028302,68586900,0,3,164399000,2259,17,0.64,42.6900098,-84.488807,262.26,0.10346497595310211,32.768497467041016,-0.5320000052452087,0.0,1
1682372381.17969513,68786312,0,3,164399200,2259,17,0.64,42.6900098,-84.4888067,262.36,0.23645718395709991,141.8699951171875,-0.22600001096725464,0.0,1
1682372381.37971997,68986337,0,3,164399400,2259,17,0.64,42.690009499999995,-84.4888065,262.41,0.21000954508781433,160.52969360351562,-0.2720000147819519,0.0,1
1682372381.57998109,69186598,0,3,164399600,2259,17,0.64,42.6900093,-84.4888063,262.49,0.18360011279582977,143.1925048828125,-0.10400000214576721,0.0,1
1682372381.77979398,69386411,0,3,164399800,2259,17,0.64,42.6900091,-84.488806,262.56,0.1539415568113327,145.58731079101562,-0.289000004529953,0.0,1
1682372381.99987507,69606492,0,3,164400000,2259,17,0.64,42.6900088,-84.4888058,262.6,0.19163508713245392,161.754150390625,-0.22200001776218414,0.0,1
1682372382.17964196,69786259,0,3,164400200,2259,17,0.64,42.6900086,-84.4888058,262.7,0.1344507336616516,175.30712890625,-0.4540000259876251,0.0,1
1682372382.37999201,69986609,0,3,164400400,2259,17,0.64,42.6900085,-84.4888057,262.82,0.10080675035715103,169.1359405517578,-0.4480000138282776,0.0,1
1682372382.57996392,70186581,0,3,164400600,2259,17,0.64,42.690008299999995,-84.4888057,262.91,0.17707908153533936,195.05648803710938,-0.45000001788139343,0.0,1
1682372382.76003098,70366648,0,3,164400800,2259,17,0.64,42.6900081,-84.4888058,263.03000000000003,0.07421590387821198,194.0362548828125,-0.49800002574920654,0.0,1
1682372382.97993803,70586555,0,3,164401000,2259,17,0.64,42.6900079,-84.4888059,263.1,0.1062120571732521,232.2669677734375,-0.37300002574920654,0.0,1
1682372383.18023896,70786856,0,3,164401200,2259,17,0.64,42.690007699999995,-84.4888062,263.21,0.27630600333213806,219.56661987304688,-0.45900002121925354,0.0,1
1682372383.37975192,70986369,0,3,164401400,2259,17,0.64,42.6900076,-84.4888064,263.3,0.07240166515111923,32.59257888793945,-0.42600002884864807,0.0,1
1682372383.57979512,71186412,0,3,164401600,2259,17,0.64,42.690007699999995,-84.4888065,263.41,0.14081193506717682,258.5304870605469,-0.48100003600120544,0.0,1
1682372383.77974606,71386363,0,3,164401800,2259,17,0.64,42.6900075,-84.4888067,263.5,0.0769675225019455,204.5671844482422,-0.39100003242492676,0.0,1
1682372383.97988296,71586500,0,3,164402000,2259,17,0.64,42.6900076,-84.48880679999999,263.62,0.09932271391153336,327.7500305175781,-0.484000027179718,0.0,1
1682372384.15983701,71766454,0,3,164402200,2259,17,0.64,42.6900076,-84.4888072,263.74,0.17691807448863983,259.57928466796875,-0.41700002551078796,0.0,1
1682372384.37979293,71986410,0,3,164402400,2259,17,0.64,42.690007699999995,-84.4888074,263.83,0.12625372409820557,356.3670349121094,-0.4700000286102295,0.0,1
1682372384.58006692,72186684,0,3,164402600,2259,17,0.64,42.6900078,-84.4888075,263.96,0.059076227247714996,267.08917236328125,-0.5240000486373901,0.0,1
1682372384.77997398,72386591,0,3,164402800,2259,17,0.64,42.690008,-84.4888076,264.07,0.19659604132175446,352.6942443847656,-0.6210000514984131,0.0,1
1682372384.97996497,72586582,0,3,164403000,2259,17,0.64,42.6900082,-84.4888076,264.2,0.05946427956223488,317.726318359375,-0.5100000500679016,0.0,1
1682372385.18022513,72786842,0,3,164403200,2259,17,0.64,42.6900082,-84.4888077,264.33,0.049648769199848175,207.59730529785156,-0.5380000472068787,0.0,1
1682372385.38001299,72986630,0,3,164403400,2259,17,0.64,42.6900082,-84.4888077,264.43,0.09319335222244263,356.3086242675781,-0.5200000405311584,0.0,1
1682372385.55984497,73166462,0,3,164403600,2259,17,0.64,42.690008299999995,-84.48880779999999,264.57,0.05821511894464493,265.0729064941406,-0.5380000472068787,0.0,1
1682372385.77963495,73386252,0,3,164403800,2259,17,0.64,42.690008299999995,-84.48880779999999,264.66,0.0716937929391861,67.01127624511719,-0.4960000216960907,0.0,1
1682372385.97979903,73586416,0,3,164404000,2259,17,0.64,42.690008299999995,-84.4888077,264.75,0.05124451220035553,17.020524978637695,-0.48900002241134644,0.0,1
1682372386.17977095,73786388,0,3,164404200,2259,17,0.64,42.690008399999996,-84.48880779999999,264.89,0.07872103154659271,205.58853149414062,-0.4740000367164612,0.0,1
1682372386.37980914,73986426,0,3,164404400,2259,17,0.64,42.690008399999996,-84.4888076,264.98,0.1721046268939972,51.13222122192383,-0.48900002241134644,0.0,1
1682372386.58007002,74186687,0,3,164404600,2259,17,0.64,42.6900085,-84.4888075,265.1,0.04632493853569031,122.66090393066406,-0.36000001430511475,0.0,1
1682372386.77994013,74386557,0,3,164404800,2259,17,0.64,42.690008399999996,-84.4888075,265.16,0.0510392040014267,214.62416076660156,-0.18800000846385956,0.0,1
1682372386.97997212,74586589,0,3,164405000,2259,17,0.64,42.690008299999995,-84.4888075,265.2,0.0708378478884697,138.43362426757812,-0.08800000697374344,0.0,1
1682372387.17998695,74786604,0,3,164405200,2259,17,0.64,42.6900082,-84.4888074,265.23,0.026000000536441803,90.0,0.058000002056360245,0.0,1
1682372387.38000393,74986621,0,3,164405400,2259,17,0.64,42.6900082,-84.4888074,265.22,0.04410215839743614,183.9005126953125,0.15400001406669617,0.0,1
1682372387.57982993,75186447,0,3,164405600,2259,17,0.64,42.6900082,-84.4888074,265.2,0.037854988127946854,167.7995147705078,0.20500001311302185,0.0,1
1682372387.77994800,75386565,0,3,164405800,2259,17,0.64,42.6900081,-84.48880729999999,265.19,0.0269258264452219,148.67129516601562,0.09300000220537186,0.0,1
1682372388.00007010,75606687,0,3,164406000,2259,17,0.64,42.6900081,-84.4888072,265.16,0.0760263130068779,144.6375274658203,0.10500000417232513,0.0,1
1682372388.15982509,75766442,0,3,164406200,2259,17,0.64,42.6900079,-84.488807,265.16,0.1619691401720047,140.51145935058594,0.04500000178813934,0.0,1
1682372388.37969613,75986313,0,3,164406400,2259,17,0.64,42.6900076,-84.4888067,265.18,0.3231099247932434,148.67129516601562,0.07100000232458115,0.0,1
1682372388.57975507,76186372,0,3,164406600,2259,17,0.64,42.690007,-84.48880609999999,265.18,0.5118564367294312,144.94378662109375,-0.007000000216066837,0.0,1
1682372388.77978110,76386398,0,3,164406800,2259,17,0.64,42.6900062,-84.4888053,265.17,0.5522264242172241,148.92947387695312,0.05100000277161598,0.0,1
1682372388.98005891,76586676,0,3,164407000,2259,17,0.64,42.690005299999996,-84.4888046,265.2,0.643186628818512,145.9640350341797,0.013000000268220901,0.0,1
1682372389.18008208,76786699,0,3,164407200,2259,17,0.64,42.6900042,-84.48880369999999,265.18,0.7556362152099609,155.02890014648438,0.10200000554323196,0.0,1
1682372389.37988210,76986499,0,3,164407400,2259,17,0.64,42.690003,-84.4888029,265.19,0.6900558471679688,153.21214294433594,0.00800000037997961,0.0,1
1682372389.55964708,77166264,0,3,164407600,2259,17,0.64,42.6900018,-84.4888022,265.17,0.7118574380874634,159.09539794921875,0.19300000369548798,0.0,1
1682372389.78003502,77386652,0,3,164407800,2259,17,0.64,42.6900007,-84.4888016,265.18,0.7036511898040771,162.2087860107422,0.01900000125169754,0.0,1
1682372389.98013496,77586752,0,3,164408000,2259,17,0.64,42.6899994,-84.48880109999999,265.17,0.7120745182037354,167.42755126953125,0.0860000029206276,0.0,1
1682372390.18014097,77786758,0,3,164408200,2259,17,0.64,42.6899981,-84.4888007,265.16,0.7793651223182678,165.0543670654297,0.14800000190734863,0.0,1
1682372390.37973499,77986352,0,3,164408400,2259,17,0.64,42.689996799999996,-84.4888002,265.16,0.711719810962677,168.32693481445312,0.17100000381469727,0.0,1
1682372390.57978606,78186403,0,3,164408600,2259,17,0.64,42.689995499999995,-84.4887998,265.11,0.7308604717254639,165.01303100585938,0.18300001323223114,0.0,1
1682372390.77980494,78386422,0,3,164408800,2259,17,0.64,42.689994299999995,-84.48879939999999,265.13,0.7000714540481567,171.29116821289062,0.1380000114440918,0.0,1
1682372390.98006606,78586683,0,3,164409000,2259,17,0.64,42.689993,-84.4887992,265.14,0.6775050163269043,173.3889617919922,0.015000000596046448,0.0,1
1682372391.17966795,78786285,0,3,164409200,2259,17,0.64,42.6899918,-84.4887988,265.12,0.6973184943199158,166.4818878173828,0.11300000548362732,0.0,1
1682372391.37978101,78986398,0,3,164409400,2259,17,0.64,42.6899906,-84.4887985,265.14,0.5960285663604736,167.1062469482422,-0.03700000047683716,0.0,1
1682372391.57983613,79186453,0,3,164409600,2259,17,0.64,42.689989499999996,-84.4887981,265.15,0.70192950963974,168.16177368164062,-0.04500000178813934,0.0,1
1682372391.78006291,79386680,0,3,164409800,2259,17,0.64,42.6899881,-84.4887976,265.14,0.8257421255111694,163.32069396972656,0.11300000548362732,0.0,1
1682372391.97993207,79586549,0,3,164410000,2259,17,0.64,42.689986999999995,-84.4887971,265.19,0.5923014879226685,161.28973388671875,0.05300000309944153,0.0,1
1682372392.17992592,79786543,0,3,164410200,2259,17,0.64,42.689985799999995,-84.4887966,265.17,0.7824302315711975,164.5072479248047,0.02800000086426735,0.0,1
1682372392.35974693,79966364,0,3,164410400,2259,17,0.64,42.6899845,-84.488796,265.14,0.7150671482086182,160.72885131835938,0.08100000023841858,0.0,1
1682372392.58006692,80186684,0,3,164410600,2259,17,0.64,42.6899833,-84.4887955,265.16,0.7073987722396851,168.42002868652344,-0.0690000057220459,0.0,1
1682372392.78004909,80386666,0,3,164410800,2259,17,0.64,42.689982,-84.488795,265.17,0.7806369066238403,160.3115997314453,0.11300000548362732,0.0,1
1682372392.97989893,80586516,0,3,164411000,2259,17,0.64,42.689980399999996,-84.4887943,265.14,0.9723260998725891,165.8922882080078,0.1300000101327896,0.0,1
1682372393.18005300,80786670,0,3,164411200,2259,17,0.64,42.689979099999995,-84.4887937,265.17,0.709980309009552,159.727294921875,0.039000000804662704,0.0,1
1682372393.37980103,80986418,0,3,164411400,2259,17,0.64,42.6899778,-84.48879319999999,265.19,0.830784022808075,166.8502960205078,-0.02800000086426735,0.0,1
1682372393.57987404,81186491,0,3,164411600,2259,17,0.64,42.6899763,-84.48879269999999,265.17,0.7842837572097778,169.04823303222656,0.01100000087171793,0.0,1
1682372393.77971792,81386335,0,3,164411800,2259,17,0.64,42.689974899999996,-84.4887923,265.16,0.7766112685203552,163.08168029785156,0.10000000149011612,0.0,1
1682372393.99994802,81606565,0,3,164412000,2259,17,0.64,42.6899735,-84.4887919,265.19,0.767912745475769,170.3291473388672,0.07800000160932541,0.0,1
1682372394.17979312,81786410,0,3,164412200,2259,17,0.64,42.6899722,-84.4887916,265.2,0.7974585294723511,166.0683135986328,0.021000001579523087,0.0,1
1682372394.37984610,81986463,0,3,164412400,2259,17,0.64,42.6899708,-84.48879099999999,265.2,0.750131368637085,159.80154418945312,-0.01100000087171793,0.0,1
1682372394.57978201,82186399,0,3,164412600,2259,17,0.64,42.689969399999995,-84.4887904,265.18,0.749725341796875,164.36952209472656,0.05000000074505806,0.0,1
1682372394.77968097,82386298,0,3,164412800,2259,17,0.64,42.6899681,-84.4887899,265.18,0.8301355838775635,161.01937866210938,0.1600000113248825,0.0,1
1682372394.95967197,82566289,0,3,164413000,2259,17,0.64,42.6899667,-84.4887892,265.16,0.7662200331687927,161.58868408203125,0.07000000029802322,0.0,1
1682372395.17998099,82786598,0,3,164413200,2259,17,0.64,42.6899653,-84.4887887,265.13,0.7375757694244385,166.4347686767578,0.04000000283122063,0.0,1
1682372395.38006806,82986685,0,3,164413400,2259,17,0.64,42.689963999999996,-84.4887882,265.11,0.7149266004562378,163.0858154296875,0.049000002443790436,0.0,1
1682372395.57994294,83186560,0,3,164413600,2259,17,0.64,42.689962699999995,-84.4887876,265.11,0.7861514091491699,161.84161376953125,0.13900001347064972,0.0,1
1682372395.77995801,83386575,0,3,164413800,2259,17,0.64,42.6899614,-84.4887869,265.07,0.7578555345535278,155.9376983642578,0.09400000423192978,0.0,1
1682372395.98001313,83586630,0,3,164414000,2259,17,0.64,42.6899601,-84.48878619999999,265.06,0.7250945568084717,159.91561889648438,0.13199999928474426,0.0,1
1682372396.18005013,83786667,0,3,164414200,2259,17,0.64,42.689958999999995,-84.4887856,265.07,0.7056351900100708,160.4608612060547,0.07000000029802322,0.0,1
1682372396.36003613,83966653,0,3,164414400,2259,17,0.64,42.6899577,-84.4887849,265.05,0.7570422887802124,156.075927734375,0.06100000441074371,0.0,1
1682372396.57989812,84186515,0,3,164414600,2259,17,0.64,42.6899564,-84.4887842,265.03000000000003,0.7846999764442444,157.12738037109375,0.1510000079870224,0.0,1
1682372396.78004503,84386662,0,3,164414800,2259,17,0.64,42.6899552,-84.4887834,265.01,0.7340061664581299,155.70462036132812,0.0690000057220459,0.0,1
1682372397.00003695,84606654,0,3,164415000,2259,17,0.64,42.6899539,-84.4887827,264.97,0.7681588530540466,157.17356872558594,0.1290000081062317,0.0,1
1682372397.17985892,84786476,0,3,164415200,2259,17,0.64,42.6899526,-84.48878189999999,264.95,0.7306435704231262,156.10121154785156,-0.013000000268220901,0.0,1
1682372397.37970304,84986320,0,3,164415400,2259,17,0.64,42.6899514,-84.4887813,265.0,0.7691034078598022,162.1304473876953,-0.017000000923871994,0.0,1
1682372397.57974601,85186363,0,3,164415600,2259,17,0.64,42.6899501,-84.4887806,264.97,0.7107517123222351,155.7428436279297,-0.003000000026077032,0.0,1
1682372397.77999091,85386608,0,3,164415800,2259,17,0.64,42.6899489,-84.4887799,264.99,0.7369803190231323,160.33570861816406,0.03800000250339508,0.0,1
1682372397.97997999,85586597,0,3,164416000,2259,17,0.64,42.6899477,-84.48877929999999,264.99,0.6796940565109253,157.5098114013672,-0.03800000250339508,0.0,1
1682372398.18003511,85786652,0,3,164416200,2259,17,0.64,42.6899464,-84.48877859999999,264.97,0.8284522294998169,158.9178009033203,0.09000000357627869,0.0,1
1682372398.37984705,85986464,0,3,164416400,2259,17,0.64,42.689945099999996,-84.4887778,264.95,0.7997156381607056,155.55010986328125,0.11700000613927841,0.0,1
1682372398.58000398,86186621,0,3,164416600,2259,17,0.64,42.689943799999995,-84.4887771,264.93,0.6830644607543945,159.7875518798828,0.12200000882148743,0.0,1
1682372398.77998495,86386602,0,3,164416800,2259,17,0.64,42.689942599999995,-84.48877639999999,264.92,0.7290439605712891,158.0088653564453,-0.0010000000474974513,0.0,1
1682372398.98013806,86586755,0,3,164417000,2259,17,0.64,42.6899413,-84.4887758,264.89,0.7458605766296387,160.25315856933594,0.13199999928474426,0.0,1
1682372399.15984893,86766466,0,3,164417200,2259,17,0.64,42.68994,-84.48877519999999,264.86,0.7540086507797241,164.6182403564453,0.09700000286102295,0.0,1
1682372399.37973404,86986351,0,3,164417400,2259,17,0.64,42.6899387,-84.4887746,264.84000000000003,0.7751445770263672,160.79367065429688,0.1720000058412552,0.0,1
1682372399.57978296,87186400,0,3,164417600,2259,17,0.64,42.6899374,-84.4887741,264.83,0.6986165642738342,164.13345336914062,0.17000000178813934,0.0,1
1682372399.77981400,87386431,0,3,164417800,2259,17,0.64,42.6899362,-84.4887737,264.82,0.7093582153320312,168.45245361328125,0.07400000095367432,0.0,1
1682372399.98012900,87586746,0,3,164418000,2259,17,0.64,42.6899349,-84.4887732,264.81,0.7915787696838379,162.2746124267578,0.11600000411272049,0.0,1
1682372400.17999601,87786613,0,3,164418200,2259,17,0.64,42.689933499999995,-84.48877259999999,264.8,0.7780616879463196,165.7136993408203,0.018000001087784767,0.0,1
1682372400.37999392,87986611,0,3,164418400,2259,17,0.64,42.689932299999995,-84.48877209999999,264.81,0.6837689876556396,162.4660186767578,-0.009000000543892384,0.0,1
1682372400.58002114,88186638,0,3,164418600,2259,17,0.64,42.689931099999995,-84.48877159999999,264.85,0.7638881206512451,160.26039123535156,-0.06200000271201134,0.0,1
1682372400.77984309,88386460,0,3,164418800,2259,17,0.64,42.689929899999996,-84.48877089999999,264.87,0.706618070602417,157.53607177734375,0.046000003814697266,0.0,1
1682372400.97970009,88586317,0,3,164419000,2259,17,0.64,42.689928699999996,-84.4887703,264.87,0.645298421382904,162.9690704345703,0.023000001907348633,0.0,1
1682372401.17974305,88786360,0,3,164419200,2259,17,0.64,42.6899276,-84.48876969999999,264.85,0.6904404759407043,156.25657653808594,0.017000000923871994,0.0,1
1682372401.37999701,88986614,0,3,164419400,2259,17,0.64,42.6899264,-84.4887691,264.87,0.7699987292289734,163.1653289794922,0.1120000034570694,0.0,1
1682372401.58000493,89186622,0,3,164419600,2259,17,0.64,42.689925099999996,-84.4887686,264.87,0.7441034913063049,164.4882354736328,0.11000000685453415,0.0,1
1682372401.76002502,89366642,0,3,164419800,2259,17,0.64,42.6899239,-84.488768,264.85,0.6982148885726929,158.1376190185547,0.12300000339746475,0.0,1
1682372401.97983694,89586454,0,3,164420000,2259,17,0.64,42.6899227,-84.4887674,264.85,0.7233927249908447,160.28756713867188,0.1120000034570694,0.0,1
1682372402.18000698,89786624,0,3,164420200,2259,17,0.64,42.689921399999996,-84.4887668,264.83,0.7537227869033813,163.584716796875,0.0690000057220459,0.0,1
1682372402.37977600,89986393,0,3,164420400,2259,17,0.64,42.689920199999996,-84.4887663,264.84000000000003,0.6969340443611145,158.62603759765625,0.11600000411272049,0.0,1
1682372402.57984710,90186464,0,3,164420600,2259,17,0.64,42.689918999999996,-84.4887656,264.82,0.7396175265312195,159.99703979492188,0.07500000298023224,0.0,1
1682372402.77971005,90386327,0,3,164420800,2259,17,0.64,42.689917699999995,-84.488765,264.82,0.7763568758964539,159.8844757080078,-0.009000000543892384,0.0,1
1682372402.97997403,90586591,0,3,164421000,2259,17,0.64,42.6899164,-84.4887643,264.82,0.7956507205963135,159.24166870117188,-0.013000000268220901,0.0,1
1682372403.15991306,90766530,0,3,164421200,2259,17,0.64,42.6899151,-84.48876369999999,264.84000000000003,0.7258822321891785,160.44174194335938,0.0560000017285347,0.0,1
1682372403.38004112,90986658,0,3,164421400,2259,17,0.64,42.689913999999995,-84.48876299999999,264.85,0.6808913946151733,155.99478149414062,0.02200000174343586,0.0,1
1682372403.58006310,91186680,0,3,164421600,2259,17,0.64,42.689912899999996,-84.48876229999999,264.86,0.6927871704101562,156.4321746826172,0.125,0.0,1
1682372403.77999401,91386611,0,3,164421800,2259,17,0.64,42.689911699999996,-84.4887617,264.85,0.7563974261283875,163.17015075683594,0.05000000074505806,0.0,1
1682372403.98000002,91586617,0,3,164422000,2259,17,0.64,42.6899103,-84.48876109999999,264.82,0.8169094324111938,160.70001220703125,0.1300000101327896,0.0,1
1682372404.17980814,91786425,0,3,164422200,2259,17,0.64,42.689909,-84.48876039999999,264.83,0.7940938472747803,162.18109130859375,0.13300000131130219,0.0,1
1682372404.37984514,91986462,0,3,164422400,2259,17,0.64,42.6899076,-84.4887598,264.82,0.875089168548584,162.37254333496094,0.09100000560283661,0.0,1
1682372404.55983591,92166453,0,3,164422600,2259,17,0.64,42.689906199999996,-84.48875919999999,264.81,0.7718679308891296,166.9720001220703,0.10700000822544098,0.0,1
1682372404.77986312,92386480,0,3,164422800,2259,17,0.64,42.689904999999996,-84.48875869999999,264.81,0.6771801710128784,160.4144744873047,0.20500001311302185,0.0,1
1682372404.97995806,92586575,0,3,164423000,2259,17,0.64,42.689903799999996,-84.48875819999999,264.8,0.7686254382133484,165.45751953125,0.1510000079870224,0.0,1
1682372405.18000197,92786619,0,3,164423200,2259,17,0.64,42.6899024,-84.4887577,264.79,0.8290941715240479,165.0418701171875,0.0430000014603138,0.0,1
1682372405.37977195,92986389,0,3,164423400,2259,17,0.64,42.689901,-84.4887571,264.77,0.7843067646026611,159.78594970703125,0.07700000703334808,0.0,1
1682372405.57966709,93186284,0,3,164423600,2259,17,0.64,42.6898996,-84.4887564,264.75,0.7838016748428345,163.62283325195312,0.07500000298023224,0.0,1
1682372405.77977300,93386390,0,3,164423800,2259,17,0.64,42.6898984,-84.4887559,264.79,0.7865552306175232,162.4634552001953,0.012000000104308128,0.0,1
1682372406.00014305,93606760,0,3,164424000,2259,17,0.64,42.689897099999996,-84.4887554,264.79,0.710166871547699,164.39813232421875,0.007000000216066837,0.0,1
1682372406.18014002,93786757,0,3,164424200,2259,17,0.64,42.689895799999995,-84.48875489999999,264.78000000000003,0.7353128790855408,162.427490234375,0.046000003814697266,0.0,1
1682372406.37969899,93986316,0,3,164424400,2259,17,0.64,42.6898945,-84.4887543,264.79,0.7359789609909058,164.1508331298828,0.05300000309944153,0.0,1
1682372406.57973504,94186352,0,3,164424600,2259,17,0.64,42.689893399999995,-84.48875389999999,264.82,0.6430932879447937,163.0020751953125,-0.023000001907348633,0.0,1
1682372406.77997804,94386595,0,3,164424800,2259,17,0.64,42.689892199999996,-84.4887534,264.82,0.7416427731513977,164.59579467773438,0.023000001907348633,0.0,1
1682372406.98007894,94586696,0,3,164425000,2259,17,0.64,42.689890899999995,-84.4887529,264.81,0.7330430150032043,166.91163635253906,0.09600000083446503,0.0,1
1682372407.18013501,94786752,0,3,164425200,2259,17,0.64,42.6898896,-84.48875249999999,264.8,0.7547085881233215,164.7115936279297,0.04500000178813934,0.0,1
1682372407.37987995,94986497,0,3,164425400,2259,17,0.64,42.6898884,-84.48875199999999,264.82,0.698272168636322,160.94227600097656,0.07200000435113907,0.0,1
1682372407.58000898,95186626,0,3,164425600,2259,17,0.64,42.6898872,-84.4887514,264.83,0.7358865737915039,162.03285217285156,-0.0430000014603138,0.0,1
1682372407.78002810,95386645,0,3,164425800,2259,17,0.64,42.6898859,-84.4887509,264.85,0.7665364146232605,161.51776123046875,0.06800000369548798,0.0,1
1682372407.98005605,95586673,0,3,164426000,2259,17,0.64,42.6898845,-84.4887502,264.84000000000003,0.8291611075401306,161.8709716796875,-0.007000000216066837,0.0,1
1682372408.17995405,95786571,0,3,164426200,2259,17,0.64,42.689883099999996,-84.48874959999999,264.84000000000003,0.81484055519104,163.6779022216797,0.13300000131130219,0.0,1
1682372408.37990594,95986523,0,3,164426400,2259,17,0.64,42.6898817,-84.48874909999999,264.79,0.7247206568717957,163.81568908691406,0.10900000482797623,0.0,1
1682372408.55996895,96166586,0,3,164426600,2259,17,0.64,42.6898805,-84.4887485,264.79,0.7810826301574707,161.56504821777344,0.11500000208616257,0.0,1
1682372408.77997804,96386595,0,3,164426800,2259,17,0.64,42.6898791,-84.48874789999999,264.78000000000003,0.8280012011528015,160.6021728515625,0.164000004529953,0.0,1
1682372408.98002601,96586643,0,3,164427000,2259,17,0.64,42.6898778,-84.48874719999999,264.77,0.7890982031822205,159.681884765625,0.08100000023841858,0.0,1
1682372409.17982292,96786440,0,3,164427200,2259,17,0.64,42.6898765,-84.4887466,264.76,0.7592635154724121,161.4934539794922,0.14000000059604645,0.0,1
1682372409.38001299,96986630,0,3,164427400,2259,17,0.64,42.689875199999996,-84.48874599999999,264.74,0.7479090690612793,159.82052612304688,0.21700000762939453,0.0,1
1682372409.57982302,97186440,0,3,164427600,2259,17,0.64,42.689873899999995,-84.48874529999999,264.7,0.8212655186653137,161.9842071533203,0.22800001502037048,0.0,1
1682372409.77982306,97386440,0,3,164427800,2259,17,0.64,42.6898726,-84.4887447,264.69,0.7570475935935974,159.91343688964844,0.12000000476837158,0.0,1
1682372409.96007299,97566690,0,3,164428000,2259,17,0.64,42.6898713,-84.48874409999999,264.68,0.8114702701568604,162.0562744140625,0.24400001764297485,0.0,1
1682372410.17996597,97786583,0,3,164428200,2259,17,0.64,42.68987,-84.4887435,264.67,0.7371628284454346,160.99972534179688,0.055000003427267075,0.0,1
1682372410.37978292,97986400,0,3,164428400,2259,17,0.64,42.6898688,-84.48874289999999,264.68,0.7447181344032288,161.44338989257812,-0.024000000208616257,0.0,1
1682372410.58006692,98186684,0,3,164428600,2259,17,0.64,42.6898675,-84.48874239999999,264.69,0.7150783538818359,165.08921813964844,0.07000000029802322,0.0,1
1682372410.78007007,98386687,0,3,164428800,2259,17,0.64,42.6898663,-84.4887419,264.7,0.7446476221084595,165.21726989746094,0.039000000804662704,0.0,1
1682372410.97988009,98586497,0,3,164429000,2259,17,0.64,42.689865,-84.4887414,264.72,0.7446643710136414,166.80352783203125,0.00800000037997961,0.0,1
1682372411.18009114,98786708,0,3,164429200,2259,17,0.64,42.6898638,-84.48874099999999,264.74,0.6596878170967102,162.16929626464844,0.03200000151991844,0.0,1
1682372411.35977507,98966392,0,3,164429400,2259,17,0.64,42.6898625,-84.48874049999999,264.74,0.7940006852149963,164.73854064941406,0.007000000216066837,0.0,1
1682372411.57988405,99186501,0,3,164429600,2259,17,0.64,42.689861199999996,-84.4887399,264.75,0.6945077776908875,158.45901489257812,0.04000000283122063,0.0,1
1682372411.77970004,99386317,0,3,164429800,2259,17,0.64,42.689859999999996,-84.48873929999999,264.73,0.7200562357902527,161.79150390625,0.0820000022649765,0.0,1
1682372411.99977493,99606392,0,3,164430000,2259,17,0.64,42.689858699999995,-84.4887387,264.71,0.7279127836227417,159.9967041015625,0.1420000046491623,0.0,1
1682372412.17999291,99786610,0,3,164430200,2259,17,0.64,42.689857499999995,-84.48873809999999,264.71,0.7428681254386902,160.90650939941406,0.04200000315904617,0.0,1
1682372412.37997413,99986591,0,3,164430400,2259,17,0.64,42.6898562,-84.4887375,264.71,0.690554141998291,156.44187927246094,0.0690000057220459,0.0,1
1682372412.58004093,100186658,0,3,164430600,2259,17,0.64,42.689855,-84.4887368,264.69,0.8015609979629517,160.1634521484375,0.14600001275539398,0.0,1
1682372412.75976205,100366379,0,3,164430800,2259,17,0.64,42.6898535,-84.48873619999999,264.67,0.8761056065559387,164.4408721923828,0.04400000348687172,0.0,1
1682372412.97979712,100586414,0,3,164431000,2259,17,0.64,42.6898519,-84.48873549999999,264.64,0.8550988435745239,161.94644165039062,0.10900000482797623,0.0,1
1682372413.17979693,100786414,0,3,164431200,2259,17,0.64,42.6898506,-84.4887349,264.64,0.760826587677002,158.72999572753906,0.164000004529953,0.0,1
1682372413.37980509,100986422,0,3,164431400,2259,17,0.64,42.6898493,-84.48873429999999,264.63,0.717251718044281,162.2218475341797,0.11800000816583633,0.0,1
1682372413.57971406,101186331,0,3,164431600,2259,17,0.64,42.6898481,-84.48873379999999,264.62,0.7332401275634766,163.76478576660156,0.125,0.0,1
1682372413.77996492,101386582,0,3,164431800,2259,17,0.64,42.6898468,-84.48873329999999,264.61,0.715246856212616,165.6723175048828,0.09600000083446503,0.0,1
1682372413.98000407,101586621,0,3,164432000,2259,17,0.64,42.6898456,-84.4887328,264.62,0.7361956834793091,161.9588165283203,0.0690000057220459,0.0,1
1682372414.18002796,101786645,0,3,164432200,2259,17,0.64,42.6898443,-84.4887323,264.59000000000003,0.7335100769996643,164.25845336914062,0.12200000882148743,0.0,1
1682372414.38004613,101986663,0,3,164432400,2259,17,0.64,42.689842999999996,-84.4887318,264.59000000000003,0.7303512692451477,164.27011108398438,0.14500001072883606,0.0,1
1682372414.57964706,102186264,0,3,164432600,2259,17,0.64,42.689841799999996,-84.48873119999999,264.58,0.7390027642250061,159.23524475097656,0.12600000202655792,0.0,1
1682372414.77977395,102386391,0,3,164432800,2259,17,0.64,42.6898406,-84.4887306,264.59000000000003,0.6911280751228333,159.41482543945312,-0.010000000707805157,0.0,1
1682372414.97983599,102586453,0,3,164433000,2259,17,0.64,42.6898394,-84.48872999999999,264.59000000000003,0.6792996525764465,160.92489624023438,0.03100000135600567,0.0,1
1682372415.18005991,102786677,0,3,164433200,2259,17,0.64,42.6898382,-84.4887294,264.6,0.6808414459228516,159.08935546875,-0.03100000135600567,0.0,1
1682372415.38006091,102986678,0,3,164433400,2259,17,0.64,42.6898371,-84.48872879999999,264.59000000000003,0.59234619140625,159.54583740234375,0.11500000208616257,0.0,1
1682372415.57991314,103186530,0,3,164433600,2259,17,0.64,42.689836299999996,-84.4887284,264.59000000000003,0.41046562790870667,161.38848876953125,0.049000002443790436,0.0,1
1682372415.77994895,103386566,0,3,164433800,2259,17,0.64,42.689835599999995,-84.4887281,264.59000000000003,0.32748281955718994,163.5018310546875,0.007000000216066837,0.0,1
1682372415.98000813,103586625,0,3,164434000,2259,17,0.64,42.689835099999996,-84.4887279,264.57,0.21302582323551178,167.52952575683594,0.06599999964237213,0.0,1
1682372416.18006206,103786679,0,3,164434200,2259,17,0.64,42.6898349,-84.48872779999999,264.57,0.09390421211719513,172.04246520996094,0.024000000208616257,0.0,1
1682372416.37966299,103986280,0,3,164434400,2259,17,0.64,42.6898347,-84.48872779999999,264.58,0.07902532070875168,181.45022583007812,0.12300000339746475,0.0,1
1682372416.57978606,104186403,0,3,164434600,2259,17,0.64,42.6898346,-84.48872779999999,264.56,0.03860051929950714,163.4429168701172,0.10100000351667404,0.0,1
1682372416.76001096,104366628,0,3,164434800,2259,17,0.64,42.689834499999996,-84.4887277,264.56,0.029529647901654243,151.69923400878906,0.0560000017285347,0.0,1
1682372416.98013306,104586750,0,3,164435000,2259,17,0.64,42.689834499999996,-84.4887277,264.57,0.03178049996495247,102.7243423461914,0.08700000494718552,0.0,1
1682372417.18006992,104786687,0,3,164435200,2259,17,0.64,42.689834399999995,-84.4887275,264.58,0.18836668133735657,147.57546997070312,-0.03200000151991844,0.0,1
1682372417.37996101,104986578,0,3,164435400,2259,17,0.64,42.689834,-84.4887272,264.59000000000003,0.2918921113014221,161.00637817382812,0.2770000100135803,0.0,1
1682372417.57999611,105186613,0,3,164435600,2259,17,0.64,42.6898334,-84.488727,264.53000000000003,0.4506273865699768,170.1614227294922,0.4490000307559967,0.0,1
1682372417.75975704,105366374,0,3,164435800,2259,17,0.64,42.689832599999995,-84.4887267,264.45,0.48161500692367554,161.6026611328125,0.39000001549720764,0.0,1
1682372417.99983406,105606451,0,3,164436000,2259,17,0.64,42.6898316,-84.4887263,264.36,0.6326270699501038,164.97523498535156,0.5630000233650208,0.0,1
1682372418.17964196,105786259,0,3,164436200,2259,17,0.64,42.6898305,-84.48872589999999,264.23,0.6325346231460571,166.09556579589844,0.6000000238418579,0.0,1
1682372418.37976694,105986384,0,3,164436400,2259,17,0.64,42.6898294,-84.4887255,264.2,0.7227641940116882,166.23291015625,0.4650000333786011,0.0,1
1682372418.57980204,106186419,0,3,164436600,2259,17,0.64,42.689828299999995,-84.48872519999999,264.11,0.5386993885040283,172.4264373779297,0.4740000367164612,0.0,1
1682372418.77980995,106386427,0,3,164436800,2259,17,0.64,42.6898273,-84.488725,263.99,0.5822688937187195,168.7093505859375,0.5230000019073486,0.0,1
1682372418.98007894,106586696,0,3,164437000,2259,17,0.64,42.689826499999995,-84.48872469999999,263.95,0.40706390142440796,170.09800720214844,0.4240000247955322,0.0,1
1682372419.17995811,106786575,0,3,164437200,2259,17,0.64,42.6898258,-84.4887246,263.88,0.38575252890586853,173.1513214111328,0.3190000057220459,0.0,1
1682372419.37989402,106986511,0,3,164437400,2259,17,0.64,42.6898252,-84.48872449999999,263.8,0.26742103695869446,183.2154998779297,0.5260000228881836,0.0,1
1682372419.56030011,107166917,0,3,164437600,2259,17,0.64,42.6898249,-84.48872449999999,263.73,0.23248441517353058,176.30067443847656,0.4400000274181366,0.0,1
1682372419.77999496,107386612,0,3,164437800,2259,17,0.64,42.6898246,-84.48872449999999,263.68,0.12628935277462006,188.19427490234375,0.3270000219345093,0.0,1
1682372419.97982311,107586440,0,3,164438000,2259,17,0.64,42.6898243,-84.48872449999999,263.62,0.18817545473575592,186.40744018554688,0.4410000145435333,0.0,1
1682372420.17996693,107786584,0,3,164438200,2259,17,0.64,42.6898242,-84.48872449999999,263.57,0.06612866371870041,159.64675903320312,0.3620000183582306,0.0,1
1682372420.38001704,107986634,0,3,164438400,2259,17,0.64,42.689824,-84.4887246,263.5,0.1032763347029686,223.43064880371094,0.4610000252723694,0.0,1
1682372420.57993102,108186548,0,3,164438600,2259,17,0.64,42.6898239,-84.4887246,263.41,0.05096077173948288,164.05459594726562,0.4020000100135803,0.0,1
1682372420.77969003,108386307,0,3,164438800,2259,17,0.64,42.6898239,-84.4887246,263.37,0.03577708825469017,153.43495178222656,0.5020000338554382,0.0,1
1682372420.97975612,108586373,0,3,164439000,2259,17,0.64,42.689824,-84.4887246,263.3,0.03417601436376572,339.4439697265625,0.43300002813339233,0.0,1
1682372421.18001914,108786636,0,3,164439200,2259,17,0.64,42.689824,-84.4887246,263.24,0.021931713446974754,114.22773742675781,0.34300002455711365,0.0,1
1682372421.37979293,108986410,0,3,164439400,2259,17,0.64,42.689824,-84.48872449999999,263.14,0.028600702062249184,36.469234466552734,0.5890000462532043,0.0,1
1682372421.58006310,109186680,0,3,164439600,2259,17,0.64,42.689824099999996,-84.4887244,263.08,0.05603570491075516,92.04540252685547,0.41200003027915955,0.0,1
1682372421.77986813,109386485,0,3,164439800,2259,17,0.64,42.689824099999996,-84.4887243,263.02,0.006708203814923763,243.43496704101562,0.37300002574920654,0.0,1
1682372421.98000813,109586625,0,3,164440000,2259,17,0.64,42.6898242,-84.4887243,262.93,0.06395310908555984,9.904182434082031,0.5,0.0,1
1682372422.18004203,109786659,0,3,164440200,2259,17,0.64,42.689824099999996,-84.4887242,262.84000000000003,0.14534443616867065,153.43495178222656,0.5350000262260437,0.0,1
1682372422.37983704,109986454,0,3,164440400,2259,17,0.64,42.689824099999996,-84.4887241,262.77,0.03956008329987526,73.85565948486328,0.48100003600120544,0.0,1
1682372422.57970214,110186319,0,3,164440600,2259,17,0.64,42.6898242,-84.48872399999999,262.72,0.10465658456087112,27.299570083618164,0.34300002455711365,0.0,1
1682372422.77973795,110386355,0,3,164440800,2259,17,0.64,42.6898242,-84.48872399999999,262.64,0.04560701921582222,164.744873046875,0.41700002551078796,0.0,1
1682372422.97998810,110586605,0,3,164441000,2259,17,0.64,42.689824099999996,-84.4887239,262.54,0.08275868743658066,133.5312042236328,0.5570000410079956,0.0,1
1682372423.17997813,110786595,0,3,164441200,2259,17,0.64,42.689824,-84.4887238,262.44,0.011045361869037151,95.19442749023438,0.45500001311302185,0.0,1
1682372423.38000393,110986621,0,3,164441400,2259,17,0.64,42.689824099999996,-84.4887238,262.39,0.029068883508443832,356.0548095703125,0.4350000321865082,0.0,1
1682372423.55975914,111166376,0,3,164441600,2259,17,0.64,42.6898242,-84.4887237,262.33,0.037336308509111404,69.6235580444336,0.45600003004074097,0.0,1
1682372423.78003001,111386647,0,3,164441800,2259,17,0.64,42.689824099999996,-84.4887237,262.24,0.04052159935235977,195.75119018554688,0.2510000169277191,0.0,1
1682372424.00014591,111606763,0,3,164442000,2259,17,0.64,42.689824099999996,-84.4887237,262.22,0.008944272063672543,153.43495178222656,0.27800002694129944,0.0,1
1682372424.17981696,111786434,0,3,164442200,2259,17,0.64,42.6898242,-84.4887237,262.21,0.04085339978337288,21.540973663330078,0.06400000303983688,0.0,1
1682372424.37968802,111986305,0,3,164442400,2259,17,0.64,42.6898242,-84.4887236,262.21,0.027073973789811134,355.76361083984375,0.07000000029802322,0.0,1
1682372424.57973409,112186351,0,3,164442600,2259,17,0.64,42.6898242,-84.4887236,262.19,0.05048762261867523,352.0303955078125,0.04000000283122063,0.0,1
1682372424.78002214,112386639,0,3,164442800,2259,17,0.64,42.6898243,-84.4887237,262.18,0.0020000000949949026,0.0,0.1420000046491623,0.0,1
1682372424.95992899,112566546,0,3,164443000,2259,17,0.64,42.6898243,-84.4887237,262.16,0.014212671667337418,219.28941345214844,0.17800000309944153,0.0,1
1682372425.18006992,112786687,0,3,164443200,2259,17,0.64,42.6898242,-84.4887237,262.13,0.0022360680159181356,243.43496704101562,0.12300000339746475,0.0,1
1682372425.37986803,112986485,0,3,164443400,2259,17,0.64,42.6898242,-84.4887237,262.09000000000003,0.021931713446974754,316.84759521484375,0.08900000154972076,0.0,1
1682372425.57977414,113186391,0,3,164443600,2259,17,0.64,42.6898242,-84.4887238,262.08,0.02420743741095066,231.70985412597656,0.12400000542402267,0.0,1
1682372425.77978897,113386406,0,3,164443800,2259,17,0.64,42.689824099999996,-84.4887238,262.06,0.020223749801516533,171.46922302246094,0.15800000727176666,0.0,1
1682372425.97982407,113586441,0,3,164444000,2259,17,0.64,42.689824099999996,-84.4887238,262.03000000000003,0.04477722942829132,203.70265197753906,0.20500001311302185,0.0,1
1682372426.17970395,113786321,0,3,164444200,2259,17,0.64,42.689824,-84.4887238,262.0,0.010295630432665348,150.94540405273438,0.13199999928474426,0.0,1
1682372426.36014414,113966761,0,3,164444400,2259,17,0.64,42.689824,-84.4887238,261.98,0.05532630905508995,186.22584533691406,0.1860000044107437,0.0,1
1682372426.58000112,114186618,0,3,164444600,2259,17,0.64,42.6898239,-84.4887238,261.95,0.026870058849453926,135.0,0.25699999928474426,0.0,1
1682372426.77997112,114386588,0,3,164444800,2259,17,0.64,42.6898239,-84.4887238,261.92,0.014764823950827122,208.30076599121094,0.1770000010728836,0.0,1
1682372426.98001313,114586630,0,3,164445000,2259,17,0.64,42.6898239,-84.4887238,261.9,0.03138471022248268,149.3493194580078,0.26100000739097595,0.0,1
1682372427.17982507,114786442,0,3,164445200,2259,17,0.64,42.6898239,-84.4887238,261.87,0.03125699982047081,172.64761352539062,0.19300000369548798,0.0,1
1682372427.37997913,114986596,0,3,164445400,2259,17,0.64,42.6898239,-84.4887239,261.85,0.026019224897027016,182.20260620117188,0.14300000667572021,0.0,1
1682372427.57977009,115186387,0,3,164445600,2259,17,0.64,42.6898239,-84.4887239,261.82,0.01004987582564354,275.7106018066406,0.18800000846385956,0.0,1
1682372427.77981806,115386435,0,3,164445800,2259,17,0.64,42.6898239,-84.4887239,261.8,0.027294687926769257,171.57301330566406,0.12700000405311584,0.0,1
1682372427.97971797,115586335,0,3,164446000,2259,17,0.64,42.6898239,-84.48872399999999,261.78000000000003,0.03634556755423546,187.9071807861328,0.1210000067949295,0.0,1
1682372428.17996311,115786580,0,3,164446200,2259,17,0.64,42.6898239,-84.48872399999999,261.77,0.013000000268220901,180.0,0.1600000113248825,0.0,1
1682372428.37998700,115986604,0,3,164446400,2259,17,0.64,42.6898239,-84.48872399999999,261.75,0.013416407629847527,296.5650634765625,0.10300000756978989,0.0,1
1682372428.58003592,116186653,0,3,164446600,2259,17,0.64,42.689824,-84.4887241,261.76,0.012165524996817112,279.46234130859375,0.0950000062584877,0.0,1
1682372428.78004599,116386663,0,3,164446800,2259,17,0.64,42.689824,-84.4887241,261.74,0.018027758225798607,273.1798400878906,0.039000000804662704,0.0,1
1682372428.98001003,116586627,0,3,164447000,2259,17,0.64,42.689824,-84.4887242,261.74,0.035171013325452805,194.8264923095703,0.09600000083446503,0.0,1
1682372429.18000507,116786622,0,3,164447200,2259,17,0.64,42.689824,-84.4887243,261.73,0.017888544127345085,243.43496704101562,0.09600000083446503,0.0,1
1682372429.38003111,116986648,0,3,164447400,2259,17,0.64,42.689824,-84.4887243,261.71,0.008944272063672543,206.56504821777344,0.08800000697374344,0.0,1
1682372429.58006501,117186682,0,3,164447600,2259,17,0.64,42.6898239,-84.4887243,261.69,0.014764823950827122,151.69923400878906,0.12400000542402267,0.0,1
1682372429.77998495,117386602,0,3,164447800,2259,17,0.64,42.6898239,-84.4887243,261.69,0.038639359176158905,169.56251525878906,0.12600000202655792,0.0,1
1682372429.97997308,117586590,0,3,164448000,2259,17,0.64,42.6898239,-84.4887244,261.68,0.04920366033911705,217.568603515625,0.11400000751018524,0.0,1
1682372430.18000507,117786622,0,3,164448200,2259,17,0.64,42.6898238,-84.48872449999999,261.65,0.03635932132601738,238.49575805664062,0.17000000178813934,0.0,1
1682372430.35975909,117966376,0,3,164448400,2259,17,0.64,42.6898238,-84.4887246,261.64,0.037336308509111404,200.37643432617188,0.22600001096725464,0.0,1
1682372430.58002305,118186640,0,3,164448600,2259,17,0.64,42.6898237,-84.48872469999999,261.62,0.03962322697043419,190.17552185058594,0.18200001120567322,0.0,1
1682372430.77981210,118386429,0,3,164448800,2259,17,0.64,42.6898237,-84.48872469999999,261.59000000000003,0.036055512726306915,160.55995178222656,0.14400000870227814,0.0,1
1682372430.97995710,118586574,0,3,164449000,2259,17,0.64,42.6898236,-84.48872469999999,261.58,0.013000000268220901,157.380126953125,0.14100000262260437,0.0,1
1682372431.17997098,118786588,0,3,164449200,2259,17,0.64,42.6898236,-84.48872469999999,261.58,0.04883646219968796,169.38034057617188,0.18000000715255737,0.0,1
1682372431.38001895,118986636,0,3,164449400,2259,17,0.64,42.689823499999996,-84.48872469999999,261.55,0.010440307669341564,196.69924926757812,0.16600000858306885,0.0,1
1682372431.58009410,119186711,0,3,164449600,2259,17,0.64,42.689823499999996,-84.48872469999999,261.53000000000003,0.003162277862429619,198.43495178222656,0.15700000524520874,0.0,1
1682372431.76012397,119366741,0,3,164449800,2259,17,0.64,42.689823499999996,-84.48872469999999,261.5,0.007615773472934961,203.1986083984375,0.13900001347064972,0.0,1
1682372431.97976494,119586382,0,3,164450000,2259,17,0.64,42.689823399999995,-84.48872469999999,261.48,0.02529822289943695,161.56504821777344,0.19100001454353333,0.0,1
1682372432.17981505,119786432,0,3,164450200,2259,17,0.64,42.689823399999995,-84.48872469999999,261.46,0.05375872179865837,133.4925537109375,0.14300000667572021,0.0,1
1682372432.37975311,119986370,0,3,164450400,2259,17,0.64,42.6898233,-84.48872469999999,261.44,0.02500000037252903,163.7397918701172,0.17400000989437103,0.0,1
1682372432.57967710,120186294,0,3,164450600,2259,17,0.64,42.6898232,-84.48872469999999,261.43,0.04775981605052948,160.42686462402344,0.19500000774860382,0.0,1
1682372432.77976704,120386384,0,3,164450800,2259,17,0.64,42.6898232,-84.48872469999999,261.41,0.03498571366071701,149.03623962402344,0.25699999928474426,0.0,1
1682372433.00002503,120606642,0,3,164451000,2259,17,0.64,42.6898231,-84.4887246,261.35,0.02801785245537758,55.175506591796875,0.19500000774860382,0.0,1
1682372433.15978098,120766398,0,3,164451200,2259,17,0.64,42.6898231,-84.4887246,261.31,0.017888544127345085,116.5650405883789,0.14500001072883606,0.0,1
1682372433.37998295,120986600,0,3,164451400,2259,17,0.64,42.689823,-84.4887246,261.29,0.034365683794021606,188.3658905029297,0.20100000500679016,0.0,1
1682372433.57995605,121186573,0,3,164451600,2259,17,0.64,42.689823,-84.4887246,261.26,0.02927456423640251,187.85333251953125,0.20500001311302185,0.0,1
1682372433.77999306,121386610,0,3,164451800,2259,17,0.64,42.689822899999996,-84.4887246,261.23,0.024698179215192795,328.24053955078125,0.19300000369548798,0.0,1
1682372433.98003411,121586651,0,3,164452000,2259,17,0.64,42.689823,-84.48872469999999,261.2,0.018681542947888374,15.524110794067383,0.15800000727176666,0.0,1
1682372434.18029308,121786910,0,3,164452200,2259,17,0.64,42.689823,-84.4887246,261.18,0.013341664336621761,77.00537872314453,0.16200000047683716,0.0,1
1682372434.37963510,121986252,0,3,164452400,2259,17,0.64,42.689823,-84.4887246,261.17,0.03301514685153961,91.73570251464844,0.13900001347064972,0.0,1
1682372434.57995105,122186568,0,3,164452600,2259,17,0.64,42.689823,-84.4887246,261.14,0.011661904864013195,239.0362548828125,0.2150000035762787,0.0,1
1682372434.77997494,122386592,0,3,164452800,2259,17,0.64,42.689822899999996,-84.4887246,261.11,0.03962322697043419,190.17552185058594,0.281000018119812,0.0,1
1682372434.98006010,122586677,0,3,164453000,2259,17,0.64,42.689822899999996,-84.4887246,261.09000000000003,0.036878179758787155,167.47119140625,0.25200000405311584,0.0,1
1682372435.17969394,122786311,0,3,164453200,2259,17,0.64,42.689822799999995,-84.4887246,261.06,0.03492850065231323,156.37062072753906,0.2120000123977661,0.0,1
1682372435.37973404,122986351,0,3,164453400,2259,17,0.64,42.689822799999995,-84.4887246,261.05,0.04295346513390541,245.22486877441406,0.13100001215934753,0.0,1
1682372435.57976604,123186383,0,3,164453600,2259,17,0.64,42.6898227,-84.48872469999999,261.02,0.016970563679933548,225.0,0.13700000941753387,0.0,1
1682372435.77981305,123386430,0,3,164453800,2259,17,0.64,42.6898227,-84.48872469999999,261.0,0.025612497702240944,128.65980529785156,0.24900001287460327,0.0,1
1682372435.99989891,123606516,0,3,164454000,2259,17,0.64,42.6898227,-84.48872469999999,260.95,0.016970563679933548,135.0,0.24800001084804535,0.0,1
1682372436.17965508,123786272,0,3,164454200,2259,17,0.64,42.6898227,-84.48872469999999,260.92,0.014317820779979229,155.224853515625,0.164000004529953,0.0,1
1682372436.37978101,123986398,0,3,164454400,2259,17,0.64,42.6898227,-84.4887248,260.9,0.023345237597823143,260.13421630859375,0.22100001573562622,0.0,1
1682372436.57982111,124186438,0,3,164454600,2259,17,0.64,42.6898227,-84.4887248,260.88,0.050328921526670456,159.04420471191406,0.28700000047683716,0.0,1
1682372436.77985406,124386471,0,3,164454800,2259,17,0.64,42.6898227,-84.4887248,260.82,0.005000000353902578,270.0,0.24900001287460327,0.0,1
1682372436.98007107,124586688,0,3,164455000,2259,17,0.64,42.6898226,-84.4887248,260.78000000000003,0.04936598241329193,186.9810791015625,0.30400002002716064,0.0,1
1682372437.17996097,124786578,0,3,164455200,2259,17,0.64,42.6898226,-84.4887249,260.74,0.03130495175719261,243.43496704101562,0.2200000137090683,0.0,1
1682372437.38003993,124986657,0,3,164455400,2259,17,0.64,42.6898226,-84.488725,260.71,0.0434165894985199,284.6763916015625,0.24500000476837158,0.0,1
1682372437.58003592,125186653,0,3,164455600,2259,17,0.64,42.6898227,-84.4887251,260.68,0.022472206503152847,200.85447692871094,0.32100000977516174,0.0,1
1682372437.78005600,125386673,0,3,164455800,2259,17,0.64,42.6898226,-84.4887251,260.65,0.036221545189619064,173.65980529785156,0.23600001633167267,0.0,1
1682372437.97967410,125586291,0,3,164456000,2259,17,0.64,42.6898226,-84.4887251,260.62,0.006324555724859238,251.5650634765625,0.1990000158548355,0.0,1
1682372438.17978191,125786399,0,3,164456200,2259,17,0.64,42.6898226,-84.48872519999999,260.59000000000003,0.016278821974992752,259.3803405761719,0.29200002551078796,0.0,1
1682372438.37979412,125986411,0,3,164456400,2259,17,0.64,42.6898226,-84.48872519999999,260.56,0.012529964558780193,298.6104736328125,0.1770000010728836,0.0,1
1682372438.56002712,126166644,0,3,164456600,2259,17,0.64,42.6898227,-84.48872519999999,260.52,0.039115212857723236,327.52880859375,0.2330000102519989,0.0,1
1682372438.78000093,126386618,0,3,164456800,2259,17,0.64,42.6898227,-84.4887253,260.48,0.02325940877199173,334.5366516113281,0.25699999928474426,0.0,1
1682372438.97992301,126586540,0,3,164457000,2259,17,0.64,42.6898227,-84.4887253,260.45,0.007810249924659729,140.1944122314453,0.1290000081062317,0.0,1
1682372439.17991400,126786531,0,3,164457200,2259,17,0.64,42.6898227,-84.4887253,260.45,0.04916299507021904,184.6668701171875,0.1860000044107437,0.0,1
1682372439.37996793,126986585,0,3,164457400,2259,17,0.64,42.6898226,-84.4887253,260.42,0.12103719264268875,194.83993530273438,0.07000000029802322,0.0,1
1682372439.58001995,127186637,0,3,164457600,2259,17,0.64,42.6898224,-84.48872539999999,260.42,0.1521906703710556,191.75294494628906,0.1940000057220459,0.0,1
1682372439.77981210,127386429,0,3,164457800,2259,17,0.64,42.689822199999995,-84.48872539999999,260.41,0.09976473450660706,151.8937225341797,0.12000000476837158,0.0,1
1682372439.95965409,127566271,0,3,164458000,2259,17,0.64,42.6898221,-84.4887253,260.41,0.02692582458257675,111.80139923095703,0.16900001466274261,0.0,1
1682372440.17995095,127786568,0,3,164458200,2259,17,0.64,42.6898221,-84.4887253,260.4,0.018000001087784767,270.0,0.010000000707805157,0.0,1
1682372440.37998104,127986598,0,3,164458400,2259,17,0.64,42.6898221,-84.48872539999999,260.4,0.012083047069609165,294.4439697265625,0.07400000095367432,0.0,1
1682372440.58013797,128186755,0,3,164458600,2259,17,0.64,42.6898221,-84.48872539999999,260.4,0.015811389312148094,235.30484008789062,0.06700000166893005,0.0,1
1682372440.77994609,128386563,0,3,164458800,2259,17,0.64,42.6898221,-84.4887255,260.4,0.02942787855863571,170.2175750732422,0.07200000435113907,0.0,1
1682372440.97998714,128586604,0,3,164459000,2259,17,0.64,42.689822,-84.4887255,260.41,0.051078375428915024,203.05130004882812,0.08500000089406967,0.0,1
1682372441.17999911,128786616,0,3,164459200,2259,17,0.64,42.689822,-84.4887256,260.42,0.012649111449718475,288.4349365234375,0.058000002056360245,0.0,1
1682372441.37998700,128986604,0,3,164459400,2259,17,0.64,42.689822,-84.4887256,260.43,0.04816637933254242,184.76365661621094,0.12400000542402267,0.0,1
1682372441.58026910,129186886,0,3,164459600,2259,17,0.64,42.689822,-84.4887256,260.45,0.013416407629847527,296.5650634765625,0.09400000423192978,0.0,1
1682372441.77995396,129386571,0,3,164459800,2259,17,0.64,42.689822,-84.48872569999999,260.44,0.013892443850636482,149.74356079101562,0.12200000882148743,0.0,1
1682372442.01994896,129626566,0,3,164460000,2259,17,0.64,42.689822,-84.48872569999999,260.45,0.01708800718188286,159.44393920898438,0.05100000277161598,0.0,1
1682372442.17979002,129786407,0,3,164460200,2259,17,0.64,42.6898221,-84.48872569999999,260.47,0.02828427217900753,171.86988830566406,0.18200001120567322,0.0,1
1682372442.37966013,129986277,0,3,164460400,2259,17,0.64,42.689822,-84.48872569999999,260.48,0.05950630456209183,155.15760803222656,0.06000000238418579,0.0,1
1682372442.57992291,130186540,0,3,164460600,2259,17,0.64,42.689822,-84.48872569999999,260.51,0.0604400560259819,163.6639404296875,0.1420000046491623,0.0,1
1682372442.77971601,130386333,0,3,164460800,2259,17,0.64,42.6898219,-84.48872569999999,260.51,0.035171013325452805,165.1735076904297,0.05700000375509262,0.0,1
1682372442.97976303,130586380,0,3,164461000,2259,17,0.64,42.6898219,-84.48872569999999,260.52,0.017492856830358505,239.0362548828125,0.08500000089406967,0.0,1
1682372443.17963409,130786251,0,3,164461200,2259,17,0.64,42.6898219,-84.4887258,260.53000000000003,0.04103657230734825,226.97494506835938,0.08700000494718552,0.0,1
1682372443.37961197,130986229,0,3,164461400,2259,17,0.64,42.6898219,-84.48872589999999,260.55,0.04000000283122063,180.0,0.11000000685453415,0.0,1
1682372443.57974005,131186357,0,3,164461600,2259,17,0.64,42.6898219,-84.48872589999999,260.56,0.012727922759950161,225.0,0.13100001215934753,0.0,1
1682372443.77972102,131386338,0,3,164461800,2259,17,0.64,42.6898218,-84.488726,260.56,0.011045361869037151,185.19442749023438,0.05900000408291817,0.0,1
1682372443.96001101,131566628,0,3,164462000,2259,17,0.64,42.6898218,-84.488726,260.57,0.04801041632890701,178.80650329589844,0.14000000059604645,0.0,1
1682372444.17966008,131786277,0,3,164462200,2259,17,0.64,42.6898218,-84.488726,260.57,0.03640054911375046,200.92449951171875,0.08400000631809235,0.0,1
1682372444.37968707,131986304,0,3,164462400,2259,17,0.64,42.689821699999996,-84.488726,260.58,0.04876474291086197,151.85838317871094,0.0690000057220459,0.0,1
1682372444.57998705,132186604,0,3,164462600,2259,17,0.64,42.689821599999995,-84.488726,260.58,0.02102379873394966,182.726318359375,0.0820000022649765,0.0,1
1682372444.78006506,132386682,0,3,164462800,2259,17,0.64,42.689821599999995,-84.4887261,260.58,0.011180341243743896,169.6951446533203,0.08800000697374344,0.0,1
1682372444.97962999,132586247,0,3,164463000,2259,17,0.64,42.689821599999995,-84.4887261,260.59000000000003,0.022090723738074303,95.19442749023438,0.07500000298023224,0.0,1
1682372445.17978597,132786403,0,3,164463200,2259,17,0.64,42.689821599999995,-84.4887261,260.6,0.022360682487487793,169.6951446533203,0.07600000500679016,0.0,1
1682372445.36023092,132966848,0,3,164463400,2259,17,0.64,42.6898215,-84.4887261,260.61,0.04215447977185249,157.69378662109375,0.1300000101327896,0.0,1
1682372445.57995701,133186574,0,3,164463600,2259,17,0.64,42.6898215,-84.4887261,260.61,0.025079872459173203,175.4260711669922,0.14600001275539398,0.0,1
1682372445.78001404,133386631,0,3,164463800,2259,17,0.64,42.6898215,-84.4887261,260.61,0.01720465160906315,144.46231079101562,0.10300000756978989,0.0,1
1682372445.98019409,133586811,0,3,164464000,2259,17,0.64,42.6898214,-84.4887261,260.61,0.03342154994606972,141.07244873046875,0.0990000069141388,0.0,1
1682372446.17968702,133786304,0,3,164464200,2259,17,0.64,42.6898214,-84.488726,260.61,0.014035669155418873,85.91437530517578,0.09200000762939453,0.0,1
1682372446.37971401,133986331,0,3,164464400,2259,17,0.64,42.6898214,-84.4887261,260.62,0.04816637933254242,175.23634338378906,0.15800000727176666,0.0,1
1682372446.57976508,134186382,0,3,164464600,2259,17,0.64,42.6898213,-84.4887261,260.62,0.03551056236028671,147.6525421142578,0.07400000095367432,0.0,1
1682372446.75974202,134366359,0,3,164464800,2259,17,0.64,42.6898213,-84.4887261,260.64,0.0255538672208786,149.42076110839844,0.17900000512599945,0.0,1
1682372446.97984695,134586464,0,3,164465000,2259,17,0.64,42.6898213,-84.4887261,260.64,0.011045361869037151,5.194427967071533,0.06200000271201134,0.0,1
1682372447.17996693,134786584,0,3,164465200,2259,17,0.64,42.6898213,-84.4887261,260.64,0.03036445379257202,197.24147033691406,0.06200000271201134,0.0,1
1682372447.37996602,134986583,0,3,164465400,2259,17,0.64,42.6898213,-84.4887261,260.65,0.03178049996495247,155.8544464111328,0.1680000126361847,0.0,1
1682372447.58003211,135186649,0,3,164465600,2259,17,0.64,42.6898212,-84.4887261,260.65,0.04317406937479973,166.6074981689453,0.10900000482797623,0.0,1
1682372447.77995610,135386573,0,3,164465800,2259,17,0.64,42.6898212,-84.4887261,260.66,0.01835756003856659,209.35775756835938,0.08000000566244125,0.0,1
1682372447.98031998,135586937,0,3,164466000,2259,17,0.64,42.689821099999996,-84.4887261,260.67,0.02828427217900753,135.0,0.04400000348687172,0.0,1
1682372448.17970014,135786317,0,3,164466200,2259,17,0.64,42.689821099999996,-84.4887261,260.68,0.009219544939696789,77.47118377685547,0.06700000166893005,0.0,1
1682372448.37977505,135986392,0,3,164466400,2259,17,0.64,42.689821099999996,-84.4887261,260.69,0.020615529268980026,219.09385681152344,0.0690000057220459,0.0,1
1682372448.57974696,136186364,0,3,164466600,2259,17,0.64,42.689821099999996,-84.4887261,260.69,0.031240999698638916,140.1944122314453,0.125,0.0,1
1682372448.77959895,136386216,0,3,164466800,2259,17,0.64,42.689820999999995,-84.488726,260.7,0.015811389312148094,161.56504821777344,0.09300000220537186,0.0,1
1682372448.97974491,136586362,0,3,164467000,2259,17,0.64,42.689820999999995,-84.488726,260.69,0.019235385581851006,188.97262573242188,0.08100000023841858,0.0,1
1682372449.17974114,136786358,0,3,164467200,2259,17,0.64,42.6898209,-84.4887261,260.7,0.0259422454982996,207.55282592773438,0.1340000033378601,0.0,1
1682372449.35999703,136966614,0,3,164467400,2259,17,0.64,42.6898208,-84.488726,260.7,0.017464250326156616,76.75947570800781,0.012000000104308128,0.0,1
1682372449.57966900,137186286,0,3,164467600,2259,17,0.64,42.6898208,-84.488726,260.73,0.03201562166213989,141.34017944335938,0.06100000441074371,0.0,1
1682372449.77968001,137386297,0,3,164467800,2259,17,0.64,42.6898208,-84.488726,260.73,0.010630146600306034,138.81407165527344,0.08900000154972076,0.0,1
1682372449.98000407,137586621,0,3,164468000,2259,17,0.64,42.6898207,-84.488726,260.74,0.03130495175719261,153.43495178222656,0.1120000034570694,0.0,1
1682372450.18000603,137786623,0,3,164468200,2259,17,0.64,42.6898207,-84.48872589999999,260.75,0.03827532008290291,146.72509765625,0.04200000315904617,0.0,1
1682372450.37962604,137986243,0,3,164468400,2259,17,0.64,42.6898206,-84.48872589999999,260.76,0.05770615488290787,171.02737426757812,0.18000000715255737,0.0,1
1682372450.57979107,138186408,0,3,164468600,2259,17,0.64,42.6898206,-84.48872589999999,260.77,0.025612499564886093,141.34017944335938,0.09300000220537186,0.0,1
1682372450.76023602,138366853,0,3,164468800,2259,17,0.64,42.6898206,-84.48872589999999,260.78000000000003,0.017804494127631187,321.8427734375,0.005000000353902578,0.0,1
1682372451.00003600,138606653,0,3,164469000,2259,17,0.64,42.6898206,-84.48872589999999,260.8,0.034669872373342514,146.76828002929688,0.14900000393390656,0.0,1
1682372451.18022704,138786844,0,3,164469200,2259,17,0.64,42.689820499999996,-84.48872589999999,260.79,0.00412310566753149,104.0362319946289,0.1080000028014183,0.0,1
1682372451.37961102,138986228,0,3,164469400,2259,17,0.64,42.689820499999996,-84.48872589999999,260.8,0.013152946718037128,171.2538299560547,0.036000002175569534,0.0,1
1682372451.57968903,139186306,0,3,164469600,2259,17,0.64,42.689820399999995,-84.48872589999999,260.81,0.003162277862429619,71.56504821777344,0.0820000022649765,0.0,1
1682372451.77971506,139386332,0,3,164469800,2259,17,0.64,42.689820399999995,-84.4887258,260.82,0.011401754803955555,127.87498474121094,0.05900000408291817,0.0,1
1682372451.97976804,139586385,0,3,164470000,2259,17,0.64,42.689820399999995,-84.4887258,260.82,0.013038406148552895,212.47120666503906,0.06599999964237213,0.0,1
1682372452.15974808,139766365,0,3,164470200,2259,17,0.64,42.6898203,-84.4887258,260.83,0.022203605622053146,125.837646484375,0.07800000160932541,0.0,1
1682372452.37983298,139986450,0,3,164470400,2259,17,0.64,42.6898203,-84.48872569999999,260.82,0.039051249623298645,320.1944274902344,0.06700000166893005,0.0,1
1682372452.57997203,140186589,0,3,164470600,2259,17,0.64,42.6898203,-84.48872569999999,260.84000000000003,0.014422205276787281,146.30992126464844,0.03500000014901161,0.0,1
1682372452.77995706,140386574,0,3,164470800,2259,17,0.64,42.6898203,-84.48872569999999,260.85,0.015652475878596306,26.56505012512207,0.029000001028180122,0.0,1
1682372452.98002911,140586646,0,3,164471000,2259,17,0.64,42.6898203,-84.4887256,260.87,0.056320514529943466,163.49562072753906,0.10400000214576721,0.0,1
