timestamp,TimeUS,Lat,Lng,Alt,RelHomeAlt,RelOriginAlt
1682372376.40042400,64007041,42.6900055,-84.48880849999999,260.739990234375,0.002736210823059082,-0.31726378202438354
1682372376.50044394,64107061,42.6900056,-84.48880849999999,260.72998046875,-0.00014960765838623047,-0.32014960050582886
1682372376.60008693,64206704,42.6900056,-84.48880849999999,260.72998046875,-0.0028990507125854492,-0.3228990435600281
1682372376.70023799,64306855,42.6900057,-84.48880849999999,260.72998046875,-0.004662871360778809,-0.32466286420822144
1682372376.80019498,64406812,42.6900057,-84.48880849999999,260.72998046875,-0.007616639137268066,-0.3276166319847107
1682372376.90020204,64506819,42.6900058,-84.4888084,260.7200012207031,-0.013215422630310059,-0.3332154154777527
1682372377.00020099,64606818,42.6900058,-84.4888084,260.7200012207031,-0.01807725429534912,-0.33807724714279175
1682372377.10019493,64706812,42.690005899999996,-84.4888084,260.7099914550781,-0.02209484577178955,-0.3420948386192322
1682372377.20020795,64806825,42.690005899999996,-84.4888084,260.7099914550781,-0.02515089511871338,-0.345150887966156
1682372377.30021000,64906827,42.690006,-84.4888084,260.7099914550781,-0.027037978172302246,-0.3470379710197449
1682372377.40044808,65007065,42.690006,-84.4888084,260.7099914550781,-0.029406189918518066,-0.3494061827659607
1682372377.50009608,65106713,42.6900061,-84.4888083,260.6999816894531,-0.03254520893096924,-0.35254520177841187
1682372377.60055709,65207174,42.6900061,-84.4888083,260.6999816894531,-0.035719990730285645,-0.35571998357772827
1682372377.70059705,65307214,42.6900062,-84.4888083,260.6999816894531,-0.03824412822723389,-0.3582441210746765
1682372377.80040693,65407024,42.6900062,-84.4888083,260.69000244140625,-0.04173481464385986,-0.3617348074913025
1682372377.90047693,65507094,42.6900063,-84.4888082,260.69000244140625,-0.046753764152526855,-0.3667537569999695
1682372378.00066495,65607282,42.6900063,-84.4888082,260.67999267578125,-0.05159866809844971,-0.37159866094589233
1682372378.10045695,65707074,42.6900064,-84.4888082,260.67999267578125,-0.05595672130584717,-0.3759567141532898
1682372378.20041704,65807034,42.6900064,-84.4888082,260.66998291015625,-0.060552000999450684,-0.3805519938468933
1682372378.30065799,65907275,42.6900064,-84.4888082,260.66998291015625,-0.0667644739151001,-0.3867644667625427
1682372378.40046096,66007078,42.6900064,-84.4888082,260.6600036621094,-0.07136642932891846,-0.3913664221763611
1682372378.50055313,66107170,42.690006499999996,-84.4888081,260.6600036621094,-0.07434356212615967,-0.3943435549736023
1682372378.60056591,66207183,42.690006499999996,-84.4888081,260.6600036621094,-0.07691347599029541,-0.39691346883773804
1682372378.70056510,66307182,42.690006499999996,-84.4888082,260.6600036621094,-0.07846271991729736,-0.39846271276474
1682372378.80049300,66407110,42.6900066,-84.4888082,260.6499938964844,-0.08027303218841553,-0.40027302503585815
1682372378.90041900,66507036,42.6900066,-84.4888082,260.6499938964844,-0.08108723163604736,-0.40108722448349
1682372379.00047803,66607095,42.6900066,-84.4888082,260.6499938964844,-0.08408701419830322,-0.40408700704574585
1682372379.10042906,66707046,42.6900067,-84.4888082,260.6399841308594,-0.09127795696258545,-0.4112779498100281
1682372379.20046306,66807080,42.6900067,-84.4888082,260.6399841308594,-0.09767353534698486,-0.4176735281944275
1682372379.30064797,66907265,42.6900068,-84.4888082,260.6300048828125,-0.10276210308074951,-0.42276209592819214
1682372379.40056205,67007179,42.6900068,-84.4888082,260.6300048828125,-0.10769760608673096,-0.4276975989341736
1682372379.50054312,67107160,42.6900068,-84.4888082,260.6199951171875,-0.11452305316925049,-0.4345230460166931
1682372379.60015512,67206772,42.6900068,-84.4888082,260.6199951171875,-0.11904633045196533,-0.43904632329940796
1682372379.70021796,67306835,42.6900069,-84.4888082,260.6199951171875,-0.11992371082305908,-0.4399237036705017
1682372379.80022311,67406840,42.6900069,-84.4888082,260.6099853515625,-0.12213575839996338,-0.442135751247406
1682372379.90023994,67506857,42.690007,-84.4888082,260.6099853515625,-0.1286395788192749,-0.44863957166671753
1682372380.00026107,67606878,42.690007,-84.4888082,260.6099853515625,-0.1289752721786499,-0.44897526502609253
1682372380.10030508,67706922,42.690007,-84.4888082,260.6499938964844,-0.08774101734161377,-0.4077410101890564
1682372380.20017695,67806794,42.690007,-84.4888081,260.739990234375,0.0033653974533081055,-0.3166345953941345
1682372380.30023694,67906854,42.690007099999995,-84.48880799999999,260.8500061035156,0.11953626573085785,-0.20046372711658478
1682372380.40023398,68006851,42.690007099999995,-84.4888079,260.9599914550781,0.2285984605550766,-0.09140153229236603
1682372380.50054598,68107163,42.690007099999995,-84.48880779999999,261.07000732421875,0.338445782661438,0.018445778638124466
1682372380.60055995,68207177,42.690007099999995,-84.48880779999999,261.17999267578125,0.4420900344848633,0.12209002673625946
1682372380.70025897,68306876,42.690007099999995,-84.48880779999999,261.2699890136719,0.5386025905609131,0.21860258281230927
1682372380.80026793,68406885,42.6900073,-84.4888077,261.3699951171875,0.6303589344024658,0.3103589415550232
1682372380.90025496,68506872,42.6900073,-84.4888076,261.4499816894531,0.7102609872817993,0.3902609944343567
1682372381.00027204,68606889,42.6900074,-84.4888075,261.5199890136719,0.7812767028808594,0.46127671003341675
1682372381.10022807,68706845,42.6900074,-84.48880729999999,261.5799865722656,0.8407268524169922,0.5207268595695496
1682372381.20056105,68807178,42.6900075,-84.4888072,261.6300048828125,0.8904106616973877,0.5704106688499451
1682372381.30056691,68907184,42.6900074,-84.4888071,261.6600036621094,0.9259178638458252,0.6059178709983826
1682372381.40038395,69007001,42.6900074,-84.4888069,261.69000244140625,0.9592260122299194,0.6392260193824768
1682372381.50036311,69106980,42.6900074,-84.4888069,261.72998046875,0.9919651746749878,0.6719651818275452
1682372381.60035992,69206977,42.6900073,-84.48880679999999,261.7599792480469,1.0251882076263428,0.7051882147789001
1682372381.70045400,69307071,42.6900072,-84.4888067,261.7900085449219,1.0571835041046143,0.7371835112571716
1682372381.80040002,69407017,42.690007099999995,-84.4888065,261.8299865722656,1.0947602987289429,0.7747603058815002
1682372381.90061307,69507230,42.690007,-84.4888065,261.8699951171875,1.1393057107925415,0.8193057179450989
1682372382.00048304,69607100,42.690007,-84.4888064,261.91998291015625,1.1873482465744019,0.8673482537269592
1682372382.10022306,69706840,42.6900069,-84.4888064,261.9700012207031,1.2360626459121704,0.9160626530647278
1682372382.20026898,69806886,42.6900068,-84.4888063,262.0199890136719,1.2875739336013794,0.9675739407539368
1682372382.30017495,69906792,42.6900067,-84.4888063,262.0799865722656,1.3414723873138428,1.0214723348617554
1682372382.40019393,70006811,42.6900067,-84.4888063,262.1300048828125,1.3963704109191895,1.0763704776763916
1682372382.50023103,70106848,42.6900066,-84.4888063,262.19000244140625,1.454394817352295,1.1343947649002075
1682372382.60044909,70207066,42.6900066,-84.4888064,262.25,1.5140037536621094,1.194003701210022
1682372382.70049810,70307115,42.690006499999996,-84.4888064,262.30999755859375,1.5753793716430664,1.255379319190979
1682372382.80048513,70407102,42.6900064,-84.4888064,262.3800048828125,1.6400015354156494,1.320001482963562
1682372382.90020108,70506818,42.6900064,-84.4888065,262.44000244140625,1.7077443599700928,1.387744426727295
1682372383.00025702,70606874,42.6900064,-84.4888065,262.5099792480469,1.7758877277374268,1.455887794494629
1682372383.10023999,70706857,42.6900064,-84.48880659999999,262.57000732421875,1.8399369716644287,1.5199370384216309
1682372383.20022702,70806844,42.6900064,-84.4888067,262.6399841308594,1.9042997360229492,1.5842998027801514
1682372383.30021095,70906828,42.6900063,-84.48880679999999,262.6999816894531,1.966352939605713,1.6463528871536255
1682372383.40021205,71006829,42.6900063,-84.488807,262.7599792480469,2.0290732383728027,1.7090731859207153
1682372383.50048399,71107101,42.6900063,-84.488807,262.8299865722656,2.091564893722534,1.7715649604797363
1682372383.60045409,71207071,42.6900063,-84.4888071,262.8899841308594,2.152883529663086,1.8328834772109985
1682372383.70052099,71307138,42.6900063,-84.4888072,262.9499816894531,2.2150371074676514,1.895037055015564
1682372383.80046296,71407080,42.6900063,-84.4888072,263.0099792480469,2.277153730392456,1.9571536779403687
1682372383.90058899,71507206,42.6900063,-84.48880729999999,263.07000732421875,2.3360118865966797,2.016011953353882
1682372384.00057411,71607191,42.6900063,-84.48880729999999,263.1300048828125,2.3955869674682617,2.075587034225464
1682372384.10075998,71707377,42.6900063,-84.4888074,263.19000244140625,2.451414108276367,2.1314141750335693
1682372384.20050001,71807117,42.6900064,-84.4888074,263.239990234375,2.506186008453369,2.1861860752105713
1682372384.30027795,71906895,42.6900064,-84.4888075,263.29998779296875,2.562187671661377,2.242187738418579
1682372384.40026307,72006880,42.6900064,-84.4888076,263.3500061035156,2.619361400604248,2.29936146736145
1682372384.50024796,72106865,42.690006499999996,-84.4888076,263.4100036621094,2.678304433822632,2.358304500579834
1682372384.60028195,72206899,42.6900066,-84.4888076,263.4700012207031,2.73891282081604,2.418912887573242
1682372384.70024300,72306860,42.6900066,-84.4888077,263.5400085449219,2.8011906147003174,2.4811906814575195
1682372384.80056405,72407181,42.6900066,-84.4888077,263.6000061035156,2.8645732402801514,2.5445733070373535
1682372384.90053701,72507154,42.6900067,-84.48880779999999,263.6600036621094,2.9290590286254883,2.6090590953826904
1682372385.00039601,72607013,42.6900068,-84.48880779999999,263.72998046875,2.9920670986175537,2.672067165374756
1682372385.10036206,72706979,42.6900069,-84.48880779999999,263.7900085449219,3.0546700954437256,2.7346701622009277
1682372385.20041013,72807027,42.690007,-84.48880779999999,263.8500061035156,3.1182351112365723,2.7982351779937744
1682372385.30044103,72907058,42.690007,-84.4888079,263.91998291015625,3.1814122200012207,2.861412286758423
1682372385.40040112,73007018,42.690007,-84.4888079,263.97998046875,3.245975971221924,2.925976037979126
1682372385.50041604,73107033,42.690007,-84.4888079,264.0400085449219,3.308371067047119,2.9883711338043213
1682372385.60059595,73207213,42.690007,-84.4888079,264.1000061035156,3.3687357902526855,3.0487358570098877
1682372385.70060897,73307226,42.690007,-84.4888079,264.1600036621094,3.429694414138794,3.109694480895996
1682372385.80056310,73407180,42.690007,-84.4888079,264.2200012207031,3.489518165588379,3.169518232345581
1682372385.90018201,73506799,42.690007099999995,-84.4888079,264.2799987792969,3.5471251010894775,3.2271251678466797
1682372386.00022197,73606839,42.690007099999995,-84.4888079,264.3399963378906,3.6064491271972656,3.2864491939544678
1682372386.10022402,73706841,42.690007099999995,-84.4888079,264.3999938964844,3.666480302810669,3.346480369567871
1682372386.20025492,73806872,42.690007099999995,-84.4888079,264.4599914550781,3.726896286010742,3.4068963527679443
1682372386.30026507,73906882,42.690007099999995,-84.4888079,264.5199890136719,3.7825493812561035,3.4625494480133057
1682372386.40034294,74006960,42.690007099999995,-84.4888079,264.57000732421875,3.837001085281372,3.517001152038574
1682372386.50019813,74106815,42.690007099999995,-84.48880779999999,264.6199951171875,3.8876819610595703,3.5676820278167725
1682372386.60024714,74206864,42.6900072,-84.4888077,264.66998291015625,3.9339191913604736,3.613919258117676
1682372386.70028305,74306900,42.6900072,-84.4888077,264.7099914550781,3.9732983112335205,3.6532983779907227
1682372386.80017304,74406790,42.6900072,-84.4888076,264.739990234375,4.00451135635376,3.684511423110962
1682372386.90021205,74506829,42.6900072,-84.4888076,264.7599792480469,4.025012493133545,3.705012559890747
1682372387.00045013,74607067,42.6900072,-84.4888076,264.7799987792969,4.040070533752441,3.7200703620910645
1682372387.10044098,74707058,42.6900072,-84.4888076,264.7799987792969,4.045741558074951,3.7257416248321533
1682372387.20044208,74807059,42.6900072,-84.4888076,264.7799987792969,4.047533988952637,3.727534055709839
1682372387.30049491,74907112,42.690007099999995,-84.4888076,264.7799987792969,4.040355205535889,3.720355272293091
1682372387.40051293,75007130,42.690007099999995,-84.4888076,264.7699890136719,4.031676769256592,3.711676597595215
1682372387.50060296,75107220,42.690007099999995,-84.4888076,264.75,4.019791126251221,3.6997909545898438
1682372387.60057092,75207188,42.690007099999995,-84.4888076,264.739990234375,4.008306980133057,3.688307046890259
1682372387.70063400,75307251,42.690007,-84.4888076,264.72998046875,3.9958927631378174,3.6758928298950195
1682372387.80055404,75407171,42.6900069,-84.4888075,264.7200012207031,3.987549304962158,3.6675493717193604
1682372387.90049696,75507114,42.6900068,-84.4888075,264.7200012207031,3.9811010360717773,3.6611011028289795
1682372388.00048208,75607099,42.6900067,-84.4888074,264.7099914550781,3.979095458984375,3.659095525741577
1682372388.10046005,75707077,42.690006499999996,-84.48880729999999,264.7200012207031,3.980088233947754,3.660088300704956
1682372388.20046496,75807082,42.6900062,-84.4888072,264.7200012207031,3.98500919342041,3.6650092601776123
1682372388.30047703,75907094,42.690006,-84.488807,264.72998046875,3.9944708347320557,3.674470901489258
1682372388.40058708,76007204,42.6900056,-84.48880679999999,264.739990234375,4.003190040588379,3.683189868927002
1682372388.50063014,76107247,42.690005199999995,-84.4888065,264.739990234375,4.0071001052856445,3.6870999336242676
1682372388.60021901,76206836,42.690004699999996,-84.4888062,264.75,4.011015892028809,3.6910157203674316
1682372388.70031095,76306928,42.6900042,-84.4888057,264.75,4.013744354248047,3.69374418258667
1682372388.80023503,76406852,42.6900037,-84.4888053,264.75,4.0152482986450195,3.6952481269836426
1682372388.90027595,76506893,42.6900031,-84.4888048,264.75,4.01649808883667,3.696497917175293
1682372389.00028610,76606903,42.6900026,-84.48880439999999,264.75,4.018665313720703,3.698665142059326
1682372389.10030603,76706923,42.690002,-84.4888039,264.7599792480469,4.022696495056152,3.7026965618133545
1682372389.20020795,76806825,42.6900015,-84.4888034,264.7599792480469,4.027087688446045,3.707087755203247
1682372389.30026507,76906882,42.6900009,-84.48880299999999,264.7599792480469,4.029812335968018,3.7098121643066406
1682372389.40025806,77006875,42.6900003,-84.4888026,264.7699890136719,4.0314860343933105,3.7114858627319336
1682372389.50060201,77107219,42.689999799999995,-84.4888022,264.7699890136719,4.033422946929932,3.713423013687134
1682372389.60054612,77207163,42.689999199999995,-84.48880179999999,264.7699890136719,4.034425258636475,3.7144253253936768
1682372389.70050406,77307121,42.689998599999996,-84.4888015,264.7699890136719,4.032634735107422,3.712634801864624
1682372389.80047202,77407089,42.6899981,-84.48880129999999,264.7699890136719,4.031142234802246,3.711142063140869
1682372389.90027905,77506896,42.6899975,-84.488801,264.7599792480469,4.029480934143066,3.7094807624816895
1682372390.00034595,77606963,42.689996799999996,-84.48880079999999,264.7599792480469,4.027161121368408,3.7071609497070312
1682372390.10023308,77706850,42.689996199999996,-84.48880059999999,264.7599792480469,4.022763729095459,3.702763795852661
1682372390.20023513,77806852,42.689995599999996,-84.4888004,264.75,4.016021728515625,3.696021556854248
1682372390.30024600,77906863,42.689994899999995,-84.4888002,264.739990234375,4.008975505828857,3.6889753341674805
1682372390.40056300,78007180,42.689994299999995,-84.48879989999999,264.739990234375,4.00510835647583,3.6851084232330322
1682372390.50051904,78107136,42.6899936,-84.4887997,264.72998046875,3.9997622966766357,3.679762363433838
1682372390.60046601,78207083,42.689993,-84.4887995,264.72998046875,3.9939050674438477,3.67390513420105
1682372390.70044994,78307067,42.6899924,-84.4887993,264.7200012207031,3.9854989051818848,3.665498971939087
1682372390.80039692,78407014,42.6899917,-84.4887991,264.7099914550781,3.978970527648926,3.658970594406128
1682372390.90044403,78507061,42.6899911,-84.48879889999999,264.7099914550781,3.97306752204895,3.6530675888061523
1682372391.00045109,78607068,42.6899904,-84.48879869999999,264.7099914550781,3.9704408645629883,3.6504409313201904
1682372391.10053205,78707149,42.6899898,-84.4887986,264.7099914550781,3.971114158630371,3.6511142253875732
1682372391.20046306,78807080,42.6899892,-84.4887985,264.7099914550781,3.9729042053222656,3.6529042720794678
1682372391.30070400,78907321,42.6899885,-84.4887983,264.7099914550781,3.973356008529663,3.6533560752868652
1682372391.40053892,79007156,42.6899879,-84.4887981,264.7099914550781,3.977114200592041,3.657114267349243
1682372391.50047994,79107097,42.6899874,-84.4887979,264.7200012207031,3.9834060668945312,3.6634061336517334
1682372391.60054994,79207167,42.6899868,-84.48879769999999,264.7200012207031,3.9894680976867676,3.6694681644439697
1682372391.70050001,79307117,42.6899862,-84.48879749999999,264.72998046875,3.9984982013702393,3.6784982681274414
1682372391.80049205,79407109,42.6899855,-84.4887973,264.739990234375,4.007309913635254,3.687309980392456
1682372391.90063691,79507254,42.6899849,-84.48879699999999,264.75,4.012336730957031,3.6923367977142334
1682372392.00058913,79607206,42.6899842,-84.4887968,264.75,4.016517162322998,3.6965172290802
1682372392.10059404,79707211,42.6899836,-84.48879649999999,264.75,4.01848030090332,3.6984801292419434
1682372392.20020199,79806819,42.689983,-84.4887962,264.75,4.019306182861328,3.6993062496185303
1682372392.30025601,79906873,42.6899824,-84.4887959,264.75,4.018711090087891,3.6987111568450928
1682372392.40024805,80006865,42.6899817,-84.4887956,264.75,4.018303871154785,3.698303699493408
1682372392.50026608,80106883,42.6899811,-84.48879529999999,264.75,4.019232273101807,3.6992321014404297
1682372392.60027504,80206892,42.6899805,-84.488795,264.7599792480469,4.021981716156006,3.701981544494629
1682372392.70056701,80307184,42.689979799999996,-84.4887947,264.7599792480469,4.025740623474121,3.705740451812744
1682372392.80022311,80406840,42.689979199999996,-84.4887945,264.7599792480469,4.027194976806641,3.7071950435638428
1682372392.90023804,80506855,42.689978499999995,-84.4887942,264.7599792480469,4.025722503662109,3.7057225704193115
1682372393.00026703,80606884,42.689977899999995,-84.48879389999999,264.7599792480469,4.025203227996826,3.7052032947540283
1682372393.10020494,80706822,42.6899771,-84.4887936,264.7599792480469,4.021307468414307,3.7013072967529297
1682372393.20022702,80806844,42.6899764,-84.4887933,264.75,4.017762184143066,3.6977622509002686
1682372393.30023503,80906852,42.6899757,-84.488793,264.75,4.013853073120117,3.6938531398773193
1682372393.40047908,81007096,42.689975,-84.48879269999999,264.75,4.010579586029053,3.690579414367676
1682372393.50027895,81106896,42.689974299999996,-84.4887924,264.739990234375,4.009219646453857,3.6892197132110596
1682372393.60044503,81207062,42.689973699999996,-84.4887921,264.739990234375,4.008697986602783,3.6886980533599854
1682372393.70052409,81307141,42.689972999999995,-84.4887919,264.75,4.010350704193115,3.6903505325317383
1682372393.80052495,81407142,42.6899723,-84.4887916,264.75,4.012559413909912,3.692559242248535
1682372393.90048099,81507098,42.6899716,-84.4887914,264.75,4.012523651123047,3.692523717880249
1682372394.00045991,81607077,42.689971,-84.4887911,264.75,4.012543201446533,3.6925430297851562
1682372394.10050201,81707119,42.6899703,-84.4887909,264.75,4.012018203735352,3.6920180320739746
1682372394.20039392,81807011,42.6899697,-84.4887907,264.75,4.0128679275512695,3.6928679943084717
1682372394.30065107,81907268,42.689969,-84.4887905,264.75,4.013347148895264,3.6933469772338867
1682372394.40046191,82007079,42.6899683,-84.48879029999999,264.75,4.01482629776001,3.694826126098633
1682372394.50051594,82107133,42.6899677,-84.48879,264.75,4.0140862464904785,3.6940863132476807
1682372394.60049701,82207114,42.6899671,-84.4887897,264.75,4.0122389793396,3.6922390460968018
1682372394.70064092,82307258,42.689966399999996,-84.4887894,264.739990234375,4.009904861450195,3.6899046897888184
1682372394.80064201,82407259,42.689965799999996,-84.48878909999999,264.739990234375,4.007796764373779,3.6877968311309814
1682372394.90055394,82507171,42.689965099999995,-84.4887888,264.739990234375,4.004167556762695,3.6841673851013184
1682372395.00057101,82607188,42.6899644,-84.4887885,264.739990234375,4.001299858093262,3.6812996864318848
1682372395.10047603,82707093,42.6899638,-84.4887882,264.72998046875,3.998037338256836,3.678037405014038
1682372395.20027900,82806896,42.6899631,-84.48878789999999,264.72998046875,3.9958877563476562,3.6758878231048584
1682372395.30026507,82906882,42.6899625,-84.4887877,264.72998046875,3.9960904121398926,3.6760904788970947
1682372395.40030599,83006923,42.6899618,-84.48878739999999,264.72998046875,3.99741530418396,3.677415370941162
1682372395.50021291,83106830,42.6899612,-84.48878719999999,264.72998046875,3.997429847717285,3.6774299144744873
1682372395.60025191,83206869,42.6899605,-84.4887869,264.72998046875,3.996473789215088,3.67647385597229
1682372395.70030904,83306926,42.6899599,-84.4887866,264.72998046875,3.992473840713501,3.672473907470703
1682372395.80062795,83407245,42.6899593,-84.4887863,264.7200012207031,3.988642454147339,3.668642520904541
1682372395.90025711,83506874,42.6899586,-84.4887859,264.7200012207031,3.9839789867401123,3.6639790534973145
1682372396.00026011,83606877,42.689958,-84.4887856,264.7200012207031,3.980994462966919,3.660994529724121
1682372396.10026312,83706880,42.6899574,-84.4887852,264.7099914550781,3.9779584407806396,3.657958507537842
1682372396.20025396,83806871,42.689956699999996,-84.4887849,264.7099914550781,3.97625732421875,3.656257390975952
1682372396.30029607,83906913,42.689956099999996,-84.4887846,264.7099914550781,3.972926139831543,3.652926206588745
1682372396.40021205,84006829,42.689955499999996,-84.4887842,264.6999816894531,3.9697465896606445,3.6497466564178467
1682372396.50059295,84107210,42.6899549,-84.4887839,264.6999816894531,3.9656124114990234,3.6456124782562256
1682372396.60058713,84207204,42.6899543,-84.4887835,264.6999816894531,3.9626359939575195,3.6426360607147217
1682372396.70057011,84307187,42.689953599999996,-84.4887832,264.69000244140625,3.9589004516601562,3.6389005184173584
1682372396.80049300,84407110,42.689952999999996,-84.48878289999999,264.69000244140625,3.95707631111145,3.6370763778686523
1682372396.90044594,84507063,42.689952299999995,-84.4887825,264.69000244140625,3.9555790424346924,3.6355791091918945
1682372397.00044298,84607060,42.689951699999995,-84.4887822,264.69000244140625,3.956044912338257,3.636044979095459
1682372397.10040307,84707020,42.689951099999995,-84.4887818,264.69000244140625,3.957185745239258,3.63718581199646
1682372397.20044899,84807066,42.6899504,-84.4887815,264.6999816894531,3.9627344608306885,3.6427345275878906
1682372397.30042005,84907037,42.6899498,-84.4887811,264.6999816894531,3.969865322113037,3.6498653888702393
1682372397.40057397,85007191,42.6899491,-84.4887808,264.7099914550781,3.978114366531372,3.658114433288574
1682372397.50057793,85107195,42.6899485,-84.48878049999999,264.7200012207031,3.9859111309051514,3.6659111976623535
1682372397.60021901,85206836,42.6899479,-84.4887802,264.72998046875,3.9943089485168457,3.674309015274048
1682372397.70030212,85306919,42.6899472,-84.4887799,264.739990234375,4.001459121704102,3.6814589500427246
1682372397.80027199,85406889,42.6899466,-84.4887796,264.739990234375,4.0067901611328125,3.6867902278900146
1682372397.90033007,85506947,42.689946,-84.48877929999999,264.75,4.010664463043213,3.690664529800415
1682372398.00029302,85606910,42.6899454,-84.4887789,264.75,4.014286518096924,3.694286346435547
1682372398.10051799,85707135,42.6899448,-84.48877859999999,264.75,4.017228126525879,3.697227954864502
1682372398.20048594,85807103,42.6899442,-84.48877829999999,264.75,4.0194525718688965,3.6994526386260986
1682372398.30060601,85907223,42.6899435,-84.4887779,264.7599792480469,4.021745204925537,3.7017452716827393
1682372398.40058398,86007201,42.6899429,-84.48877759999999,264.7599792480469,4.0242919921875,3.704292058944702
1682372398.50056410,86107181,42.6899422,-84.4887772,264.7599792480469,4.0243916511535645,3.7043914794921875
1682372398.60055208,86207169,42.6899416,-84.48877689999999,264.7599792480469,4.025122165679932,3.705122232437134
1682372398.70061398,86307231,42.689940899999996,-84.4887766,264.7599792480469,4.023777008056641,3.7037768363952637
1682372398.80045414,86407071,42.689940299999996,-84.48877619999999,264.7599792480469,4.0253400802612305,3.7053401470184326
1682372398.90046000,86507077,42.6899397,-84.4887759,264.7599792480469,4.027937889099121,3.707937717437744
1682372399.00057602,86607193,42.6899391,-84.4887756,264.7599792480469,4.029627323150635,3.709627389907837
1682372399.10050607,86707123,42.6899385,-84.4887753,264.7599792480469,4.029009819030762,3.7090096473693848
1682372399.20060110,86807218,42.689937799999996,-84.48877499999999,264.7599792480469,4.02659797668457,3.7065980434417725
1682372399.30061007,86907227,42.689937199999996,-84.4887748,264.7599792480469,4.024080753326416,3.704080581665039
1682372399.40075207,87007369,42.689936499999995,-84.48877449999999,264.75,4.019646644592285,3.6996467113494873
1682372399.50022912,87106846,42.689935899999995,-84.4887742,264.75,4.014043807983398,3.6940438747406006
1682372399.60024309,87206860,42.6899352,-84.4887739,264.739990234375,4.008518218994141,3.6885180473327637
1682372399.70033002,87306947,42.6899346,-84.4887737,264.72998046875,3.999683380126953,3.6796834468841553
1682372399.80028510,87406902,42.689934,-84.4887734,264.72998046875,3.9937195777893066,3.673719644546509
1682372399.90030408,87506921,42.6899334,-84.4887732,264.7200012207031,3.989750385284424,3.669750452041626
1682372400.00025892,87606876,42.6899327,-84.488773,264.7200012207031,3.9877965450286865,3.6677966117858887
1682372400.10060096,87707218,42.6899321,-84.4887727,264.7200012207031,3.985339879989624,3.665339946746826
1682372400.20052910,87807146,42.6899314,-84.4887725,264.7200012207031,3.9852652549743652,3.6652653217315674
1682372400.30046296,87907080,42.6899308,-84.4887722,264.7200012207031,3.98561954498291,3.6656196117401123
1682372400.40047503,88007092,42.6899301,-84.488772,264.7200012207031,3.9888408184051514,3.6688408851623535
1682372400.50042796,88107045,42.6899295,-84.4887717,264.72998046875,3.9949874877929688,3.674987554550171
1682372400.60043311,88207050,42.6899288,-84.48877139999999,264.739990234375,4.002221584320068,3.6822216510772705
1682372400.70045614,88307073,42.6899282,-84.4887711,264.75,4.010013103485107,3.6900131702423096
1682372400.80049491,88407112,42.6899276,-84.4887708,264.75,4.0173540115356445,3.6973538398742676
1682372400.90022993,88506847,42.689927,-84.48877039999999,264.7599792480469,4.022035121917725,3.7020351886749268
1682372401.00025392,88606871,42.6899264,-84.4887701,264.7599792480469,4.025258541107178,3.705258369445801
1682372401.10027909,88706896,42.6899258,-84.4887698,264.7599792480469,4.026808738708496,3.706808567047119
1682372401.20020604,88806823,42.6899253,-84.4887696,264.7599792480469,4.026881694793701,3.7068817615509033
1682372401.30028892,88906906,42.6899247,-84.4887692,264.7599792480469,4.026947498321533,3.7069475650787354
1682372401.40022898,89006846,42.6899241,-84.48876899999999,264.7599792480469,4.028800964355469,3.708800792694092
1682372401.50028014,89106897,42.6899234,-84.4887687,264.7699890136719,4.0302629470825195,3.7102627754211426
1682372401.60028195,89206899,42.6899228,-84.4887684,264.7699890136719,4.03190803527832,3.7119081020355225
1682372401.70054698,89307164,42.6899221,-84.4887682,264.7699890136719,4.031706809997559,3.7117066383361816
1682372401.80049896,89407116,42.6899215,-84.4887679,264.7699890136719,4.031594276428223,3.711594343185425
1682372401.90058112,89507198,42.689920799999996,-84.4887676,264.7699890136719,4.030434608459473,3.710434675216675
1682372402.00060606,89607223,42.689920199999996,-84.48876729999999,264.7599792480469,4.027469635009766,3.7074697017669678
1682372402.10061598,89707233,42.689919599999996,-84.488767,264.7599792480469,4.022989749908447,3.7029895782470703
1682372402.20052695,89807144,42.689918999999996,-84.48876659999999,264.75,4.01896858215332,3.6989684104919434
1682372402.30048800,89907105,42.689918299999995,-84.4887663,264.75,4.014248371124268,3.6942484378814697
1682372402.40046597,90007083,42.689917699999995,-84.488766,264.75,4.011145114898682,3.691145181655884
1682372402.50048494,90107102,42.689917099999995,-84.4887657,264.739990234375,4.006483554840088,3.686483383178711
1682372402.60049605,90207113,42.689916499999995,-84.48876539999999,264.739990234375,4.003691673278809,3.6836917400360107
1682372402.70026994,90306887,42.6899158,-84.4887651,264.739990234375,4.00147819519043,3.6814780235290527
1682372402.80025291,90406870,42.6899152,-84.4887648,264.739990234375,4.000629425048828,3.680629253387451
1682372402.90025997,90506877,42.6899146,-84.4887644,264.739990234375,4.002058029174805,3.6820578575134277
1682372403.00020194,90606819,42.6899139,-84.4887641,264.739990234375,4.00385856628418,3.6838583946228027
1682372403.10023093,90706848,42.6899133,-84.48876369999999,264.739990234375,4.006809711456299,3.686809778213501
1682372403.20031309,90806930,42.6899126,-84.4887634,264.75,4.01008415222168,3.690084218978882
1682372403.30047393,90907091,42.689912,-84.4887631,264.75,4.012194633483887,3.6921944618225098
1682372403.40046501,91007082,42.6899114,-84.48876279999999,264.75,4.014795303344727,3.6947953701019287
1682372403.50043511,91107052,42.6899108,-84.4887624,264.75,4.017893314361572,3.6978931427001953
1682372403.60042405,91207041,42.6899102,-84.4887621,264.7599792480469,4.021103858947754,3.701103925704956
1682372403.70058298,91307200,42.6899096,-84.48876179999999,264.7599792480469,4.022036552429199,3.7020366191864014
1682372403.80052805,91407145,42.689909,-84.4887615,264.7599792480469,4.024072647094727,3.7040727138519287
1682372403.90038610,91507003,42.6899084,-84.4887612,264.7599792480469,4.025270462036133,3.705270290374756
1682372404.00039697,91607014,42.6899077,-84.4887609,264.7599792480469,4.026648044586182,3.7066478729248047
1682372404.10068798,91707305,42.6899071,-84.48876059999999,264.7599792480469,4.025930881500244,3.705930709838867
1682372404.20053291,91807150,42.6899064,-84.48876039999999,264.7599792480469,4.023845672607422,3.703845500946045
1682372404.30027413,91906891,42.6899057,-84.48876,264.7599792480469,4.020071029663086,3.700071096420288
1682372404.40030599,92006923,42.689904999999996,-84.4887597,264.75,4.017980575561523,3.6979804039001465
1682372404.50022507,92106842,42.689904299999995,-84.48875939999999,264.75,4.014769077301025,3.6947689056396484
1682372404.60023999,92206857,42.6899036,-84.4887591,264.75,4.010200500488281,3.6902005672454834
1682372404.70027804,92306895,42.689903,-84.4887588,264.739990234375,4.005270481109619,3.6852705478668213
1682372404.80055809,92407175,42.6899023,-84.4887585,264.739990234375,4.000389575958252,3.680389642715454
1682372404.90054202,92507159,42.6899017,-84.4887583,264.72998046875,3.995394706726074,3.6753947734832764
1682372405.00026393,92606881,42.6899011,-84.4887581,264.72998046875,3.9917197227478027,3.671719789505005
1682372405.10027409,92706891,42.6899004,-84.4887578,264.7200012207031,3.985553026199341,3.665553092956543
1682372405.20025611,92806873,42.6898998,-84.48875749999999,264.7200012207031,3.9813594818115234,3.6613595485687256
1682372405.30032301,92906940,42.6898991,-84.4887573,264.7099914550781,3.9789488315582275,3.6589488983154297
1682372405.40018010,93006797,42.6898985,-84.48875699999999,264.7099914550781,3.978118419647217,3.658118486404419
1682372405.50057197,93107189,42.6898978,-84.4887567,264.7099914550781,3.9787862300872803,3.6587862968444824
1682372405.60056996,93207187,42.689897099999996,-84.4887564,264.7200012207031,3.983050584793091,3.663050651550293
1682372405.70061612,93307233,42.689896499999996,-84.48875609999999,264.7200012207031,3.988346576690674,3.668346643447876
1682372405.80053496,93407152,42.689895799999995,-84.48875579999999,264.72998046875,3.993839740753174,3.673839807510376
1682372405.90044808,93507065,42.689895199999995,-84.4887555,264.72998046875,3.9962546825408936,3.6762547492980957
1682372406.00054407,93607161,42.6898945,-84.4887553,264.72998046875,3.9995901584625244,3.6795902252197266
1682372406.10046411,93707081,42.6898939,-84.488755,264.739990234375,4.003559589385986,3.6835594177246094
1682372406.20048714,93807104,42.6898932,-84.4887547,264.739990234375,4.008136749267578,3.688136577606201
1682372406.30051112,93907128,42.6898926,-84.48875439999999,264.75,4.01226282119751,3.692262649536133
1682372406.40058303,94007200,42.689892,-84.4887542,264.75,4.014022350311279,3.6940221786499023
1682372406.50057292,94107190,42.6898914,-84.48875389999999,264.75,4.014809608459473,3.6948094367980957
1682372406.60039592,94207013,42.6898908,-84.4887536,264.75,4.0166144371032715,3.6966142654418945
1682372406.70053196,94307149,42.6898902,-84.4887533,264.75,4.019326210021973,3.6993260383605957
1682372406.80042315,94407040,42.6898896,-84.4887531,264.7599792480469,4.021457672119141,3.7014575004577637
1682372406.90039301,94507010,42.689889,-84.4887528,264.7599792480469,4.024679183959961,3.704679250717163
1682372407.00042796,94607045,42.6898884,-84.4887526,264.7599792480469,4.028384685516357,3.7083847522735596
1682372407.10044599,94707063,42.6898877,-84.4887524,264.7699890136719,4.03184700012207,3.7118470668792725
1682372407.20043397,94807051,42.6898871,-84.4887521,264.7699890136719,4.035663604736328,3.715663433074951
1682372407.30100703,94907624,42.6898865,-84.4887519,264.7699890136719,4.039809703826904,3.7198095321655273
1682372407.40029311,95006910,42.6898858,-84.4887516,264.7799987792969,4.0432586669921875,3.7232584953308105
1682372407.50020194,95106819,42.6898852,-84.4887514,264.7799987792969,4.045373439788818,3.7253735065460205
1682372407.60021210,95206829,42.6898846,-84.4887511,264.7799987792969,4.048419952392578,3.7284200191497803
1682372407.70027900,95306896,42.689884,-84.48875079999999,264.7900085449219,4.0537824630737305,3.7337822914123535
1682372407.80027914,95406896,42.6898833,-84.4887505,264.7900085449219,4.058389186859131,3.738389253616333
1682372407.90025210,95506869,42.6898827,-84.4887502,264.79998779296875,4.062983989715576,3.742983818054199
1682372408.00051808,95607135,42.6898821,-84.4887499,264.79998779296875,4.067536354064941,3.7475364208221436
1682372408.10022712,95706844,42.6898814,-84.48874959999999,264.80999755859375,4.072084426879883,3.752084493637085
1682372408.20024610,95806863,42.689880699999996,-84.4887493,264.80999755859375,4.07393217086792,3.753931999206543
1682372408.30060792,95907225,42.689879999999995,-84.48874889999999,264.80999755859375,4.073675155639648,3.7536752223968506
1682372408.40023303,96006850,42.689879399999995,-84.4887486,264.80999755859375,4.0726118087768555,3.7526118755340576
1682372408.50022292,96106840,42.6898787,-84.4887483,264.79998779296875,4.069344997406006,3.749344825744629
1682372408.60024714,96206864,42.689878,-84.488748,264.79998779296875,4.066140174865723,3.746140241622925
1682372408.70031810,96306935,42.6898774,-84.48874769999999,264.79998779296875,4.064822196960449,3.7448222637176514
1682372408.80026293,96406880,42.6898767,-84.4887475,264.79998779296875,4.064718723297119,3.7447187900543213
1682372408.90050411,96507121,42.6898761,-84.4887471,264.79998779296875,4.06574821472168,3.7457480430603027
1682372409.00050902,96607126,42.6898754,-84.4887468,264.79998779296875,4.06648063659668,3.746480703353882
1682372409.10058594,96707203,42.6898747,-84.48874649999999,264.79998779296875,4.066747665405273,3.7467477321624756
1682372409.20059013,96807207,42.6898741,-84.4887461,264.79998779296875,4.065250396728516,3.7452504634857178
1682372409.30072808,96907345,42.689873399999996,-84.48874579999999,264.79998779296875,4.060845375061035,3.7408454418182373
1682372409.40052700,97007144,42.689872799999996,-84.4887455,264.7900085449219,4.056680202484131,3.736680269241333
1682372409.50064993,97107267,42.689872199999996,-84.4887451,264.7900085449219,4.050274848937988,3.7302746772766113
1682372409.60046101,97207078,42.6898716,-84.48874479999999,264.7799987792969,4.0449676513671875,3.7249677181243896
1682372409.70049810,97307115,42.689870899999995,-84.4887445,264.7699890136719,4.037402153015137,3.7174019813537598
1682372409.80049014,97407107,42.689870299999995,-84.4887442,264.7699890136719,4.032864093780518,3.7128639221191406
1682372409.90020013,97506817,42.6898696,-84.4887438,264.7599792480469,4.028833866119385,3.708833932876587
1682372410.00032496,97606942,42.689869,-84.4887435,264.7599792480469,4.023664951324463,3.703665018081665
1682372410.10025692,97706874,42.6898683,-84.4887432,264.75,4.018616199493408,3.6986162662506104
1682372410.20020294,97806820,42.6898677,-84.48874289999999,264.75,4.017842769622803,3.697842836380005
1682372410.30029106,97906908,42.689867,-84.4887426,264.75,4.018349647521973,3.698349714279175
1682372410.40022993,98006847,42.6898664,-84.4887423,264.75,4.019122123718262,3.6991219520568848
1682372410.50055909,98107176,42.6898658,-84.488742,264.7599792480469,4.0201520919799805,3.7001521587371826
1682372410.60039711,98207014,42.6898651,-84.48874169999999,264.7599792480469,4.020199298858643,3.7001991271972656
1682372410.70048213,98307099,42.6898645,-84.4887414,264.75,4.0187835693359375,3.6987836360931396
1682372410.80041599,98407033,42.6898639,-84.48874119999999,264.75,4.017031669616699,3.6970314979553223
1682372410.90052795,98507145,42.6898632,-84.48874099999999,264.75,4.014965057373047,3.69496488571167
1682372411.00055313,98607170,42.6898626,-84.4887408,264.75,4.013360977172852,3.6933608055114746
1682372411.10040212,98707019,42.689862,-84.48874049999999,264.75,4.012536525726318,3.6925365924835205
1682372411.20048213,98807099,42.6898613,-84.48874029999999,264.75,4.013805389404297,3.69380521774292
1682372411.30088711,98907504,42.6898607,-84.4887401,264.75,4.016610145568848,3.6966099739074707
1682372411.40046406,99007081,42.6898601,-84.48873979999999,264.75,4.018501281738281,3.6985011100769043
1682372411.50028992,99106907,42.6898595,-84.4887395,264.7599792480469,4.020699977874756,3.700699806213379
1682372411.60035110,99206968,42.689858799999996,-84.48873929999999,264.7599792480469,4.023019790649414,3.703019618988037
1682372411.70027900,99306896,42.689858199999996,-84.488739,264.7599792480469,4.0233869552612305,3.7033867835998535
1682372411.80024600,99406863,42.689857599999996,-84.4887387,264.7599792480469,4.02295446395874,3.7029545307159424
1682372411.90025306,99506870,42.689856999999996,-84.4887384,264.7599792480469,4.020668983459473,3.7006688117980957
1682372412.00022292,99606840,42.6898564,-84.48873809999999,264.7599792480469,4.0207743644714355,3.7007741928100586
1682372412.10025597,99706873,42.6898558,-84.4887378,264.75,4.01904821395874,3.6990482807159424
1682372412.20023704,99806854,42.6898552,-84.4887375,264.75,4.018876075744629,3.698876142501831
1682372412.30048895,99907106,42.689854499999996,-84.4887372,264.75,4.018401622772217,3.698401689529419
1682372412.40046191,100007079,42.689853899999996,-84.48873689999999,264.75,4.018580436706543,3.698580265045166
1682372412.50052404,100107141,42.689853299999996,-84.4887365,264.75,4.019570827484131,3.699570894241333
1682372412.60053611,100207153,42.689852699999996,-84.48873619999999,264.7599792480469,4.022615432739258,3.70261549949646
1682372412.70064092,100307258,42.689851999999995,-84.4887358,264.7599792480469,4.023561477661133,3.703561305999756
1682372412.80059195,100407209,42.6898513,-84.48873549999999,264.7599792480469,4.023505210876465,3.703505277633667
1682372412.90056396,100507181,42.6898506,-84.4887352,264.7599792480469,4.02484655380249,3.7048463821411133
1682372413.00057197,100607189,42.6898499,-84.4887349,264.7599792480469,4.025583744049072,3.7055835723876953
1682372413.10048699,100707104,42.6898492,-84.4887346,264.7599792480469,4.02522611618042,3.705226182937622
1682372413.20028114,100806898,42.6898485,-84.4887344,264.7599792480469,4.0243754386901855,3.7043752670288086
1682372413.30028701,100906904,42.689847799999995,-84.4887341,264.7599792480469,4.02060079574585,3.7006008625030518
1682372413.40044308,101007060,42.6898471,-84.48873379999999,264.75,4.018249988555908,3.6982500553131104
1682372413.50021791,101106835,42.6898465,-84.4887335,264.75,4.0150957107543945,3.6950957775115967
1682372413.60025501,101206872,42.6898458,-84.4887332,264.75,4.013364315032959,3.693364143371582
1682372413.70044494,101307062,42.6898452,-84.488733,264.75,4.010569095611572,3.6905689239501953
1682372413.80056214,101407179,42.6898446,-84.4887328,264.739990234375,4.008059501647949,3.6880595684051514
1682372413.90057302,101507190,42.6898439,-84.4887325,264.739990234375,4.005141258239746,3.685141086578369
1682372414.00042105,101607038,42.6898433,-84.4887323,264.739990234375,4.003985404968262,3.6839852333068848
1682372414.10042906,101707046,42.6898427,-84.488732,264.739990234375,4.002177715301514,3.6821775436401367
1682372414.20039892,101807016,42.6898421,-84.4887317,264.739990234375,4.001460075378418,3.68146014213562
1682372414.30044103,101907058,42.6898415,-84.4887315,264.72998046875,3.9998621940612793,3.6798622608184814
1682372414.40041900,102007036,42.6898408,-84.48873119999999,264.72998046875,3.9995033740997314,3.6795034408569336
1682372414.50052905,102107146,42.6898402,-84.4887309,264.72998046875,3.997678279876709,3.677678346633911
1682372414.60053396,102207151,42.6898396,-84.48873069999999,264.72998046875,3.996852159500122,3.676852226257324
1682372414.70081711,102307434,42.689839,-84.4887304,264.72998046875,3.9959847927093506,3.6759848594665527
1682372414.80053902,102407156,42.6898383,-84.4887301,264.72998046875,3.9975383281707764,3.6775383949279785
1682372414.90023899,102506856,42.6898377,-84.4887298,264.739990234375,4.000778675079346,3.680778741836548
1682372415.00030613,102606923,42.6898371,-84.48872949999999,264.739990234375,4.004769325256348,3.68476939201355
1682372415.10029292,102706910,42.6898366,-84.4887292,264.739990234375,4.008857250213623,3.688857078552246
1682372415.20031810,102806935,42.689836,-84.4887289,264.75,4.013543128967285,3.693542957305908
1682372415.30025506,102906872,42.6898355,-84.4887287,264.75,4.017757415771484,3.6977572441101074
1682372415.40061307,103007230,42.689834999999995,-84.4887285,264.7599792480469,4.020115375518799,3.700115442276001
1682372415.50059795,103107215,42.6898346,-84.4887282,264.7599792480469,4.0204176902771,3.7004175186157227
1682372415.60059810,103207215,42.6898343,-84.4887281,264.7599792480469,4.020989418029785,3.700989246368408
1682372415.70065999,103307277,42.689834,-84.488728,264.7599792480469,4.021859645843506,3.701859712600708
1682372415.80055094,103407168,42.689833799999995,-84.4887279,264.7599792480469,4.024715423583984,3.7047152519226074
1682372415.90049100,103507108,42.6898337,-84.48872779999999,264.7599792480469,4.028726577758789,3.708726406097412
1682372416.00049496,103607112,42.6898337,-84.48872779999999,264.7699890136719,4.032497406005859,3.7124972343444824
1682372416.10051703,103707134,42.6898336,-84.48872779999999,264.7699890136719,4.034817218780518,3.7148170471191406
1682372416.20048714,103807104,42.6898336,-84.48872779999999,264.7699890136719,4.0373430252075195,3.7173428535461426
1682372416.30080605,103907423,42.6898336,-84.48872779999999,264.7699890136719,4.038724422454834,3.718724250793457
1682372416.40059400,104007211,42.6898337,-84.48872779999999,264.7699890136719,4.038938999176025,3.7189390659332275
1682372416.50021195,104106829,42.6898337,-84.48872779999999,264.7699890136719,4.037276268005371,3.717276096343994
1682372416.60028505,104206902,42.6898336,-84.48872779999999,264.7699890136719,4.037351608276367,3.7173514366149902
1682372416.70029211,104306909,42.6898336,-84.48872779999999,264.7699890136719,4.036052703857422,3.716052770614624
1682372416.80034804,104406965,42.6898336,-84.48872779999999,264.7699890136719,4.035519599914551,3.715519428253174
1682372416.90027213,104506889,42.6898335,-84.4887277,264.7699890136719,4.0355048179626465,3.7155046463012695
1682372417.00032091,104606938,42.6898335,-84.4887277,264.7699890136719,4.035869121551514,3.715869188308716
1682372417.10022712,104706844,42.6898334,-84.48872759999999,264.7699890136719,4.031869888305664,3.711869716644287
1682372417.20058703,104807204,42.689833199999995,-84.4887275,264.7599792480469,4.022367477416992,3.7023675441741943
1682372417.30061507,104907232,42.6898329,-84.4887274,264.739990234375,4.0067925453186035,3.6867923736572266
1682372417.40039992,105007017,42.689832599999995,-84.4887273,264.7200012207031,3.98245906829834,3.662459135055542
1682372417.50048900,105107106,42.6898321,-84.4887272,264.67999267578125,3.9448111057281494,3.6248111724853516
1682372417.60042000,105207037,42.6898316,-84.48872709999999,264.6399841308594,3.9022269248962402,3.5822269916534424
1682372417.70045710,105307074,42.689831,-84.488727,264.5899963378906,3.8538835048675537,3.533883571624756
1682372417.80042911,105407046,42.6898304,-84.4887268,264.5400085449219,3.804997682571411,3.4849977493286133
1682372417.90048409,105507101,42.6898299,-84.4887267,264.489990234375,3.757370710372925,3.437370777130127
1682372418.00045300,105607070,42.6898293,-84.48872659999999,264.4499816894531,3.7110345363616943,3.3910346031188965
1682372418.10054302,105707160,42.6898288,-84.48872639999999,264.3999938964844,3.663299083709717,3.343299150466919
1682372418.20054102,105807158,42.6898282,-84.4887262,264.3500061035156,3.6168599128723145,3.2968599796295166
1682372418.30069995,105907317,42.6898276,-84.4887261,264.29998779296875,3.5697073936462402,3.2497074604034424
1682372418.40053105,106007148,42.689827,-84.48872589999999,264.2599792480469,3.5234670639038086,3.2034671306610107
1682372418.50047398,106107091,42.689826499999995,-84.4887258,264.2099914550781,3.4789655208587646,3.158965587615967
1682372418.60047913,106207096,42.689826,-84.48872569999999,264.16998291015625,3.4366698265075684,3.1166698932647705
1682372418.70032597,106306943,42.6898255,-84.4887256,264.1300048828125,3.3967974185943604,3.0767974853515625
1682372418.80029893,106406916,42.6898251,-84.4887255,264.0899963378906,3.3571555614471436,3.0371556282043457
1682372418.90026712,106506884,42.6898248,-84.48872519999999,264.04998779296875,3.316098690032959,2.996098756790161
1682372419.00035501,106606972,42.6898244,-84.48872519999999,264.0099792480469,3.276387929916382,2.956387996673584
1682372419.10026407,106706881,42.6898242,-84.4887251,263.9700012207031,3.237844228744507,2.917844295501709
1682372419.20019603,106806813,42.6898239,-84.4887251,263.94000244140625,3.202083110809326,2.8820831775665283
1682372419.30027699,106906894,42.6898237,-84.488725,263.8999938964844,3.1681766510009766,2.8481767177581787
1682372419.40047503,107007092,42.689823499999996,-84.4887249,263.8699951171875,3.132810354232788,2.8128104209899902
1682372419.50046992,107107087,42.6898233,-84.4887249,263.8299865722656,3.0945286750793457,2.774528741836548
1682372419.60046697,107207084,42.6898232,-84.4887249,263.7900085449219,3.056030511856079,2.7360305786132812
1682372419.70055294,107307170,42.6898231,-84.4887249,263.75,3.0175578594207764,2.6975579261779785
1682372419.80049896,107407116,42.689823,-84.488725,263.7200012207031,2.9805564880371094,2.6605565547943115
1682372419.90060306,107507220,42.689822899999996,-84.4887249,263.67999267578125,2.945080041885376,2.625080108642578
1682372420.00064802,107607265,42.689822799999995,-84.4887249,263.6399841308594,2.908266544342041,2.588266611099243
1682372420.10058093,107707198,42.6898227,-84.4887249,263.6000061035156,2.8699419498443604,2.5499420166015625
1682372420.20055103,107807168,42.6898226,-84.4887249,263.57000732421875,2.8318750858306885,2.5118751525878906
1682372420.30048704,107907104,42.6898226,-84.4887249,263.5299987792969,2.7948718070983887,2.474871873855591
1682372420.40047503,108007092,42.6898226,-84.4887249,263.489990234375,2.756225109100342,2.436225175857544
1682372420.50047302,108107090,42.6898226,-84.4887248,263.4499816894531,2.7158362865448,2.395836353302002
1682372420.60050893,108207126,42.6898225,-84.4887248,263.4100036621094,2.675882339477539,2.355882406234741
1682372420.70053411,108307151,42.6898225,-84.4887248,263.3699951171875,2.6378297805786133,2.3178298473358154
1682372420.80058599,108407203,42.6898225,-84.4887248,263.3299865722656,2.5994551181793213,2.2794551849365234
1682372420.90060306,108507220,42.6898225,-84.48872469999999,263.2900085449219,2.5593061447143555,2.2393062114715576
1682372421.00035405,108606971,42.6898226,-84.48872469999999,263.25,2.5195517539978027,2.199551820755005
1682372421.10028696,108706904,42.6898226,-84.48872469999999,263.2099914550781,2.4792745113372803,2.1592745780944824
1682372421.20024896,108806866,42.6898226,-84.4887246,263.17999267578125,2.44048810005188,2.120488166809082
1682372421.30028510,108906902,42.6898226,-84.4887246,263.1399841308594,2.4063539505004883,2.0863540172576904
1682372421.40026593,109006883,42.6898226,-84.4887246,263.1000061035156,2.369839906692505,2.049839973449707
1682372421.50049210,109107109,42.6898226,-84.48872449999999,263.05999755859375,2.3262720108032227,2.006272077560425
1682372421.60044813,109207065,42.6898226,-84.48872449999999,263.0199890136719,2.2850027084350586,1.9650026559829712
1682372421.70058703,109307204,42.6898226,-84.4887244,262.97998046875,2.2445058822631836,1.9245059490203857
1682372421.80054498,109407162,42.6898227,-84.4887244,262.94000244140625,2.205386161804199,1.8853862285614014
1682372421.90046096,109507078,42.6898227,-84.4887244,262.9100036621094,2.1718807220458984,1.8518807888031006
1682372422.00047302,109607090,42.6898227,-84.4887243,262.8699951171875,2.1360538005828857,1.816053867340088
1682372422.10046005,109707077,42.6898227,-84.4887243,262.8299865722656,2.0978739261627197,1.7778738737106323
1682372422.20043707,109807054,42.689822799999995,-84.4887243,262.7900085449219,2.0580368041992188,1.738036870956421
1682372422.30043697,109907054,42.6898227,-84.4887243,262.75,2.0160937309265137,1.6960937976837158
1682372422.40057898,110007196,42.6898227,-84.4887242,262.7099914550781,1.974884271621704,1.6548842191696167
1682372422.50022006,110106837,42.6898227,-84.4887242,262.66998291015625,1.9316282272338867,1.6116282939910889
1682372422.60027313,110206890,42.6898227,-84.4887242,262.6199951171875,1.8899223804473877,1.5699224472045898
1682372422.70032811,110306945,42.6898227,-84.4887241,262.5899963378906,1.852161169052124,1.5321611166000366
1682372422.80022097,110406838,42.689822799999995,-84.4887241,262.54998779296875,1.814199447631836,1.494199514389038
1682372422.90023708,110506854,42.689822799999995,-84.4887241,262.5099792480469,1.7752017974853516,1.4552018642425537
1682372423.00026393,110606881,42.689822799999995,-84.4887241,262.4700012207031,1.7354393005371094,1.4154393672943115
1682372423.10035396,110706971,42.689822799999995,-84.4887241,262.42999267578125,1.693288803100586,1.3732887506484985
1682372423.20028806,110806905,42.689822799999995,-84.48872399999999,262.3899841308594,1.6519567966461182,1.3319567441940308
1682372423.30035210,110906969,42.689822799999995,-84.48872399999999,262.3500061035156,1.6112418174743652,1.2912417650222778
1682372423.40049005,111007107,42.689822799999995,-84.48872399999999,262.30999755859375,1.571031093597412,1.2510311603546143
1682372423.50059605,111107213,42.689822799999995,-84.4887241,262.2699890136719,1.5324387550354004,1.2124388217926025
1682372423.60060596,111207223,42.689822799999995,-84.4887241,262.239990234375,1.500502347946167,1.1805022954940796
1682372423.70063496,111307252,42.689822799999995,-84.4887241,262.2099914550781,1.477808952331543,1.1578090190887451
1682372423.80057502,111407192,42.689822799999995,-84.4887241,262.1999816894531,1.4623217582702637,1.1423217058181763
1682372423.90048003,111507097,42.689822799999995,-84.48872399999999,262.19000244140625,1.45247220993042,1.132472276687622
1682372424.00056195,111607179,42.689822799999995,-84.4887241,262.17999267578125,1.4453723430633545,1.125372290611267
1682372424.10048604,111707103,42.689822799999995,-84.4887241,262.16998291015625,1.433814525604248,1.1138144731521606
1682372424.20056009,111807177,42.689822799999995,-84.4887241,262.1600036621094,1.4248170852661133,1.1048171520233154
1682372424.30025196,111906869,42.689822799999995,-84.4887241,262.1499938964844,1.4184470176696777,1.0984470844268799
1682372424.40025091,112006868,42.689822799999995,-84.4887241,262.1499938964844,1.4123585224151611,1.0923584699630737
1682372424.50023794,112106855,42.689822799999995,-84.48872399999999,262.1399841308594,1.4062840938568115,1.0862841606140137
1682372424.60021901,112206836,42.689822899999996,-84.48872399999999,262.1399841308594,1.400404453277588,1.0804044008255005
1682372424.70034409,112306961,42.689822899999996,-84.48872399999999,262.1300048828125,1.3941924571990967,1.0741924047470093
1682372424.80024695,112406864,42.689822899999996,-84.48872399999999,262.1199951171875,1.3864390850067139,1.0664390325546265
1682372424.90029097,112506908,42.689823,-84.48872399999999,262.1099853515625,1.376427173614502,1.0564271211624146
1682372425.00029492,112606912,42.689823,-84.48872399999999,262.1000061035156,1.3635661602020264,1.0435662269592285
1682372425.10052013,112707137,42.689823,-84.4887239,262.0799865722656,1.3478221893310547,1.0278221368789673
1682372425.20054603,112807163,42.689823,-84.4887239,262.07000732421875,1.3339989185333252,1.0139989852905273
1682372425.30057693,112907194,42.689823,-84.4887239,262.05999755859375,1.3221261501312256,1.0021260976791382
1682372425.40049100,113007108,42.689823,-84.4887239,262.04998779296875,1.310956597328186,0.9909566044807434
1682372425.50040412,113107021,42.689823,-84.4887239,262.0400085449219,1.302768588066101,0.9827685952186584
1682372425.60050797,113207125,42.689823,-84.4887239,262.0299987792969,1.2944239377975464,0.9744239449501038
1682372425.70045209,113307069,42.689823,-84.4887239,262.0199890136719,1.285017490386963,0.9650174975395203
1682372425.80046296,113407080,42.689823,-84.4887239,262.0099792480469,1.2739766836166382,0.9539766907691956
1682372425.90046906,113507086,42.689823,-84.4887239,262.0,1.2622556686401367,0.9422556757926941
1682372426.00052309,113607140,42.689823,-84.4887239,261.989990234375,1.2509403228759766,0.9309403300285339
1682372426.10022092,113706838,42.689822899999996,-84.4887239,261.9700012207031,1.2385836839675903,0.9185836911201477
1682372426.20026803,113806885,42.689822899999996,-84.4887239,261.9599914550781,1.2272539138793945,0.9072539210319519
1682372426.30031300,113906930,42.689822899999996,-84.48872399999999,261.9499816894531,1.217132806777954,0.8971328139305115
1682372426.40020704,114006824,42.689822799999995,-84.48872399999999,261.94000244140625,1.2061736583709717,0.886173665523529
1682372426.50023794,114106855,42.689822799999995,-84.48872399999999,261.92999267578125,1.1930522918701172,0.8730522990226746
1682372426.60026097,114206878,42.689822799999995,-84.48872399999999,261.9100036621094,1.1795878410339355,0.8595878481864929
1682372426.70033002,114306947,42.689822799999995,-84.48872399999999,261.8999938964844,1.1643288135528564,0.8443288207054138
1682372426.80047107,114407088,42.6898227,-84.48872399999999,261.8899841308594,1.15024995803833,0.8302499651908875
1682372426.90050292,114507120,42.6898227,-84.48872399999999,261.8699951171875,1.1361638307571411,0.8161638379096985
1682372427.00050092,114607118,42.6898227,-84.48872399999999,261.8599853515625,1.1216140985488892,0.8016141057014465
1682372427.10058904,114707206,42.6898227,-84.48872399999999,261.8399963378906,1.1038366556167603,0.7838366627693176
1682372427.20059705,114807214,42.6898226,-84.48872399999999,261.82000732421875,1.086021900177002,0.7660219073295593
1682372427.30062294,114907240,42.6898226,-84.48872399999999,261.79998779296875,1.0684200525283813,0.7484200596809387
1682372427.40054703,115007164,42.6898226,-84.48872399999999,261.7900085449219,1.0547899007797241,0.7347899079322815
1682372427.50048995,115107107,42.6898226,-84.48872399999999,261.7799987792969,1.0431981086730957,0.7231981158256531
1682372427.60047412,115207091,42.6898226,-84.48872399999999,261.7699890136719,1.0330345630645752,0.7130345702171326
1682372427.70033598,115306953,42.6898226,-84.48872399999999,261.7599792480469,1.0211049318313599,0.7011049389839172
1682372427.80031204,115406929,42.6898226,-84.4887239,261.75,1.01051664352417,0.6905166506767273
1682372427.90021706,115506834,42.6898226,-84.4887239,261.72998046875,0.9998750686645508,0.6798750758171082
1682372428.00033903,115606956,42.6898226,-84.4887239,261.72998046875,0.9903156757354736,0.670315682888031
1682372428.10024810,115706865,42.6898226,-84.4887239,261.7099914550781,0.9793282747268677,0.659328281879425
1682372428.20022702,115806844,42.6898225,-84.4887239,261.7099914550781,0.9700262546539307,0.650026261806488
1682372428.30022907,115906846,42.6898225,-84.4887239,261.69000244140625,0.9581903219223022,0.6381903290748596
1682372428.40033102,116006948,42.6898225,-84.48872399999999,261.67999267578125,0.948131799697876,0.6281318068504333
1682372428.50027800,116106895,42.6898225,-84.48872399999999,261.67999267578125,0.9401894807815552,0.6201894879341125
1682372428.60028100,116206898,42.6898225,-84.48872399999999,261.66998291015625,0.93425452709198,0.6142545342445374
1682372428.70055199,116307169,42.6898226,-84.48872399999999,261.6600036621094,0.9281986951828003,0.6081987023353577
1682372428.80045009,116407067,42.6898226,-84.48872399999999,261.6600036621094,0.9226101636886597,0.602610170841217
1682372428.90052795,116507145,42.6898225,-84.4887241,261.6499938964844,0.9166802167892456,0.596680223941803
1682372429.00054693,116607164,42.6898225,-84.4887241,261.6499938964844,0.9109511375427246,0.590951144695282
1682372429.10039902,116707016,42.6898225,-84.4887242,261.6399841308594,0.9047130346298218,0.5847130417823792
1682372429.20047307,116807090,42.6898225,-84.4887242,261.6300048828125,0.8986126184463501,0.5786126255989075
1682372429.30043912,116907056,42.6898225,-84.4887242,261.6300048828125,0.8903791904449463,0.5703791975975037
1682372429.40047002,117007087,42.6898224,-84.4887243,261.6199951171875,0.8819351196289062,0.5619351267814636
1682372429.50041914,117107036,42.6898224,-84.4887243,261.6099853515625,0.8726720809936523,0.5526720881462097
1682372429.60050297,117207120,42.6898224,-84.4887243,261.6000061035156,0.8637350797653198,0.5437350869178772
1682372429.70052814,117307145,42.6898224,-84.4887243,261.5899963378906,0.8545594215393066,0.534559428691864
1682372429.80057907,117407196,42.6898224,-84.4887243,261.5799865722656,0.8466829061508179,0.5266829133033752
1682372429.90059209,117507209,42.6898224,-84.4887243,261.57000732421875,0.8391952514648438,0.5191952586174011
1682372430.00022292,117606840,42.6898224,-84.4887243,261.57000732421875,0.8307557106018066,0.510755717754364
1682372430.10023308,117706850,42.6898224,-84.4887243,261.55999755859375,0.8222736120223999,0.5022736191749573
1682372430.20026112,117806878,42.689822299999996,-84.4887243,261.54998779296875,0.8143885135650635,0.49438852071762085
1682372430.30031013,117906927,42.689822299999996,-84.4887243,261.5400085449219,0.8043398857116699,0.4843398928642273
1682372430.40028906,118006906,42.689822299999996,-84.4887243,261.5299987792969,0.7922461032867432,0.47224611043930054
1682372430.50036311,118106980,42.689822299999996,-84.4887243,261.5099792480469,0.7784780263900757,0.45847803354263306
1682372430.60023403,118206851,42.689822299999996,-84.4887244,261.5,0.7665036916732788,0.4465036988258362
1682372430.70036411,118306981,42.689822299999996,-84.4887244,261.489990234375,0.7558330297470093,0.43583303689956665
1682372430.80027413,118406891,42.689822299999996,-84.4887244,261.47998046875,0.7458902597427368,0.4258902668952942
1682372430.90054607,118507163,42.689822299999996,-84.4887244,261.4700012207031,0.7352025508880615,0.4152025580406189
