timestamp,TimeUS,C,Q1,Q2,Q3,Q4
1682372376.39938593,64006003,2,0.06976339221000671,0.002564134541898966,0.007350089494138956,-0.9975332021713257
1682372376.49938107,64105998,2,0.06971986591815948,0.0026215945836156607,0.007297932635992765,-0.9975364804267883
1682372376.59937692,64205994,2,0.06972566246986389,0.0026284020859748125,0.007330877240747213,-0.9975358247756958
1682372376.69943714,64306054,2,0.06976278126239777,0.0025966819375753403,0.007307932246476412,-0.9975334405899048
1682372376.79940891,64406026,2,0.06975946575403214,0.002527127740904689,0.007246424909681082,-0.9975343346595764
1682372376.89946604,64506083,2,0.06974191963672638,0.00255800923332572,0.007237722165882587,-0.9975355267524719
1682372376.99947095,64606088,2,0.06973346322774887,0.002541291993111372,0.00728186359629035,-0.9975358247756958
1682372377.09942508,64706042,2,0.06972929835319519,0.002572424942627549,0.007300765719264746,-0.9975359439849854
1682372377.19938493,64806002,2,0.06972609460353851,0.0026170494966208935,0.007289040833711624,-0.9975361227989197
1682372377.29937696,64905994,2,0.06978682428598404,0.0026294069830328226,0.00733916787430644,-0.9975314736366272
1682372377.39937496,65005992,2,0.06980036944150925,0.002619712380692363,0.00738930981606245,-0.9975301623344421
1682372377.49937510,65105992,2,0.06984513252973557,0.0026411910075694323,0.007429536897689104,-0.9975267052650452
1682372377.59944201,65206059,2,0.06990831345319748,0.002674958435818553,0.007447913754731417,-0.9975220561027527
1682372377.69942212,65306039,2,0.06993583589792252,0.0026892847381532192,0.00750100938603282,-0.9975196719169617
1682372377.79945707,65406074,2,0.06994008272886276,0.0026768657844513655,0.007548399735242128,-0.9975190162658691
1682372377.89943600,65506053,2,0.06995981931686401,0.0026854046154767275,0.0075851441361010075,-0.9975173473358154
1682372377.99943304,65606050,2,0.06992479413747787,0.0027092823293060064,0.007601588498800993,-0.9975196123123169
1682372378.09942412,65706041,2,0.06994424015283585,0.0027537199202924967,0.007612507790327072,-0.9975180625915527
1682372378.19937205,65805989,2,0.06997639685869217,0.0027528000064194202,0.007632357534021139,-0.9975156784057617
1682372378.29938507,65906002,2,0.06997295469045639,0.0027498339768499136,0.007633513770997524,-0.9975159168243408
1682372378.39938211,66005999,2,0.07000209391117096,0.0027797045186161995,0.007642029318958521,-0.9975137114524841
1682372378.49944091,66106058,2,0.07002730667591095,0.002784621436148882,0.007647763472050428,-0.9975118637084961
1682372378.59942913,66206046,2,0.0700993686914444,0.002799347974359989,0.007635242305696011,-0.997506856918335
1682372378.69946814,66306085,2,0.07020736485719681,0.0027903334703296423,0.007643747143447399,-0.9974992275238037
1682372378.79944611,66406063,2,0.07029387354850769,0.0028225411660969257,0.0076822564005851746,-0.9974927306175232
1682372378.89943600,66506053,2,0.07034993916749954,0.0027886058669537306,0.007705128751695156,-0.9974887371063232
1682372378.99942398,66606041,2,0.07038737088441849,0.0028331326320767403,0.007725325413048267,-0.9974858164787292
1682372379.09938693,66706004,2,0.07047271728515625,0.0028750223573297262,0.007735727820545435,-0.9974795579910278
1682372379.19938111,66805998,2,0.07052391022443771,0.0029221673030406237,0.007741398643702269,-0.9974757432937622
1682372379.29939294,66906010,2,0.07056878507137299,0.0029090484604239464,0.007760210428386927,-0.9974724650382996
1682372379.39945292,67006070,2,0.07062429934740067,0.002931326860561967,0.00781946163624525,-0.9974680542945862
1682372379.49941707,67106034,2,0.07063095271587372,0.0029702545143663883,0.007902966812252998,-0.9974668025970459
1682372379.59947014,67206087,2,0.07076562941074371,0.0029390554409474134,0.007937041111290455,-0.9974570870399475
1682372379.69945407,67306071,2,0.07068652659654617,0.002905610715970397,0.008075588382780552,-0.9974616765975952
1682372379.79943705,67406054,2,0.07065905630588531,0.002920572180300951,0.007994100451469421,-0.9974642395973206
1682372379.89941096,67506028,2,0.07087336480617523,0.0027246749959886074,0.008732193149626255,-0.9974433779716492
1682372379.99938607,67606003,2,0.07059706002473831,0.0014448659494519234,0.012045114301145077,-0.9974311590194702
1682372380.09937811,67705995,2,0.06958017498254776,0.003529820591211319,0.007692659739404917,-0.9975404739379883
1682372380.19937992,67805997,2,0.06835633516311646,0.009832307696342468,-0.013819700106978416,-0.9975168108940125
1682372380.29945207,67906069,2,0.0663200095295906,0.011955729685723782,-0.020009899511933327,-0.9975261092185974
1682372380.39943004,68006047,2,0.06427040696144104,0.010767416097223759,-0.014808079227805138,-0.997764527797699
1682372380.49946094,68106078,2,0.062097929418087006,0.009708358906209469,-0.011306626722216606,-0.997958779335022
1682372380.59946108,68206078,2,0.06001676619052887,0.009623147547245026,-0.005540268030017614,-0.9981356263160706
1682372380.69943714,68306054,2,0.05818719044327736,0.009910998865962029,-0.0016930229030549526,-0.9982550740242004
1682372380.79942298,68406040,2,0.056486912071704865,0.009060337208211422,-0.00129848497454077,-0.9983614087104797
1682372380.89938498,68506002,2,0.05508207157254219,0.008061076514422894,-0.0015234580496326089,-0.9984481334686279
1682372380.99938703,68606004,2,0.05363704636693001,0.007204541936516762,-0.005644694436341524,-0.9985185265541077
1682372381.09937906,68705996,2,0.052477285265922546,0.006073900032788515,-0.009464631788432598,-0.9985588192939758
1682372381.19944906,68806066,2,0.05175642669200897,0.004909012466669083,-0.011239736340939999,-0.9985843896865845
1682372381.29942799,68906045,2,0.051135845482349396,0.005221373867243528,-0.013120558112859726,-0.9985918402671814
1682372381.39946914,69006086,2,0.051072072237730026,0.008573192171752453,-0.01318296417593956,-0.9985711574554443
1682372381.49944091,69106058,2,0.051297370344400406,0.012043574824929237,-0.012764166109263897,-0.9985291957855225
1682372381.59943604,69206053,2,0.05155323073267937,0.01530594751238823,-0.010619825683534145,-0.9984964728355408
1682372381.69941902,69306036,2,0.05211368575692177,0.018035851418972015,-0.008822388015687466,-0.9984393119812012
1682372381.79938698,69406004,2,0.05236227810382843,0.018529711291193962,-0.01069324929267168,-0.9983989596366882
1682372381.89938498,69506002,2,0.052943214774131775,0.018577000126242638,-0.01193084754049778,-0.9983534216880798
1682372381.99938393,69606001,2,0.053407102823257446,0.018739985302090645,-0.014128736220300198,-0.9982969760894775
1682372382.09944105,69706058,2,0.05365581810474396,0.019385671243071556,-0.015571492724120617,-0.9982498288154602
1682372382.19942307,69806040,2,0.05377642437815666,0.01963033713400364,-0.01498426590114832,-0.9982475638389587
1682372382.29946709,69906084,2,0.0538836345076561,0.020626941695809364,-0.015459103509783745,-0.9982144832611084
1682372382.39944696,70006064,2,0.053951095789670944,0.020743349567055702,-0.013866721652448177,-0.9982317686080933
1682372382.49942994,70106047,2,0.053716082125902176,0.021608280017971992,-0.012632116675376892,-0.9982424974441528
1682372382.59941602,70206033,2,0.05357307940721512,0.020729895681142807,-0.012602386996150017,-0.9982692003250122
1682372382.69938111,70305998,2,0.05361540988087654,0.020889954641461372,-0.010803062468767166,-0.9982846975326538
1682372382.79938293,70406000,2,0.053658101707696915,0.02135739102959633,-0.009755251929163933,-0.9982832670211792
1682372382.89938593,70506003,2,0.053995128720998764,0.021419275552034378,-0.008579556830227375,-0.998274564743042
1682372382.99945593,70606073,2,0.05390133336186409,0.021466363221406937,-0.00850438978523016,-0.9982792735099792
1682372383.09941602,70706033,2,0.0539071150124073,0.020983710885047913,-0.009019246324896812,-0.9982846975326538
1682372383.19946098,70806078,2,0.05405475199222565,0.02080899477005005,-0.00905648060142994,-0.9982800483703613
1682372383.29946613,70906083,2,0.05397278815507889,0.021294159814715385,-0.008539941161870956,-0.998278796672821
1682372383.39944196,71006059,2,0.05414005368947983,0.022608594968914986,-0.006657647434622049,-0.99825519323349
1682372383.49940896,71106026,2,0.05445963144302368,0.023470403626561165,-0.005043710116297007,-0.9982273578643799
1682372383.59938407,71206001,2,0.055139947682619095,0.021430211141705513,-0.005200874526053667,-0.9982351064682007
1682372383.69937611,71305993,2,0.05571549013257027,0.01972983591258526,-0.005511974450200796,-0.9982365369796753
1682372383.79938507,71406002,2,0.056669484823942184,0.018247922882437706,-0.005061769392341375,-0.9982134103775024
1682372383.89945698,71506074,2,0.05745697766542435,0.017948266118764877,-0.004593812860548496,-0.9981760382652283
1682372383.99941707,71606034,2,0.058176301419734955,0.01909167878329754,-0.00495389336720109,-0.9981114864349365
1682372384.09946895,71706086,2,0.05889168754220009,0.019638672471046448,-0.005456150509417057,-0.9980562925338745
1682372384.19944501,71806062,2,0.05919642746448517,0.018687421455979347,-0.006680406164377928,-0.9980490803718567
1682372384.29943609,71906053,2,0.05952131003141403,0.017117232084274292,-0.007186774630099535,-0.9980543851852417
1682372384.39943004,72006047,2,0.05979027971625328,0.016905393451452255,-0.005425918847322464,-0.9980530738830566
1682372384.49938393,72106001,2,-0.05828554555773735,-0.01678384281694889,0.00510364631190896,0.9981458187103271
1682372384.59939313,72206010,2,-0.05788109824061394,-0.015540270134806633,0.004822113085538149,0.9981908798217773
1682372384.69938207,72305999,2,-0.057394448667764664,-0.01465851441025734,0.004658189602196217,0.9982330799102783
1682372384.79944706,72406064,2,-0.05701059475541115,-0.01519974134862423,0.005487895105034113,0.9982427954673767
1682372384.89943004,72506047,2,-0.05698585510253906,-0.015023699030280113,0.005356611683964729,0.9982475638389587
1682372384.99947691,72606094,2,-0.05656979978084564,-0.01394240465015173,0.0052338168025016785,0.998287558555603
1682372385.09944105,72706058,2,-0.05733528733253479,-0.012102950364351273,0.005553256720304489,0.9982661604881287
1682372385.19943309,72806050,2,-0.05768295004963875,-0.012064156122505665,0.006452255416661501,0.9982411861419678
1682372385.29941297,72906030,2,-0.059434834867715836,-0.01160608883947134,0.00717524066567421,0.9981389045715332
1682372385.39938307,73006000,2,-0.06097792461514473,-0.013592977076768875,0.007692707236856222,0.998016893863678
1682372385.49937701,73105994,2,-0.062203679233789444,-0.01575876958668232,0.007350160274654627,0.9979119896888733
1682372385.59939194,73206009,2,-0.06358125060796738,-0.01565391570329666,0.008781247772276402,0.9978152513504028
1682372385.69944906,73306066,2,-0.06558143347501755,-0.015148567035794258,0.00971948355436325,0.997684895992279
1682372385.79941297,73406030,2,-0.06784261018037796,-0.01481552328914404,0.009694790467619896,0.9975389242172241
1682372385.89947200,73506089,2,-0.0693928524851799,-0.014454355463385582,0.00874781608581543,0.9974463582038879
1682372385.99947000,73606087,2,-0.0707937702536583,-0.014399658888578415,0.009534772485494614,0.9973414540290833
1682372386.09943795,73706055,2,-0.07170993089675903,-0.013667969964444637,0.010454385541379452,0.9972770810127258
1682372386.19942808,73806045,2,-0.0726161003112793,-0.012731112539768219,0.010426760651171207,0.9972242116928101
1682372386.29938507,73906002,2,-0.07436186075210571,-0.012489343993365765,0.010443235747516155,0.997098445892334
1682372386.39937997,74005997,2,-0.07621631771326065,-0.014045067131519318,0.010308340191841125,0.9969390630722046
1682372386.49937892,74105996,2,-0.07672363519668579,-0.016055559739470482,0.009789935313165188,0.9968750476837158
1682372386.59944701,74206064,2,-0.07716400921344757,-0.014516584575176239,0.01156762894243002,0.9968456029891968
1682372386.69942999,74306047,2,-0.07754513621330261,-0.01240795198827982,0.01457486767321825,0.9968050718307495
1682372386.79946113,74406078,2,-0.07835796475410461,-0.012202559970319271,0.015363465994596481,0.996732234954834
1682372386.89945292,74506070,2,-0.07974212616682053,-0.01268908940255642,0.014405900612473488,0.9966306686401367
1682372386.99944210,74606059,2,-0.08120071142911911,-0.014447846449911594,0.011838763020932674,0.9965227246284485
1682372387.09941912,74706036,2,-0.0825064554810524,-0.016126137226819992,0.009746246039867401,0.9964123964309692
1682372387.19937611,74805993,2,-0.08389119803905487,-0.017223523929715157,0.008862996473908424,0.9962866306304932
1682372387.29938793,74906005,2,-0.0844205915927887,-0.01823454722762108,0.008308419957756996,0.9962286949157715
1682372387.39938307,75006000,2,-0.08498845994472504,-0.01726863905787468,0.009548804722726345,0.9961864948272705
1682372387.49946594,75106083,2,-0.08521212637424469,-0.014317558147013187,0.010267670266330242,0.996207058429718
1682372387.59942603,75206043,2,-0.08544482290744781,-0.009737450629472733,0.008835112676024437,0.9962561726570129
1682372387.69947004,75306087,2,-0.08515376597642899,-0.003897638525813818,0.007491476833820343,0.996332049369812
1682372387.79947495,75406092,2,-0.08370790630578995,0.002764906035736203,0.004595440812408924,0.996475875377655
1682372387.89942908,75506046,2,-0.0798320323228836,0.00879793893545866,0.0019087085966020823,0.9967676997184753
1682372387.99941397,75606031,2,-0.07270625978708267,0.0148495277389884,-0.0004848295357078314,0.9972427487373352
1682372388.09939194,75706009,2,-0.06094272807240486,0.01900564320385456,-0.002909317146986723,0.9979560375213623
1682372388.19938111,75805998,2,-0.04471268877387047,0.02198966220021248,-0.0030103963799774647,0.9987533092498779
1682372388.29938197,75905999,2,-0.02440057322382927,0.024000877514481544,-0.002724422374740243,0.9994103908538818
1682372388.39944601,76006063,2,-0.0020760679617524147,0.024425538256764412,-0.002208222635090351,0.9996970295906067
1682372388.49941492,76106032,2,0.021901864558458328,0.022916622459888458,0.0005076282541267574,0.9994972944259644
1682372388.59946895,76206086,2,0.04570355266332626,0.018871089443564415,0.004829472862184048,0.9987651109695435
1682372388.69947195,76306089,2,0.07191038131713867,0.0132290069013834,0.008815167471766472,0.9972844123840332
1682372388.79943514,76406052,2,0.09764933586120605,0.005806302651762962,0.014127855189144611,0.995103657245636
1682372388.89942312,76506040,2,0.12402907758951187,-0.0010864553041756153,0.018008315935730934,0.9921145439147949
1682372388.99939108,76606008,2,0.14901970326900482,-0.006028695497661829,0.019915027543902397,0.9886152744293213
1682372389.09939098,76706008,2,0.1734093576669693,-0.01057898998260498,0.021895132958889008,0.9845495820045471
1682372389.19938397,76806001,2,0.19458362460136414,-0.01421580370515585,0.023304086178541183,0.9805060029029846
1682372389.29946208,76906079,2,0.213358536362648,-0.017214251682162285,0.024916190654039383,0.9765044450759888
1682372389.39943695,77006054,2,0.22892998158931732,-0.018433885648846626,0.025070924311876297,0.9729453921318054
1682372389.49947810,77106095,2,0.24200116097927094,-0.018404768779873848,0.022661074995994568,0.9698366522789001
1682372389.59946704,77206084,2,0.2521594762802124,-0.016207534819841385,0.021830584853887558,0.9673036336898804
1682372389.69943810,77306055,2,0.259843647480011,-0.014621121808886528,0.01966053619980812,0.9653398394584656
1682372389.79941893,77406036,2,0.2650848925113678,-0.01419774442911148,0.017348263412714005,0.9639644622802734
1682372389.89937997,77505997,2,0.2683570086956024,-0.014360764995217323,0.014254008419811726,0.9631069898605347
1682372389.99939513,77606012,2,0.2695067822933197,-0.014189847745001316,0.012586233206093311,0.9628116488456726
1682372390.09937692,77705994,2,0.268839955329895,-0.013796409592032433,0.01142047718167305,0.9630183577537537
1682372390.19943500,77806052,2,0.26650723814964294,-0.01367862056940794,0.00989576242864132,0.9636850357055664
1682372390.29942203,77906039,2,0.263441264629364,-0.013500756584107876,0.00983379501849413,0.9645308256149292
1682372390.39947295,78006090,2,0.25893524289131165,-0.013685199432075024,0.009219159372150898,0.9657537341117859
1682372390.49944091,78106058,2,0.2534385919570923,-0.01452083233743906,0.009081407450139523,0.9671998620033264
1682372390.59943795,78206055,2,0.24690334498882294,-0.014439712278544903,0.008824914693832397,0.9688923358917236
1682372390.69942307,78306040,2,0.23963868618011475,-0.014525113627314568,0.008489212952554226,0.9707163572311401
1682372390.79937601,78405993,2,0.23122748732566833,-0.014355386607348919,0.00859612412750721,0.9727557897567749
1682372390.89938593,78506003,2,0.22192513942718506,-0.013821437954902649,0.007736680097877979,0.9749350547790527
1682372390.99939013,78606007,2,0.21213440597057343,-0.01314497645944357,0.006589114665985107,0.9771298766136169
1682372391.09944201,78706059,2,0.20213563740253448,-0.012550117447972298,0.005326441954821348,0.97926265001297
1682372391.19941497,78806032,2,0.1920095682144165,-0.01201427262276411,0.0034078049939125776,0.9813135862350464
1682372391.29947591,78906093,2,0.18193459510803223,-0.011663715355098248,0.002860520500689745,0.9832372665405273
1682372391.39945006,79006067,2,0.172186017036438,-0.011268500238656998,0.0024523711763322353,0.9849969744682312
1682372391.49943900,79106056,2,0.1627124398946762,-0.010888202115893364,0.002208702964708209,0.986611008644104
1682372391.59943008,79206047,2,0.1539328247308731,-0.009347985498607159,0.002989104948937893,0.9880325794219971
1682372391.69937992,79305997,2,0.14616061747074127,-0.007966899313032627,0.003581312717869878,0.9892222881317139
1682372391.79938793,79406005,2,0.1392786055803299,-0.007921390235424042,0.0026131439954042435,0.9902181029319763
1682372391.89938307,79506000,2,0.13370054960250854,-0.008361763320863247,0.0030760846566408873,0.9909816980361938
1682372391.99945498,79606072,2,0.12926378846168518,-0.010368874296545982,0.0042407517321407795,0.9915469884872437
1682372392.09941792,79706035,2,0.1261473149061203,-0.01235842052847147,0.00609998544678092,0.991915762424469
1682372392.19945908,79806076,2,0.12429563701152802,-0.011171828024089336,0.008161034435033798,0.992148756980896
1682372392.29946613,79906083,2,0.12333240360021591,-0.010043556801974773,0.008882226422429085,0.992274820804596
1682372392.39943314,80006050,2,0.12289256602525711,-0.010129908099770546,0.009126272052526474,0.9923263192176819
1682372392.49941707,80106034,2,0.12314348667860031,-0.009661911986768246,0.00862020906060934,0.9923043847084045
1682372392.59938598,80206003,2,0.12415974587202072,-0.00948104728013277,0.008619774132966995,0.9921795129776001
1682372392.69938612,80306003,2,0.1256392002105713,-0.009537923149764538,0.008407521061599255,0.9919945001602173
1682372392.79937696,80405994,2,0.12779028713703156,-0.008938254788517952,0.00781243946403265,0.9917301535606384
1682372392.89944911,80506066,2,0.13035336136817932,-0.0090329023078084,0.0072364588268101215,0.9914000630378723
1682372392.99942207,80606039,2,0.13302667438983917,-0.009426385164260864,0.007800383027642965,0.9910369515419006
1682372393.09947109,80706088,2,0.1356526017189026,-0.00992121733725071,0.008535880595445633,0.9906700253486633
1682372393.19946694,80806084,2,0.13830068707466125,-0.01362522505223751,0.008335941471159458,0.9902614951133728
1682372393.29943895,80906056,2,0.14117491245269775,-0.0161932073533535,0.008635151199996471,0.9898145794868469
1682372393.39942908,81006046,2,0.14383986592292786,-0.015794876962900162,0.009696923196315765,0.989427387714386
1682372393.49938202,81105999,2,0.14613930881023407,-0.014927329495549202,0.01031589601188898,0.9890975952148438
1682372393.59938598,81206003,2,0.14839805662631989,-0.014479958452284336,0.009658152237534523,0.9887745380401611
1682372393.69939113,81306008,2,0.1506289839744568,-0.01400398463010788,0.009534258395433426,0.9884451627731323
1682372393.79944992,81406067,2,0.15260115265846252,-0.014056222513318062,0.008842580951750278,0.9881483316421509
1682372393.89943194,81506049,2,0.154388889670372,-0.014439528807997704,0.00825376808643341,0.9878701567649841
1682372393.99947095,81606088,2,0.1555546522140503,-0.015619008801877499,0.008606049232184887,0.9876663088798523
1682372394.09942102,81706038,2,0.15657417476177216,-0.015964744612574577,0.008034364320337772,0.9875044822692871
1682372394.19944692,81806064,2,0.15739141404628754,-0.01592177152633667,0.006605314556509256,0.9873858690261841
1682372394.29942608,81906043,2,0.1582510620355606,-0.015206528827548027,0.004404544830322266,0.9872719645500183
1682372394.39938498,82006002,2,0.15849654376506805,-0.014749701134860516,0.0042336140759289265,0.9872402548789978
1682372394.49938393,82106001,2,0.15868791937828064,-0.014298766851425171,0.004390651360154152,0.9872154593467712
1682372394.59938502,82206002,2,0.15825088322162628,-0.013940980657935143,0.004967187996953726,0.9872879981994629
1682372394.69944596,82306063,2,0.1579645574092865,-0.014035786502063274,0.006323631852865219,0.9873247742652893
1682372394.79943895,82406056,2,0.15743106603622437,-0.013905185274779797,0.005866057705134153,0.9874146580696106
1682372394.89946914,82506086,2,0.15651997923851013,-0.01454034075140953,0.006549218203872442,0.9875460267066956
1682372394.99941802,82606035,2,0.15570709109306335,-0.01541808433830738,0.006878626067191362,0.9876589775085449
1682372395.09943199,82706049,2,0.1547607183456421,-0.01601528562605381,0.007026551757007837,0.987797200679779
1682372395.19942307,82806040,2,0.1539771556854248,-0.015537558123469353,0.006663662847131491,0.9879297614097595
1682372395.29938507,82906002,2,0.1536254733800888,-0.01548124197870493,0.006343463901430368,0.9879875183105469
1682372395.39938712,83006004,2,0.15338006615638733,-0.015597419813275337,0.00564980274066329,0.9880279898643494
1682372395.49938297,83106000,2,0.1533370167016983,-0.015755683183670044,0.005672105122357607,0.9880320429801941
1682372395.59944201,83206059,2,0.15355242788791656,-0.015621236525475979,0.006096773315221071,0.9879981875419617
1682372395.69941592,83306033,2,0.15340280532836914,-0.01552879624068737,0.006942279636859894,0.9880173206329346
1682372395.79947305,83406090,2,0.15323659777641296,-0.01524411328136921,0.00849296897649765,0.9880354404449463
1682372395.89948606,83506103,2,0.15328700840473175,-0.015126765705645084,0.009149262681603432,0.988023579120636
1682372395.99943304,83606050,2,0.15316398441791534,-0.01520224567502737,0.010039404965937138,0.9880328178405762
1682372396.09941602,83706033,2,0.15313148498535156,-0.015392654575407505,0.010445867665112019,0.988030731678009
1682372396.19937706,83805994,2,0.15349501371383667,-0.015402213670313358,0.010959047824144363,0.9879686236381531
1682372396.29938006,83905997,2,0.1540771871805191,-0.015494884923100471,0.010975978337228298,0.9878763556480408
1682372396.39940000,84006017,2,0.15456773340702057,-0.014716670848429203,0.010474180802702904,0.9878170490264893
1682372396.49944997,84106067,2,0.15517447888851166,-0.01465894840657711,0.01053257379680872,0.9877221584320068
1682372396.59941792,84206035,2,0.15593965351581573,-0.01461830921471119,0.011878833174705505,0.9875869750976562
1682372396.69947696,84306094,2,0.15676403045654297,-0.0139336958527565,0.011415115557610989,0.9874718189239502
1682372396.79944611,84406063,2,0.1576777547597885,-0.014062712900340557,0.01170810405164957,0.9873210787773132
1682372396.89943194,84506049,2,0.15863557159900665,-0.015071775764226913,0.011972649954259396,0.9871495366096497
1682372396.99942493,84606042,2,0.15964384377002716,-0.015942614525556564,0.01302524097263813,0.9869599938392639
1682372397.09938002,84705997,2,0.16028133034706116,-0.016175342723727226,0.014133837074041367,0.98683762550354
1682372397.19938707,84806004,2,0.16090546548366547,-0.016949104145169258,0.015222727321088314,0.9867068529129028
1682372397.29938412,84906001,2,0.1616670787334442,-0.01663261093199253,0.015958020463585854,0.9865761399269104
1682372397.39944696,85006064,2,0.16197077929973602,-0.01728985644876957,0.015333457849919796,0.9865249395370483
1682372397.49944401,85106061,2,0.1617612987756729,-0.017781877890229225,0.013756416738033295,0.9865738153457642
1682372397.59947014,85206087,2,0.16159892082214355,-0.018258163705468178,0.012406163848936558,0.9866095781326294
1682372397.69945192,85306069,2,0.16108956933021545,-0.01813221350312233,0.01162048988044262,0.9867047667503357
1682372397.79943109,85406048,2,0.16058973968029022,-0.017918510362505913,0.011477652005851269,0.9867918491363525
1682372397.89942503,85506042,2,0.1603485494852066,-0.01710604690015316,0.011662792414426804,0.9868432879447937
1682372397.99938512,85606002,2,0.1601908653974533,-0.016414206475019455,0.012438374571502209,0.9868711829185486
1682372398.09938598,85706003,2,0.16030952334403992,-0.015160994604229927,0.012588749639689922,0.9868700504302979
1682372398.19938302,85806000,2,0.16030201315879822,-0.013752163387835026,0.012784680351614952,0.9868894219398499
1682372398.29945493,85906072,2,0.16034577786922455,-0.013028305023908615,0.012500286102294922,0.986895740032196
1682372398.39943600,86006053,2,0.16020089387893677,-0.01480724848806858,0.012315374799072742,0.9868965148925781
1682372398.49946308,86106080,2,0.15981528162956238,-0.016707763075828552,0.0128515949472785,0.9869218468666077
1682372398.59946203,86206079,2,0.15966719388961792,-0.01882544718682766,0.013772995211184025,0.9868952631950378
1682372398.69943404,86306051,2,0.15939533710479736,-0.019942529499530792,0.014448024332523346,0.9869076609611511
1682372398.79940701,86406024,2,0.1595800817012787,-0.019157836213707924,0.01422195602208376,0.9868966341018677
1682372398.89937997,86505997,2,0.15954509377479553,-0.017718886956572533,0.014447789639234543,0.9869258403778076
1682372398.99939299,86606010,2,0.1598537564277649,-0.017214825376868248,0.014821341261267662,0.986879289150238
1682372399.09940696,86706024,2,0.16017913818359375,-0.01624896563589573,0.014799132011830807,0.9868432283401489
1682372399.19945312,86806070,2,0.16071191430091858,-0.016101641580462456,0.014724395237863064,0.986760139465332
1682372399.29942298,86906040,2,0.16121016442775726,-0.01607932522892952,0.014394756406545639,0.9866840839385986
1682372399.39946914,87006086,2,0.16177761554718018,-0.016541996970772743,0.013428627513349056,0.9865971803665161
1682372399.49944496,87106062,2,0.16229918599128723,-0.01670840196311474,0.01327662356197834,0.9865108132362366
1682372399.59944391,87206061,2,0.16261643171310425,-0.017681509256362915,0.014161153696477413,0.9864292740821838
1682372399.69942594,87306043,2,0.16268299520015717,-0.01760309375822544,0.014327986165881157,0.986417293548584
1682372399.79938293,87406000,2,0.16256171464920044,-0.01661396399140358,0.01386184897273779,0.9864611029624939
1682372399.89938402,87506001,2,0.1621444970369339,-0.01544850505888462,0.013479881919920444,0.9865540266036987
1682372399.99938107,87605998,2,0.1615736186504364,-0.015174965374171734,0.01209668256342411,0.9866698384284973
1682372400.09945607,87706073,2,0.16074062883853912,-0.014378607273101807,0.00996517576277256,0.98684161901474
1682372400.19941592,87806033,2,0.15957896411418915,-0.014804062433540821,0.009324485436081886,0.9870300889015198
1682372400.29947305,87906090,2,0.15845884382724762,-0.015857579186558723,0.007870415225625038,0.9872068762779236
1682372400.39945698,88006074,2,0.1573294997215271,-0.016919182613492012,0.0068435524590313435,0.9873775243759155
1682372400.49942994,88106047,2,0.1561538279056549,-0.01750084199011326,0.0070061516016721725,0.9875528216362
1682372400.59942412,88206041,2,0.15537963807582855,-0.01731371134519577,0.008856491185724735,0.9876633882522583
1682372400.69938993,88306007,2,0.15463604032993317,-0.016992995515465736,0.009949561208486557,0.9877752661705017
1682372400.79938102,88405998,2,0.15402144193649292,-0.016672521829605103,0.011523236520588398,0.9878596067428589
1682372400.89938402,88506001,2,0.15394482016563416,-0.01595357246696949,0.012919570319354534,0.9878661632537842
1682372400.99944901,88606066,2,0.15392546355724335,-0.01459447294473648,0.013874085620045662,0.9878772497177124
1682372401.09941411,88706031,2,0.15384352207183838,-0.013204558752477169,0.014221498742699623,0.9879046082496643
1682372401.19947004,88806087,2,0.15379799902439117,-0.011811180040240288,0.012300379574298859,0.9879551529884338
1682372401.29946709,88906084,2,0.15404315292835236,-0.011077082715928555,0.011584323830902576,0.9879341125488281
1682372401.39944196,89006059,2,0.15401776134967804,-0.010086018592119217,0.011745733208954334,0.9879468083381653
1682372401.49941111,89106028,2,0.15437528491020203,-0.009966373443603516,0.01175575889647007,0.9878920912742615
1682372401.59938812,89206005,2,0.1546897143125534,-0.011284822598099709,0.011745372787117958,0.9878288507461548
1682372401.69938207,89305999,2,0.1549825817346573,-0.012214419431984425,0.010210760869085789,0.9877889156341553
1682372401.79939008,89406007,2,0.15523144602775574,-0.013544903136789799,0.00895637646317482,0.9877446889877319
1682372401.89942813,89506045,2,0.15592524409294128,-0.014780627563595772,0.007994691841304302,0.9876258969306946
1682372401.99943304,89606050,2,0.15677952766418457,-0.014316207729279995,0.008666783571243286,0.9874918460845947
1682372402.09947300,89706090,2,0.15764780342578888,-0.013687911443412304,0.010154906660318375,0.9873483180999756
1682372402.19944906,89806066,2,0.1588088870048523,-0.013259463012218475,0.011816553771495819,0.9871495962142944
1682372402.29943705,89906054,2,0.15953044593334198,-0.012329586781561375,0.013254119083285332,0.9870270490646362
1682372402.39942908,90006046,2,0.16044171154499054,-0.01252059917896986,0.014266874641180038,0.9868627786636353
1682372402.49938703,90106004,2,0.16109946370124817,-0.012419949285686016,0.01362037193030119,0.9867660403251648
1682372402.59938192,90205999,2,0.16165801882743835,-0.01179598830640316,0.013113302178680897,0.9866892099380493
1682372402.69938302,90306000,2,0.1618863344192505,-0.01116370502859354,0.0128452368080616,0.9866626262664795
1682372402.79945302,90406070,2,0.16184601187705994,-0.011565657332539558,0.013991431333124638,0.9866490364074707
1682372402.89942193,90506039,2,0.16156181693077087,-0.012218899093568325,0.013457730412483215,0.9866951704025269
1682372402.99946904,90606086,2,0.16104216873645782,-0.014077327214181423,0.013341818936169147,0.9867569208145142
1682372403.09946012,90706077,2,0.16049247980117798,-0.015426123514771461,0.013752498663961887,0.9868206977844238
1682372403.19944191,90806059,2,0.15984900295734406,-0.01615198701620102,0.0149422911927104,0.9868962168693542
1682372403.29942107,90906038,2,0.15883173048496246,-0.016390612348914146,0.01609695330262184,0.9870383739471436
1682372403.39937711,91005994,2,0.15782904624938965,-0.015554215759038925,0.015703478828072548,0.9872190356254578
1682372403.49938607,91106003,2,0.15655042231082916,-0.01481447834521532,0.015311500988900661,0.9874401688575745
1682372403.59938002,91205997,2,0.1555647999048233,-0.013513311743736267,0.014867214486002922,0.9876213669776917
1682372403.69944096,91306058,2,0.154252827167511,-0.012836967594921589,0.014827587641775608,0.9878367185592651
1682372403.79943395,91406051,2,0.1531323492527008,-0.013124452903866768,0.014363035559654236,0.9880141615867615
1682372403.89945793,91506075,2,0.15207253396511078,-0.013385972939431667,0.013732224702835083,0.9881832599639893
1682372403.99944401,91606061,2,0.15167376399040222,-0.013711228035390377,0.013872708193957806,0.9882381558418274
1682372404.09943604,91706053,2,0.15137432515621185,-0.013834865763783455,0.014399033039808273,0.9882748126983643
1682372404.19941401,91806031,2,0.151570662856102,-0.014128788374364376,0.014852155931293964,0.9882338643074036
1682372404.29938602,91906003,2,0.1520664542913437,-0.015052033588290215,0.014969776384532452,0.9881422519683838
1682372404.39938211,92005999,2,0.1526818424463272,-0.015328850597143173,0.016904180869460106,0.98801189661026
1682372404.49939609,92106013,2,0.1535063236951828,-0.015623008832335472,0.01619197055697441,0.9878914952278137
1682372404.59944510,92206062,2,0.15422920882701874,-0.01668497361242771,0.015523724257946014,0.9877722263336182
1682372404.69942212,92306039,2,0.15484346449375153,-0.017997846007347107,0.015230591408908367,0.9876576662063599
1682372404.79946899,92406086,2,0.15521621704101562,-0.01777273416519165,0.014023141004145145,0.9876210689544678
1682372404.89946914,92506086,2,0.15535959601402283,-0.016943497583270073,0.013908461667597294,0.9876147508621216
1682372404.99943614,92606053,2,0.15532295405864716,-0.01432726625353098,0.013331295922398567,0.9876698851585388
1682372405.09942198,92706039,2,0.15510790050029755,-0.012410006485879421,0.01330435648560524,0.9877299666404724
1682372405.19937706,92805994,2,0.15474122762680054,-0.011750446632504463,0.013052755035459995,0.9877989292144775
1682372405.29938006,92905997,2,0.1544817090034485,-0.012296874076128006,0.012670447118580341,0.9878378510475159
1682372405.39937711,93005994,2,0.1541416198015213,-0.015020996332168579,0.011660266667604446,0.9878657460212708
1682372405.49942112,93106038,2,0.15381062030792236,-0.01629350148141384,0.012022703886032104,0.9878928661346436
1682372405.59941697,93206034,2,0.15364262461662292,-0.01670781895518303,0.013243462890386581,0.9878964424133301
1682372405.69946909,93306086,2,0.15328986942768097,-0.01520521566271782,0.012851113453507423,0.9879807233810425
1682372405.79945302,93406070,2,0.1525856852531433,-0.014035886153578758,0.012907126918435097,0.9881062507629395
1682372405.89942813,93506045,2,0.15189866721630096,-0.01388630736619234,0.013031205162405968,0.9882125854492188
1682372405.99942708,93606044,2,0.15080802142620087,-0.014206998981535435,0.011727730743587017,0.9883913993835449
1682372406.09938097,93705998,2,0.14968706667423248,-0.01566372625529766,0.011802162043750286,0.9885388612747192
1682372406.19938993,93806007,2,0.14859920740127563,-0.015629546716809273,0.010881563648581505,0.9887140989303589
1682372406.29938102,93905998,2,0.14764364063739777,-0.0157601498067379,0.010468567721545696,0.9888596534729004
1682372406.39945292,94006070,2,0.14685218036174774,-0.01613118126988411,0.01144192274659872,0.9889607429504395
1682372406.49942112,94106038,2,0.14608268439769745,-0.01525223720818758,0.012376191094517708,0.9890773892402649
1682372406.59947205,94206089,2,0.1455199271440506,-0.014918818138539791,0.013515847735106945,0.9891505241394043
1682372406.69946694,94306084,2,0.14500626921653748,-0.01482696644961834,0.013504132628440857,0.9892274737358093
1682372406.79943299,94406050,2,0.14461630582809448,-0.01280362531542778,0.013072806410491467,0.9893186092376709
1682372406.89940691,94506024,2,0.14412567019462585,-0.011782473884522915,0.01270163431763649,0.9894077181816101
1682372406.99939203,94606009,2,0.14377470314502716,-0.012204448692500591,0.011269921436905861,0.9894710183143616
1682372407.09938312,94706000,2,0.14374130964279175,-0.01242949441075325,0.009625508449971676,0.9894904494285583
1682372407.19940805,94806025,2,0.1437520831823349,-0.012998796999454498,0.00790050532668829,0.9894968271255493
1682372407.29945493,94906072,2,0.1441005915403366,-0.012962732464075089,0.00820787250995636,0.9894440770149231
1682372407.39944410,95006061,2,0.1445435881614685,-0.012723902240395546,0.008512165397405624,0.9893800020217896
1682372407.49946404,95106081,2,0.14510704576969147,-0.013046919368207455,0.00912399310618639,0.9892878532409668
1682372407.59944391,95206061,2,0.145921528339386,-0.012752094306051731,0.010214148089289665,0.9891612529754639
1682372407.69944596,95306063,2,0.1468181014060974,-0.01220780424773693,0.010141724720597267,0.9890362024307251
1682372407.79943514,95406052,2,0.1477382928133011,-0.012426785193383694,0.01048806682229042,0.9888927936553955
1682372407.89937806,95505995,2,0.14889882504940033,-0.012447577901184559,0.010218753479421139,0.9887213110923767
1682372407.99938703,95606004,2,0.14984208345413208,-0.013046160340309143,0.011070461012423038,0.9885618686676025
1682372408.09938312,95706000,2,0.1507585346698761,-0.014181516133248806,0.011400347575545311,0.9884031414985657
1682372408.19943810,95806055,2,0.15149490535259247,-0.015520356595516205,0.011454408057034016,0.9882698059082031
1682372408.29944801,95906065,2,0.15201061964035034,-0.016111984848976135,0.011445201933383942,0.9881812334060669
1682372408.39946699,96006084,2,0.15205880999565125,-0.016600243747234344,0.01128556951880455,0.9881675839424133
1682372408.49945807,96106075,2,0.15187868475914001,-0.01664743945002556,0.009884919039905071,0.9882094860076904
1682372408.59943104,96206048,2,0.15130914747714996,-0.01629401370882988,0.009249236434698105,0.9883089065551758
1682372408.69943404,96306051,2,0.15044067800045013,-0.016021857038140297,0.008916031569242477,0.988448977470398
1682372408.79938293,96406000,2,0.149466410279274,-0.016000188887119293,0.008368972688913345,0.9886019229888916
1682372408.89938402,96506001,2,0.14839038252830505,-0.015898823738098145,0.00860287994146347,0.9887636303901672
1682372408.99939609,96606013,2,0.14734700322151184,-0.01593584008514881,0.009230703115463257,0.9889134168624878
1682372409.09944606,96706063,2,0.1463087499141693,-0.016147304326295853,0.009518451057374477,0.9890613555908203
1682372409.19941998,96806037,2,0.14543968439102173,-0.016310986131429672,0.01015699002891779,0.9891805052757263
1682372409.29947805,96906095,2,0.14485560357570648,-0.01665518805384636,0.01033451221883297,0.9892586469650269
1682372409.39944792,97006065,2,0.1443454921245575,-0.015959903597831726,0.00991107989102602,0.9893490076065063
1682372409.49943805,97106055,2,0.1443605124950409,-0.015339234843850136,0.009664816781878471,0.9893590807914734
1682372409.59942102,97206038,2,0.14479486644268036,-0.0151209132745862,0.009945389814674854,0.9892961382865906
1682372409.69938612,97306003,2,0.14541095495224,-0.01447224710136652,0.010468126274645329,0.9892101287841797
1682372409.79938793,97406005,2,0.14636565744876862,-0.015138310380280018,0.011016845703125,0.9890533685684204
1682372409.89938807,97506005,2,0.14741121232509613,-0.015687059611082077,0.012486493214964867,0.9888720512390137
1682372409.99944091,97606058,2,0.14861059188842773,-0.015922287479043007,0.012937589548528194,0.9886829853057861
1682372410.09941602,97706033,2,0.14969570934772491,-0.016906531527638435,0.013573916628956795,0.9884943962097168
1682372410.19945908,97806076,2,0.150822252035141,-0.017324039712548256,0.013527235947549343,0.988316535949707
1682372410.29947305,97906090,2,0.1519167125225067,-0.01730257458984852,0.012790331616997719,0.9881590604782104
1682372410.39944196,98006059,2,0.15293516218662262,-0.016365475952625275,0.012873237952589989,0.9880168437957764
1682372410.49941802,98106035,2,0.15396606922149658,-0.01512550562620163,0.012992586940526962,0.9878749251365662
1682372410.59938192,98205999,2,0.1548236757516861,-0.014463427476584911,0.013519776053726673,0.9877437353134155
1682372410.69939709,98306014,2,0.15533672273159027,-0.013819507323205471,0.01446179486811161,0.9876590371131897
1682372410.79937911,98405996,2,0.15588541328907013,-0.01445766817778349,0.01360141672194004,0.9875756502151489
1682372410.89945006,98506067,2,0.1561032086610794,-0.015264919959008694,0.013301399536430836,0.9875332117080688
1682372410.99942899,98606046,2,0.15596632659435272,-0.015834590420126915,0.011528616771101952,0.9875681400299072
1682372411.09946895,98706086,2,0.15531297028064728,-0.015557286329567432,0.008976927027106285,0.9877020120620728
1682372411.19947100,98806088,2,0.1547139585018158,-0.014161539264023304,0.007218166720122099,0.9878314137458801
1682372411.29943609,98906053,2,0.153916597366333,-0.013331144116818905,0.005804937332868576,0.9879768490791321
1682372411.39941907,99006036,2,0.15264974534511566,-0.012257959693670273,0.006139869336038828,0.9881852269172668
1682372411.49938798,99106005,2,0.15158706903457642,-0.013268580660223961,0.008067511953413486,0.9883219003677368
1682372411.59938002,99205997,2,0.1503072828054428,-0.014954564161598682,0.009829849936068058,0.988477349281311
1682372411.69939113,99306008,2,0.14944955706596375,-0.015939360484480858,0.01058825384825468,0.9885841608047485
1682372411.79944611,99406063,2,0.14897769689559937,-0.014783780090510845,0.010575770400464535,0.9886734485626221
1682372411.89941502,99506032,2,0.14879778027534485,-0.013044563122093678,0.010759217664599419,0.9887230396270752
1682372411.99946499,99606082,2,0.14865708351135254,-0.011667651124298573,0.010857140645384789,0.9887603521347046
1682372412.09945703,99706074,2,0.14884527027606964,-0.010911654680967331,0.011357877403497696,0.9887350797653198
1682372412.19943500,99806052,2,0.1489327996969223,-0.011125772260129452,0.011218525469303131,0.9887210726737976
1682372412.29941201,99906029,2,0.14890553057193756,-0.012132127769291401,0.011605218052864075,0.9887089133262634
1682372412.39938092,100005998,2,0.14894141256809235,-0.012835187837481499,0.011678819544613361,0.9886937737464905
1682372412.49938607,100106003,2,0.14896361529827118,-0.012820624746382236,0.012264437042176723,0.9886835217475891
1682372412.59938002,100205997,2,0.148738831281662,-0.011656584218144417,0.01332151424139738,0.9887180924415588
1682372412.69944501,100306062,2,0.14840611815452576,-0.01127858180552721,0.014560004696249962,0.9887549877166748
1682372412.79941392,100406031,2,0.14792805910110474,-0.011403796263039112,0.01573372259736061,0.988807201385498
1682372412.89946699,100506084,2,0.147333562374115,-0.012495278380811214,0.015431557781994343,0.9888875484466553
1682372412.99947500,100606092,2,0.1463220715522766,-0.014897688291966915,0.013545677997171879,0.9890320897102356
1682372413.09944010,100706057,2,0.14519047737121582,-0.016316773369908333,0.012556016445159912,0.9891895055770874
1682372413.19942403,100806041,2,0.14391319453716278,-0.017822537571191788,0.010928594507277012,0.9893694519996643
1682372413.29938006,100905997,2,0.14254926145076752,-0.017918242141604424,0.00931428000330925,0.9895816445350647
1682372413.39937901,101005996,2,0.14114758372306824,-0.01665305346250534,0.009472274221479893,0.9898031949996948
1682372413.49937892,101105996,2,0.13960149884223938,-0.015852734446525574,0.010210998356342316,0.9900282025337219
1682372413.59944105,101206058,2,0.13804110884666443,-0.015284528024494648,0.010885355994105339,0.9902487397193909
1682372413.69942594,101306043,2,0.13651110231876373,-0.015393647365272045,0.010257689282298088,0.9904658198356628
1682372413.79947114,101406088,2,0.1348942667245865,-0.015423277392983437,0.008735359646379948,0.99070143699646
1682372413.89945793,101506075,2,0.13334451615810394,-0.014890068210661411,0.007410293910652399,0.9909301996231079
1682372413.99943900,101606056,2,0.13199898600578308,-0.014132699929177761,0.006415402516722679,0.9911283254623413
1682372414.09942698,101706044,2,0.1306765377521515,-0.013106890954077244,0.0062731290236115456,0.9913185834884644
1682372414.19937706,101805994,2,0.12929889559745789,-0.012579442001879215,0.0073173921555280685,0.9914988875389099
1682372414.29938197,101905999,2,0.12808126211166382,-0.012777291238307953,0.006654444150626659,0.9916590452194214
1682372414.39938593,102006003,2,0.1269715428352356,-0.013094769790768623,0.006452601868659258,0.9917989373207092
1682372414.49944806,102106065,2,0.12599104642868042,-0.013863440603017807,0.0060962652787566185,0.991915762424469
1682372414.59942198,102206039,2,0.12498485296964645,-0.01445028930902481,0.005584228318184614,0.9920377135276794
1682372414.69947696,102306094,2,0.12455669790506363,-0.01457956712692976,0.005330307874828577,0.9920910596847534
1682372414.79943991,102406057,2,0.12433692812919617,-0.014958785846829414,0.006176389753818512,0.9921080470085144
1682372414.89943504,102506052,2,0.12423982471227646,-0.016293013468384743,0.007174601778388023,0.992092490196228
1682372414.99942303,102606040,2,0.12432866543531418,-0.019405122846364975,0.008811461739242077,0.9920122027397156
1682372415.09938502,102706002,2,0.12466570734977722,-0.024639155715703964,0.010420167818665504,0.9918380975723267
1682372415.19938397,102806001,2,0.12502454221248627,-0.03076496161520481,0.011267604306340218,0.9916125535964966
1682372415.29938197,102905999,2,0.12556500732898712,-0.03708125650882721,0.012414571829140186,0.9913144111633301
1682372415.39944506,103006062,2,0.1262015402317047,-0.04290428385138512,0.013942590914666653,0.9909783005714417
1682372415.49941301,103106030,2,0.1267920285463333,-0.04832727089524269,0.014498651027679443,0.9906452894210815
1682372415.59946394,103206081,2,0.12727153301239014,-0.052390143275260925,0.01522027887403965,0.9903663992881775
1682372415.69947314,103306090,2,0.12787069380283356,-0.05390254035592079,0.015267192386090755,0.990207314491272
1682372415.79943895,103406056,2,0.12851233780384064,-0.051827821880578995,0.01453426107764244,0.990246057510376
1682372415.89942193,103506039,2,0.1292591243982315,-0.04861617460846901,0.014157745987176895,0.990317165851593
1682372415.99938703,103606004,2,0.12997300922870636,-0.04321669414639473,0.013133438304066658,0.9904881715774536
1682372416.09938192,103705999,2,0.13090462982654572,-0.03603813424706459,0.012069695629179478,0.9906662106513977
1682372416.19937611,103805993,2,0.13152502477169037,-0.02910054475069046,0.010986867360770702,0.9908246994018555
1682372416.29944611,103906063,2,0.13211998343467712,-0.022074805572628975,0.010119615122675896,0.9909362196922302
1682372416.39943004,104006047,2,0.13248801231384277,-0.017086917534470558,0.009349998086690903,0.9909932017326355
1682372416.49946809,104106085,2,0.1332211047410965,-0.012577700428664684,0.008439678698778152,0.9909706115722656
1682372416.59946609,104206083,2,0.13372740149497986,-0.010163991712033749,0.007624696008861065,0.9909366965293884
1682372416.69943500,104306052,2,0.13440705835819244,-0.00943528488278389,0.007251400500535965,0.9908547401428223
1682372416.79942298,104406040,2,0.13526462018489838,-0.012872361578047276,0.005474190693348646,0.9907107353210449
1682372416.89938307,104506000,2,0.13606515526771545,-0.01808757707476616,0.005941865965723991,0.9905169606208801
1682372416.99939299,104606010,2,0.13708418607711792,-0.010263161733746529,0.00922274962067604,0.9904633164405823
1682372417.09937906,104705996,2,0.13857728242874146,0.017001895233988762,0.013914692215621471,0.9901078939437866
1682372417.19944191,104806059,2,0.1401192992925644,0.04930993914604187,0.018887469545006752,0.9887256026268005
1682372417.29943705,104906054,2,0.14127221703529358,0.05671444907784462,0.021460112184286118,0.9881119132041931
1682372417.39946914,105006086,2,0.14222003519535065,0.042851291596889496,0.021202776581048965,0.9886797666549683
1682372417.49945712,105106074,2,0.1433487981557846,0.023650288581848145,0.018755894154310226,0.9892117977142334
1682372417.59943509,105206052,2,0.1442321389913559,0.005605306476354599,0.014975163154304028,0.9894146919250488
1682372417.69941306,105306030,2,0.14525634050369263,-0.004794498905539513,0.013040101155638695,0.9892964959144592
1682372417.79938197,105405999,2,0.14618881046772003,-0.007870383560657501,0.013275859877467155,0.9891363382339478
1682372417.89938402,105506001,2,0.1472681760787964,-0.007942823693156242,0.013569442555308342,0.9889715909957886
1682372417.99938607,105606003,2,0.14829222857952118,-0.005342563614249229,0.016359657049179077,0.9887938499450684
1682372418.09945512,105706072,2,0.14942990243434906,-0.005801428575068712,0.01769874058663845,0.9885968565940857
1682372418.19941807,105806035,2,0.15030471980571747,-0.01254183892160654,0.017788559198379517,0.9884001016616821
1682372418.29947591,105906093,2,0.15108723938465118,-0.02149338833987713,0.017172550782561302,0.9881375432014465
1682372418.39945197,106006069,2,0.15153320133686066,-0.029644543305039406,0.015192159451544285,0.9878907203674316
1682372418.49943113,106106048,2,0.15214571356773376,-0.03425220772624016,0.013214955106377602,0.9876759648323059
1682372418.59942698,106206044,2,0.15273669362068176,-0.03620113804936409,0.012331916950643063,0.9875266551971436
1682372418.69939208,106306009,2,0.153153195977211,-0.037764694541692734,0.010871184058487415,0.9874207377433777
1682372418.79937792,106405995,2,0.15341906249523163,-0.037097714841365814,0.010932241566479206,0.9874041080474854
1682372418.89937806,106505995,2,0.15394893288612366,-0.037386681884527206,0.01193532906472683,0.9872990846633911
1682372418.99945211,106606069,2,0.154462069272995,-0.038338448852300644,0.012869993224740028,0.9871706962585449
1682372419.09942102,106706038,2,0.15493884682655334,-0.037249431014060974,0.012648185715079308,0.9871405363082886
1682372419.19946909,106806086,2,0.15576893091201782,-0.035881172865629196,0.012774009257555008,0.9870589375495911
1682372419.29946113,106906078,2,0.1567879021167755,-0.03433571383357048,0.012050066143274307,0.9869617223739624
1682372419.39943814,107006055,2,0.1578279584646225,-0.03253602236509323,0.011423951014876366,0.9868643283843994
1682372419.49942493,107106042,2,0.15897129476070404,-0.03161889687180519,0.010208940133452415,0.9867239594459534
1682372419.59938192,107205999,2,0.1601964384317398,-0.02965225651860237,0.009693952277302742,0.9865920543670654
1682372419.69938707,107306004,2,0.1611148566007614,-0.028465012088418007,0.008658542297780514,0.986487090587616
1682372419.79938293,107406000,2,0.1619338095188141,-0.02664511278271675,0.00699188094586134,0.9864170551300049
1682372419.89944196,107506059,2,0.16255535185337067,-0.025777267292141914,0.005265751387923956,0.9863486289978027
1682372419.99942708,107606044,2,0.1630987524986267,-0.024708423763513565,0.005277861841022968,0.9862861633300781
1682372420.09946799,107706085,2,0.16328853368759155,-0.024432456120848656,0.004513264633715153,0.9862654805183411
1682372420.19945693,107806074,2,0.1632755547761917,-0.024885786697268486,0.0052790334448218346,0.98625248670578
1682372420.29943204,107906049,2,0.16303479671478271,-0.025379937142133713,0.00495315995067358,0.9862813949584961
1682372420.39941692,108006034,2,0.16256222128868103,-0.02507649175822735,0.005248268134891987,0.9863656163215637
1682372420.49938893,108106006,2,0.16210149228572845,-0.023372836410999298,0.00520556652918458,0.9864835143089294
1682372420.59938312,108206000,2,0.1613267958164215,-0.022272834554314613,0.004708768799901009,0.9866384267807007
1682372420.69939494,108306012,2,0.16060826182365417,-0.021025875583291054,0.00529411481693387,0.986780047416687
1682372420.79944110,108406058,2,0.15954039990901947,-0.02070539817214012,0.005261325277388096,0.986960232257843
1682372420.89941597,108506033,2,0.15821294486522675,-0.021112140268087387,0.006709688808768988,0.9871565103530884
1682372420.99947810,108606095,2,0.1571962684392929,-0.021233247593045235,0.007042067591100931,0.987313985824585
1682372421.09947801,108706095,2,0.1560838669538498,-0.020879285410046577,0.007494014222174883,0.9874946475028992
1682372421.19942713,108806044,2,0.15534576773643494,-0.019828464835882187,0.006688956171274185,0.9876384735107422
1682372421.29942107,108906038,2,0.15458987653255463,-0.01878657378256321,0.006684903055429459,0.9877774715423584
1682372421.39938903,109006006,2,0.15395928919315338,-0.01858515292406082,0.006941767875105143,0.9878780245780945
1682372421.49938512,109106002,2,0.1533726304769516,-0.019084500148892403,0.006278920918703079,0.9879641532897949
1682372421.59938693,109206004,2,0.15290841460227966,-0.019618885591626167,0.00704040564596653,0.9880205392837524
1682372421.69944692,109306064,2,0.15257489681243896,-0.019146792590618134,0.00684531033039093,0.9880827069282532
1682372421.79942012,109406037,2,0.15239542722702026,-0.018478963524103165,0.0076817600056529045,0.988116979598999
1682372421.89946699,109506084,2,0.15226158499717712,-0.018800651654601097,0.008809730410575867,0.9881221055984497
1682372421.99945092,109606068,2,0.15222838521003723,-0.019249137490987778,0.00832652673125267,0.988122820854187
1682372422.09943414,109706051,2,0.15261128544807434,-0.01851942390203476,0.00849222019314766,0.9880762696266174
1682372422.19941807,109806035,2,0.15277186036109924,-0.018414389342069626,0.009522774256765842,0.988044023513794
1682372422.29938698,109906004,2,0.1532701998949051,-0.018963687121868134,0.009502885863184929,0.9879566431045532
1682372422.39939809,110006015,2,0.1533217579126358,-0.02043360471725464,0.010620061308145523,0.9879079461097717
1682372422.49938703,110106004,2,0.1538844108581543,-0.02178521826863289,0.010863229632377625,0.9877889156341553
1682372422.59945297,110206070,2,0.15420816838741302,-0.02167009934782982,0.010791590437293053,0.9877417683601379
1682372422.69943309,110306050,2,0.15469205379486084,-0.021660922095179558,0.011476397514343262,0.9876585602760315
1682372422.79946804,110406085,2,0.1551254540681839,-0.01982070319354534,0.01021262351423502,0.9876431226730347
1682372422.89944792,110506065,2,0.15548986196517944,-0.018777063116431236,0.009055315516889095,0.9876174926757812
1682372422.99943709,110606054,2,0.15583892166614532,-0.01967994123697281,0.0093517592176795,0.9875421524047852
1682372423.09942007,110706037,2,0.1559811532497406,-0.020274776965379715,0.0090187918394804,0.9875107407569885
1682372423.19938302,110806000,2,0.15618851780891418,-0.020840534940361977,0.009520169347524643,0.987461507320404
1682372423.29939413,110906011,2,0.1561255156993866,-0.021147018298506737,0.009684245102107525,0.9874633550643921
1682372423.39938712,111006004,2,0.15607687830924988,-0.020627986639738083,0.009547394700348377,0.9874833226203918
1682372423.49944592,111106063,2,0.15617257356643677,-0.0199831984937191,0.009555277414619923,0.987481415271759
1682372423.59942508,111206042,2,0.1559847891330719,-0.01966847851872444,0.009202664718031883,0.9875207543373108
1682372423.69947505,111306092,2,0.15589550137519836,-0.01873607002198696,0.008507046848535538,0.9875591993331909
1682372423.79946399,111406081,2,0.15611107647418976,-0.01878826692700386,0.008222602307796478,0.9875265955924988
1682372423.89943504,111506052,2,0.15639671683311462,-0.018599597737193108,0.009547702968120575,0.9874730110168457
1682372423.99943304,111606050,2,0.1567337065935135,-0.018443748354911804,0.00939872208982706,0.9874239563941956
1682372424.09938312,111706000,2,0.1573428511619568,-0.019155515357851982,0.009614082053303719,0.9873114228248596
1682372424.19938707,111806004,2,0.15790410339832306,-0.018930114805698395,0.009531001560389996,0.9872269630432129
1682372424.29938507,111906002,2,0.15879833698272705,-0.018361516296863556,0.009058439172804356,0.9870986938476562
1682372424.39945412,112006071,2,0.15936855971813202,-0.017262186855077744,0.009084351360797882,0.9870263934135437
1682372424.49942398,112106041,2,0.16018268465995789,-0.016508258879184723,0.007795226760208607,0.986918568611145
1682372424.59947610,112206093,2,0.1602374017238617,-0.01621694676578045,0.007570974063128233,0.9869162440299988
1682372424.69948101,112306098,2,0.16055083274841309,-0.01622980274260044,0.007927373051643372,0.986862301826477
1682372424.79943705,112406054,2,0.16046035289764404,-0.016087448224425316,0.007792468648403883,0.9868804216384888
1682372424.89942408,112506041,2,0.1600833684206009,-0.01576688326895237,0.008511749096214771,0.986940860748291
1682372424.99939203,112606009,2,0.15982158482074738,-0.016587745398283005,0.007938028313219547,0.9869745969772339
1682372425.09938502,112706002,2,0.1592848151922226,-0.01707533374428749,0.008717264980077744,0.987046480178833
1682372425.19938207,112805999,2,0.15871943533420563,-0.017491033300757408,0.008244708180427551,0.9871343374252319
1682372425.29945207,112906069,2,0.1581674963235855,-0.017979921773076057,0.008774898946285248,0.9872095584869385
1682372425.39943314,113006050,2,0.15769881010055542,-0.017136523500084877,0.008970050141215324,0.9872978329658508
1682372425.49947214,113106089,2,0.1576227992773056,-0.016426419839262962,0.008769034408032894,0.9873238205909729
1682372425.59946704,113206084,2,0.1574423462152481,-0.01592567190527916,0.008463679812848568,0.9873634576797485
1682372425.69943595,113306053,2,0.1575073003768921,-0.016686875373125076,0.008548863232135773,0.9873397946357727
1682372425.79941797,113406035,2,0.1576824188232422,-0.017798004671931267,0.00858860183507204,0.9872921109199524
1682372425.89938807,113506005,2,0.15785002708435059,-0.018381867557764053,0.008520864881575108,0.9872552156448364
1682372425.99940014,113606017,2,0.1578647941350937,-0.018855785951018333,0.008651049807667732,0.9872428178787231
1682372426.09938192,113705999,2,0.15778549015522003,-0.01874932087957859,0.008371496573090553,0.9872599244117737
1682372426.19944191,113806059,2,0.15742632746696472,-0.019043851643800735,0.007440763991326094,0.9873190522193909
1682372426.29941797,113906035,2,0.15691611170768738,-0.01945003867149353,0.008154033683240414,0.9873867034912109
1682372426.39946699,114006084,2,0.15640000998973846,-0.019208457320928574,0.007104557938873768,0.987481415271759
1682372426.49945998,114106077,2,0.1555211991071701,-0.019232919439673424,0.007867577485740185,0.9876139760017395
1682372426.59943295,114206050,2,0.1548660546541214,-0.0186057947576046,0.008010531775653362,0.9877277612686157
1682372426.69943094,114306048,2,0.1539626121520996,-0.018313145264983177,0.007745376788079739,0.9878765940666199
1682372426.79938507,114406002,2,0.15310657024383545,-0.017325542867183685,0.008447912521660328,0.9880216717720032
1682372426.89937806,114505995,2,0.1521712839603424,-0.017045680433511734,0.008613008074462414,0.9881696105003357
1682372426.99939299,114606010,2,0.15120293200016022,-0.017634209245443344,0.008962420746684074,0.9883047938346863
1682372427.09945393,114706071,2,0.1505516916513443,-0.017177751287817955,0.008975150063633919,0.9884121417999268
1682372427.19942999,114806047,2,0.15010127425193787,-0.017110126093029976,0.009264431893825531,0.9884791374206543
1682372427.29946208,114906079,2,0.14975957572460175,-0.01696155034005642,0.01012213621288538,0.9885251522064209
1682372427.39946604,115006083,2,0.14950062334537506,-0.017016679048538208,0.008944193832576275,0.988574743270874
1682372427.49944091,115106058,2,0.1493270844221115,-0.016961004585027695,0.009126835502684116,0.9886002540588379
1682372427.59942913,115206046,2,0.14932814240455627,-0.016797196120023727,0.00923704169690609,0.9886018633842468
1682372427.69938993,115306007,2,0.14925257861614227,-0.016210785135626793,0.009091628715395927,0.9886243939399719
1682372427.79938197,115405999,2,0.14905621111392975,-0.016325412318110466,0.009276866912841797,0.9886504411697388
1682372427.89937806,115505995,2,0.14896558225154877,-0.016307508572936058,0.00895964540541172,0.9886673092842102
1682372427.99944806,115606065,2,0.14892899990081787,-0.01649133861064911,0.008308733813464642,0.9886754751205444
1682372428.09943104,115706048,2,0.14876724779605865,-0.016328563913702965,0.00844659749418497,0.988701343536377
1682372428.19946194,115806079,2,0.14867261052131653,-0.016192913055419922,0.008317145518958569,0.9887189269065857
1682372428.29944396,115906061,2,0.14826814830303192,-0.015922747552394867,0.007832691073417664,0.9887880086898804
1682372428.39943910,116006056,2,0.1477910876274109,-0.015344337560236454,0.007933325134217739,0.9888677597045898
1682372428.49941397,116106031,2,0.1472262740135193,-0.014132418669760227,0.006078188773244619,0.9889832139015198
1682372428.59939194,116206009,2,0.14664854109287262,-0.01390224788337946,0.006705016363412142,0.9890682101249695
1682372428.69939208,116306009,2,0.14585581421852112,-0.013210510835051537,0.007677095010876656,0.9891878366470337
1682372428.79939699,116406014,2,0.14515624940395355,-0.012394491583108902,0.008561481721699238,0.9892940521240234
1682372428.89944100,116506058,2,0.14462810754776,-0.012922558933496475,0.009307018481194973,0.9893579483032227
1682372428.99943900,116606056,2,0.14406409859657288,-0.01415026281028986,0.00745407585054636,0.9894391298294067
1682372429.09946394,116706081,2,0.14374913275241852,-0.014945754781365395,0.006142135243862867,0.9894822239875793
1682372429.19945693,116806074,2,0.14350995421409607,-0.01554546132683754,0.0058807265013456345,0.9895092844963074
1682372429.29943299,116906050,2,0.14385510981082916,-0.015910174697637558,0.0061100241728127,0.9894520044326782
1682372429.39942408,117006041,2,0.14420627057552338,-0.015895996242761612,0.006202047690749168,0.9894005060195923
1682372429.49938202,117105999,2,0.14517399668693542,-0.01557900384068489,0.007213639095425606,0.9892571568489075
