timestamp,TimeUS,C,Roll,Pitch,Yaw,VN,VE,VD,dPD,PN,PE,PD,GX,GY,GZ,OH
1682372376.39938593,64006003,2,-0.81,0.35000000000000003,187.99,0.013668416067957878,0.03083692118525505,0.08211422711610794,0.03766515851020813,0.012575563974678516,-0.19363515079021454,0.3526102900505066,-0.1,-0.21,0.0,263.16
1682372376.49938107,64105998,2,-0.81,0.35000000000000003,187.99,0.01583729311823845,0.03067263960838318,0.0812210738658905,0.03371359407901764,0.019527895376086235,-0.19398213922977448,0.3559872508049011,-0.1,-0.21,0.0,263.16
1682372376.59937692,64205994,2,-0.81,0.35000000000000003,187.99,0.01762615516781807,0.030699295923113823,0.08094991743564606,0.03929537907242775,0.02534881792962551,-0.19365695118904114,0.3599478602409363,-0.1,-0.21,0.0,263.16
1682372376.69943714,64306054,2,-0.81,0.35000000000000003,187.99,0.01911037787795067,0.02916238084435463,0.07940275967121124,0.023710891604423523,0.03212302550673485,-0.19467726349830627,0.3622381091117859,-0.1,-0.21,0.0,263.16
1682372376.79940891,64406026,2,-0.8,0.34,187.99,0.020456915721297264,0.028563890606164932,0.07963693141937256,0.028868509456515312,0.03779906779527664,-0.19480901956558228,0.36574357748031616,-0.1,-0.21,0.0,263.16
1682372376.89946604,64506083,2,-0.8,0.35000000000000003,187.99,0.020092813298106194,0.027498465031385422,0.079985611140728,0.05928819999098778,0.04446551948785782,-0.1951735019683838,0.3720168471336365,-0.1,-0.21,0.0,263.16
1682372376.99947095,64606088,2,-0.81,0.34,187.99,0.02055945433676243,0.027058085426688194,0.08158218860626221,0.06827197968959808,0.0498136430978775,-0.19480334222316742,0.3779587149620056,-0.1,-0.21,0.0,263.16
1682372377.09942508,64706042,2,-0.81,0.35000000000000003,187.99,0.01854524202644825,0.025614997372031212,0.08210606127977371,0.0539083369076252,0.05549318715929985,-0.1947498321533203,0.38271135091781616,-0.1,-0.21,0.0,263.16
1682372377.19938493,64806002,2,-0.81,0.35000000000000003,187.99,0.016607999801635742,0.02569231390953064,0.08265260607004166,0.046761106699705124,0.06001332774758339,-0.19409878551959991,0.3872217535972595,-0.1,-0.21,0.0,263.16
1682372377.29937696,64905994,2,-0.81,0.35000000000000003,188.0,0.01672782376408577,0.02577262558043003,0.08093124628067017,0.023331228643655777,0.06643318384885788,-0.19369234144687653,0.3896793723106384,-0.1,-0.21,0.0,263.16
1682372377.39937496,65005992,2,-0.8200000000000001,0.35000000000000003,188.0,0.016698330640792847,0.02466094121336937,0.08103761076927185,0.024019043892621994,0.07234425097703934,-0.19326943159103394,0.3927721381187439,-0.1,-0.21,0.0,263.16
1682372377.49937510,65105992,2,-0.8200000000000001,0.36,188.0,0.016144579276442528,0.022989457473158836,0.08162728697061539,0.03311194106936455,0.07829056680202484,-0.19334997236728668,0.3965114951133728,-0.1,-0.21,0.0,263.16
1682372377.59944201,65206059,2,-0.8200000000000001,0.36,188.01,0.015151641331613064,0.02127879112958908,0.08153465390205383,0.041482891887426376,0.08299198746681213,-0.1932072788476944,0.4007241129875183,-0.1,-0.21,0.0,263.16
1682372377.69942212,65306039,2,-0.8300000000000001,0.36,188.01,0.013272959738969803,0.016701165586709976,0.08181322365999222,0.03455903008580208,0.08842755854129791,-0.19485537707805634,0.4038628935813904,-0.1,-0.21,0.0,263.16
1682372377.79945707,65406074,2,-0.84,0.36,188.01,0.012617027387022972,0.013206851668655872,0.08244606852531433,0.03771043196320534,0.09272778779268265,-0.19621680676937103,0.40790098905563354,-0.1,-0.21,0.0,263.16
1682372377.89943600,65506053,2,-0.84,0.36,188.02,0.013282672502100468,0.010445612482726574,0.08408025652170181,0.05579895153641701,0.09901285916566849,-0.19818101823329926,0.41353315114974976,-0.1,-0.21,0.0,263.16
1682372377.99943304,65606050,2,-0.84,0.37,188.01,0.012036489322781563,0.008825819939374924,0.08582986146211624,0.0642457902431488,0.10385129600763321,-0.19965709745883942,0.41947120428085327,-0.1,-0.21,0.0,263.16
1682372378.09942412,65706041,2,-0.84,0.37,188.01,0.010035303421318531,0.006326630711555481,0.08696027100086212,0.055554069578647614,0.10862626880407333,-0.20120744407176971,0.42447227239608765,-0.1,-0.21,0.0,263.16
1682372378.19937205,65805989,2,-0.85,0.37,188.02,0.007031791843473911,0.005897047463804483,0.08758121728897095,0.0518181137740612,0.11186657845973969,-0.20234838128089905,0.42976635694503784,-0.1,-0.21,0.0,263.16
1682372378.29938507,65906002,2,-0.85,0.37,188.02,0.0017408370040357113,0.0038999172393232584,0.08867361396551132,0.06411153078079224,0.1142253428697586,-0.20398633182048798,0.4363943934440613,-0.1,-0.21,0.0,263.16
1682372378.39938211,66005999,2,-0.85,0.37,188.02,-0.002920828526839614,0.0031154851894825697,0.08912526816129684,0.06246038153767586,0.11535529792308807,-0.20519891381263733,0.4420751929283142,-0.1,-0.21,0.0,263.16
1682372378.49944091,66106058,2,-0.85,0.37,188.02,-0.006854608189314604,0.0010048908879980445,0.08849762380123138,0.03357622027397156,0.11746993660926819,-0.20692206919193268,0.44520920515060425,-0.1,-0.21,0.0,263.16
1682372378.59942913,66206046,2,-0.85,0.38,188.03,-0.009847319684922695,0.00020065349235665053,0.08924362808465958,0.02781868539750576,0.11880333721637726,-0.2083573043346405,0.44850605726242065,-0.1,-0.21,0.0,263.16
1682372378.69946814,66306085,2,-0.85,0.38,188.04,-0.009136931970715523,-0.002209678990766406,0.08911008387804031,0.01229934860020876,0.12354862689971924,-0.21069568395614624,0.4500371813774109,-0.1,-0.21,0.0,263.16
1682372378.79944611,66406063,2,-0.85,0.38,188.05,-0.009198999963700771,-0.004058326594531536,0.08785561472177505,0.015808314085006714,0.1270107477903366,-0.2125914841890335,0.45238202810287476,-0.1,-0.21,0.0,263.16
1682372378.89943600,66506053,2,-0.85,0.38,188.06,-0.010364549234509468,-0.005641317460685968,0.08635654300451279,0.004498454742133617,0.13123977184295654,-0.21412670612335205,0.45302242040634155,-0.1,-0.21,0.0,263.16
1682372378.99942398,66606041,2,-0.86,0.38,188.06,-0.010782941244542599,-0.005716759245842695,0.08685582131147385,0.01657016947865486,0.1348823755979538,-0.21546827256679535,0.4560207724571228,-0.1,-0.21,0.0,263.16
1682372379.09938693,66706004,2,-0.86,0.39,188.07,-0.009608264081180096,-0.0062100873328745365,0.0893523246049881,0.06918564438819885,0.13988658785820007,-0.21687696874141693,0.46310895681381226,-0.1,-0.21,0.0,263.16
1682372379.19938111,66805998,2,-0.86,0.39,188.08,-0.009370304644107819,-0.006985850632190704,0.09049274772405624,0.07975590229034424,0.14381730556488037,-0.21798889338970184,0.4697081446647644,-0.1,-0.21,0.0,263.16
1682372379.29939294,66906010,2,-0.86,0.39,188.09,-0.010745459236204624,-0.007827791385352612,0.09194077551364899,0.06314732879400253,0.14777955412864685,-0.2189856916666031,0.4748989939689636,-0.1,-0.21,0.0,263.16
1682372379.39945292,67006070,2,-0.87,0.39,188.09,-0.0075410814024508,-0.006513888947665691,0.0931408628821373,0.05209843069314957,0.15066836774349213,-0.21952873468399048,0.48038071393966675,-0.1,-0.21,0.0,263.16
1682372379.49941707,67106034,2,-0.87,0.4,188.09,-0.012633966282010078,-0.004905347712337971,0.09375957399606705,0.06430798768997192,0.1535244584083557,-0.2191631942987442,0.4871005415916443,-0.1,-0.21,0.0,263.16
1682372379.59947014,67206087,2,-0.88,0.4,188.11,-0.01246191281825304,0.0016003329074010253,0.0953921303153038,0.05502429977059364,0.15638041496276855,-0.21917270123958588,0.49132317304611206,-0.1,-0.21,0.0,263.16
1682372379.69945407,67306071,2,-0.89,0.39,188.1,-0.0127626433968544,-5.2888684876961634e-05,0.09434305876493454,0.007141891401261091,0.1622723489999771,-0.2202189415693283,0.49211281538009644,-0.1,-0.21,0.0,263.16
1682372379.79943705,67406054,2,-0.89,0.39,188.1,-0.026291973888874054,0.0190727636218071,0.0963730737566948,0.012756748124957085,0.1670638471841812,-0.2205258309841156,0.4949919581413269,-0.1,-0.21,0.0,263.16
1682372379.89941096,67506028,2,-0.97,0.38,188.12,-0.014751496724784374,0.021515261381864548,0.08381068706512451,0.04547181352972984,0.1725369691848755,-0.22045749425888062,0.5009240508079529,-0.1,-0.21,0.0,263.16
1682372379.99938607,67606003,2,-1.36,0.26,188.09,-0.04041249677538872,0.050877101719379425,-0.11209508776664734,-0.13087452948093414,0.17601130902767181,-0.2185688316822052,0.5011016726493835,-0.1,-0.21,0.0,263.16
1682372380.09937811,67705995,2,-0.85,0.46,187.97,-0.05396221578121185,0.05821717530488968,-0.6482378244400024,-0.6602500081062317,0.17821572721004486,-0.21311494708061218,0.4595929980278015,-0.1,-0.21,0.0,263.16
1682372380.19937992,67805997,2,1.6500000000000001,1.01,187.85,-0.06825267523527145,0.061266299337148666,-0.926095187664032,-0.9731576442718506,0.1796519160270691,-0.2067255675792694,0.3659214377403259,-0.1,-0.21,0.0,263.16
1682372380.29945207,67906069,2,2.37,1.21,187.63,-0.06742832064628601,0.088718943297863,-0.9354332685470581,-1.159249186515808,0.18359123170375824,-0.19619044661521912,0.24878855049610138,-0.1,-0.21,0.0,263.16
1682372380.39943004,68006047,2,1.77,1.12,187.38,-0.0762869119644165,0.0594320222735405,-0.9107754826545715,-1.1575714349746704,0.18491782248020172,-0.18703433871269226,0.13510389626026154,-0.1,-0.21,0.0,263.16
1682372380.49946094,68106078,2,1.36,1.02,187.13,-0.07552067935466766,0.03384473919868469,-0.904555082321167,-1.178589105606079,0.18480205535888672,-0.1821053922176361,0.022072743624448776,-0.1,-0.21,0.0,263.16
1682372380.59946108,68206078,2,0.7000000000000001,1.06,186.88,-0.07329735904932022,0.039735499769449234,-0.8346672654151917,-1.046010136604309,0.1850568801164627,-0.1778855174779892,-0.0819128006696701,-0.1,-0.21,0.0,263.16
1682372380.69943714,68306054,2,0.25,1.12,186.67000000000002,-0.08269574493169785,0.03724391385912895,-0.7607829570770264,-0.9431988000869751,0.19081704318523407,-0.1739855408668518,-0.1810692995786667,-0.1,-0.21,0.0,263.16
1682372380.79942298,68406040,2,0.2,1.02,186.47,-0.08622679114341736,0.05408065766096115,-0.6547789573669434,-0.8812675476074219,0.1950923651456833,-0.16806693375110626,-0.2746582627296448,-0.1,-0.21,0.0,263.16
1682372380.89938498,68506002,2,0.22,0.91,186.31,-0.07536192238330841,0.058196160942316055,-0.5595178008079529,-0.7795565128326416,0.20231357216835022,-0.155900239944458,-0.3554287552833557,-0.1,-0.21,0.0,263.16
1682372380.99938703,68606004,2,0.6900000000000001,0.78,186.15,-0.08098268508911133,0.06296958774328232,-0.4760964810848236,-0.6917122602462769,0.2086559534072876,-0.14443157613277435,-0.42681974172592163,-0.1,-0.21,0.0,263.16
1682372381.09937906,68705996,2,1.11,0.63,186.02,-0.08393772691488266,0.08355262875556946,-0.38801541924476624,-0.5632035136222839,0.21919670701026917,-0.13360807299613953,-0.4870542883872986,-0.1,-0.21,0.0,263.16
1682372381.19944906,68806066,2,1.31,0.49,185.93,-0.08556476980447769,0.0631759762763977,-0.31914275884628296,-0.4802594780921936,0.2236035168170929,-0.12202542275190353,-0.5377532839775085,-0.1,-0.21,0.0,263.16
1682372381.29942799,68906045,2,1.53,0.52,185.86,-0.1031424030661583,0.07413500547409058,-0.290311723947525,-0.34659895300865173,0.22062288224697113,-0.1086340844631195,-0.5738711953163147,-0.1,-0.21,0.0,263.16
1682372381.39946914,69006086,2,1.55,0.9,185.86,-0.10667067021131516,0.057351116091012955,-0.2565028667449951,-0.3070604205131531,0.2139340341091156,-0.09724278748035431,-0.608886182308197,-0.1,-0.21,0.0,263.16
1682372381.49944091,69106058,2,1.53,1.3,185.89000000000001,-0.11810542643070221,0.04502398520708084,-0.2388892024755478,-0.32098838686943054,0.20258159935474396,-0.08827489614486694,-0.6441459059715271,-0.1,-0.21,0.0,263.16
1682372381.59943604,69206053,2,1.3,1.68,185.93,-0.11456364393234253,0.048407185822725296,-0.2753311097621918,-0.39548206329345703,0.19066402316093445,-0.07998411357402802,-0.6797416806221008,-0.1,-0.21,0.0,263.16
1682372381.69941902,69306036,2,1.11,2.0100000000000002,185.99,-0.10694069415330887,0.039211664348840714,-0.2727932929992676,-0.3675895929336548,0.17942947149276733,-0.07103027403354645,-0.71485835313797,-0.1,-0.21,0.0,263.16
1682372381.79938698,69406004,2,1.33,2.05,186.02,-0.1019483357667923,0.0454632043838501,-0.301074355840683,-0.4088517129421234,0.16920991241931915,-0.06354214251041412,-0.7550973296165466,-0.1,-0.21,0.0,263.16
1682372381.89938498,69506002,2,1.47,2.05,186.09,-0.08520100265741348,0.030968409031629562,-0.3247690498828888,-0.487255722284317,0.16194304823875427,-0.055614858865737915,-0.8029811978340149,-0.1,-0.21,0.0,263.16
1682372381.99938393,69606001,2,1.73,2.05,186.15,-0.07742507755756378,0.01851794496178627,-0.36435365676879883,-0.5493327379226685,0.15478095412254333,-0.049557287245988846,-0.852095901966095,-0.1,-0.21,0.0,263.16
1682372382.09944105,69706058,2,1.9000000000000001,2.12,186.18,-0.06493060290813446,0.02984977327287197,-0.37729644775390625,-0.5412936210632324,0.14717163145542145,-0.04341428354382515,-0.9035163521766663,-0.1,-0.21,0.0,263.16
1682372382.19942307,69806040,2,1.83,2.15,186.20000000000002,-0.0577000193297863,0.017804471775889397,-0.426310658454895,-0.5749428272247314,0.14031574130058289,-0.0392390601336956,-0.9571325182914734,-0.1,-0.21,0.0,263.16
1682372382.29946709,69906084,2,1.8900000000000001,2.2600000000000002,186.21,-0.038314975798130035,0.01725088804960251,-0.41935238242149353,-0.5821150541305542,0.13475950062274933,-0.038440506905317307,-1.014473557472229,-0.1,-0.21,0.0,263.16
1682372382.39944696,70006064,2,1.71,2.2800000000000002,186.22,-0.029260976240038872,-0.018287332728505135,-0.45422229170799255,-0.6008539199829102,0.12993592023849487,-0.03835694491863251,-1.071266531944275,-0.1,-0.21,0.0,263.16
1682372382.49942994,70106047,2,1.57,2.39,186.19,-0.02462688274681568,-0.012311923317611217,-0.42665940523147583,-0.5682297945022583,0.12736043334007263,-0.038356855511665344,-1.1303194761276245,-0.1,-0.21,0.0,263.16
1682372382.59941602,70206033,2,1.57,2.29,186.17000000000002,-0.01062637660652399,-0.012749024666845798,-0.4446764886379242,-0.5925957560539246,0.12473350018262863,-0.03914908319711685,-1.190557837486267,-0.1,-0.21,0.0,263.16
1682372382.69938111,70305998,2,1.36,2.32,186.17000000000002,-0.002263464033603668,-0.017191076651215553,-0.483593612909317,-0.6315921545028687,0.11972764879465103,-0.04198460280895233,-1.2520098686218262,-0.1,-0.21,0.0,263.16
1682372382.79938293,70406000,2,1.24,2.38,186.17000000000002,0.012341069988906384,0.0006338728708215058,-0.49079957604408264,-0.6465011239051819,0.11613373458385468,-0.04431598260998726,-1.3162506818771362,-0.1,-0.21,0.0,263.16
1682372382.89938593,70506003,2,1.11,2.39,186.21,0.013642995618283749,0.006634545978158712,-0.49943292140960693,-0.678611695766449,0.11356157809495926,-0.04625594988465309,-1.383484125137329,-0.1,-0.21,0.0,263.16
1682372382.99945593,70606073,2,1.1,2.4,186.20000000000002,0.023890160024166107,0.008220740593969822,-0.47735950350761414,-0.6704525947570801,0.11223267763853073,-0.04814421385526657,-1.4519211053848267,-0.1,-0.21,0.0,263.16
1682372383.09941602,70706033,2,1.16,2.34,186.20000000000002,0.03456387296319008,-0.005680379923433065,-0.4934108853340149,-0.6512807607650757,0.1112099215388298,-0.052193574607372284,-1.5163981914520264,-0.1,-0.21,0.0,263.16
1682372383.19946098,70806078,2,1.16,2.32,186.22,0.04711710661649704,-0.007319163531064987,-0.49419355392456055,-0.6389173269271851,0.11027039587497711,-0.056364357471466064,-1.5809109210968018,-0.1,-0.21,0.01,263.16
1682372383.29946613,70906083,2,1.1,2.38,186.21,0.038546912372112274,-0.005399385932832956,-0.49666374921798706,-0.6217338442802429,0.10227227210998535,-0.0670572817325592,-1.643373727798462,-0.1,-0.21,0.01,263.16
1682372383.39944196,71006059,2,0.9,2.54,186.22,0.05322834849357605,0.013141172006726265,-0.48925289511680603,-0.6105288863182068,0.09821875393390656,-0.07424318790435791,-1.7063469886779785,-0.1,-0.21,0.01,263.16
1682372383.49940896,71106026,2,0.72,2.65,186.26,0.04955069348216057,0.03563850745558739,-0.48568060994148254,-0.6066359877586365,0.09927970916032791,-0.07732505351305008,-1.7690180540084839,-0.1,-0.21,0.01,263.16
1682372383.59938407,71206001,2,0.73,2.41,186.33,0.07269123196601868,0.02365924045443535,-0.5002183318138123,-0.6189715266227722,0.10133157670497894,-0.08019950240850449,-1.8308379650115967,-0.1,-0.21,0.01,263.16
1682372383.69937611,71305993,2,0.75,2.22,186.4,0.06196253001689911,0.03740180656313896,-0.4992780089378357,-0.6111670732498169,0.10383289307355881,-0.08516303449869156,-1.8928260803222656,-0.1,-0.21,0.01,263.16
1682372383.79938507,71406002,2,0.6900000000000001,2.05,186.51,0.0791596993803978,0.01277940347790718,-0.5265293717384338,-0.6423670649528503,0.10633046180009842,-0.08832996338605881,-1.9555186033248901,-0.1,-0.21,0.01,263.16
1682372383.89945698,71506074,2,0.64,2.02,186.6,0.06967334449291229,0.039445653557777405,-0.5005552768707275,-0.5915481448173523,0.10624094307422638,-0.09041205048561096,-2.015584707260132,-0.1,-0.21,0.01,263.16
1682372383.99941707,71606034,2,0.6900000000000001,2.15,186.68,0.07107973843812943,0.049388691782951355,-0.5086317658424377,-0.6018546223640442,0.10858305543661118,-0.09127867221832275,-2.0765774250030518,-0.1,-0.21,0.01,263.16
1682372384.09946895,71706086,2,0.75,2.2,186.76,0.08162179589271545,0.053142137825489044,-0.5241654515266418,-0.6076916456222534,0.11383765190839767,-0.09287033975124359,-2.134884834289551,-0.1,-0.21,0.01,263.16
1682372384.19944501,71806062,2,0.89,2.09,186.8,0.07437612861394882,0.06938754767179489,-0.5040318369865417,-0.5640236139297485,0.1183166652917862,-0.0968632698059082,-2.1923489570617676,-0.1,-0.21,0.01,263.16
1682372384.29943609,71906053,2,0.93,1.9000000000000001,186.84,0.07704643905162811,0.049993619322776794,-0.5190938711166382,-0.5630283951759338,0.12146668136119843,-0.10499086230993271,-2.250080108642578,-0.1,-0.21,0.01,263.16
1682372384.39943004,72006047,2,0.73,1.8900000000000001,186.86,0.08385155349969864,0.0550314299762249,-0.5354689359664917,-0.5834017992019653,0.12680162489414215,-0.1104370504617691,-2.3085777759552,-0.1,-0.21,0.01,263.16
1682372384.49938393,72106001,2,0.6900000000000001,1.8800000000000001,186.69,0.0797601193189621,0.06328636407852173,-0.548137903213501,-0.5959917306900024,0.13525666296482086,-0.11556626111268997,-2.36808705329895,-0.1,-0.21,0.01,263.16
1682372384.59939313,72206010,2,0.65,1.74,186.64000000000001,0.08214279264211655,0.06747481226921082,-0.5582919120788574,-0.6200114488601685,0.14268501102924347,-0.11912314593791962,-2.4296343326568604,-0.1,-0.21,0.01,263.16
1682372384.69938207,72305999,2,0.62,1.6400000000000001,186.59,0.08161529153585434,0.07234679162502289,-0.5656044483184814,-0.6420927047729492,0.1475714147090912,-0.12348952889442444,-2.4930167198181152,-0.1,-0.21,0.01,263.16
1682372384.79944706,72406064,2,0.72,1.7,186.54,0.07546963542699814,0.0869901031255722,-0.5809385180473328,-0.6638343334197998,0.15482768416404724,-0.1258527636528015,-2.5578253269195557,-0.1,-0.21,0.01,263.16
1682372384.89943004,72506047,2,0.71,1.68,186.54,0.08135760575532913,0.08517340570688248,-0.5495691895484924,-0.6382167935371399,0.16669760644435883,-0.1285729706287384,-2.6232266426086426,-0.1,-0.21,0.01,263.16
1682372384.99947691,72606094,2,0.68,1.56,186.49,0.06696716696023941,0.06833570450544357,-0.5826752185821533,-0.6568447947502136,0.17703858017921448,-0.12998276948928833,-2.6870768070220947,-0.1,-0.21,0.01,263.16
1682372385.09944105,72706058,2,0.71,1.34,186.58,0.07568133622407913,0.06601890176534653,-0.579635500907898,-0.6422258019447327,0.18538515269756317,-0.1331421136856079,-2.7521297931671143,-0.1,-0.21,0.01,263.16
1682372385.19943309,72806050,2,0.81,1.33,186.62,0.05397314205765724,0.07147862762212753,-0.5612022876739502,-0.6336262822151184,0.19144415855407715,-0.13519328832626343,-2.8181159496307373,-0.1,-0.21,0.01,263.16
1682372385.29941297,72906030,2,0.89,1.27,186.82,0.05204862356185913,0.056001175194978714,-0.591892421245575,-0.6606035232543945,0.1922018826007843,-0.1384279727935791,-2.883803367614746,-0.1,-0.21,0.01,263.16
1682372385.39938307,73006000,2,0.97,1.5,187.0,0.038158517330884933,0.06025853008031845,-0.6150530576705933,-0.6894047260284424,0.19342023134231567,-0.14062848687171936,-2.9505603313446045,-0.1,-0.21,0.01,263.16
1682372385.49937701,73105994,2,0.9500000000000001,1.74,187.14000000000001,0.03013036400079727,0.060332298278808594,-0.601675271987915,-0.6418546438217163,0.1963677704334259,-0.1439167708158493,-3.0132997035980225,-0.1,-0.21,0.01,263.16
1682372385.59939194,73206009,2,1.11,1.72,187.3,0.03247718885540962,0.045969851315021515,-0.6103823184967041,-0.6267762184143066,0.19787845015525818,-0.149147629737854,-3.0749239921569824,-0.1,-0.21,0.01,263.16
1682372385.69944906,73306066,2,1.22,1.6500000000000001,187.53,0.02432694472372532,0.03749961405992508,-0.594723105430603,-0.6114392280578613,0.1986226588487625,-0.15530817210674286,-3.136878490447998,-0.1,-0.21,0.01,263.16
1682372385.79941297,73406030,2,1.22,1.61,187.79,0.02821851149201393,0.03128437697887421,-0.5701622366905212,-0.5862388014793396,0.19912110269069672,-0.1614110767841339,-3.1979358196258545,-0.1,-0.21,0.01,263.16
1682372385.89947200,73506089,2,1.11,1.58,187.97,0.011253849603235722,0.015009023249149323,-0.5969145894050598,-0.5865675210952759,0.19980347156524658,-0.16572189331054688,-3.2563130855560303,-0.1,-0.21,0.01,263.16
1682372385.99947000,73606087,2,1.2,1.56,188.13,0.012885693460702896,0.0032456512562930584,-0.5999966263771057,-0.5971117615699768,0.20070905983448029,-0.16924291849136353,-3.3162546157836914,-0.1,-0.21,0.01,263.16
1682372386.09943795,73706055,2,1.3,1.47,188.24,0.0101413419470191,-0.004141999874264002,-0.6027529239654541,-0.5826073288917542,0.20304466784000397,-0.17277884483337402,-3.374218225479126,-0.1,-0.21,0.01,263.16
1682372386.19942808,73806045,2,1.29,1.36,188.34,0.004339524544775486,-0.004068574868142605,-0.5899068713188171,-0.5829313397407532,0.2043982297182083,-0.17566408216953278,-3.433830976486206,-0.1,-0.21,0.01,263.16
1682372386.29938507,73906002,2,1.3,1.33,188.54,0.004801641218364239,-0.014589664526283741,-0.5628637671470642,-0.5348958969116211,0.2009306401014328,-0.18061573803424835,-3.488759756088257,-0.1,-0.21,0.01,263.16
1682372386.39937997,74005997,2,1.3,1.51,188.76,-0.00759168853983283,-0.00013390205276664346,-0.5363413691520691,-0.5123733282089233,0.19850057363510132,-0.18400335311889648,-3.5425593852996826,-0.1,-0.21,0.01,263.16
1682372386.49937892,74105996,2,1.26,1.74,188.82,-0.0007220660336315632,-0.00505936611443758,-0.4824220538139343,-0.46273142099380493,0.20206518471240997,-0.18029867112636566,-3.5915472507476807,-0.1,-0.21,0.01,263.16
1682372386.59944701,74206064,2,1.45,1.55,188.87,-0.001224964507855475,-0.021976949647068977,-0.44984304904937744,-0.4366050362586975,0.2047557234764099,-0.1768513172864914,-3.6365580558776855,-0.1,-0.21,0.01,263.16
1682372386.69942999,74306047,2,1.77,1.28,188.91,0.0018966649658977985,-0.019537752494215965,-0.4002930819988251,-0.3728092908859253,0.2058122456073761,-0.17372789978981018,-3.6743550300598145,-0.1,-0.21,0.01,263.16
1682372386.79946113,74406078,2,1.86,1.25,189.01,-0.004478935617953539,-0.01039996650069952,-0.2972439229488373,-0.27794939279556274,0.20634999871253967,-0.17116156220436096,-3.706165075302124,-0.1,-0.21,0.01,263.16
1682372386.89945292,74506070,2,1.76,1.31,189.16,-0.009313447400927544,-0.017015133053064346,-0.24135912954807281,-0.1712699681520462,0.20400357246398926,-0.17294879257678986,-3.7254106998443604,-0.1,-0.21,0.01,263.16
1682372386.99944210,74606059,2,1.48,1.53,189.33,-0.014893978834152222,-0.037643324583768845,-0.13135425746440887,-0.07745461910963058,0.20127691328525543,-0.17490744590759277,-3.7400519847869873,-0.1,-0.21,0.01,263.16
1682372387.09941912,74706036,2,1.26,1.74,189.48,-0.027062982320785522,-0.03038204275071621,-0.07362409681081772,-0.010248871520161629,0.19674649834632874,-0.17627985775470734,-3.744886636734009,-0.1,-0.21,0.01,263.16
1682372387.19937611,74805993,2,1.17,1.8800000000000001,189.64000000000001,-0.012018502689898014,-0.04121812805533409,-0.01162001583725214,0.027285676449537277,0.19269593060016632,-0.177413210272789,-3.7460427284240723,-0.1,-0.21,0.01,263.16
1682372387.29938793,74906005,2,1.12,2.0,189.70000000000002,-0.020591197535395622,-0.024659819900989532,0.022501111030578613,0.0847916528582573,0.19039247930049896,-0.176061749458313,-3.7378931045532227,-0.1,-0.21,0.01,263.16
1682372387.39938307,75006000,2,1.25,1.87,189.77,-0.01341245137155056,-0.022936711087822914,0.047454409301280975,0.10833512246608734,0.18831075727939606,-0.17530770599842072,-3.728038787841797,-0.1,-0.21,0.01,263.16
1682372387.49946594,75106083,2,1.31,1.53,189.79,-0.008828808553516865,-0.03583119809627533,0.06534677743911743,0.12748020887374878,0.18548981845378876,-0.1750674694776535,-3.715273380279541,-0.1,-0.21,0.01,263.16
1682372387.59942603,75206043,2,1.1,1.02,189.81,-0.02462542988359928,-0.02643073908984661,0.0899663120508194,0.1350557953119278,0.1822069138288498,-0.17478519678115845,-3.703613519668579,-0.1,-0.21,0.01,263.16
1682372387.69947004,75306087,2,0.89,0.37,189.77,-0.05624677985906601,-0.017687855288386345,0.06793496757745743,0.12187574058771133,0.17639243602752686,-0.1738222986459732,-3.6906614303588867,-0.1,-0.21,0.02,263.16
1682372387.79947495,75406092,2,0.49,-0.35000000000000003,189.6,-0.0797267034649849,-0.01113985851407051,0.05716847628355026,0.08768539130687714,0.16830702126026154,-0.17247477173805237,-3.6815896034240723,-0.1,-0.21,0.02,263.16
1682372387.89942908,75506046,2,0.13,-1.02,189.15,-0.1288115382194519,0.002236798405647278,0.05692985653877258,0.06317145377397537,0.15676532685756683,-0.16978104412555695,-3.6754331588745117,-0.1,-0.21,0.02,263.16
1682372387.99941397,75606031,2,-0.17,-1.69,188.34,-0.17573291063308716,0.011733569204807281,0.02303903177380562,0.016391046345233917,0.14068996906280518,-0.1667024791240692,-3.67293643951416,-0.1,-0.21,0.02,263.16
1682372388.09939194,75706009,2,-0.46,-2.15,186.99,-0.24076811969280243,0.029013844206929207,-0.014088265597820282,-0.021117566153407097,0.11970440298318863,-0.15870122611522675,-3.671922445297241,-0.1,-0.21,0.02,263.16
1682372388.19938111,75805998,2,-0.45,-2.5,185.13,-0.30985572934150696,0.048970650881528854,-0.04632524400949478,-0.06806390732526779,0.0928327813744545,-0.14766210317611694,-3.6754047870635986,-0.1,-0.21,0.02,263.16
1682372388.29938197,75905999,2,-0.37,-2.74,182.8,-0.36575135588645935,0.07438427209854126,-0.023710131645202637,-0.08815037459135056,0.059869568794965744,-0.13227613270282745,-3.6835827827453613,-0.1,-0.21,0.01,263.16
1682372388.39944601,76006063,2,-0.25,-2.79,180.24,-0.4403087794780731,0.09500768780708313,-0.004390866961330175,-0.09684811532497406,0.02016950212419033,-0.11439453810453415,-3.6920435428619385,-0.1,-0.21,0.01,263.16
1682372388.49941492,76106032,2,0.11,-2.62,177.48,-0.5066072940826416,0.1288706511259079,0.01816226914525032,-0.04105184227228165,-0.025919245555996895,-0.09055615216493607,-3.6958494186401367,-0.1,-0.21,0.01,263.16
1682372388.59946895,76206086,2,0.65,-2.13,174.74,-0.5674648880958557,0.1479770839214325,0.00934794545173645,-0.026676716282963753,-0.07772870361804962,-0.06404615193605423,-3.6985585689544678,-0.1,-0.21,0.01,263.16
1682372388.69947195,76306089,2,1.11,-1.43,171.73,-0.6113592386245728,0.17752131819725037,0.01662241667509079,-0.010357830673456192,-0.1350547820329666,-0.028726641088724136,-3.700155258178711,-0.1,-0.21,0.01,263.16
1682372388.79943514,76406052,2,1.67,-0.5,168.78,-0.6495943069458008,0.19585886597633362,0.006844562944024801,-0.012271668761968613,-0.1954951137304306,0.006422798149287701,-3.700502395629883,-0.1,-0.21,0.01,263.16
1682372388.89942312,76506040,2,2.0300000000000002,0.37,165.75,-0.6779417395591736,0.18621353805065155,0.04237682744860649,0.023737769573926926,-0.2555851638317108,0.04490671306848526,-3.7004566192626953,-0.1,-0.21,0.01,263.16
1682372388.99939108,76606008,2,2.15,1.02,162.87,-0.6962447762489319,0.17629118263721466,0.021063009276986122,-0.01156516931951046,-0.31702786684036255,0.08272292464971542,-3.701416254043579,-0.1,-0.21,0.01,263.16
1682372389.09939098,76706008,2,2.2600000000000002,1.62,160.05,-0.6948051452636719,0.18405453860759735,0.024505916982889175,-0.02201746217906475,-0.37545788288116455,0.12384623289108276,-3.7043304443359375,-0.1,-0.21,0.01,263.16
1682372389.19938397,76806001,2,2.3000000000000003,2.11,157.59,-0.6900863647460938,0.15494805574417114,-0.0010647582821547985,-0.04890453815460205,-0.4360078275203705,0.16187462210655212,-3.7073726654052734,-0.1,-0.21,0.01,263.16
1682372389.29946208,76906079,2,2.37,2.5300000000000002,155.4,-0.6805910468101501,0.16959911584854126,0.004719048738479614,-0.023470090702176094,-0.49770790338516235,0.199393168091774,-3.708993911743164,-0.1,-0.21,0.01,263.16
1682372389.39943695,77006054,2,2.31,2.71,153.57,-0.6627768278121948,0.16351479291915894,0.0047203307040035725,-0.023467740043997765,-0.5594063401222229,0.23373110592365265,-3.7101147174835205,-0.1,-0.21,0.01,263.16
1682372389.49947810,77106095,2,2.0100000000000002,2.67,152.02,-0.6779538989067078,0.13418321311473846,0.014700249768793583,-0.015467445366084576,-0.6181285381317139,0.2676234543323517,-3.711270332336426,-0.1,-0.21,0.01,263.16
1682372389.59946704,77206084,2,1.95,2.42,150.81,-0.6625168323516846,0.12600204348564148,0.013275531120598316,-0.021144649013876915,-0.6786080002784729,0.29769864678382874,-3.711108446121216,-0.1,-0.21,0.01,263.16
1682372389.69943810,77306055,2,1.74,2.2,149.9,-0.6573289632797241,0.10926023870706558,0.007031610701233149,0.007869763299822807,-0.7394860982894897,0.3256295323371887,-3.7078704833984375,-0.1,-0.21,0.01,263.16
1682372389.79941893,77406036,2,1.48,2.09,149.27,-0.6468243598937988,0.10229910165071487,0.030237717553973198,0.03274866193532944,-0.8015676736831665,0.3498183488845825,-3.70495343208313,-0.1,-0.21,0.01,263.16
1682372389.89937997,77505997,2,1.1300000000000001,2.02,148.88,-0.645189642906189,0.10255908966064453,0.036066312342882156,0.03912096843123436,-0.8645541667938232,0.3737301528453827,-3.7014377117156982,-0.1,-0.21,0.01,263.16
1682372389.99939513,77606012,2,0.9500000000000001,1.95,148.74,-0.6623868942260742,0.08234855532646179,0.02842942625284195,0.023470638319849968,-0.9287465214729309,0.3943645656108856,-3.69769549369812,-0.1,-0.21,0.01,263.16
1682372390.09937692,77705994,2,0.8300000000000001,1.87,148.81,-0.6428002119064331,0.11291292309761047,0.057623881846666336,0.05927850678563118,-0.9948573708534241,0.4137657582759857,-3.6922645568847656,-0.1,-0.21,0.01,263.16
1682372390.19943500,77806052,2,0.67,1.81,149.09,-0.6534520387649536,0.0920623391866684,0.06982986629009247,0.08048655837774277,-1.0622729063034058,0.4317891299724579,-3.685072183609009,-0.1,-0.21,0.01,263.16
1682372390.29942203,77906039,2,0.67,1.78,149.45000000000002,-0.6360347270965576,0.10827138274908066,0.08022260665893555,0.10386814177036285,-1.1326888799667358,0.45187944173812866,-3.67781400680542,-0.1,-0.21,0.02,263.16
1682372390.39947295,78006090,2,0.61,1.78,149.99,-0.6383382678031921,0.12226826697587967,0.05218929424881935,0.04925014451146126,-1.2020235061645508,0.47034576535224915,-3.6727709770202637,-0.1,-0.21,0.02,263.16
1682372390.49944091,78106058,2,0.58,1.87,150.64000000000001,-0.6530361175537109,0.1069423258304596,0.05241331085562706,0.0643153116106987,-1.2724854946136475,0.4888465106487274,-3.665219783782959,-0.1,-0.21,0.02,263.16
1682372390.59943795,78206055,2,0.5700000000000001,1.85,151.41,-0.6536628603935242,0.09754050523042679,0.0255825724452734,0.04981270059943199,-1.342811107635498,0.5066136717796326,-3.6562952995300293,-0.1,-0.21,0.02,263.16
1682372390.69942307,78306040,2,0.54,1.84,152.27,-0.6427017450332642,0.13418886065483093,0.0705186128616333,0.1172659620642662,-1.4136406183242798,0.5255159735679626,-3.646679401397705,-0.1,-0.21,0.02,263.16
1682372390.79937601,78405993,2,0.5700000000000001,1.82,153.26,-0.6354441046714783,0.1366884708404541,0.042261768132448196,0.08419790863990784,-1.4831527471542358,0.5426286458969116,-3.637680768966675,-0.1,-0.21,0.02,263.16
1682372390.89938593,78506003,2,0.51,1.74,154.36,-0.6364725232124329,0.1399691104888916,0.043003860861063004,0.06737430393695831,-1.5524394512176514,0.5587661862373352,-3.632056713104248,-0.1,-0.21,0.02,263.16
1682372390.99939013,78606007,2,0.41000000000000003,1.6300000000000001,155.5,-0.6450515389442444,0.1430753469467163,0.04205428436398506,0.04211166128516197,-1.6206496953964233,0.5735430717468262,-3.6278975009918213,-0.1,-0.21,0.02,263.16
1682372391.09944201,78706059,2,0.3,1.53,156.67000000000002,-0.6342160105705261,0.1493435502052307,0.017865953966975212,0.005270595662295818,-1.6887565851211548,0.5864286422729492,-3.6261146068573,-0.1,-0.21,0.02,263.16
1682372391.19941497,78806032,2,0.11,1.42,157.85,-0.6406055092811584,0.14203616976737976,0.02864779718220234,0.007896936498582363,-1.7564352750778198,0.6007285118103027,-3.6251158714294434,-0.1,-0.21,0.02,263.16
1682372391.29947591,78906093,2,0.07,1.37,159.03,-0.6369388699531555,0.16426081955432892,0.048567917197942734,0.043544817715883255,-1.8242541551589966,0.6172179579734802,-3.623181104660034,-0.1,-0.21,0.02,263.16
1682372391.39945006,79006067,2,0.05,1.32,160.16,-0.6367180347442627,0.1832398623228073,0.02892131544649601,0.011145495809614658,-1.8906179666519165,0.6344737410545349,-3.6238415241241455,-0.1,-0.21,0.02,263.16
1682372391.49943900,79106056,2,0.04,1.27,161.27,-0.6403380036354065,0.19794364273548126,0.009765214286744595,-0.047194261103868484,-1.9542677402496338,0.6520246863365173,-3.62812876701355,-0.1,-0.21,0.02,263.16
1682372391.59943008,79206047,2,0.17,1.11,162.29,-0.6291401386260986,0.21193790435791016,-0.00829583965241909,-0.07087196409702301,-2.0182385444641113,0.6703255772590637,-3.631577491760254,-0.1,-0.21,0.01,263.16
1682372391.69937992,79305997,2,0.27,0.96,163.19,-0.6289964318275452,0.22574810683727264,0.017096899449825287,-0.057865843176841736,-2.0850670337677,0.6883531212806702,-3.6371543407440186,-0.1,-0.21,0.02,263.16
1682372391.79938793,79406005,2,0.17,0.9400000000000001,163.98,-0.6502163410186768,0.2301931083202362,8.717612945474684e-05,-0.08980781584978104,-2.1525495052337646,0.7082036733627319,-3.643373727798462,-0.1,-0.2,0.01,263.16
1682372391.89938307,79506000,2,0.22,0.99,164.63,-0.6555162072181702,0.25279396772384644,0.03957131505012512,-0.032348498702049255,-2.2271840572357178,0.730424165725708,-3.6475107669830322,-0.1,-0.2,0.01,263.16
1682372391.99945498,79606072,2,0.32,1.24,165.14000000000001,-0.6573434472084045,0.27151966094970703,0.04045737907290459,-0.02506936900317669,-2.2994465827941895,0.753617525100708,-3.651076316833496,-0.1,-0.2,0.01,263.16
1682372392.09941792,79706035,2,0.51,1.49,165.51,-0.6573710441589355,0.2728630602359772,0.05293843895196915,-0.007278963457792997,-2.3660783767700195,0.7761306166648865,-3.653235673904419,-0.1,-0.2,0.02,263.16
1682372392.19945908,79806076,2,0.76,1.3800000000000001,165.72,-0.6627839207649231,0.2762342095375061,0.06753674894571304,0.012601057067513466,-2.434028148651123,0.7997150421142578,-3.6536953449249268,-0.1,-0.2,0.01,263.16
1682372392.29946613,79906083,2,0.86,1.26,165.83,-0.6716415882110596,0.2765653133392334,0.053324997425079346,0.009573147632181644,-2.5059847831726074,0.8224146962165833,-3.652977228164673,-0.1,-0.2,0.01,263.16
1682372392.39943314,80006050,2,0.89,1.28,165.89000000000001,-0.6832386255264282,0.2716384828090668,0.05371983349323273,0.006908446550369263,-2.577148914337158,0.8458796143531799,-3.6525769233703613,-0.1,-0.2,0.02,263.16
1682372392.49941707,80106034,2,0.84,1.22,165.86,-0.6765289902687073,0.2612053453922272,0.0380089096724987,-0.021008197218179703,-2.6481924057006836,0.8700242042541504,-3.653560161590576,-0.1,-0.2,0.02,263.16
1682372392.59938598,80206003,2,0.84,1.2,165.74,-0.6888340711593628,0.27194666862487793,0.03039449080824852,-0.04892708361148834,-2.7190043926239014,0.8933378458023071,-3.65623140335083,-0.1,-0.2,0.02,263.16
1682372392.69938612,80306003,2,0.81,1.2,165.57,-0.6949798464775085,0.2668200433254242,0.03656202182173729,-0.0619642473757267,-2.790226936340332,0.9137935638427734,-3.6601920127868652,-0.1,-0.2,0.02,263.16
1682372392.79937696,80405994,2,0.75,1.1300000000000001,165.32,-0.6962795257568359,0.26674890518188477,0.058822229504585266,-0.016435300931334496,-2.8622472286224365,0.9357067942619324,-3.660825729370117,-0.1,-0.2,0.02,263.16
1682372392.89944911,80506066,2,0.68,1.1300000000000001,165.02,-0.7017468810081482,0.2825948894023895,0.0560271330177784,0.022020913660526276,-2.9364607334136963,0.9590306878089905,-3.6590323448181152,-0.1,-0.2,0.02,263.16
1682372392.99942207,80606039,2,0.74,1.18,164.71,-0.7110685706138611,0.27680593729019165,0.0548640713095665,0.023958195000886917,-3.0131113529205322,0.982961893081665,-3.6572883129119873,-0.1,-0.2,0.02,263.16
1682372393.09947109,80706088,2,0.81,1.25,164.41,-0.7180295586585999,0.28894656896591187,0.052830640226602554,0.03502028435468674,-3.0985867977142334,1.007834792137146,-3.6533284187316895,-0.1,-0.2,0.02,263.16
1682372393.19946694,80806084,2,0.73,1.67,164.1,-0.7247023582458496,0.285757452249527,0.07991953194141388,0.06315955519676208,-3.1814358234405518,1.0338634252548218,-3.64947509765625,-0.1,-0.2,0.02,263.16
1682372393.29943895,80906056,2,0.71,1.97,163.77,-0.7176982164382935,0.2893097400665283,0.07706055790185928,0.04852776601910591,-3.259061336517334,1.0600496530532837,-3.646345615386963,-0.1,-0.2,0.02,263.16
1682372393.39942908,81006046,2,0.8300000000000001,1.95,163.47,-0.7232150435447693,0.2965090870857239,0.06864786148071289,0.041769348084926605,-3.3362152576446533,1.0855515003204346,-3.6426713466644287,-0.1,-0.2,0.02,263.16
1682372393.49938202,81105999,2,0.91,1.86,163.20000000000002,-0.7256172299385071,0.2717626094818115,0.05800394341349602,0.017084233462810516,-3.414167642593384,1.1085573434829712,-3.641144037246704,-0.1,-0.2,0.02,263.16
1682372393.59938598,81206003,2,0.84,1.8,162.94,-0.7094959020614624,0.29194384813308716,0.04657726734876633,0.0038739973679184914,-3.4907145500183105,1.1312421560287476,-3.640001058578491,-0.1,-0.2,0.02,263.16
1682372393.69939113,81306008,2,0.8300000000000001,1.75,162.68,-0.7147558927536011,0.2894236743450165,0.04941695183515549,-0.010077477432787418,-3.567596435546875,1.1507985591888428,-3.6411914825439453,-0.1,-0.2,0.02,263.16
1682372393.79944992,81406067,2,0.75,1.74,162.45000000000002,-0.7168264985084534,0.26656395196914673,0.04107300937175751,-0.028786586597561836,-3.6432583332061768,1.1717840433120728,-3.642673969268799,-0.1,-0.2,0.02,263.16
1682372393.89943194,81506049,2,0.67,1.78,162.24,-0.7088610529899597,0.2787465453147888,0.04759754613041878,-0.006115971598774195,-3.7180938720703125,1.1928497552871704,-3.6421239376068115,-0.1,-0.2,0.02,263.16
1682372393.99947095,81606088,2,0.6900000000000001,1.92,162.11,-0.7125572562217712,0.2648165225982666,0.05436823517084122,0.008963905274868011,-3.791372537612915,1.2150291204452515,-3.641165018081665,-0.1,-0.2,0.02,263.16
1682372394.09942102,81706038,2,0.62,1.95,161.99,-0.7012802958488464,0.2753773331642151,0.05249239504337311,0.008032743819057941,-3.866131544113159,1.2315282821655273,-3.6401124000549316,-0.11,-0.2,0.02,263.16
1682372394.19944692,81806064,2,0.46,1.92,161.89000000000001,-0.70647794008255,0.2810153067111969,0.06929603219032288,0.01983729563653469,-3.940614938735962,1.249988317489624,-3.6396968364715576,-0.11,-0.2,0.02,263.16
1682372394.29942608,81906043,2,0.22,1.8,161.79,-0.6951741576194763,0.27026277780532837,0.04281661659479141,-0.01612812839448452,-4.015418529510498,1.2673405408859253,-3.6395726203918457,-0.11,-0.2,0.02,263.16
1682372394.39938498,82006002,2,0.21,1.74,161.76,-0.690426766872406,0.27536433935165405,0.03903740644454956,-0.020656386390328407,-4.088087558746338,1.288149356842041,-3.6392130851745605,-0.11,-0.2,0.02,263.16
1682372394.49938393,82106001,2,0.23,1.69,161.73,-0.6836125254631042,0.2936057150363922,0.043946411460638046,-0.012601449154317379,-4.1606245040893555,1.3107751607894897,-3.63850474357605,-0.11,-0.2,0.02,263.16
1682372394.59938502,82206002,2,0.3,1.6600000000000001,161.79,-0.6814107894897461,0.2897666096687317,0.06689179688692093,0.032291315495967865,-4.231990337371826,1.3351633548736572,-3.6361844539642334,-0.11,-0.2,0.02,263.16
1682372394.69944596,82306063,2,0.46,1.7,161.82,-0.689128041267395,0.3047362267971039,0.04896320402622223,0.022432299330830574,-4.3044867515563965,1.3581194877624512,-3.633540153503418,-0.11,-0.2,0.01,263.16
1682372394.79943895,82406056,2,0.41000000000000003,1.67,161.88,-0.6818898916244507,0.3062970042228699,0.03360883146524429,0.0062063876539468765,-4.375631332397461,1.3832443952560425,-3.631544589996338,-0.11,-0.2,0.01,263.16
1682372394.89946914,82506086,2,0.48,1.76,161.99,-0.6760905385017395,0.304139107465744,0.033662181347608566,0.017868436872959137,-4.450260639190674,1.4094260931015015,-3.628347158432007,-0.11,-0.2,0.01,263.16
1682372394.99941802,82606035,2,0.5,1.86,162.09,-0.6782652139663696,0.3261112868785858,0.04326920956373215,0.023355096578598022,-4.52478551864624,1.4367173910140991,-3.626361608505249,-0.11,-0.2,0.01,263.16
1682372395.09943199,82706049,2,0.51,1.93,162.20000000000002,-0.6720258593559265,0.3254737854003906,0.0513356514275074,0.035362474620342255,-4.599026679992676,1.4641550779342651,-3.623936653137207,-0.11,-0.2,0.01,263.16
1682372395.19942307,82806040,2,0.48,1.87,162.29,-0.6608562469482422,0.3308413624763489,0.00038013342418707907,-0.006205042824149132,-4.671480655670166,1.4922267198562622,-3.6217472553253174,-0.11,-0.2,0.01,263.16
1682372395.29938507,82906002,2,0.44,1.86,162.33,-0.6632051467895508,0.33938753604888916,0.03831570968031883,0.017363842576742172,-4.745174407958984,1.5146574974060059,-3.621699333190918,-0.11,-0.2,0.01,263.16
1682372395.39938712,83006004,2,0.36,1.86,162.35,-0.6666660904884338,0.3333635628223419,0.0400850735604763,0.0017250407254323363,-4.816078186035156,1.5390516519546509,-3.6228108406066895,-0.11,-0.2,0.01,263.16
1682372395.49938297,83106000,2,0.36,1.8800000000000001,162.36,-0.6573784947395325,0.34188276529312134,0.02855348400771618,-0.0012481058947741985,-4.886628150939941,1.5618177652359009,-3.6224637031555176,-0.11,-0.2,0.01,263.16
1682372395.59944201,83206059,2,0.41000000000000003,1.87,162.33,-0.6463890671730042,0.35694006085395813,0.037834346294403076,0.02201051265001297,-4.956031322479248,1.5873422622680664,-3.621074676513672,-0.11,-0.2,0.01,263.16
1682372395.69941592,83306033,2,0.51,1.8800000000000001,162.35,-0.6558095216751099,0.3522210121154785,0.03214717283844948,0.04615824297070503,-5.027909755706787,1.6116511821746826,-3.617034435272217,-0.11,-0.2,0.01,263.16
1682372395.79947305,83406090,2,0.6900000000000001,1.87,162.37,-0.6609929800033569,0.3548978269100189,0.029587533324956894,0.047750912606716156,-5.098723888397217,1.638258695602417,-3.612910270690918,-0.11,-0.2,0.01,263.16
1682372395.89948606,83506103,2,0.77,1.87,162.37,-0.6453022360801697,0.3677578568458557,0.013127723708748817,0.03592108190059662,-5.170786380767822,1.6670913696289062,-3.6086807250976562,-0.11,-0.2,0.01,263.16
1682372395.99943304,83606050,2,0.87,1.8900000000000001,162.39000000000001,-0.6484986543655396,0.36376628279685974,0.03514833003282547,0.042569033801555634,-5.241460800170898,1.6965527534484863,-3.605778694152832,-0.11,-0.2,0.01,263.16
1682372396.09941602,83706033,2,0.91,1.92,162.39000000000001,-0.654289186000824,0.3573315441608429,0.03659367933869362,0.04053259268403053,-5.312267303466797,1.7238247394561768,-3.603757381439209,-0.11,-0.2,0.01,263.16
1682372396.19937706,83805994,2,0.97,1.93,162.35,-0.6498110890388489,0.3685484826564789,0.008494713343679905,-0.0006920476444065571,-5.381924629211426,1.7513386011123657,-3.602524757385254,-0.12,-0.2,0.01,263.16
1682372396.29938006,83905997,2,0.96,1.94,162.28,-0.643536388874054,0.36212536692619324,0.021755557507276535,0.02594243735074997,-5.451822757720947,1.7762422561645508,-3.600430488586426,-0.12,-0.2,0.01,263.16
1682372396.39940000,84006017,2,0.92,1.85,162.22,-0.6546871662139893,0.3507724404335022,0.016316235065460205,0.026804883033037186,-5.520994186401367,1.8034521341323853,-3.5982954502105713,-0.12,-0.2,0.01,263.16
1682372396.49944997,84106067,2,0.93,1.84,162.15,-0.6560723185539246,0.35157009959220886,0.0307772159576416,0.05319059267640114,-5.590785503387451,1.8319247961044312,-3.5954878330230713,-0.12,-0.2,0.01,263.16
1682372396.59941792,84206035,2,1.08,1.86,162.07,-0.6612190008163452,0.35627633333206177,0.002835930325090885,0.021296432241797447,-5.659965991973877,1.8611183166503906,-3.5933449268341064,-0.12,-0.2,0.01,263.16
1682372396.69947696,84306094,2,1.04,1.78,161.97,-0.6632757782936096,0.35449087619781494,-0.04382658377289772,-0.007064307574182749,-5.731858253479004,1.8904556035995483,-3.5902862548828125,-0.12,-0.2,0.01,263.16
1682372396.79944611,84406063,2,1.07,1.8,161.86,-0.6581801176071167,0.3618905544281006,-0.021816829219460487,0.015217897482216358,-5.80305814743042,1.9208505153656006,-3.588449478149414,-0.12,-0.2,0.01,263.16
1682372396.89943194,84506049,2,1.08,1.92,161.75,-0.6621597409248352,0.3560068607330322,0.0037118522450327873,0.0391821414232254,-5.8741278648376465,1.9503037929534912,-3.587721109390259,-0.12,-0.2,0.01,263.16
1682372396.99942493,84606042,2,1.18,2.04,161.64000000000001,-0.6771278977394104,0.3357941806316376,-0.0397191047668457,-0.023052778095006943,-5.943833351135254,1.9817767143249512,-3.5891854763031006,-0.12,-0.2,0.01,263.16
1682372397.09938002,84705997,2,1.3,2.08,161.57,-0.6656131744384766,0.3415410816669464,-0.02008318156003952,-0.017492836341261864,-6.015539169311523,2.011132001876831,-3.592031717300415,-0.12,-0.2,0.01,263.16
1682372397.19938707,84806004,2,1.4000000000000001,2.19,161.5,-0.6743995547294617,0.3288867473602295,-0.030993206426501274,-0.05448230728507042,-6.085938453674316,2.0409481525421143,-3.598238229751587,-0.12,-0.2,0.01,263.16
1682372397.29938412,84906001,2,1.49,2.17,161.41,-0.6692184805870056,0.34815576672554016,-0.04844774678349495,-0.09317371249198914,-6.156229019165039,2.069305658340454,-3.6061959266662598,-0.12,-0.2,0.01,263.16
1682372397.39944696,85006064,2,1.41,2.23,161.37,-0.6652803421020508,0.3251890540122986,-0.0038637411780655384,-0.06273919343948364,-6.226116180419922,2.0982744693756104,-3.6142737865448,-0.12,-0.2,0.01,263.16
1682372397.49944401,85106061,2,1.22,2.2600000000000002,161.4,-0.6696733832359314,0.3087807893753052,-0.01996462419629097,-0.0822552889585495,-6.297694683074951,2.1224029064178467,-3.6224515438079834,-0.12,-0.2,0.01,263.16
1682372397.59947014,85206087,2,1.06,2.29,161.41,-0.6686446666717529,0.306768000125885,-0.013683097437024117,-0.08166515082120895,-6.3671650886535645,2.148167371749878,-3.631074905395508,-0.12,-0.2,0.01,263.16
1682372397.69945192,85306069,2,0.98,2.2600000000000002,161.47,-0.6557689309120178,0.31853827834129333,-0.020591530948877335,-0.07874865084886551,-6.435955047607422,2.173618793487549,-3.6386778354644775,-0.12,-0.2,0.01,263.16
1682372397.79943109,85406048,2,0.96,2.23,161.53,-0.6550122499465942,0.30899256467819214,0.0062661077827215195,-0.03856978937983513,-6.50370979309082,2.2000765800476074,-3.645111322402954,-0.12,-0.2,0.01,263.16
1682372397.89942503,85506042,2,1.0,2.14,161.56,-0.6522148847579956,0.3169073462486267,-0.012630979530513287,-0.04796474426984787,-6.573054790496826,2.224118232727051,-3.6508967876434326,-0.12,-0.2,0.01,263.16
1682372397.99938512,85606002,2,1.1,2.08,161.58,-0.6591514945030212,0.28653207421302795,0.00038697500713169575,-0.03731590881943703,-6.640937328338623,2.249335765838623,-3.655853509902954,-0.12,-0.2,0.01,263.16
1682372398.09938598,85706003,2,1.1400000000000001,1.94,161.56,-0.663530170917511,0.30233097076416016,0.005386175122112036,-0.026335351169109344,-6.708106994628906,2.2737486362457275,-3.6596665382385254,-0.12,-0.2,0.01,263.16
1682372398.19938302,85806000,2,1.19,1.79,161.56,-0.6513456702232361,0.30451062321662903,0.0030883224681019783,-0.02984340488910675,-6.775454521179199,2.29955792427063,-3.6631691455841064,-0.12,-0.2,0.01,263.16
1682372398.29945493,85906072,2,1.17,1.7,161.56,-0.6561773419380188,0.29604196548461914,-0.0035762477200478315,-0.025729652494192123,-6.848419189453125,2.3260936737060547,-3.665437936782837,-0.12,-0.2,0.01,263.16
1682372398.39943600,86006053,2,1.12,1.9000000000000001,161.57,-0.6669326424598694,0.282112717628479,0.023255273699760437,-0.01077176071703434,-6.920340538024902,2.3536574840545654,-3.6685941219329834,-0.12,-0.2,0.01,263.16
1682372398.49946308,86106080,2,1.1400000000000001,2.12,161.62,-0.6726555824279785,0.2877407968044281,-0.03006519377231598,-0.04006429761648178,-6.9943389892578125,2.383028745651245,-3.6684763431549072,-0.12,-0.2,0.01,263.16
1682372398.59946203,86206079,2,1.21,2.38,161.64000000000001,-0.6710830926895142,0.2986820638179779,0.0061076972633600235,-0.003306381404399872,-7.067083358764648,2.412632465362549,-3.6687541007995605,-0.12,-0.2,0.01,263.16
1682372398.69943404,86306051,2,1.27,2.52,161.67000000000002,-0.6576321721076965,0.2988516390323639,0.00035889135324396193,0.0014166380278766155,-7.137704849243164,2.4399969577789307,-3.6665587425231934,-0.12,-0.2,0.01,263.16
1682372398.79940701,86406024,2,1.25,2.42,161.65,-0.6600620150566101,0.3078692853450775,0.042613402009010315,0.027286214753985405,-7.207115650177002,2.467535972595215,-3.6669631004333496,-0.12,-0.2,0.01,263.16
1682372398.89937997,86505997,2,1.31,2.2600000000000002,161.66,-0.659492015838623,0.2783292531967163,0.048712871968746185,-0.008778703399002552,-7.2766594886779785,2.4930992126464844,-3.6700046062469482,-0.12,-0.2,0.01,263.16
1682372398.99939299,86606010,2,1.36,2.21,161.62,-0.6724033355712891,0.2701804041862488,0.024267474189400673,-0.038357146084308624,-7.3461222648620605,2.5183310508728027,-3.6717424392700195,-0.12,-0.2,0.01,263.16
1682372399.09940696,86706024,2,1.37,2.1,161.58,-0.6587344408035278,0.28114184737205505,0.04139634966850281,0.0165453739464283,-7.417742729187012,2.542126417160034,-3.6703591346740723,-0.12,-0.2,0.01,263.16
1682372399.19945312,86806070,2,1.36,2.09,161.52,-0.6688971519470215,0.25978466868400574,0.0349946990609169,0.027721812948584557,-7.489620685577393,2.564899444580078,-3.668092966079712,-0.13,-0.2,0.01,263.16
1682372399.29942298,86906040,2,1.33,2.08,161.46,-0.6670109033584595,0.2508871853351593,0.05683189630508423,0.06144228205084801,-7.562518119812012,2.5859131813049316,-3.664557933807373,-0.13,-0.2,0.01,263.16
1682372399.39946914,87006086,2,1.21,2.11,161.39000000000001,-0.6765362620353699,0.24363283812999725,0.044656943529844284,0.042570509016513824,-7.6343183517456055,2.6073546409606934,-3.660576105117798,-0.13,-0.2,0.01,263.16
1682372399.49944496,87106062,2,1.19,2.13,161.33,-0.6628076434135437,0.2560870349407196,0.0488310381770134,0.059316858649253845,-7.7082672119140625,2.6291446685791016,-3.6557929515838623,-0.13,-0.2,0.01,263.16
1682372399.59944391,87206061,2,1.27,2.2600000000000002,161.3,-0.6563612222671509,0.26697805523872375,0.035634130239486694,0.03489653393626213,-7.780413627624512,2.6507298946380615,-3.651527166366577,-0.13,-0.2,0.01,263.16
1682372399.69942594,87306043,2,1.29,2.25,161.29,-0.6570988297462463,0.24932637810707092,0.05846302583813667,0.08026712387800217,-7.8515706062316895,2.671137571334839,-3.6455225944519043,-0.13,-0.2,0.01,263.16
1682372399.79938293,87406000,2,1.25,2.13,161.3,-0.6718202233314514,0.20394077897071838,0.020163733512163162,0.03211405128240585,-7.921514987945557,2.6911585330963135,-3.6417322158813477,-0.13,-0.2,0.01,263.16
1682372399.89938402,87506001,2,1.23,1.99,161.35,-0.6564247608184814,0.22075402736663818,0.045582812279462814,0.03459049016237259,-7.991728782653809,2.7084648609161377,-3.639890670776367,-0.13,-0.2,0.01,263.16
1682372399.99938107,87605998,2,1.08,1.94,161.41,-0.6562442183494568,0.24472995102405548,0.03192088007926941,0.007882724516093731,-8.061927795410156,2.7273764610290527,-3.6384201049804688,-0.13,-0.2,0.01,263.16
1682372400.09945607,87706073,2,0.86,1.8,161.51,-0.6563724279403687,0.22559385001659393,0.0031947484239935875,-0.010950103402137756,-8.13490104675293,2.748283863067627,-3.637193441390991,-0.13,-0.2,0.01,263.16
1682372400.19941592,87806033,2,0.78,1.84,161.64000000000001,-0.6580578684806824,0.22324945032596588,0.009440303780138493,-0.010535416193306446,-8.207425117492676,2.769350051879883,-3.6376819610595703,-0.13,-0.2,0.01,263.16
1682372400.29947305,87906090,2,0.6,1.93,161.77,-0.6599540710449219,0.24334797263145447,0.03305455297231674,0.003968962002545595,-8.281820297241211,2.7891876697540283,-3.6391146183013916,-0.13,-0.2,0.01,263.16
1682372400.39945698,88006074,2,0.46,2.0300000000000002,161.9,-0.659101665019989,0.2405747026205063,0.018111927434802055,-0.034468766301870346,-8.354400634765625,2.810426950454712,-3.644279956817627,-0.13,-0.2,0.01,263.16
1682372400.49942994,88106047,2,0.48,2.1,162.03,-0.6567471623420715,0.23243348300457,-0.015001294203102589,-0.09891650080680847,-8.4254150390625,2.831380844116211,-3.651432991027832,-0.13,-0.2,0.01,263.16
1682372400.59942412,88206041,2,0.6900000000000001,2.11,162.13,-0.6449691653251648,0.2599546015262604,-0.007832848466932774,-0.09280163794755936,-8.495553970336914,2.8539414405822754,-3.6586318016052246,-0.13,-0.2,0.01,263.16
1682372400.69938993,88306007,2,0.8200000000000001,2.1,162.22,-0.6527657508850098,0.240126371383667,-0.028904816135764122,-0.11577264964580536,-8.566414833068848,2.87842059135437,-3.666656732559204,-0.13,-0.2,0.01,263.16
1682372400.79938102,88405998,2,1.01,2.09,162.29,-0.6443720459938049,0.24307292699813843,0.006797038950026035,-0.07382772117853165,-8.634658813476562,2.904120683670044,-3.6732358932495117,-0.13,-0.19,0.01,263.16
1682372400.89938402,88506001,2,1.18,2.0300000000000002,162.3,-0.6393632292747498,0.26578688621520996,0.01587003469467163,-0.04141746461391449,-8.702252388000488,2.93064284324646,-3.6782073974609375,-0.13,-0.19,0.01,263.16
1682372400.99944901,88606066,2,1.31,1.8900000000000001,162.3,-0.6484310626983643,0.24001501500606537,0.0241395216435194,-0.016866041347384453,-8.768582344055176,2.956357717514038,-3.681039810180664,-0.13,-0.2,0.02,263.16
1682372401.09941411,88706031,2,1.37,1.74,162.31,-0.6411058902740479,0.25339341163635254,0.03475946933031082,0.004574805032461882,-8.834002494812012,2.978806495666504,-3.6823270320892334,-0.13,-0.2,0.01,263.16
1682372401.19947004,88806087,2,1.18,1.55,162.31,-0.64234459400177,0.2588353455066681,0.03220819681882858,0.011228499002754688,-8.898486137390137,3.001478433609009,-3.6819870471954346,-0.13,-0.2,0.01,263.16
1682372401.29946709,88906084,2,1.11,1.45,162.28,-0.6517372131347656,0.24068522453308105,0.02820752188563347,0.00556976767256856,-8.964113235473633,3.024714946746826,-3.6819965839385986,-0.13,-0.2,0.01,263.16
1682372401.39944196,89006059,2,1.1500000000000001,1.34,162.29,-0.6598546504974365,0.2334805577993393,0.03769085183739662,-0.006701701320707798,-9.030557632446289,3.0481324195861816,-3.683098077774048,-0.13,-0.2,0.01,263.16
1682372401.49941111,89106028,2,1.1500000000000001,1.33,162.25,-0.6653578281402588,0.2372507005929947,0.027115950360894203,-0.019830496981739998,-9.102402687072754,3.0706491470336914,-3.6835381984710693,-0.13,-0.19,0.01,263.16
1682372401.59938812,89206005,2,1.12,1.48,162.21,-0.6790958046913147,0.24809086322784424,0.06533461809158325,0.004294763319194317,-9.173776626586914,3.0936119556427,-3.6850626468658447,-0.13,-0.19,0.01,263.16
1682372401.69938207,89305999,2,0.93,1.56,162.17000000000002,-0.684185802936554,0.2480427473783493,0.06265906244516373,0.009468021802604198,-9.247689247131348,3.1154024600982666,-3.685154914855957,-0.13,-0.19,0.01,263.16
1682372401.79939008,89406007,2,0.77,1.69,162.14000000000001,-0.6770293116569519,0.2661518156528473,0.06476307660341263,0.025222688913345337,-9.320253372192383,3.138441801071167,-3.6844303607940674,-0.13,-0.19,0.01,263.16
1682372401.89942813,89506045,2,0.64,1.81,162.06,-0.6828087568283081,0.2613828480243683,0.04865657165646553,0.031072938814759254,-9.391283988952637,3.1632351875305176,-3.6824722290039062,-0.13,-0.19,0.02,263.16
1682372401.99943304,89606050,2,0.72,1.77,161.96,-0.6926554441452026,0.23490974307060242,0.03456762060523033,0.029152115806937218,-9.461483001708984,3.1887550354003906,-3.679020404815674,-0.13,-0.2,0.02,263.16
1682372402.09947300,89706090,2,0.9,1.73,161.87,-0.6807674765586853,0.26571860909461975,0.046990323811769485,0.0649002194404602,-9.5306396484375,3.2146928310394287,-3.6734163761138916,-0.13,-0.2,0.02,263.16
1682372402.19944906,89806066,2,1.09,1.71,161.73,-0.6851702928543091,0.2798323929309845,0.035673391073942184,0.046682100743055344,-9.60050106048584,3.241023063659668,-3.6687049865722656,-0.13,-0.19,0.01,263.16
1682372402.29943705,89906054,2,1.27,1.6300000000000001,161.65,-0.6776200532913208,0.27391666173934937,0.03569099307060242,0.04005572944879532,-9.671940803527832,3.266094207763672,-3.6639482975006104,-0.13,-0.19,0.01,263.16
1682372402.39942908,90006046,2,1.3800000000000001,1.67,161.55,-0.6902928948402405,0.2693858742713928,0.06774841248989105,0.06151232868432999,-9.742377281188965,3.2916126251220703,-3.659738063812256,-0.13,-0.19,0.01,263.16
1682372402.49938703,90106004,2,1.31,1.6500000000000001,161.47,-0.6898000836372375,0.258904367685318,0.02380736917257309,0.027102584019303322,-9.811851501464844,3.316880702972412,-3.6541948318481445,-0.13,-0.19,0.01,263.16
1682372402.59938192,90205999,2,1.26,1.57,161.4,-0.6921424865722656,0.2849474251270294,0.05468875169754028,0.060157619416713715,-9.881659507751465,3.3419971466064453,-3.6499509811401367,-0.13,-0.2,0.01,263.16
1682372402.69938302,90306000,2,1.24,1.5,161.38,-0.6841824650764465,0.2854534089565277,0.04730376973748207,0.04036359488964081,-9.951898574829102,3.3668441772460938,-3.647404193878174,-0.13,-0.2,0.01,263.16
1682372402.79945302,90406070,2,1.36,1.56,161.38,-0.6895452737808228,0.28410500288009644,0.039262134581804276,0.02466275915503502,-10.022544860839844,3.392504930496216,-3.6458048820495605,-0.13,-0.19,0.01,263.16
1682372402.89942193,90506039,2,1.29,1.6300000000000001,161.42000000000002,-0.698431670665741,0.2748403549194336,0.024512430652976036,-0.0020966685842722654,-10.09499454498291,3.4192025661468506,-3.6455256938934326,-0.13,-0.19,0.01,263.16
1682372402.99946904,90606086,2,1.24,1.83,161.48,-0.7001144886016846,0.27651241421699524,0.04660077393054962,0.019116461277008057,-10.166775703430176,3.445941686630249,-3.64585280418396,-0.13,-0.19,0.01,263.16
1682372403.09946012,90706077,2,1.27,1.99,161.54,-0.7040761709213257,0.27761131525039673,0.028146421536803246,-0.01566731184720993,-10.24067211151123,3.4733591079711914,-3.648284912109375,-0.13,-0.19,0.01,263.16
1682372403.19944191,90806059,2,1.3900000000000001,2.1,161.62,-0.6988627910614014,0.28223830461502075,0.012903669849038124,-0.041412245482206345,-10.313214302062988,3.5002336502075195,-3.650322675704956,-0.13,-0.19,0.01,263.16
1682372403.29942107,90906038,2,1.52,2.14,161.74,-0.7012597918510437,0.2663421034812927,0.02997850999236107,-0.012998056598007679,-10.384368896484375,3.526627540588379,-3.6510443687438965,-0.13,-0.19,0.01,263.16
1682372403.39937711,91005994,2,1.49,2.04,161.86,-0.697416365146637,0.2573479115962982,0.037604015320539474,-0.010196331888437271,-10.454012870788574,3.553142547607422,-3.652756452560425,-0.13,-0.19,0.01,263.16
1682372403.49938607,91106003,2,1.46,1.95,162.0,-0.6954634785652161,0.24840830266475677,0.030612153932452202,-0.029339564964175224,-10.52086353302002,3.5786468982696533,-3.6552627086639404,-0.13,-0.19,0.01,263.16
1682372403.59938002,91205997,2,1.44,1.79,162.11,-0.6942834258079529,0.2462775707244873,0.028497597202658653,-0.038419708609580994,-10.587167739868164,3.6038975715637207,-3.6570725440979004,-0.13,-0.2,0.01,263.16
1682372403.69944096,91306058,2,1.45,1.71,162.27,-0.68366539478302,0.24341394007205963,0.03048579953610897,-0.019164955243468285,-10.651752471923828,3.6291184425354004,-3.657642364501953,-0.13,-0.2,0.01,263.16
1682372403.79943395,91406051,2,1.3900000000000001,1.73,162.4,-0.6951277256011963,0.24396638572216034,0.04157749563455582,-0.014041620306670666,-10.717646598815918,3.6536433696746826,-3.659081220626831,-0.13,-0.2,0.01,263.16
1682372403.89945793,91506075,2,1.32,1.75,162.52,-0.6944698691368103,0.2446230798959732,0.06361592561006546,5.063584103481844e-05,-10.785048484802246,3.6766366958618164,-3.6602609157562256,-0.13,-0.2,0.01,263.16
1682372403.99944401,91606061,2,1.33,1.79,162.56,-0.6935539841651917,0.26240074634552,0.0635606199502945,-0.007297048810869455,-10.854453086853027,3.700256586074829,-3.661456823348999,-0.13,-0.2,0.01,263.16
