timestamp,TimeUS,Lat,Lng,Alt,RelHomeAlt,RelOriginAlt
1674320764.05875874,69871132,42.6894827,-84.4916818,265.1399841308594,0.005219215527176857,-6.64478063583374
1674320764.09928894,69911662,42.6894827,-84.4916818,265.1399841308594,0.006848568096756935,-6.64315128326416
1674320764.13905191,69951425,42.6894827,-84.4916818,265.1399841308594,0.008320087566971779,-6.641679763793945
1674320764.13921785,69951591,42.6894827,-84.4916818,265.1399841308594,0.008320087566971779,-6.641679763793945
1674320764.17876673,69991140,42.6894827,-84.4916818,265.1399841308594,0.00993608869612217,-6.640063762664795
1674320764.21871376,70031087,42.6894827,-84.4916818,265.1499938964844,0.011532539501786232,-6.638467311859131
1674320764.23926377,70051637,42.6894827,-84.4916818,265.1499938964844,0.011791938915848732,-6.638207912445068
1674320764.25877094,70071144,42.6894827,-84.4916818,265.1499938964844,0.012228244915604591,-6.6377716064453125
1674320764.29906988,70111443,42.6894827,-84.4916818,265.1499938964844,0.012984031811356544,-6.6370158195495605
1674320764.33942485,70151798,42.6894828,-84.4916818,265.1499938964844,0.013913864269852638,-6.6360859870910645
1674320764.33950496,70151878,42.6894828,-84.4916818,265.1499938964844,0.013913864269852638,-6.6360859870910645
1674320764.37879682,70191170,42.6894828,-84.4916818,265.1499938964844,0.014868969097733498,-6.635130882263184
1674320764.41876292,70231136,42.6894828,-84.4916818,265.1499938964844,0.01439785398542881,-6.635601997375488
1674320764.43925095,70251624,42.6894828,-84.4916818,265.1499938964844,0.013973945751786232,-6.636025905609131
1674320764.45878196,70271155,42.6894828,-84.4916818,265.1499938964844,0.014066928997635841,-6.635932922363281
1674320764.49910975,70311483,42.6894828,-84.4916818,265.1499938964844,0.0135571900755167,-6.6364426612854
1674320764.53919291,70351566,42.6894828,-84.4916818,265.1499938964844,0.013623470440506935,-6.63637638092041
1674320764.53932595,70351699,42.6894828,-84.4916818,265.1499938964844,0.013623470440506935,-6.63637638092041
1674320764.57890773,70391281,42.6894828,-84.4916818,265.1499938964844,0.013872379437088966,-6.636127471923828
1674320764.61879182,70431165,42.6894828,-84.4916817,265.1499938964844,0.013710731640458107,-6.636289119720459
1674320764.63924074,70451614,42.6894828,-84.4916817,265.1499938964844,0.013489002361893654,-6.636510848999023
1674320764.65876079,70471134,42.6894828,-84.4916817,265.1499938964844,0.013653511181473732,-6.636346340179443
1674320764.69919682,70511570,42.6894828,-84.4916817,265.1499938964844,0.013252967968583107,-6.636746883392334
1674320764.73925090,70551624,42.6894828,-84.4916817,265.1499938964844,0.013296836987137794,-6.636703014373779
1674320764.73932290,70551696,42.6894828,-84.4916817,265.1499938964844,0.013296836987137794,-6.636703014373779
1674320764.77880883,70591182,42.6894828,-84.4916817,265.1499938964844,0.013463729992508888,-6.636536121368408
1674320764.81880975,70631183,42.6894828,-84.4916817,265.1499938964844,0.013509506359696388,-6.636490345001221
1674320764.83925676,70651630,42.6894828,-84.4916817,265.1499938964844,0.013075107708573341,-6.636924743652344
1674320764.85876894,70671142,42.6894828,-84.4916817,265.1499938964844,0.013113731518387794,-6.636886119842529
1674320764.89913893,70711512,42.6894828,-84.4916817,265.1499938964844,0.012473339214920998,-6.637526512145996
1674320764.93922281,70751596,42.6894828,-84.4916817,265.1499938964844,0.01232885755598545,-6.637670993804932
1674320764.93934488,70751718,42.6894828,-84.4916817,265.1499938964844,0.01232885755598545,-6.637670993804932
1674320764.97874594,70791119,42.6894828,-84.49168159999999,265.1499938964844,0.012296432629227638,-6.6377034187316895
1674320765.01874995,70831123,42.6894828,-84.49168159999999,265.1499938964844,0.011636490002274513,-6.638363361358643
1674320765.03928185,70851655,42.6894828,-84.49168159999999,265.1499938964844,0.011130088940262794,-6.638869762420654
1674320765.05883574,70871209,42.6894828,-84.49168159999999,265.1499938964844,0.011113399639725685,-6.638886451721191
1674320765.09913588,70911509,42.6894828,-84.49168159999999,265.1499938964844,0.010557884350419044,-6.639441967010498
1674320765.13930988,70951683,42.6894828,-84.49168159999999,265.1499938964844,0.010478252544999123,-6.639521598815918
1674320765.13942480,70951798,42.6894828,-84.49168159999999,265.1499938964844,0.010478252544999123,-6.639521598815918
1674320765.17880678,70991180,42.6894828,-84.49168159999999,265.1499938964844,0.01052355207502842,-6.639476299285889
1674320765.21873379,71031107,42.6894828,-84.4916815,265.1499938964844,0.010483020916581154,-6.639516830444336
1674320765.23927975,71051653,42.6894828,-84.4916815,265.1499938964844,0.010370487347245216,-6.639629364013672
1674320765.25873089,71071104,42.6894828,-84.4916815,265.1499938964844,0.010496372357010841,-6.639503479003906
1674320765.29905891,71111432,42.6894828,-84.4916815,265.1499938964844,0.010209793224930763,-6.639790058135986
1674320765.33934879,71151722,42.6894828,-84.4916815,265.1499938964844,0.010198349133133888,-6.639801502227783
1674320765.33942175,71151795,42.6894828,-84.4916815,265.1499938964844,0.010198349133133888,-6.639801502227783
1674320765.37882781,71191201,42.6894828,-84.4916815,265.1499938964844,0.010226959362626076,-6.639772891998291
1674320765.41873574,71231109,42.6894829,-84.4916815,265.1399841308594,0.009739631786942482,-6.640260219573975
1674320765.43926883,71251642,42.6894829,-84.4916815,265.1399841308594,0.008666271343827248,-6.64133358001709
1674320765.45869088,71271064,42.6894829,-84.49168139999999,265.1399841308594,0.008309120312333107,-6.641690731048584
1674320765.49907088,71311444,42.6894829,-84.49168139999999,265.1399841308594,0.0068042222410440445,-6.643195629119873
1674320765.53947783,71351851,42.6894829,-84.49168139999999,265.1399841308594,0.006051773205399513,-6.643948078155518
1674320765.53954887,71351922,42.6894829,-84.49168139999999,265.1399841308594,0.006051773205399513,-6.643948078155518
1674320765.57882190,71391195,42.6894829,-84.49168139999999,265.1399841308594,0.005441421642899513,-6.644558429718018
1674320765.61876893,71431142,42.6894829,-84.49168139999999,265.1399841308594,0.004862064495682716,-6.645137786865234
1674320765.63927794,71451651,42.6894829,-84.49168139999999,265.1399841308594,0.004287952557206154,-6.645711898803711
1674320765.65870786,71471081,42.6894829,-84.49168139999999,265.1399841308594,0.00412105955183506,-6.645878791809082
1674320765.69905972,71511433,42.6894829,-84.49168139999999,265.1399841308594,0.003200763836503029,-6.646799087524414
1674320765.73928881,71551662,42.6894829,-84.4916813,265.1399841308594,0.0027296487241983414,-6.647270202636719
1674320765.73943496,71551808,42.6894829,-84.4916813,265.1399841308594,0.0027296487241983414,-6.647270202636719
1674320765.77887392,71591247,42.6894829,-84.4916813,265.1399841308594,0.0023744050413370132,-6.64762544631958
1674320765.81873775,71631111,42.6894829,-84.4916813,265.1399841308594,0.0012280885130167007,-6.6487717628479
1674320765.83923578,71651609,42.6894829,-84.4916813,265.1399841308594,0.0004885140806436539,-6.649511337280273
1674320765.85874677,71671120,42.6894829,-84.4916813,265.1399841308594,0.000214332714676857,-6.64978551864624
1674320765.89908075,71711454,42.6894829,-84.4916813,265.1300048828125,-0.0011045988649129868,-6.65110445022583
1674320765.93925476,71751628,42.6894829,-84.4916813,265.1300048828125,-0.0018994864076375961,-6.651899337768555
1674320765.93939495,71751768,42.6894829,-84.4916813,265.1300048828125,-0.0018994864076375961,-6.651899337768555
1674320765.97881675,71791190,42.6894829,-84.4916813,265.1300048828125,-0.0025217588990926743,-6.65252161026001
1674320766.01877880,71831152,42.6894829,-84.4916813,265.1300048828125,-0.003968005999922752,-6.65396785736084
1674320766.03919578,71851569,42.689482999999996,-84.4916813,265.1300048828125,-0.004866844043135643,-6.654866695404053
1674320766.05879283,71871166,42.689482999999996,-84.4916813,265.1300048828125,-0.005243545398116112,-6.655243396759033
1674320766.09911489,71911488,42.689482999999996,-84.4916813,265.1300048828125,-0.006738906726241112,-6.656738758087158
1674320766.13935590,71951729,42.689482999999996,-84.4916813,265.1300048828125,-0.007675414904952049,-6.657675266265869
1674320766.13949084,71951864,42.689482999999996,-84.4916813,265.1300048828125,-0.007675414904952049,-6.657675266265869
1674320766.17873573,71991109,42.689482999999996,-84.4916813,265.1300048828125,-0.008497482165694237,-6.658497333526611
1674320766.21875381,72031127,42.689482999999996,-84.4916813,265.1300048828125,-0.0080492552369833,-6.6580491065979
1674320766.23924780,72051621,42.689482999999996,-84.4916813,265.1300048828125,-0.007793193683028221,-6.657793045043945
1674320766.25881481,72071188,42.689482999999996,-84.4916813,265.1300048828125,-0.007648712024092674,-6.65764856338501
1674320766.29915476,72111528,42.689482999999996,-84.4916813,265.1300048828125,-0.007297759875655174,-6.657297611236572
1674320766.33926177,72151635,42.689482999999996,-84.4916813,265.1300048828125,-0.007063155993819237,-6.657063007354736
1674320766.33933878,72151712,42.689482999999996,-84.4916813,265.1300048828125,-0.007063155993819237,-6.657063007354736
1674320766.37883186,72191205,42.689482999999996,-84.4916813,265.1300048828125,-0.006884342059493065,-6.65688419342041
1674320766.41874886,72231122,42.689482999999996,-84.4916813,265.1300048828125,-0.005980735644698143,-6.655980587005615
1674320766.43922973,72251603,42.689482999999996,-84.4916813,265.1300048828125,-0.0054333265870809555,-6.655433177947998
1674320766.45878983,72271163,42.689482999999996,-84.4916813,265.1300048828125,-0.005155330523848534,-6.655155181884766
1674320766.49909973,72311473,42.689482999999996,-84.4916813,265.1300048828125,-0.004078632220625877,-6.654078483581543
1674320766.53924894,72351622,42.689482999999996,-84.4916813,265.1300048828125,-0.003314262256026268,-6.653314113616943
1674320766.53936291,72351736,42.689482999999996,-84.4916813,265.1300048828125,-0.003314262256026268,-6.653314113616943
1674320766.57871389,72391087,42.689482999999996,-84.4916813,265.1300048828125,-0.00247836671769619,-6.652478218078613
1674320766.61884189,72431215,42.689482999999996,-84.4916813,265.1300048828125,-0.0027320440858602524,-6.652731895446777
1674320766.63932586,72451699,42.689482999999996,-84.4916813,265.1300048828125,-0.002887492999434471,-6.652887344360352
1674320766.65881085,72471184,42.689482999999996,-84.4916813,265.1300048828125,-0.0029499586671590805,-6.652949810028076
1674320766.69911194,72511485,42.689482999999996,-84.4916813,265.1300048828125,-0.0029346998780965805,-6.652934551239014
1674320766.73926473,72551638,42.689482999999996,-84.4916813,265.1300048828125,-0.0028555449098348618,-6.652855396270752
1674320766.73937774,72551751,42.689482999999996,-84.4916813,265.1300048828125,-0.0028555449098348618,-6.652855396270752
1674320766.77877975,72591153,42.6894831,-84.4916813,265.1300048828125,-0.002749210223555565,-6.652749061584473
1674320766.81875992,72631133,42.6894831,-84.4916813,265.1300048828125,-0.003252750262618065,-6.653252601623535
1674320766.83935285,72651726,42.6894831,-84.4916812,265.1300048828125,-0.0035607870668172836,-6.653560638427734
1674320766.85884380,72671217,42.6894831,-84.4916812,265.1300048828125,-0.0037167128175497055,-6.653716564178467
1674320766.89906883,72711442,42.6894831,-84.4916812,265.1300048828125,-0.003921752795577049,-6.653921604156494
1674320766.93927383,72751647,42.6894831,-84.4916812,265.1300048828125,-0.0040180739015340805,-6.654017925262451
1674320766.93937588,72751749,42.6894831,-84.4916812,265.1300048828125,-0.0040180739015340805,-6.654017925262451
1674320766.97884083,72791214,42.6894831,-84.4916812,265.1300048828125,-0.004173045977950096,-6.654172897338867
1674320767.01875973,72831133,42.6894831,-84.4916812,265.1300048828125,-0.004520660266280174,-6.654520511627197
1674320767.03932190,72851695,42.6894831,-84.4916812,265.1300048828125,-0.004718547686934471,-6.654718399047852
1674320767.05870485,72871078,42.6894831,-84.4916812,265.1300048828125,-0.004843955859541893,-6.654843807220459
1674320767.09906578,72911439,42.6894831,-84.4916812,265.1300048828125,-0.005137687548995018,-6.655137538909912
1674320767.13940573,72951779,42.6894831,-84.4916812,265.1300048828125,-0.005359416827559471,-6.655359268188477
1674320767.13948584,72951859,42.6894831,-84.4916812,265.1300048828125,-0.005359416827559471,-6.655359268188477
1674320767.17884588,72991219,42.6894831,-84.4916812,265.1300048828125,-0.005541091784834862,-6.655540943145752
1674320767.21886373,73031237,42.6894831,-84.4916812,265.1300048828125,-0.007232910022139549,-6.657232761383057
1674320767.23951387,73051887,42.6894831,-84.4916812,265.1300048828125,-0.00822473131120205,-6.658224582672119
1674320767.25869679,73071070,42.6894831,-84.4916812,265.1300048828125,-0.008721595630049706,-6.658721446990967
1674320767.29904175,73111415,42.6894831,-84.4916811,265.1199951171875,-0.010301833972334862,-6.660301685333252
1674320767.33934593,73151719,42.6894831,-84.4916811,265.1199951171875,-0.011765724048018456,-6.6617655754089355
1674320767.33945894,73151832,42.6894831,-84.4916811,265.1199951171875,-0.011765724048018456,-6.6617655754089355
1674320767.37881494,73191188,42.6894831,-84.4916811,265.1199951171875,-0.012994056567549706,-6.662993907928467
1674320767.41877484,73231148,42.6894831,-84.4916811,265.1199951171875,-0.014446025714278221,-6.664445877075195
1674320767.43923593,73251609,42.6894831,-84.4916811,265.1199951171875,-0.015570884570479393,-6.6655707359313965
1674320767.45877385,73271147,42.6894831,-84.4916811,265.1199951171875,-0.016208892688155174,-6.666208744049072
1674320767.49907494,73311448,42.6894831,-84.4916811,265.1199951171875,-0.017884498462080956,-6.667884349822998
1674320767.53927779,73351651,42.6894831,-84.4916811,265.1199951171875,-0.019132858142256737,-6.669132709503174
1674320767.53946280,73351836,42.6894831,-84.4916811,265.1199951171875,-0.019132858142256737,-6.669132709503174
1674320767.57888675,73391260,42.6894831,-84.4916811,265.1099853515625,-0.02025771699845791,-6.670257568359375
1674320767.61879086,73431164,42.6894831,-84.4916811,265.1099853515625,-0.02302432619035244,-6.6730241775512695
1674320767.63937879,73451752,42.6894831,-84.4916811,265.1099853515625,-0.024706607684493065,-6.67470645904541
1674320767.65878487,73471158,42.6894831,-84.4916811,265.1099853515625,-0.025601154193282127,-6.675601005554199
1674320767.69908977,73511463,42.6894831,-84.4916811,265.1099853515625,-0.0282671507447958,-6.678267002105713
1674320767.73923874,73551612,42.6894831,-84.4916811,265.1000061035156,-0.030350452288985252,-6.680350303649902
1674320767.73940587,73551779,42.6894831,-84.4916811,265.1000061035156,-0.030350452288985252,-6.680350303649902
1674320767.77875781,73591131,42.6894831,-84.4916811,265.1000061035156,-0.03205800801515579,-6.682057857513428
1674320767.81877375,73631147,42.6894832,-84.4916811,265.1000061035156,-0.034132249653339386,-6.684132099151611
1674320767.83925796,73651631,42.6894832,-84.4916812,265.1000061035156,-0.035256631672382355,-6.685256481170654
1674320767.85877776,73671151,42.6894832,-84.4916812,265.1000061035156,-0.03593612462282181,-6.685935974121094
1674320767.89915395,73711527,42.6894832,-84.4916812,265.1000061035156,-0.037698037922382355,-6.687697887420654
1674320767.93930173,73751675,42.6894832,-84.4916812,265.1000061035156,-0.0390937402844429,-6.689093589782715
1674320767.93943882,73751812,42.6894832,-84.4916812,265.1000061035156,-0.0390937402844429,-6.689093589782715
1674320767.97875786,73791131,42.6894832,-84.4916812,265.0899963378906,-0.0401465967297554,-6.690146446228027
1674320768.01883388,73831207,42.6894832,-84.4916812,265.0899963378906,-0.0426948145031929,-6.692694664001465
1674320768.03925276,73851626,42.6894832,-84.4916812,265.0899963378906,-0.044091470539569855,-6.694091320037842
1674320768.05887294,73871246,42.6894832,-84.4916812,265.0899963378906,-0.04490114003419876,-6.694900989532471
1674320768.09911180,73911485,42.6894832,-84.4916812,265.0899963378906,-0.04688716679811478,-6.696887016296387
1674320768.13933778,73951711,42.6894832,-84.4916812,265.0899963378906,-0.04825521260499954,-6.6982550621032715
1674320768.13943887,73951812,42.6894832,-84.4916812,265.0899963378906,-0.04825521260499954,-6.6982550621032715
1674320768.17874384,73991117,42.6894832,-84.4916812,265.0899963378906,-0.049448736011981964,-6.699448585510254
1674320768.21876788,74031141,42.6894832,-84.4916812,265.0899963378906,-0.049694307148456573,-6.6996941566467285
1674320768.23960686,74051980,42.6894832,-84.4916812,265.0899963378906,-0.049719102680683136,-6.699718952178955
1674320768.25884175,74071215,42.6894832,-84.4916812,265.0899963378906,-0.04988408833742142,-6.699883937835693
1674320768.29914784,74111521,42.6894832,-84.4916812,265.0899963378906,-0.04974818974733353,-6.6997480392456055
1674320768.33927989,74151653,42.6894831,-84.4916812,265.0899963378906,-0.04976964741945267,-6.699769496917725
1674320768.33940077,74151774,42.6894831,-84.4916812,265.0899963378906,-0.04976964741945267,-6.699769496917725
1674320768.37877893,74191152,42.6894831,-84.4916812,265.0899963378906,-0.04966665059328079,-6.699666500091553
1674320768.41878080,74231154,42.6894831,-84.4916812,265.0899963378906,-0.04913259297609329,-6.699132442474365
1674320768.43936586,74251739,42.6894831,-84.4916812,265.0899963378906,-0.048809297382831573,-6.6988091468811035
1674320768.45882082,74271194,42.6894831,-84.4916812,265.0899963378906,-0.048872239887714386,-6.698872089385986
1674320768.49908090,74311454,42.6894831,-84.4916812,265.0899963378906,-0.04777408391237259,-6.6977739334106445
1674320768.53929186,74351665,42.6894831,-84.4916812,265.0899963378906,-0.046975381672382355,-6.696975231170654
1674320768.53940487,74351778,42.6894831,-84.4916812,265.0899963378906,-0.046975381672382355,-6.696975231170654
1674320768.57885194,74391225,42.6894831,-84.4916812,265.0899963378906,-0.046385057270526886,-6.696384906768799
1674320768.61881781,74431191,42.6894831,-84.4916812,265.0899963378906,-0.045925386250019073,-6.695925235748291
1674320768.63936090,74451734,42.6894831,-84.4916812,265.0899963378906,-0.04552818089723587,-6.695528030395508
1674320768.65881991,74471193,42.6894831,-84.4916811,265.0899963378906,-0.04552484303712845,-6.6955246925354
1674320768.69904375,74511417,42.6894831,-84.4916811,265.0899963378906,-0.04433322697877884,-6.694333076477051
1674320768.73922491,74551598,42.6894831,-84.4916811,265.0899963378906,-0.043707139790058136,-6.69370698928833
1674320768.73937988,74551753,42.6894831,-84.4916811,265.0899963378906,-0.043707139790058136,-6.69370698928833
1674320768.77881980,74591193,42.6894831,-84.4916811,265.0899963378906,-0.04324031621217728,-6.693240165710449
1674320768.81884980,74631223,42.6894831,-84.4916811,265.0899963378906,-0.042908914387226105,-6.692908763885498
1674320768.83938575,74651759,42.6894831,-84.4916811,265.0899963378906,-0.042782075703144073,-6.692781925201416
1674320768.85872793,74671101,42.6894831,-84.4916812,265.0899963378906,-0.04287029057741165,-6.692870140075684
1674320768.89913583,74711509,42.6894831,-84.4916812,265.0899963378906,-0.04174590855836868,-6.691745758056641
1674320768.93934393,74751717,42.6894831,-84.4916812,265.0899963378906,-0.041012056171894073,-6.691011905670166
1674320768.93946195,74751835,42.6894831,-84.4916812,265.0899963378906,-0.041012056171894073,-6.691011905670166
1674320768.97887492,74791248,42.6894831,-84.4916812,265.1000061035156,-0.039916761219501495,-6.689916610717773
1674320769.01886487,74831238,42.6894831,-84.4916812,265.1000061035156,-0.03765798360109329,-6.687657833099365
1674320769.03926182,74851635,42.6894831,-84.4916812,265.1000061035156,-0.03633285313844681,-6.686332702636719
1674320769.05878472,74871158,42.6894831,-84.4916812,265.1000061035156,-0.03567672520875931,-6.685676574707031
1674320769.09908581,74911459,42.6894831,-84.4916812,265.1000061035156,-0.032676465809345245,-6.682676315307617
1674320769.13935089,74951724,42.6894831,-84.4916812,265.1000061035156,-0.030353790149092674,-6.68035364151001
1674320769.13949084,74951864,42.6894831,-84.4916812,265.1000061035156,-0.030353790149092674,-6.68035364151001
1674320769.17887878,74991252,42.6894832,-84.4916812,265.1099853515625,-0.027346378192305565,-6.677346229553223
1674320769.21876478,75031138,42.6894832,-84.4916812,265.1099853515625,-0.022992854937911034,-6.672992706298828
1674320769.23957586,75051949,42.6894832,-84.4916812,265.1099853515625,-0.020249133929610252,-6.670248985290527
1674320769.25872993,75071103,42.6894832,-84.4916813,265.1199951171875,-0.017943626269698143,-6.667943477630615
1674320769.29911089,75111484,42.6894832,-84.4916813,265.1199951171875,-0.011548763141036034,-6.661548614501953
1674320769.33930874,75151682,42.6894833,-84.4916813,265.1300048828125,-0.003936534747481346,-6.653936386108398
1674320769.33943892,75151812,42.6894833,-84.4916813,265.1300048828125,-0.003936534747481346,-6.653936386108398
1674320769.37888575,75191259,42.6894833,-84.49168139999999,265.1399841308594,0.004987472668290138,-6.645012378692627
1674320769.41880274,75231176,42.6894834,-84.4916815,265.1499938964844,0.018354171887040138,-6.631645679473877
1674320769.43921494,75251588,42.6894834,-84.4916815,265.1600036621094,0.02617000974714756,-6.6238298416137695
1674320769.45879579,75271169,42.6894834,-84.49168159999999,265.16998291015625,0.03421091288328171,-6.61578893661499
1674320769.49914789,75311521,42.6894835,-84.49168159999999,265.19000244140625,0.052078478038311005,-6.597921371459961
1674320769.53924394,75351617,42.689483599999996,-84.4916818,265.2099914550781,0.07180093973875046,-6.5781989097595215
1674320769.53936076,75351734,42.689483599999996,-84.4916818,265.2099914550781,0.07180093973875046,-6.5781989097595215
1674320769.57877779,75391151,42.6894837,-84.4916819,265.22998046875,0.09374546259641647,-6.5562543869018555
1674320769.61873674,75431110,42.6894838,-84.491682,265.25,0.11969780176877975,-6.530302047729492
1674320769.63930678,75451680,42.6894838,-84.49168209999999,265.2699890136719,0.13356757164001465,-6.516432285308838
1674320769.65881181,75471185,42.6894839,-84.4916822,265.2799987792969,0.14747166633605957,-6.502528190612793
1674320769.69909883,75511472,42.689484,-84.4916824,265.30999755859375,0.17673373222351074,-6.473266124725342
1674320769.73950887,75551882,42.6894841,-84.49168259999999,265.3399963378906,0.20643067359924316,-6.443569183349609
1674320769.73966575,75552039,42.6894841,-84.49168259999999,265.3399963378906,0.20643067359924316,-6.443569183349609
1674320769.77875781,75591131,42.689484199999995,-84.49168279999999,265.3699951171875,0.23753809928894043,-6.412461757659912
1674320769.81878591,75631159,42.6894843,-84.491683,265.4100036621094,0.27233386039733887,-6.377665996551514
1674320769.83935690,75651730,42.6894843,-84.4916831,265.41998291015625,0.2898852825164795,-6.360114574432373
1674320769.85883379,75671207,42.6894843,-84.4916831,265.44000244140625,0.30834317207336426,-6.341656684875488
1674320769.89912081,75711494,42.6894843,-84.49168329999999,265.47998046875,0.34488701820373535,-6.305112838745117
1674320769.93932796,75751701,42.6894843,-84.4916834,265.5199890136719,0.3817007541656494,-6.268299102783203
1674320769.93940091,75751774,42.6894843,-84.4916834,265.5199890136719,0.3817007541656494,-6.268299102783203
1674320769.97881293,75791186,42.6894843,-84.4916835,265.54998779296875,0.41985392570495605,-6.2301459312438965
1674320770.01870990,75831083,42.6894843,-84.4916835,265.6000061035156,0.46523022651672363,-6.184769630432129
1674320770.03930092,75851674,42.689484199999995,-84.4916835,265.6199951171875,0.4885270595550537,-6.161472797393799
1674320770.05876780,75871141,42.689484199999995,-84.4916835,265.6499938964844,0.5110242366790771,-6.138975620269775
1674320770.09911680,75911490,42.6894841,-84.4916834,265.6999816894531,0.5601260662078857,-6.089873790740967
1674320770.13932681,75951700,42.689484,-84.4916834,265.739990234375,0.607961893081665,-6.0420379638671875
1674320770.13943195,75951805,42.689484,-84.4916834,265.739990234375,0.607961893081665,-6.0420379638671875
1674320770.17876887,75991142,42.689484,-84.4916834,265.7900085449219,0.6553924083709717,-5.994607448577881
1674320770.21878386,76031157,42.6894839,-84.49168329999999,265.8399963378906,0.7041466236114502,-5.945853233337402
1674320770.23942685,76051800,42.6894838,-84.49168329999999,265.8599853515625,0.7296631336212158,-5.920336723327637
1674320770.25880980,76071183,42.6894837,-84.49168329999999,265.8899841308594,0.7539479732513428,-5.89605188369751
1674320770.29907990,76111453,42.689483599999996,-84.4916832,265.94000244140625,0.8035948276519775,-5.846405029296875
1674320770.33933592,76151709,42.6894835,-84.4916832,265.989990234375,0.8507421016693115,-5.799257755279541
1674320770.33944988,76151823,42.6894835,-84.4916832,265.989990234375,0.8507421016693115,-5.799257755279541
1674320770.37885475,76191228,42.6894834,-84.4916831,266.0299987792969,0.8978116512298584,-5.752188205718994
1674320770.41882491,76231198,42.6894833,-84.4916831,266.0799865722656,0.9430439472198486,-5.706955909729004
1674320770.43936181,76251735,42.6894833,-84.4916831,266.1000061035156,0.9659812450408936,-5.684018611907959
1674320770.45875978,76271133,42.6894833,-84.491683,266.1199951171875,0.9872128963470459,-5.662786960601807
1674320770.49905276,76311426,42.6894833,-84.491683,266.16998291015625,1.0341908931732178,-5.615808963775635
1674320770.53926373,76351637,42.6894834,-84.491683,266.2099914550781,1.077279806137085,-5.572720050811768
1674320770.53939676,76351770,42.6894834,-84.491683,266.2099914550781,1.077279806137085,-5.572720050811768
1674320770.57891273,76391286,42.6894834,-84.4916831,266.25,1.1194989681243896,-5.530500888824463
1674320770.61878896,76431162,42.6894834,-84.4916831,266.29998779296875,1.1609671115875244,-5.489032745361328
1674320770.63938475,76451758,42.6894835,-84.4916831,266.32000732421875,1.1817848682403564,-5.468214988708496
1674320770.65874887,76471122,42.6894835,-84.4916832,266.3299865722656,1.1994826793670654,-5.450517177581787
1674320770.69907975,76511453,42.6894835,-84.49168329999999,266.3800048828125,1.2412302494049072,-5.408769607543945
1674320770.73925281,76551626,42.6894835,-84.4916835,266.4100036621094,1.2778370380401611,-5.372162818908691
1674320770.73941374,76551787,42.6894835,-84.4916835,266.4100036621094,1.2778370380401611,-5.372162818908691
1674320770.77885675,76591230,42.6894834,-84.4916837,266.4499816894531,1.3133914470672607,-5.336608409881592
1674320770.81886482,76631238,42.6894833,-84.49168379999999,266.47998046875,1.342810869216919,-5.307188987731934
1674320770.83919382,76651567,42.6894833,-84.49168399999999,266.489990234375,1.3571045398712158,-5.292895317077637
1674320770.85879183,76671165,42.6894832,-84.4916841,266.5,1.3697011470794678,-5.280298709869385
1674320770.89908791,76711461,42.6894831,-84.4916844,266.5299987792969,1.3982493877410889,-5.251750469207764
1674320770.93927693,76751650,42.689482999999996,-84.4916847,266.55999755859375,1.4240705966949463,-5.225929260253906
1674320770.93940091,76751774,42.689482999999996,-84.4916847,266.55999755859375,1.4240705966949463,-5.225929260253906
1674320770.97878194,76791155,42.6894829,-84.49168499999999,266.5799865722656,1.4492614269256592,-5.200738430023193
1674320771.01877880,76831152,42.6894829,-84.4916853,266.6099853515625,1.4724838733673096,-5.177515983581543
1674320771.03923893,76851612,42.6894829,-84.4916854,266.6199951171875,1.483717679977417,-5.1662821769714355
1674320771.05878186,76871155,42.6894829,-84.4916855,266.6300048828125,1.4937045574188232,-5.156295299530029
1674320771.09914589,76911519,42.6894829,-84.4916858,266.6499938964844,1.5149996280670166,-5.135000228881836
1674320771.13933587,76951709,42.689482999999996,-84.4916861,266.66998291015625,1.5330421924591064,-5.116957664489746
1674320771.13947177,76951845,42.689482999999996,-84.4916861,266.66998291015625,1.5330421924591064,-5.116957664489746
1674320771.17884588,76991219,42.6894831,-84.49168639999999,266.69000244140625,1.5504124164581299,-5.099587440490723
1674320771.21874595,77031119,42.6894833,-84.4916867,266.6999816894531,1.5685970783233643,-5.081402778625488
1674320771.23936772,77051741,42.6894834,-84.4916867,266.7099914550781,1.577881097793579,-5.072118759155273
1674320771.25878096,77071154,42.6894835,-84.49168689999999,266.7200012207031,1.5848958492279053,-5.065104007720947
1674320771.29913473,77111508,42.6894837,-84.4916871,266.739990234375,1.6009042263031006,-5.049095630645752
1674320771.33939981,77151773,42.689484,-84.4916873,266.75,1.6130497455596924,-5.03695011138916
1674320771.33952379,77151897,42.689484,-84.4916873,266.75,1.6130497455596924,-5.03695011138916
1674320771.37872481,77191098,42.6894843,-84.4916875,266.7599792480469,1.6241276264190674,-5.025872230529785
1674320771.41882992,77231203,42.6894846,-84.49168759999999,266.7699890136719,1.633146047592163,-5.0168538093566895
1674320771.43924093,77251614,42.689484799999995,-84.49168759999999,266.7699890136719,1.6375892162322998,-5.012410640716553
1674320771.45879889,77271172,42.6894849,-84.4916877,266.7799987792969,1.6404650211334229,-5.00953483581543
1674320771.49912095,77311494,42.6894852,-84.4916878,266.7799987792969,1.6473963260650635,-5.002603530883789
1674320771.53934789,77351721,42.689485499999996,-84.4916879,266.7900085449219,1.6516540050506592,-4.998345851898193
1674320771.53946185,77351835,42.689485499999996,-84.4916879,266.7900085449219,1.6516540050506592,-4.998345851898193
1674320771.57878876,77391162,42.6894859,-84.4916879,266.7900085449219,1.6562964916229248,-4.993703365325928
1674320771.61874294,77431116,42.689486099999996,-84.4916879,266.79998779296875,1.660642385482788,-4.9893574714660645
1674320771.63933277,77451706,42.6894863,-84.4916879,266.79998779296875,1.662963628768921,-4.987036228179932
1674320771.65876889,77471142,42.6894864,-84.4916879,266.79998779296875,1.6638014316558838,-4.986198425292969
1674320771.69910192,77511475,42.689486699999996,-84.4916878,266.79998779296875,1.669790506362915,-4.9802093505859375
1674320771.73925877,77551632,42.6894869,-84.4916877,266.80999755859375,1.6733415126800537,-4.976658344268799
1674320771.73935986,77551733,42.6894869,-84.4916877,266.80999755859375,1.6733415126800537,-4.976658344268799
1674320771.77875996,77591133,42.689487199999995,-84.4916877,266.80999755859375,1.6773808002471924,-4.97261905670166
1674320771.81878185,77631155,42.6894874,-84.49168759999999,266.82000732421875,1.6822946071624756,-4.967705249786377
1674320771.83943772,77651811,42.6894875,-84.4916875,266.82000732421875,1.6853806972503662,-4.964619159698486
1674320771.85875583,77671129,42.6894876,-84.4916875,266.82000732421875,1.6864464282989502,-4.963553428649902
1674320771.89913583,77711509,42.689487799999995,-84.4916873,266.8299865722656,1.6926143169403076,-4.957385540008545
1674320771.93926287,77751636,42.689488,-84.4916872,266.8299865722656,1.695875883102417,-4.9541239738464355
1674320771.93944478,77751818,42.689488,-84.4916872,266.8299865722656,1.695875883102417,-4.9541239738464355
1674320771.97881794,77791191,42.6894882,-84.491687,266.8299865722656,1.6984813213348389,-4.951518535614014
1674320772.01882672,77831200,42.689488399999995,-84.49168689999999,266.8299865722656,1.6999056339263916,-4.950094223022461
1674320772.03928876,77851662,42.689488499999996,-84.4916868,266.8399963378906,1.7008240222930908,-4.949175834655762
1674320772.05877876,77871152,42.6894886,-84.4916868,266.8399963378906,1.7006580829620361,-4.949341773986816
1674320772.09904480,77911418,42.6894887,-84.4916866,266.8399963378906,1.7031681537628174,-4.946831703186035
1674320772.13931274,77951686,42.6894888,-84.49168639999999,266.8399963378906,1.7044641971588135,-4.945535659790039
1674320772.13942981,77951803,42.6894888,-84.49168639999999,266.8399963378906,1.7044641971588135,-4.945535659790039
1674320772.17886877,77991242,42.689488999999995,-84.49168639999999,266.8399963378906,1.7055423259735107,-4.944457530975342
1674320772.21880484,78031178,42.689489099999996,-84.49168619999999,266.8399963378906,1.7059624195098877,-4.944037437438965
1674320772.23946786,78051841,42.689489099999996,-84.49168619999999,266.8399963378906,1.706554651260376,-4.943445205688477
1674320772.25888872,78071262,42.6894892,-84.4916861,266.8399963378906,1.7062485218048096,-4.943751335144043
1674320772.29911685,78111490,42.6894892,-84.491686,266.8399963378906,1.708355188369751,-4.941644668579102
1674320772.33924794,78151621,42.6894894,-84.4916858,266.8399963378906,1.7092888355255127,-4.94071102142334
1674320772.33943772,78151811,42.6894894,-84.4916858,266.8399963378906,1.7092888355255127,-4.94071102142334
1674320772.37888694,78191260,42.6894895,-84.49168569999999,266.8500061035156,1.7105815410614014,-4.939418315887451
1674320772.41882491,78231198,42.689489599999995,-84.4916856,266.8500061035156,1.7118237018585205,-4.938176155090332
1674320772.43929577,78251669,42.6894895,-84.4916855,266.8500061035156,1.7123801708221436,-4.937619686126709
1674320772.45879674,78271170,42.689489599999995,-84.4916855,266.8500061035156,1.711879014968872,-4.9381208419799805
1674320772.49909282,78311466,42.6894895,-84.4916854,266.8500061035156,1.714301347732544,-4.935698509216309
1674320772.53929782,78351671,42.689489599999995,-84.4916853,266.8500061035156,1.7154991626739502,-4.934500694274902
1674320772.53942394,78351797,42.689489599999995,-84.4916853,266.8500061035156,1.7154991626739502,-4.934500694274902
1674320772.57881379,78391187,42.689489699999996,-84.49168519999999,266.8500061035156,1.716388463973999,-4.9336113929748535
1674320772.61887693,78431250,42.689489699999996,-84.4916851,266.8500061035156,1.7164738178253174,-4.933526039123535
1674320772.63927388,78451647,42.689489599999995,-84.4916851,266.8500061035156,1.7157442569732666,-4.934255599975586
1674320772.65877390,78471147,42.689489599999995,-84.4916851,266.8500061035156,1.7147495746612549,-4.935250282287598
1674320772.69905591,78511429,42.6894895,-84.4916851,266.8500061035156,1.7151191234588623,-4.93488073348999
1674320772.73924279,78551616,42.6894895,-84.49168499999999,266.8500061035156,1.715057611465454,-4.934942245483398
1674320772.73936391,78551737,42.6894895,-84.49168499999999,266.8500061035156,1.715057611465454,-4.934942245483398
1674320772.77887678,78591250,42.6894895,-84.49168499999999,266.8500061035156,1.7160041332244873,-4.933995723724365
1674320772.81875777,78631131,42.6894895,-84.4916849,266.8500061035156,1.7175977230072021,-4.93240213394165
1674320772.83928084,78651654,42.6894894,-84.4916849,266.8500061035156,1.7184479236602783,-4.931551933288574
1674320772.85880876,78671182,42.6894894,-84.4916849,266.8500061035156,1.718651533126831,-4.9313483238220215
1674320772.89914179,78711515,42.6894893,-84.4916849,266.8599853515625,1.7207567691802979,-4.929243087768555
1674320772.93934894,78751722,42.6894892,-84.4916849,266.8599853515625,1.7225162982940674,-4.927483558654785
1674320772.93944788,78751821,42.6894892,-84.4916849,266.8599853515625,1.7225162982940674,-4.927483558654785
1674320772.97876978,78791143,42.6894892,-84.4916849,266.8599853515625,1.724057912826538,-4.9259419441223145
1674320773.01871586,78831089,42.689489099999996,-84.4916849,266.8599853515625,1.7255589962005615,-4.924440860748291
1674320773.03925395,78851627,42.689488999999995,-84.4916849,266.8599853515625,1.7263572216033936,-4.923642635345459
1674320773.05876875,78871142,42.689488999999995,-84.4916849,266.8599853515625,1.726738691329956,-4.9232611656188965
1674320773.09921384,78911587,42.6894889,-84.4916849,266.8599853515625,1.7289555072784424,-4.92104434967041
1674320773.13934088,78951714,42.6894888,-84.4916849,266.8699951171875,1.7304322719573975,-4.919567584991455
1674320773.13945675,78951830,42.6894888,-84.4916849,266.8699951171875,1.7304322719573975,-4.919567584991455
1674320773.17882681,78991200,42.6894888,-84.4916848,266.8699951171875,1.7317583560943604,-4.918241500854492
1674320773.21870589,79031079,42.6894887,-84.4916848,266.8699951171875,1.7315943241119385,-4.918405532836914
1674320773.23933291,79051706,42.6894886,-84.4916849,266.8699951171875,1.7314059734344482,-4.918593883514404
1674320773.25875378,79071127,42.6894886,-84.4916848,266.8699951171875,1.731670618057251,-4.918329238891602
1674320773.29913592,79111509,42.689488499999996,-84.4916849,266.8699951171875,1.7309954166412354,-4.919004440307617
1674320773.33937287,79151746,42.689488399999995,-84.4916849,266.8699951171875,1.7308919429779053,-4.919107913970947
1674320773.33947372,79151847,42.689488399999995,-84.4916849,266.8699951171875,1.7308919429779053,-4.919107913970947
1674320773.37880373,79191177,42.689488399999995,-84.4916848,266.8699951171875,1.731473684310913,-4.9185261726379395
1674320773.41878581,79231159,42.6894883,-84.4916848,266.8699951171875,1.731846570968628,-4.918153285980225
1674320773.43931675,79251690,42.6894882,-84.4916848,266.8699951171875,1.7319467067718506,-4.918053150177002
1674320773.45875788,79271131,42.6894882,-84.4916848,266.8699951171875,1.732189416885376,-4.917810440063477
1674320773.49905992,79311433,42.6894881,-84.4916848,266.8699951171875,1.7317607402801514,-4.918239116668701
1674320773.53932190,79351695,42.6894881,-84.4916848,266.8699951171875,1.7321054935455322,-4.91789436340332
1674320773.53942180,79351795,42.6894881,-84.4916848,266.8699951171875,1.7321054935455322,-4.91789436340332
1674320773.57880187,79391175,42.689488,-84.4916848,266.8699951171875,1.7320897579193115,-4.917910099029541
1674320773.61877394,79431147,42.689488,-84.4916847,266.8699951171875,1.7313792705535889,-4.918620586395264
1674320773.63929176,79451665,42.689487899999996,-84.4916847,266.8699951171875,1.7304470539093018,-4.919552803039551
1674320773.65877485,79471148,42.689488,-84.4916847,266.8699951171875,1.7303426265716553,-4.919657230377197
1674320773.69917393,79511547,42.689487799999995,-84.4916847,266.8599853515625,1.728834867477417,-4.9211649894714355
1674320773.73921394,79551587,42.689487799999995,-84.4916846,266.8599853515625,1.7278754711151123,-4.92212438583374
1674320773.73937583,79551749,42.689487799999995,-84.4916846,266.8599853515625,1.7278754711151123,-4.92212438583374
1674320773.77882195,79591195,42.689487799999995,-84.49168449999999,266.8599853515625,1.726839303970337,-4.923160552978516
1674320773.81882095,79631194,42.689487799999995,-84.4916844,266.8599853515625,1.7253406047821045,-4.924659252166748
1674320773.83929276,79651666,42.6894877,-84.4916844,266.8599853515625,1.7237627506256104,-4.926237106323242
1674320773.85881782,79671191,42.6894877,-84.4916843,266.8599853515625,1.723153829574585,-4.926846027374268
1674320773.89929891,79711672,42.6894876,-84.4916842,266.8599853515625,1.7214791774749756,-4.928520679473877
1674320773.93940592,79751779,42.6894876,-84.49168399999999,266.8599853515625,1.7209031581878662,-4.929096698760986
1674320773.93954682,79751920,42.6894876,-84.49168399999999,266.8599853515625,1.7209031581878662,-4.929096698760986
1674320773.97884178,79791215,42.6894876,-84.49168379999999,266.8599853515625,1.7204067707061768,-4.929593086242676
1674320774.01878190,79831155,42.6894875,-84.4916836,266.8500061035156,1.7187998294830322,-4.93120002746582
1674320774.03926086,79851634,42.6894874,-84.4916835,266.8500061035156,1.717923879623413,-4.9320759773254395
1674320774.05883884,79871212,42.6894874,-84.49168329999999,266.8500061035156,1.717625379562378,-4.932374477386475
1674320774.09902573,79911399,42.689487299999996,-84.4916831,266.8500061035156,1.7160513401031494,-4.933948516845703
1674320774.13930583,79951679,42.689487199999995,-84.4916829,266.8500061035156,1.7155373096466064,-4.934462547302246
1674320774.13943791,79951811,42.689487199999995,-84.4916829,266.8500061035156,1.7155373096466064,-4.934462547302246
1674320774.17878079,79991154,42.689487199999995,-84.49168259999999,266.8500061035156,1.7155144214630127,-4.93448543548584
1674320774.21886778,80031241,42.6894871,-84.4916824,266.8500061035156,1.7155506610870361,-4.934449195861816
1674320774.23939395,80051767,42.6894871,-84.4916823,266.8500061035156,1.7142908573150635,-4.935708999633789
1674320774.25876784,80071141,42.689487,-84.4916822,266.8500061035156,1.7140729427337646,-4.935926914215088
1674320774.29912972,80111503,42.6894869,-84.491682,266.8500061035156,1.7123024463653564,-4.937697410583496
1674320774.33932281,80151696,42.6894868,-84.4916819,266.8500061035156,1.7117421627044678,-4.938257694244385
1674320774.33942389,80151797,42.6894868,-84.4916819,266.8500061035156,1.7117421627044678,-4.938257694244385
1674320774.37881374,80191187,42.689486699999996,-84.4916817,266.8500061035156,1.7121527194976807,-4.937847137451172
1674320774.41881275,80231186,42.689486599999995,-84.49168159999999,266.8500061035156,1.7128875255584717,-4.937112331390381
1674320774.43931174,80251685,42.689486599999995,-84.4916815,266.8500061035156,1.7129366397857666,-4.937063217163086
1674320774.45879674,80271170,42.689486599999995,-84.49168139999999,266.8500061035156,1.7136809825897217,-4.936318874359131
1674320774.49910092,80311474,42.6894865,-84.4916813,266.8500061035156,1.7158515453338623,-4.93414831161499
1674320774.53934884,80351722,42.6894865,-84.4916812,266.8500061035156,1.718041181564331,-4.9319586753845215
1674320774.53945994,80351833,42.6894865,-84.4916812,266.8500061035156,1.718041181564331,-4.9319586753845215
1674320774.57879877,80391172,42.6894864,-84.4916811,266.8599853515625,1.7205584049224854,-4.929441452026367
1674320774.61874080,80431114,42.6894864,-84.491681,266.8599853515625,1.7232849597930908,-4.926714897155762
1674320774.63931274,80451686,42.6894864,-84.49168089999999,266.8599853515625,1.7243282794952393,-4.925671577453613
1674320774.65874982,80471123,42.6894864,-84.49168089999999,266.8599853515625,1.725391149520874,-4.9246087074279785
1674320774.69907880,80511452,42.6894863,-84.4916808,266.8599853515625,1.7273437976837158,-4.922656059265137
1674320774.73928690,80551660,42.6894863,-84.49168069999999,266.8599853515625,1.729381799697876,-4.920618057250977
1674320774.73939180,80551765,42.6894863,-84.49168069999999,266.8599853515625,1.729381799697876,-4.920618057250977
1674320774.77896881,80591342,42.6894863,-84.4916806,266.8699951171875,1.7312452793121338,-4.918754577636719
1674320774.81865573,80631029,42.6894862,-84.4916805,266.8699951171875,1.730588674545288,-4.9194111824035645
1674320774.83931184,80651685,42.6894862,-84.4916805,266.8599853515625,1.7299387454986572,-4.920061111450195
1674320774.85870790,80671081,42.6894862,-84.49168039999999,266.8699951171875,1.7301437854766846,-4.919856071472168
1674320774.89942384,80711797,42.6894862,-84.4916803,266.8699951171875,1.730510950088501,-4.919488906860352
1674320774.93931580,80751689,42.689486099999996,-84.4916803,266.8699951171875,1.7308094501495361,-4.919190406799316
1674320774.93941689,80751790,42.689486099999996,-84.4916803,266.8699951171875,1.7308094501495361,-4.919190406799316
1674320774.97879291,80791166,42.689486099999996,-84.49168019999999,266.8699951171875,1.7307374477386475,-4.919262409210205
1674320775.01876688,80831140,42.689486099999996,-84.49168019999999,266.8599853515625,1.7294585704803467,-4.920541286468506
1674320775.03926182,80851635,42.689486099999996,-84.4916801,266.8599853515625,1.726733922958374,-4.9232659339904785
1674320775.05875087,80871124,42.689485999999995,-84.4916801,266.8599853515625,1.7257235050201416,-4.924276351928711
1674320775.09906983,80911443,42.689485999999995,-84.49168,266.8599853515625,1.7212035655975342,-4.928796291351318
1674320775.13945985,80951833,42.689485999999995,-84.4916798,266.8500061035156,1.718355417251587,-4.931644439697266
1674320775.13955593,80951929,42.689485999999995,-84.4916798,266.8500061035156,1.718355417251587,-4.931644439697266
1674320775.17885089,80991224,42.6894859,-84.49167969999999,266.8500061035156,1.7158458232879639,-4.934154033660889
1674320775.21871781,81031091,42.6894859,-84.4916796,266.8500061035156,1.7138745784759521,-4.9361252784729
1674320775.23931479,81051688,42.6894859,-84.4916796,266.8500061035156,1.7124521732330322,-4.93754768371582
1674320775.25876784,81071141,42.6894859,-84.4916796,266.8500061035156,1.7119019031524658,-4.938097953796387
1674320775.29911184,81111485,42.6894859,-84.49167949999999,266.8399963378906,1.7088983058929443,-4.941101551055908
1674320775.33924389,81151617,42.6894858,-84.4916794,266.8399963378906,1.7072322368621826,-4.94276762008667
1674320775.33939576,81151769,42.6894858,-84.4916794,266.8399963378906,1.7072322368621826,-4.94276762008667
1674320775.37880683,81191180,42.6894858,-84.4916793,266.8399963378906,1.7061121463775635,-4.943887710571289
1674320775.41885281,81231226,42.6894858,-84.4916792,266.8399963378906,1.7046725749969482,-4.945327281951904
1674320775.43924475,81251618,42.6894858,-84.4916791,266.8399963378906,1.7031590938568115,-4.946840763092041
1674320775.45874381,81271117,42.6894858,-84.49167899999999,266.8399963378906,1.7029283046722412,-4.947071552276611
1674320775.49918294,81311556,42.6894858,-84.4916789,266.8399963378906,1.7015063762664795,-4.948493480682373
1674320775.53927779,81351651,42.6894858,-84.4916787,266.8399963378906,1.7017533779144287,-4.948246479034424
1674320775.53940582,81351779,42.6894858,-84.4916787,266.8399963378906,1.7017533779144287,-4.948246479034424
1674320775.57880282,81391176,42.6894858,-84.4916786,266.8399963378906,1.7022373676300049,-4.947762489318848
1674320775.61897087,81431344,42.6894857,-84.4916784,266.8399963378906,1.702932596206665,-4.9470672607421875
1674320775.63922286,81451596,42.6894857,-84.4916784,266.8399963378906,1.7030508518218994,-4.946949005126953
1674320775.65880680,81471180,42.6894857,-84.49167829999999,266.8399963378906,1.7038590908050537,-4.946140766143799
1674320775.69910192,81511475,42.6894857,-84.4916781,266.8399963378906,1.704636812210083,-4.9453630447387695
1674320775.73927283,81551646,42.6894857,-84.491678,266.8399963378906,1.7064578533172607,-4.943542003631592
1674320775.73938680,81551760,42.6894857,-84.491678,266.8399963378906,1.7064578533172607,-4.943542003631592
1674320775.77882075,81591194,42.6894857,-84.49167779999999,266.8399963378906,1.708263635635376,-4.941736221313477
1674320775.81882286,81631196,42.6894856,-84.4916777,266.8399963378906,1.7090651988983154,-4.940934658050537
1674320775.83925176,81651625,42.6894856,-84.4916776,266.8399963378906,1.708430528640747,-4.9415693283081055
1674320775.85887575,81671249,42.6894856,-84.4916776,266.8399963378906,1.7091186046600342,-4.940881252288818
1674320775.89933276,81711706,42.6894856,-84.4916775,266.8399963378906,1.7071983814239502,-4.942801475524902
1674320775.93926573,81751639,42.689485499999996,-84.49167729999999,266.8399963378906,1.7072293758392334,-4.942770481109619
1674320775.93938088,81751754,42.689485499999996,-84.49167729999999,266.8399963378906,1.7072293758392334,-4.942770481109619
1674320775.97883272,81791206,42.689485499999996,-84.4916772,266.8399963378906,1.7079007625579834,-4.942099094390869
1674320776.01878476,81831158,42.689485399999995,-84.49167709999999,266.8399963378906,1.7087690830230713,-4.941230773925781
1674320776.03945374,81851827,42.689485399999995,-84.49167709999999,266.8399963378906,1.708599328994751,-4.941400527954102
1674320776.05880880,81871182,42.689485399999995,-84.491677,266.8399963378906,1.709812879562378,-4.940186977386475
1674320776.09902191,81911395,42.6894853,-84.491677,266.8399963378906,1.709721326828003,-4.94027853012085
1674320776.13937092,81951744,42.6894853,-84.4916769,266.8500061035156,1.7111365795135498,-4.938863277435303
1674320776.13947988,81951853,42.6894853,-84.4916769,266.8500061035156,1.7111365795135498,-4.938863277435303
1674320776.17881989,81991193,42.6894852,-84.4916768,266.8500061035156,1.7126972675323486,-4.937302589416504
1674320776.21884179,82031215,42.6894852,-84.4916768,266.8500061035156,1.713616132736206,-4.9363837242126465
1674320776.23934579,82051719,42.6894852,-84.4916768,266.8500061035156,1.7139194011688232,-4.936080455780029
1674320776.25882077,82071194,42.6894851,-84.4916768,266.8500061035156,1.7152860164642334,-4.934713840484619
1674320776.29909587,82111469,42.6894851,-84.4916768,266.8500061035156,1.7171337604522705,-4.932866096496582
1674320776.33944488,82151818,42.689485,-84.4916768,266.8599853515625,1.7201097011566162,-4.929890155792236
1674320776.33954978,82151923,42.689485,-84.4916768,266.8599853515625,1.7201097011566162,-4.929890155792236
1674320776.37886691,82191240,42.6894849,-84.4916768,266.8599853515625,1.723290205001831,-4.9267096519470215
1674320776.41874576,82231119,42.6894849,-84.4916768,266.8599853515625,1.7261278629302979,-4.923871994018555
1674320776.43932080,82251694,42.6894849,-84.4916768,266.8599853515625,1.7272350788116455,-4.922764778137207
1674320776.45887375,82271247,42.689484799999995,-84.4916768,266.8599853515625,1.729038953781128,-4.920960903167725
1674320776.49910378,82311477,42.689484799999995,-84.4916769,266.8699951171875,1.733877420425415,-4.9161224365234375
1674320776.53932881,82351702,42.6894847,-84.4916769,266.8699951171875,1.7388050556182861,-4.911194801330566
1674320776.53944182,82351815,42.6894847,-84.4916769,266.8699951171875,1.7388050556182861,-4.911194801330566
1674320776.57890773,82391281,42.6894847,-84.491677,266.8800048828125,1.7431519031524658,-4.906847953796387
1674320776.61875081,82431124,42.6894846,-84.491677,266.8800048828125,1.7461917400360107,-4.903808116912842
1674320776.63933682,82451710,42.6894846,-84.49167709999999,266.8800048828125,1.746943712234497,-4.9030561447143555
1674320776.65866280,82471036,42.6894846,-84.49167709999999,266.8800048828125,1.7482202053070068,-4.901779651641846
1674320776.69907284,82511446,42.6894845,-84.4916772,266.8800048828125,1.7487990856170654,-4.901200771331787
1674320776.73937893,82551752,42.6894845,-84.49167729999999,266.8899841308594,1.7500293254852295,-4.899970531463623
1674320776.73949194,82551865,42.6894845,-84.49167729999999,266.8899841308594,1.7500293254852295,-4.899970531463623
1674320776.77880692,82591180,42.6894844,-84.4916774,266.8899841308594,1.751983880996704,-4.898015975952148
1674320776.81875777,82631131,42.6894843,-84.4916775,266.8899841308594,1.755613088607788,-4.8943867683410645
1674320776.83928084,82651654,42.6894843,-84.4916775,266.8899841308594,1.7575056552886963,-4.892494201660156
1674320776.85879493,82671168,42.6894843,-84.4916776,266.8899841308594,1.7591960430145264,-4.890803813934326
1674320776.89922690,82711600,42.6894843,-84.4916777,266.8999938964844,1.7638165950775146,-4.886183261871338
1674320776.93931580,82751689,42.689484199999995,-84.4916779,266.8999938964844,1.7679870128631592,-4.882012844085693
1674320776.93950176,82751875,42.689484199999995,-84.4916779,266.8999938964844,1.7679870128631592,-4.882012844085693
1674320776.97886491,82791238,42.689484199999995,-84.491678,266.9100036621094,1.772057294845581,-4.8779425621032715
1674320777.01875782,82831131,42.6894841,-84.4916781,266.9100036621094,1.7760469913482666,-4.873952865600586
1674320777.03920174,82851575,42.6894841,-84.4916781,266.9100036621094,1.7779390811920166,-4.872060775756836
1674320777.05876994,82871143,42.6894841,-84.4916782,266.9100036621094,1.779360055923462,-4.870639801025391
1674320777.09911585,82911489,42.6894841,-84.49167829999999,266.91998291015625,1.783613920211792,-4.8663859367370605
1674320777.13930893,82951682,42.6894841,-84.4916786,266.91998291015625,1.7871453762054443,-4.862854480743408
1674320777.13947582,82951849,42.6894841,-84.4916786,266.91998291015625,1.7871453762054443,-4.862854480743408
1674320777.17885685,82991230,42.689484,-84.4916786,266.92999267578125,1.7909109592437744,-4.859088897705078
1674320777.21882677,83031200,42.689484,-84.4916788,266.92999267578125,1.794370412826538,-4.8556294441223145
1674320777.23930478,83051678,42.689484,-84.4916789,266.92999267578125,1.7950170040130615,-4.854982852935791
1674320777.25884581,83071219,42.689484,-84.49167899999999,266.92999267578125,1.7958695888519287,-4.854130268096924
1674320777.29935789,83111731,42.689484,-84.4916792,266.92999267578125,1.7993171215057373,-4.850682735443115
1674320777.33930373,83151677,42.689484,-84.4916794,266.94000244140625,1.802302598953247,-4.8476972579956055
1674320777.33943295,83151806,42.689484,-84.4916794,266.94000244140625,1.802302598953247,-4.8476972579956055
1674320777.37876177,83191135,42.6894839,-84.4916796,266.94000244140625,1.8054125308990479,-4.844587326049805
1674320777.41875076,83231124,42.6894839,-84.4916798,266.94000244140625,1.8094933032989502,-4.840506553649902
1674320777.43926978,83251643,42.6894839,-84.4916799,266.9499816894531,1.8117949962615967,-4.838204860687256
1674320777.45880795,83271181,42.6894839,-84.49168,266.9499816894531,1.813023328781128,-4.836976528167725
1674320777.49910378,83311477,42.6894839,-84.49168019999999,266.9499816894531,1.818876028060913,-4.8311238288879395
1674320777.53925776,83351631,42.6894838,-84.4916805,266.9599914550781,1.8237698078155518,-4.826230049133301
1674320777.53937387,83351747,42.6894838,-84.4916805,266.9599914550781,1.8237698078155518,-4.826230049133301
1674320777.57881379,83391187,42.6894838,-84.49168069999999,266.9599914550781,1.8286340236663818,-4.821365833282471
1674320777.61887074,83431244,42.6894838,-84.491681,266.9700012207031,1.8302953243255615,-4.819704532623291
1674320777.63931489,83451688,42.6894838,-84.4916811,266.9700012207031,1.830979585647583,-4.8190202713012695
1674320777.65886188,83471235,42.6894838,-84.4916813,266.9700012207031,1.831575632095337,-4.818424224853516
1674320777.69910288,83511476,42.6894838,-84.49168159999999,266.9700012207031,1.8336036205291748,-4.816396236419678
1674320777.73926687,83551640,42.6894837,-84.4916818,266.9700012207031,1.8356878757476807,-4.814311981201172
1674320777.73938274,83551756,42.6894837,-84.4916818,266.9700012207031,1.8356878757476807,-4.814311981201172
1674320777.77881479,83591188,42.6894837,-84.49168209999999,266.9700012207031,1.8378260135650635,-4.812173843383789
1674320777.81878591,83631159,42.689483599999996,-84.4916824,266.9700012207031,1.8395779132843018,-4.810421943664551
1674320777.83937073,83651744,42.6894837,-84.49168259999999,266.9700012207031,1.8397414684295654,-4.810258388519287
1674320777.85878086,83671154,42.6894837,-84.4916827,266.9700012207031,1.8399245738983154,-4.810075283050537
1674320777.89917588,83711549,42.6894837,-84.491683,266.9700012207031,1.8384439945220947,-4.811555862426758
1674320777.93930578,83751679,42.6894837,-84.49168329999999,266.9700012207031,1.8373024463653564,-4.812697410583496
1674320777.93940592,83751779,42.6894837,-84.49168329999999,266.9700012207031,1.8373024463653564,-4.812697410583496
1674320777.97879481,83791168,42.6894837,-84.4916835,266.9700012207031,1.8367531299591064,-4.813246726989746
1674320778.01877785,83831151,42.6894838,-84.49168379999999,266.9700012207031,1.8368189334869385,-4.813180923461914
1674320778.03928280,83851656,42.6894838,-84.49168399999999,266.9700012207031,1.8365213871002197,-4.813478469848633
1674320778.05868888,83871062,42.6894839,-84.4916841,266.9700012207031,1.8367531299591064,-4.813246726989746
1674320778.09905577,83911429,42.689484,-84.4916844,266.9700012207031,1.8367669582366943,-4.813232898712158
1674320778.13951588,83951889,42.6894841,-84.4916846,266.9700012207031,1.8373734951019287,-4.812626361846924
1674320778.13961887,83951992,42.6894841,-84.4916846,266.9700012207031,1.8373734951019287,-4.812626361846924
1674320778.17886782,83991241,42.6894841,-84.4916848,266.9700012207031,1.8381659984588623,-4.81183385848999
1674320778.21878290,84031156,42.689484199999995,-84.4916851,266.9700012207031,1.8380534648895264,-4.811946392059326
1674320778.23926783,84051641,42.6894843,-84.49168519999999,266.9700012207031,1.8370764255523682,-4.812923431396484
1674320778.25872493,84071098,42.6894844,-84.4916853,266.9700012207031,1.8368489742279053,-4.813150882720947
1674320778.29915190,84111525,42.6894846,-84.4916855,266.9700012207031,1.8339602947235107,-4.816039562225342
1674320778.33930588,84151679,42.6894847,-84.4916856,266.9700012207031,1.8319118022918701,-4.818088054656982
1674320778.33948684,84151860,42.6894847,-84.4916856,266.9700012207031,1.8319118022918701,-4.818088054656982
1674320778.37886190,84191235,42.689484799999995,-84.4916858,266.9599914550781,1.8299634456634521,-4.8200364112854
1674320778.41878080,84231154,42.6894849,-84.491686,266.9599914550781,1.8278796672821045,-4.822120189666748
1674320778.43920588,84251579,42.689485,-84.491686,266.9599914550781,1.8266961574554443,-4.823303699493408
1674320778.45878386,84271157,42.6894851,-84.4916861,266.9599914550781,1.8263700008392334,-4.823629856109619
1674320778.49912190,84311495,42.6894852,-84.49168619999999,266.9599914550781,1.8245441913604736,-4.825455665588379
1674320778.53923273,84351606,42.689485399999995,-84.4916863,266.9599914550781,1.8235924243927002,-4.826407432556152
1674320778.53938890,84351762,42.689485399999995,-84.4916863,266.9599914550781,1.8235924243927002,-4.826407432556152
1674320778.57888579,84391259,42.689485499999996,-84.4916865,266.9599914550781,1.821958303451538,-4.8280415534973145
1674320778.61879086,84431164,42.689485499999996,-84.4916866,266.9499816894531,1.819265604019165,-4.8307342529296875
1674320778.63919878,84451572,42.6894856,-84.4916866,266.9499816894531,1.8177344799041748,-4.832265377044678
1674320778.65876675,84471140,42.6894856,-84.4916867,266.9499816894531,1.8170011043548584,-4.832998752593994
1674320778.69911075,84511484,42.6894858,-84.4916867,266.9499816894531,1.8141915798187256,-4.835808277130127
1674320778.73930478,84551678,42.6894859,-84.4916868,266.9499816894531,1.8124802112579346,-4.837519645690918
1674320778.73942995,84551803,42.6894859,-84.4916868,266.9499816894531,1.8124802112579346,-4.837519645690918
1674320778.77876782,84591141,42.689485999999995,-84.49168689999999,266.9499816894531,1.8110697269439697,-4.838930130004883
1674320778.81881475,84631188,42.689486099999996,-84.491687,266.94000244140625,1.809708833694458,-4.8402910232543945
1674320778.83929181,84651665,42.689486099999996,-84.491687,266.94000244140625,1.8086540699005127,-4.84134578704834
1674320778.85887384,84671247,42.6894862,-84.491687,266.94000244140625,1.8086788654327393,-4.841320991516113
1674320778.89934874,84711722,42.6894863,-84.4916871,266.94000244140625,1.8072445392608643,-4.842755317687988
1674320778.93924379,84751617,42.6894864,-84.4916872,266.94000244140625,1.8069484233856201,-4.843051433563232
1674320778.93936086,84751734,42.6894864,-84.4916872,266.94000244140625,1.8069484233856201,-4.843051433563232
1674320778.97895479,84791328,42.6894865,-84.4916872,266.94000244140625,1.8064911365509033,-4.843508720397949
1674320779.01877785,84831151,42.689486599999995,-84.4916873,266.94000244140625,1.8054673671722412,-4.844532489776611
1674320779.03931594,84851689,42.689486599999995,-84.4916873,266.94000244140625,1.8043491840362549,-4.845650672912598
1674320779.05880690,84871180,42.689486699999996,-84.49168739999999,266.94000244140625,1.8039615154266357,-4.846038341522217
1674320779.09913588,84911509,42.6894868,-84.49168739999999,266.94000244140625,1.8035051822662354,-4.846494674682617
1674320779.13939881,84951772,42.6894868,-84.49168739999999,266.94000244140625,1.8039300441741943,-4.846069812774658
1674320779.13958073,84951954,42.6894868,-84.49168739999999,266.94000244140625,1.8039300441741943,-4.846069812774658
1674320779.17875195,84991125,42.6894869,-84.4916875,266.94000244140625,1.8045284748077393,-4.845471382141113
1674320779.21875978,85031133,42.689487,-84.49168759999999,266.94000244140625,1.8054745197296143,-4.844525337219238
1674320779.23927784,85051651,42.6894871,-84.49168759999999,266.94000244140625,1.80607008934021,-4.843929767608643
1674320779.25882578,85071199,42.6894871,-84.49168759999999,266.94000244140625,1.8066127300262451,-4.843387126922607
1674320779.29912186,85111495,42.689487199999995,-84.49168759999999,266.94000244140625,1.8069536685943604,-4.843046188354492
1674320779.33932376,85151697,42.689487299999996,-84.4916877,266.94000244140625,1.8073608875274658,-4.842638969421387
1674320779.33943772,85151811,42.689487299999996,-84.4916877,266.94000244140625,1.8073608875274658,-4.842638969421387
