timestamp,TimeUS,C,Q1,Q2,Q3,Q4
1674320764.05803585,69870409,1,0.6906009316444397,-0.0021164873614907265,0.012376264669001102,-0.723127007484436
1674320764.09802079,69910394,1,0.690640926361084,-0.002149826381355524,0.012418624944984913,-0.7230879664421082
1674320764.13805175,69950425,1,0.6906574964523315,-0.0021545456256717443,0.01245973166078329,-0.7230714559555054
1674320764.17804480,69990418,1,0.6906614899635315,-0.0021373818162828684,0.012427751906216145,-0.7230682373046875
1674320764.21806574,70030439,1,0.690679132938385,-0.002097154501825571,0.01237582415342331,-0.7230523824691772
1674320764.23802376,70050397,1,0.6906799674034119,-0.0020987882744520903,0.012377853505313396,-0.7230515480041504
1674320764.25804090,70070414,1,0.6906848549842834,-0.002105174819007516,0.01237046904861927,-0.7230470180511475
1674320764.29802275,70110396,1,0.690701961517334,-0.002126600593328476,0.012393544428050518,-0.7230302095413208
1674320764.33802080,70150394,1,0.6907402276992798,-0.002143338555470109,0.012414398603141308,-0.7229932546615601
1674320764.37804794,70190421,1,0.6907798647880554,-0.002149818930774927,0.012404711917042732,-0.7229555249214172
1674320764.41805291,70230426,1,0.6908089518547058,-0.0021044830791652203,0.012378442101180553,-0.7229282855987549
1674320764.43802285,70250396,1,0.690823495388031,-0.002079785568639636,0.012371825985610485,-0.7229145765304565
1674320764.45802975,70270403,1,0.6908285617828369,-0.0020624413155019283,0.012371482327580452,-0.7229098081588745
1674320764.49803376,70310407,1,0.6908473968505859,-0.002077359240502119,0.01237423438578844,-0.7228917479515076
1674320764.53802395,70350397,1,0.6908550262451172,-0.0021114430855959654,0.012389285489916801,-0.7228840589523315
1674320764.57803178,70390405,1,0.6908736824989319,-0.0021253859158605337,0.012413449585437775,-0.7228657603263855
1674320764.61805081,70430424,1,0.6908972859382629,-0.00208649761043489,0.01238185167312622,-0.7228438854217529
1674320764.63802075,70450394,1,0.6909140944480896,-0.002062019659206271,0.012361654080450535,-0.722828209400177
1674320764.65804195,70470415,1,0.6909288167953491,-0.002039157785475254,0.012332645244896412,-0.722814679145813
1674320764.69806290,70510436,1,0.6909607648849487,-0.002029748633503914,0.012320807203650475,-0.7227844595909119
1674320764.73800182,70550375,1,0.6909744143486023,-0.0020492731127887964,0.012338793836534023,-0.7227709889411926
1674320764.77802181,70590395,1,0.6909863352775574,-0.0020736532751470804,0.012353149242699146,-0.7227593064308167
1674320764.81803894,70630412,1,0.6910067200660706,-0.0020555469673126936,0.012355519458651543,-0.7227398157119751
1674320764.83800077,70650374,1,0.691017210483551,-0.0020433985628187656,0.01232583075761795,-0.7227303385734558
1674320764.85805082,70670424,1,0.6910260319709778,-0.002015062840655446,0.01230115257203579,-0.7227223515510559
1674320764.89806795,70710441,1,0.6910365223884583,-0.001991855213418603,0.012266717851161957,-0.7227129936218262
1674320764.93803287,70750406,1,0.6910589933395386,-0.001997081795707345,0.012267396785318851,-0.7226914763450623
1674320764.97803283,70790406,1,0.6910780668258667,-0.002035887446254492,0.012298362329602242,-0.7226725816726685
1674320765.01802778,70830401,1,0.6910689473152161,-0.002060355618596077,0.012305459007620811,-0.7226811051368713
1674320765.03806591,70850439,1,0.691070556640625,-0.0020570007618516684,0.012295093387365341,-0.7226797938346863
1674320765.05804682,70870420,1,0.6910557746887207,-0.002054004231467843,0.012277957983314991,-0.7226942181587219
1674320765.09806395,70910437,1,0.6910398006439209,-0.0019976235926151276,0.012230470776557922,-0.7227104902267456
1674320765.13805079,70950424,1,0.6910457015037537,-0.001988875912502408,0.012215537019073963,-0.722705066204071
1674320765.17802477,70990398,1,0.6910527944564819,-0.0020295772701501846,0.012222189456224442,-0.7226980924606323
1674320765.21799278,71030366,1,0.6910718679428101,-0.002033431315794587,0.012236842885613441,-0.722679615020752
1674320765.23806190,71050435,1,0.6910771727561951,-0.002030105097219348,0.012228683568537235,-0.7226746678352356
1674320765.25801992,71070393,1,0.6910815834999084,-0.002006912836804986,0.012192336842417717,-0.7226710915565491
1674320765.29804492,71110418,1,0.6910945177078247,-0.0019619192462414503,0.012126859277486801,-0.7226600050926208
1674320765.33805585,71150429,1,0.691083550453186,-0.0019393907859921455,0.012089972384274006,-0.7226711511611938
1674320765.37804294,71190416,1,0.6910631060600281,-0.0019867788068950176,0.012090900912880898,-0.7226905822753906
1674320765.41799974,71230373,1,0.6910800337791443,-0.0020260766614228487,0.012107925489544868,-0.7226740121841431
1674320765.43805695,71250430,1,0.6910837888717651,-0.002018169965595007,0.01209300383925438,-0.7226706147193909
1674320765.45802379,71270397,1,0.6911011934280396,-0.002003813860937953,0.012078307569026947,-0.7226542830467224
1674320765.49802089,71310394,1,0.6911331415176392,-0.0019809631630778313,0.012015977874398232,-0.7226248383522034
1674320765.53805590,71350429,1,0.6911407113075256,-0.0019447952508926392,0.011928829364478588,-0.7226191163063049
1674320765.57801986,71390393,1,0.6911764740943909,-0.001926394528709352,0.011879579164087772,-0.7225857973098755
1674320765.61807084,71430444,1,0.6911806464195251,-0.001955318497493863,0.011869746260344982,-0.7225819230079651
1674320765.63804674,71450420,1,0.6911715269088745,-0.0019825671333819628,0.011886115185916424,-0.7225902676582336
1674320765.65802193,71470395,1,0.6911662220954895,-0.002008504467085004,0.011880513280630112,-0.7225953936576843
1674320765.69802094,71510394,1,0.6911605596542358,-0.0020159617997705936,0.011871835216879845,-0.7226009368896484
1674320765.73803282,71550406,1,0.6911674737930298,-0.0019511166028678417,0.011806855909526348,-0.7225955128669739
1674320765.77805495,71590428,1,0.6911858320236206,-0.00192705646622926,0.011731613427400589,-0.7225792407989502
1674320765.81806779,71630441,1,0.6912152767181396,-0.0019419376039877534,0.011711589060723782,-0.7225514054298401
1674320765.83800793,71650381,1,0.691230058670044,-0.001937948283739388,0.011716541834175587,-0.7225371599197388
1674320765.85803890,71670412,1,0.691238284111023,-0.0019440781325101852,0.011726968921720982,-0.7225291728973389
1674320765.89800382,71710377,1,0.6912671327590942,-0.0019521055510267615,0.011725971475243568,-0.7225015163421631
1674320765.93802190,71750395,1,0.6912705898284912,-0.0019486058736220002,0.011706853285431862,-0.7224985361099243
1674320765.97806382,71790437,1,0.6912711262702942,-0.001943930983543396,0.011666914448142052,-0.7224986553192139
1674320766.01805687,71830430,1,0.6912582516670227,-0.0019153335597366095,0.011631780304014683,-0.7225115895271301
1674320766.03800273,71850376,1,0.6912708878517151,-0.0019037314923480153,0.01161208562552929,-0.7224999070167542
1674320766.05804396,71870417,1,0.6912875175476074,-0.0019070886773988605,0.01160422433167696,-0.7224841117858887
1674320766.09803987,71910413,1,0.6913129091262817,-0.001927973935380578,0.011614697985351086,-0.722459614276886
1674320766.13802576,71950399,1,0.6913604736328125,-0.001945089315995574,0.011590748094022274,-0.7224143743515015
1674320766.17801785,71990391,1,0.6913979053497314,-0.0019507919205352664,0.011541697196662426,-0.7223793268203735
1674320766.21804476,72030418,1,0.6914011240005493,-0.0019332572119310498,0.011472229845821857,-0.7223774194717407
1674320766.23803473,72050408,1,0.6914010643959045,-0.0019243212882429361,0.011461049318313599,-0.7223777174949646
1674320766.25806093,72070434,1,0.6914105415344238,-0.00192734703887254,0.01144747156649828,-0.7223687767982483
1674320766.29805088,72110424,1,0.6913943886756897,-0.0019508881960064173,0.011434778571128845,-0.7223843932151794
1674320766.33803582,72150409,1,0.6913988590240479,-0.0019459788454696536,0.011415780521929264,-0.7223804593086243
1674320766.37803078,72190404,1,0.6914185285568237,-0.0019283830188214779,0.011385227553546429,-0.7223621606826782
1674320766.41802287,72230396,1,0.6914446949958801,-0.0018939803121611476,0.011324223130941391,-0.7223381400108337
1674320766.43802476,72250398,1,0.6914559006690979,-0.0018803392304107547,0.011300642974674702,-0.7223278284072876
1674320766.45805383,72270427,1,0.6914620995521545,-0.0018646684475243092,0.011277354322373867,-0.7223223447799683
1674320766.49800372,72310377,1,0.6914815902709961,-0.0018907191697508097,0.011289509944617748,-0.7223033905029297
1674320766.53805590,72350429,1,0.6915040612220764,-0.0019401708850637078,0.011271894909441471,-0.7222819924354553
1674320766.57801080,72390384,1,0.6915168762207031,-0.0019612314645200968,0.011250053532421589,-0.7222700715065002
1674320766.61803794,72430411,1,0.6915193200111389,-0.0019432897679507732,0.01117795705795288,-0.7222688794136047
1674320766.63803387,72450407,1,0.6915314793586731,-0.0019381605088710785,0.011145144701004028,-0.7222577333450317
1674320766.65805483,72470428,1,0.6915246248245239,-0.0019159335643053055,0.011105773039162159,-0.7222650051116943
1674320766.69805384,72510427,1,0.6915227770805359,-0.0019154665060341358,0.011076044291257858,-0.722267210483551
1674320766.73806882,72550442,1,0.6915478706359863,-0.0019194830674678087,0.011073648929595947,-0.7222431898117065
1674320766.77803993,72590413,1,0.6915913224220276,-0.0019319799030199647,0.01106473058462143,-0.7222017049789429
1674320766.81803989,72630413,1,0.6916202902793884,-0.0018985060742124915,0.010993166826665401,-0.722175121307373
1674320766.83802795,72650401,1,0.6916203498840332,-0.001884173951111734,0.010967247188091278,-0.7221754789352417
1674320766.85802794,72670401,1,0.6916364431381226,-0.0018748920410871506,0.010931568220257759,-0.7221606373786926
1674320766.89805079,72710424,1,0.6916265487670898,-0.0018824870930984616,0.010912518016994,-0.7221704125404358
1674320766.93805289,72750426,1,0.6915848851203918,-0.001958733657374978,0.010928443633019924,-0.7222098708152771
1674320766.97805691,72790430,1,0.6915724873542786,-0.002014447469264269,0.010980445891618729,-0.722220778465271
1674320767.01803684,72830410,1,0.6916032433509827,-0.0020051540341228247,0.010941135697066784,-0.7221919298171997
1674320767.03804994,72850423,1,0.6916431784629822,-0.0019714634399861097,0.010909028351306915,-0.7221542596817017
1674320767.05802584,72870399,1,0.6916645765304565,-0.0019727651961147785,0.010857400484383106,-0.7221345901489258
1674320767.09802485,72910398,1,0.6916663646697998,-0.0019840390887111425,0.010777833871543407,-0.722133994102478
1674320767.13805079,72950424,1,0.6915794014930725,-0.0020595365203917027,0.01076789665967226,-0.7222172021865845
1674320767.17806888,72990442,1,0.6915345788002014,-0.002098615514114499,0.010794000700116158,-0.7222597002983093
1674320767.21806884,73030442,1,0.6917915344238281,-0.0022717590909451246,0.010950660333037376,-0.7220106720924377
1674320767.23805594,73050429,1,0.6919212341308594,-0.0023922312539070845,0.0109986811876297,-0.7218852639198303
1674320767.25801086,73070384,1,0.6918202042579651,-0.0023424390237778425,0.010943189263343811,-0.7219830751419067
1674320767.29802990,73110403,1,0.6912462711334229,-0.001963334623724222,0.010598314926028252,-0.7225388288497925
1674320767.33803391,73150407,1,0.691502571105957,-0.0019164789700880647,0.010418036952614784,-0.7222963571548462
1674320767.37805176,73190425,1,0.6914979219436646,-0.0020972450729459524,0.01034949067980051,-0.7223012447357178
1674320767.41800976,73230383,1,0.6913328170776367,-0.002136313123628497,0.010302058421075344,-0.7224598526954651
1674320767.43802595,73250399,1,0.6914076805114746,-0.00207812013104558,0.010079163126647472,-0.7223915457725525
1674320767.45806885,73270442,1,0.6913579702377319,-0.0017552042845636606,0.01014021411538124,-0.7224391102790833
1674320767.49799776,73310371,1,0.6914539933204651,-0.001689074793830514,0.009538602083921432,-0.7223555445671082
1674320767.53802991,73350403,1,0.6912761330604553,-0.001994715305045247,0.009985153563320637,-0.7225189208984375
1674320767.57806087,73390434,1,0.6907796859741211,-0.00216199504211545,0.010428025387227535,-0.7229868769645691
1674320767.61806774,73430441,1,0.6907356977462769,-0.0019130038563162088,0.0101892976090312,-0.7230330109596252
1674320767.63800192,73450375,1,0.6906012296676636,-0.0019401017343625426,0.010359931737184525,-0.7231589555740356
1674320767.65805793,73470431,1,0.69032222032547,-0.0016700453124940395,0.00985861849039793,-0.7234329581260681
1674320767.69803786,73510411,1,0.6902009844779968,-0.0015983277698978782,0.00960654765367508,-0.7235521674156189
1674320767.73799872,73550372,1,0.6899675130844116,-0.0015944878105074167,0.009859273210167885,-0.7237714529037476
1674320767.77802992,73590403,1,0.6898314356803894,-0.0016757003031671047,0.009932135231792927,-0.7238999605178833
1674320767.81805372,73630427,1,0.6895355582237244,-0.002012933837249875,0.010064288973808289,-0.7241790890693665
1674320767.83804393,73650417,1,0.6892449855804443,-0.001937621389515698,0.00981875043362379,-0.7244592308998108
1674320767.85803294,73670406,1,0.6891171932220459,-0.001703306334093213,0.009558900259435177,-0.7245848178863525
1674320767.89808583,73710459,1,0.6889253854751587,-0.0017737977905198932,0.009714084677398205,-0.7247650027275085
1674320767.93804193,73750415,1,0.6884450912475586,-0.001879038056358695,0.009721902199089527,-0.7252208590507507
1674320767.97803283,73790406,1,0.6883350014686584,-0.0016423225170001388,0.0096432501450181,-0.7253270149230957
1674320768.01809382,73830467,1,0.6880964040756226,-0.00174277916084975,0.00983337964862585,-0.7255505323410034
1674320768.03804493,73850418,1,0.6880093812942505,-0.0018077294807881117,0.009776359423995018,-0.7256336808204651
1674320768.05805373,73870427,1,0.6879429221153259,-0.001595011563040316,0.009767991490662098,-0.7256973385810852
1674320768.09804583,73910419,1,0.6879203915596008,-0.0016450632829219103,0.009605557657778263,-0.7257207632064819
1674320768.13807678,73950450,1,0.6874119639396667,-0.0015063995961099863,0.009460696019232273,-0.726204514503479
1674320768.17803383,73990407,1,0.6872249245643616,-0.0015763093251734972,0.009169301018118858,-0.7263851165771484
1674320768.21801591,74030389,1,0.686928391456604,-0.0017082568956539035,0.009382830932736397,-0.7266625165939331
1674320768.23805094,74050424,1,0.6865366697311401,-0.001936721382662654,0.009302698075771332,-0.7270330786705017
1674320768.25802779,74070401,1,0.6865465044975281,-0.002125348197296262,0.009276117198169231,-0.7270236015319824
1674320768.29805183,74110425,1,0.686513364315033,-0.0025985655374825,0.009177795611321926,-0.7270545959472656
1674320768.33801079,74150384,1,0.6861703395843506,-0.00253177247941494,0.008833758533000946,-0.7273828387260437
1674320768.37803388,74190407,1,0.6858208775520325,-0.0022994137834757566,0.008144155144691467,-0.7277211546897888
1674320768.41803885,74230412,1,0.6855664849281311,-0.0025922448839992285,0.008165598846971989,-0.7279595732688904
1674320768.43806291,74250436,1,0.685395359992981,-0.0025714575313031673,0.00809102226048708,-0.7281216382980347
1674320768.45802593,74270399,1,0.6851655840873718,-0.0027512286324054003,0.008561800234019756,-0.7283318638801575
1674320768.49805975,74310433,1,0.6847277283668518,-0.0029078025836497545,0.008618245832622051,-0.7287421822547913
1674320768.53807282,74350446,1,0.6843856573104858,-0.002298020524904132,0.008085947483778,-0.7290717363357544
1674320768.57806373,74390437,1,0.6841719746589661,-0.0023051330354064703,0.007812011521309614,-0.7292752265930176
1674320768.61807895,74430452,1,0.6837682723999023,-0.0027249432168900967,0.008144072256982327,-0.7296487092971802
1674320768.63805294,74450426,1,0.6836774349212646,-0.003072582883760333,0.008182616904377937,-0.7297319769859314
1674320768.65802288,74470396,1,0.6834916472434998,-0.002708273706957698,0.007892594672739506,-0.7299106121063232
1674320768.69802475,74510398,1,0.6834419369697571,-0.003252893453463912,0.0077868858352303505,-0.7299560904502869
1674320768.73805285,74550426,1,0.6824228763580322,-0.0032712770625948906,0.007660261821001768,-0.7309101819992065
1674320768.77806282,74590436,1,0.6818913817405701,-0.003616906004026532,0.006992471404373646,-0.7314110994338989
1674320768.81806779,74630441,1,0.6812884211540222,-0.0037076016888022423,0.006049672607332468,-0.7319807410240173
1674320768.83805394,74650427,1,0.6810141205787659,-0.003889397019520402,0.0058060213923454285,-0.732236921787262
1674320768.85803485,74670408,1,0.6808632016181946,-0.004187677521258593,0.005766276735812426,-0.7323759198188782
1674320768.89799976,74710373,1,0.6804738640785217,-0.004867724608629942,0.005394971929490566,-0.7327362895011902
1674320768.93802786,74750401,1,0.6798554062843323,-0.005697324872016907,0.005104805342853069,-0.7333062887191772
1674320768.97805190,74790425,1,0.6796090602874756,-0.005977806635200977,0.003594215726479888,-0.7335413098335266
1674320769.01805091,74830424,1,0.6792527437210083,-0.005911278072744608,0.0024709964636713266,-0.7338764667510986
1674320769.03803277,74850406,1,0.6790851950645447,-0.007263404782861471,0.00253499043174088,-0.7340191602706909
1674320769.05806184,74870435,1,0.6790471076965332,-0.007996163330972195,0.00231424393132329,-0.7340474724769592
1674320769.09800196,74910375,1,0.6787950992584229,-0.0080485288053751,0.00028481651679612696,-0.7342835664749146
1674320769.13803291,74950406,1,0.6783305406570435,-0.009270725771784782,-0.00035188315086998045,-0.7346982955932617
1674320769.17807293,74990446,1,0.6781175136566162,-0.010228094644844532,-0.0018933390965685248,-0.7348799109458923
1674320769.21805096,75030424,1,0.6777306199073792,-0.010168362408876419,-0.005421631503850222,-0.7352200150489807
1674320769.23802686,75050400,1,0.6775147914886475,-0.010174022056162357,-0.007272966671735048,-0.7354028224945068
1674320769.25804186,75070415,1,0.677299976348877,-0.011857408098876476,-0.008448326960206032,-0.7355628609657288
1674320769.29804277,75110416,1,0.6768072247505188,-0.0129166254773736,-0.013090362772345543,-0.7359305620193481
1674320769.33800077,75150374,1,0.6762399673461914,-0.013991492800414562,-0.018896637484431267,-0.7363061308860779
1674320769.37802672,75190400,1,0.675428569316864,-0.02018631622195244,-0.023701557889580727,-0.7367679476737976
1674320769.41805673,75230430,1,0.6747298836708069,-0.023459309712052345,-0.03271501138806343,-0.736966073513031
1674320769.43801188,75250385,1,0.6743790507316589,-0.026112668216228485,-0.03558996692299843,-0.7370647192001343
1674320769.45805383,75270427,1,0.6736795902252197,-0.02756163664162159,-0.04019910842180252,-0.737414538860321
1674320769.49804783,75310421,1,0.6729938387870789,-0.028879955410957336,-0.046398743987083435,-0.7376261949539185
1674320769.53804088,75350414,1,0.6724759340286255,-0.02880670689046383,-0.049978047609329224,-0.737867534160614
1674320769.57802892,75390402,1,0.6719599962234497,-0.028720924630761147,-0.0462786890566349,-0.7385818362236023
1674320769.61803484,75430408,1,0.6716426610946655,-0.02714075893163681,-0.038603946566581726,-0.7393708229064941
1674320769.63804173,75450415,1,0.6715357899665833,-0.025983603671193123,-0.03423334285616875,-0.7397246956825256
1674320769.65805483,75470428,1,0.671442985534668,-0.025215810164809227,-0.028582027181982994,-0.7400753498077393
1674320769.69806790,75510441,1,0.6707288026809692,-0.029478931799530983,-0.011672912165522575,-0.7410246729850769
1674320769.73806977,75550443,1,0.6700482964515686,-0.033687472343444824,0.0051913936622440815,-0.7415345311164856
1674320769.77804375,75590417,1,0.6691440939903259,-0.03480556979775429,0.019736945629119873,-0.7420547604560852
1674320769.81802893,75630402,1,0.667872428894043,-0.039427679032087326,0.03817818686366081,-0.7422494888305664
1674320769.83806181,75650435,1,0.6670808792114258,-0.04175683856010437,0.04887813702225685,-0.7422064542770386
1674320769.85802674,75670400,1,0.6661277413368225,-0.04102741554379463,0.05824654549360275,-0.7424270510673523
1674320769.89805579,75710429,1,0.6649689674377441,-0.037916913628578186,0.07398996502161026,-0.7422291040420532
1674320769.93801785,75750391,1,0.6633964776992798,-0.036689840257167816,0.0908750370144844,-0.7418225407600403
1674320769.97806692,75790440,1,0.6623420715332031,-0.03354737535119057,0.10144928842782974,-0.7415426969528198
1674320770.01800680,75830380,1,0.6615522503852844,-0.03258292004466057,0.1051330491900444,-0.7417775988578796
1674320770.03803778,75850411,1,0.6618212461471558,-0.032255202531814575,0.10351994633674622,-0.7417788505554199
1674320770.05802488,75870398,1,0.6620821356773376,-0.031447265297174454,0.09974516183137894,-0.7420978546142578
1674320770.09805274,75910426,1,0.6635051965713501,-0.02875942923128605,0.08268734067678452,-0.7430319786071777
1674320770.13805485,75950428,1,0.6644197702407837,-0.0267854742705822,0.0638168528676033,-0.7441480755805969
1674320770.17807388,75990447,1,0.6656100749969482,-0.020032381638884544,0.039423272013664246,-0.7449883818626404
1674320770.21804476,76030418,1,0.6661642789840698,-0.011168165132403374,0.01609134115278721,-0.7455477714538574
1674320770.23805285,76050426,1,0.6667088270187378,-0.006629721727222204,0.005380639806389809,-0.7452693581581116
1674320770.25802279,76070396,1,0.6666421890258789,-0.0032132703345268965,-0.003650148632004857,-0.7453619837760925
1674320770.29802775,76110401,1,-0.014968524686992168,-0.12577469646930695,-0.02405545860528946,0.9916541576385498
1674320770.33805776,76150431,1,-0.013883695006370544,-0.1178123950958252,-0.016780881211161613,0.9927970170974731
1674320770.37803984,76190413,1,-0.012429431080818176,-0.10515093803405762,-0.0048310356214642525,0.9943668842315674
1674320770.41804481,76230418,1,-0.00940341129899025,-0.08698605746030807,0.003177020000293851,0.996160089969635
1674320770.43803978,76250413,1,-0.007471674587577581,-0.07563336938619614,0.0066636246629059315,0.997085452079773
1674320770.45802188,76270395,1,-0.005342820659279823,-0.06364729255437851,0.013490931130945683,0.9978669881820679
1674320770.49803591,76310409,1,-0.003323783865198493,-0.03269535303115845,0.017952708527445793,0.9992985725402832
1674320770.53802490,76350398,1,-0.00576021010056138,0.00021360399841796607,0.024587875232100487,0.9996810555458069
1674320770.57805872,76390432,1,-0.009108456782996655,0.03109256736934185,0.026819070801138878,0.9991151094436646
1674320770.61806273,76430436,1,-0.015821799635887146,0.055330682545900345,0.028636258095502853,0.997931957244873
1674320770.63802981,76450403,1,-0.02015019953250885,0.06368207931518555,0.029694870114326477,0.9973248243331909
1674320770.65806794,76470441,1,-0.024113766849040985,0.07075279951095581,0.028531651943922043,0.9967941045761108
1674320770.69803691,76510410,1,-0.034110911190509796,0.07901950925588608,0.028494708240032196,0.9958817362785339
1674320770.73803091,76550404,1,-0.04655184969305992,0.08108709007501602,0.025336455553770065,0.9952968955039978
1674320770.77802682,76590400,1,-0.058787859976291656,0.07800813764333725,0.023092517629265785,0.994949996471405
1674320770.81804895,76630422,1,-0.07065748423337936,0.06978081166744232,0.02012580819427967,0.9948533177375793
1674320770.83802891,76650402,1,-0.07610520720481873,0.06409961730241776,0.01834876276552677,0.9948680996894836
1674320770.85801291,76670386,1,-0.08107675611972809,0.05750073865056038,0.014632323756814003,0.9949402809143066
1674320770.89804792,76710421,1,-0.09097844362258911,0.04103165119886398,0.007381937932223082,0.9949797987937927
1674320770.93803287,76750406,1,-0.10102833062410355,0.02303212508559227,0.0024665368255227804,0.9946138262748718
1674320770.97804189,76790415,1,-0.10966657102108002,0.005169510841369629,-0.0002823845425155014,0.9939549565315247
1674320771.01805282,76830426,1,-0.11857680231332779,-0.008062457665801048,-0.00296957790851593,0.992907702922821
1674320771.03804493,76850418,1,-0.1221814826130867,-0.013987968675792217,-0.0034455477725714445,0.9924032092094421
1674320771.05805182,76870425,1,-0.1262771040201187,-0.01847212202847004,-0.002420953009277582,0.9918200373649597
1674320771.09805584,76910429,1,-0.13305938243865967,-0.021132605150341988,-0.00323057291097939,0.9908774495124817
1674320771.13804793,76950421,1,-0.13864150643348694,-0.021130654960870743,-0.0009604506194591522,0.9901167154312134
1674320771.17801476,76990388,1,-0.1431088000535965,-0.01918947882950306,0.0012102874461561441,0.9895201921463013
1674320771.21802473,77030398,1,-0.14671549201011658,-0.01588386297225952,-0.0004764334880746901,0.989051103591919
1674320771.23805285,77050426,1,-0.14801453053951263,-0.014652136713266373,-0.001449436298571527,0.9888755679130554
1674320771.25805187,77070425,1,-0.14921778440475464,-0.013354409486055374,-0.0003204024978913367,0.9887140989303589
1674320771.29804993,77110423,1,-0.1507144272327423,-0.008903044275939465,-0.007607954554259777,0.9885079860687256
1674320771.33804893,77150422,1,-0.1514965295791626,-0.006252147722989321,-0.009789993055164814,0.9883895516395569
1674320771.37802577,77190399,1,-0.1510739028453827,-0.003082710551097989,-0.012793025933206081,0.9884348511695862
1674320771.41802979,77230403,1,-0.14859455823898315,-0.0009617850300855935,-0.017235437408089638,0.9887475371360779
1674320771.43806386,77250437,1,-0.1471761018037796,0.0007151426980271935,-0.018437489867210388,0.9889382123947144
1674320771.45803094,77270404,1,-0.14527569711208344,0.0010281119029968977,-0.020343735814094543,0.9891815185546875
1674320771.49804878,77310422,1,-0.14129547774791718,0.001436790800653398,-0.021406181156635284,0.989734947681427
1674320771.53807688,77350450,1,-0.13668638467788696,0.0008117732359096408,-0.02840050868690014,0.9902068376541138
1674320771.57807779,77390451,1,-0.1312558948993683,0.0012026033364236355,-0.03350633755326271,0.9907813668251038
1674320771.61804581,77430419,1,-0.12546658515930176,0.0009672933956608176,-0.03754962608218193,0.9913865327835083
1674320771.63804984,77450423,1,-0.12298919260501862,0.00148771982640028,-0.038221266120672226,0.9916706085205078
1674320771.65802884,77470402,1,-0.11987572908401489,0.0011858612997457385,-0.04102964326739311,0.9919400215148926
1674320771.69802189,77510395,1,-0.11363162100315094,0.0019360554870218039,-0.0448886938393116,0.9925065040588379
1674320771.73804784,77550421,1,-0.1077309176325798,0.002332633128389716,-0.041691336780786514,0.9933028221130371
1674320771.77804875,77590422,1,-0.10131698846817017,0.0027643402572721243,-0.04165653884410858,0.9939778447151184
1674320771.81803989,77630413,1,-0.09541895240545273,0.0029274439439177513,-0.040787193924188614,0.9945969581604004
1674320771.83805585,77650429,1,-0.09232237935066223,0.0029022200033068657,-0.04163046181201935,0.9948542714118958
1674320771.85800385,77670377,1,-0.08927904069423676,0.0021387613378465176,-0.04008803144097328,0.9951972961425781
1674320771.89802885,77710402,1,-0.0837261900305748,0.0025466454681009054,-0.04176706448197365,0.9956098198890686
1674320771.93805289,77750426,1,-0.07805625349283218,0.00202407524921,-0.047028928995132446,0.9958370327949524
1674320771.97805977,77790433,1,-0.07315009087324142,0.002000457374379039,-0.04827212914824486,0.996150016784668
1674320772.01805878,77830432,1,-0.06891688704490662,0.003354160115122795,-0.05173255130648613,0.9962745308876038
1674320772.03802681,77850400,1,-0.06672003120183945,0.003958330489695072,-0.052270859479904175,0.9963937401771545
1674320772.05804491,77870418,1,-0.06482937932014465,0.0036634865682572126,-0.05279729887843132,0.9964919090270996
1674320772.09800982,77910383,1,-0.06133262440562248,0.004389233887195587,-0.05388982221484184,0.9966518878936768
1674320772.13803077,77950404,1,-0.05860242247581482,0.005944856442511082,-0.05490972101688385,0.9967523813247681
1674320772.17805696,77990430,1,-0.05627987161278725,0.007409040816128254,-0.05498596653342247,0.9968722462654114
1674320772.21806884,78030442,1,-0.054694365710020065,0.007627916522324085,-0.052475444972515106,0.9970940947532654
1674320772.23802686,78050400,1,-0.05423906445503235,0.008835234679281712,-0.05553542077541351,0.9969432950019836
1674320772.25805688,78070430,1,-0.0536666214466095,0.009921593591570854,-0.05364154279232025,0.9970677495002747
1674320772.29804873,78110422,1,-0.053402673453092575,0.010892866179347038,-0.05041853338479996,0.9972399473190308
1674320772.33802390,78150397,1,-0.052807845175266266,0.01143832877278328,-0.051017917692661285,0.9972350001335144
1674320772.37808490,78190458,1,-0.05317743495106697,0.013643676415085793,-0.051000941544771194,0.9971885085105896
1674320772.41806293,78230436,1,-0.05427265539765358,0.013947892934083939,-0.044763579964637756,0.9974247813224792
1674320772.43800187,78250375,1,-0.05504430830478668,0.014498978853225708,-0.04389764368534088,0.9974130988121033
1674320772.45803380,78270407,1,-0.055657558143138885,0.015730591490864754,-0.0435694083571434,0.9973747730255127
1674320772.49806786,78310441,1,-0.057148855179548264,0.016154197975993156,-0.04099807143211365,0.9973927140235901
1674320772.53804493,78350418,1,-0.05862540379166603,0.01682986132800579,-0.040522512048482895,0.9973152875900269
1674320772.57803273,78390406,1,-0.06067875027656555,0.017493056133389473,-0.03965132310986519,0.9972160458564758
1674320772.61807084,78430444,1,-0.06297342479228973,0.016988130286335945,-0.03762518987059593,0.9971610307693481
1674320772.63803482,78450408,1,-0.06385167688131332,0.016636855900287628,-0.0404365248978138,0.997001051902771
1674320772.65804982,78470423,1,-0.06489603966474533,0.016761263832449913,-0.04134989529848099,0.9968940615653992
1674320772.69807196,78510445,1,-0.06755576282739639,0.014990197494626045,-0.03793857991695404,0.9968812465667725
1674320772.73804092,78550414,1,-0.07006023079156876,0.013741587288677692,-0.039250146597623825,0.9966755509376526
1674320772.77805185,78590425,1,-0.072378970682621,0.01060347631573677,-0.036078665405511856,0.9966680407524109
1674320772.81802678,78630400,1,-0.0749557837843895,0.008481625467538834,-0.035925477743148804,0.9965034127235413
1674320772.83806682,78650440,1,-0.07671654224395752,0.006844598799943924,-0.03507749363780022,0.9964122176170349
1674320772.85804892,78670422,1,-0.07768667489290237,0.005106263794004917,-0.03621392697095871,0.996306836605072
1674320772.89805079,78710424,1,-0.0807754173874855,0.005041948985308409,-0.03734605759382248,0.9960196614265442
1674320772.93804789,78750421,1,-0.08396581560373306,0.004341857507824898,-0.03443809226155281,0.9958639144897461
1674320772.97803283,78790406,1,-0.08681585639715195,0.005097131244838238,-0.0373922623693943,0.9955093264579773
1674320773.01801991,78830393,1,-0.090739406645298,0.006951093673706055,-0.03458785265684128,0.9952495694160461
1674320773.03804183,78850415,1,-0.09284766763448715,0.0066407290287315845,-0.03361586481332779,0.9950905442237854
1674320773.05802584,78870399,1,-0.0943957045674324,0.007005361374467611,-0.03264310210943222,0.9949747920036316
1674320773.09805489,78910428,1,-0.097915880382061,0.007642181124538183,-0.028769120573997498,0.9947494268417358
1674320773.13807988,78950453,1,-0.10142774879932404,0.00884459912776947,-0.02730642259120941,0.9944287538528442
1674320773.17808795,78990461,1,-0.10476697981357574,0.010003939270973206,-0.023425541818141937,0.9941705465316772
1674320773.21799874,79030372,1,-0.10826615989208221,0.010453756898641586,-0.020970817655324936,0.9938457608222961
1674320773.23805594,79050429,1,-0.10987674444913864,0.011393613182008266,-0.02188696898519993,0.9936388731002808
1674320773.25799990,79070373,1,-0.1114884614944458,0.01055334135890007,-0.017676319926977158,0.9935524463653564
1674320773.29802680,79110400,1,-0.11459853500127792,0.009839236736297607,-0.01663391664624214,0.9932239055633545
1674320773.33804893,79150422,1,-0.11766611039638519,0.008806297555565834,-0.01282641850411892,0.9929313063621521
1674320773.37801480,79190388,1,-0.12061310559511185,0.008070847019553185,-0.010652046650648117,0.9926096200942993
1674320773.41806793,79230441,1,-0.12327823787927628,0.00714495126157999,-0.010344975627958775,0.9922925233840942
1674320773.43804979,79250423,1,-0.12505874037742615,0.006815139204263687,-0.009166568517684937,0.9920836091041565
1674320773.45803690,79270410,1,-0.12620466947555542,0.0059446245431900024,-0.007499297149479389,0.9919580817222595
1674320773.49802494,79310398,1,-0.1289902627468109,0.0060582589358091354,-0.008716816082596779,0.9915890693664551
1674320773.53806090,79350434,1,-0.13122998178005219,0.0055077229626476765,-0.010876426473259926,0.9912769794464111
1674320773.57805181,79390425,1,-0.1335044503211975,0.00545700266957283,-0.01541540864855051,0.9909132719039917
1674320773.61806679,79430440,1,-0.13612434267997742,0.005889507010579109,-0.018824853003025055,0.9904953837394714
1674320773.63802481,79450398,1,-0.13712280988693237,0.005155667196959257,-0.02151607908308506,0.9903069138526917
1674320773.65804076,79470414,1,-0.13817423582077026,0.004831956699490547,-0.024447735399007797,0.9900943636894226
1674320773.69804788,79510421,1,-0.14054420590400696,0.005345399957150221,-0.031171094626188278,0.9895691275596619
1674320773.73802495,79550398,1,-0.14237847924232483,0.005563824903219938,-0.037105999886989594,0.9891008734703064
1674320773.77806973,79590443,1,-0.14419318735599518,0.005720856133848429,-0.041287925094366074,0.9886713027954102
1674320773.81805182,79630425,1,-0.14655600488185883,0.007850605063140392,-0.04411544278264046,0.9881870150566101
1674320773.83802986,79650403,1,-0.14727677404880524,0.009469308890402317,-0.046438004821538925,0.9879592061042786
1674320773.85804582,79670419,1,-0.14808999001979828,0.01012912392616272,-0.04603985697031021,0.9878497123718262
1674320773.89804173,79710415,1,-0.15006881952285767,0.013733507134020329,-0.04840204492211342,0.9873945713043213
1674320773.93801188,79750385,1,-0.1515212208032608,0.018574098125100136,-0.0483386293053627,0.9870966076850891
1674320773.97803974,79790413,1,-0.1533908098936081,0.023967424407601357,-0.04632735624909401,0.9867880344390869
1674320774.01805687,79830430,1,-0.15477097034454346,0.02850104495882988,-0.03964871168136597,0.9867429137229919
1674320774.03803873,79850412,1,-0.1557074338197708,0.03187105804681778,-0.03560555726289749,0.9866467118263245
1674320774.05805373,79870427,1,-0.15636931359767914,0.034309010952711105,-0.031010467559099197,0.9866153597831726
1674320774.09806490,79910438,1,-0.15740762650966644,0.03912871703505516,-0.02462770603597164,0.9864508509635925
1674320774.13804078,79950414,1,-0.15846042335033417,0.04380049183964729,-0.017823198810219765,0.9862322807312012
1674320774.17803884,79990412,1,-0.15892107784748077,0.0467752069234848,-0.009078478440642357,0.9861408472061157
1674320774.21802592,80030399,1,-0.16004610061645508,0.0483521968126297,-0.0019031730480492115,0.9859227538108826
1674320774.23806691,80050440,1,-0.1605287492275238,0.049061961472034454,0.001265409984625876,0.9858102202415466
1674320774.25805593,80070429,1,-0.16040225327014923,0.04776054993271828,0.0027236281894147396,0.9858918190002441
1674320774.29808784,80110461,1,-0.16039642691612244,0.042431604117155075,0.005571148823946714,0.9861245155334473
1674320774.33803678,80150410,1,-0.161063089966774,0.03653108328580856,0.009004510939121246,0.9862266778945923
1674320774.37805986,80190433,1,-0.1607641577720642,0.030450616031885147,0.008562056347727776,0.9864858388900757
1674320774.41802692,80230400,1,-0.1607963740825653,0.025843024253845215,0.009644860401749611,0.9866020679473877
1674320774.43806076,80250434,1,-0.1604611873626709,0.02479863353073597,0.005752441007643938,0.9867138266563416
1674320774.45804977,80270423,1,-0.1605788767337799,0.0242074653506279,0.004359538666903973,0.9867165088653564
1674320774.49805284,80310426,1,-0.16051243245601654,0.022160347551107407,0.004124349448829889,0.9867764115333557
1674320774.53806376,80350437,1,-0.1600576490163803,0.022661790251731873,0.0008299765759147704,0.9868471622467041
1674320774.57803392,80390407,1,-0.16019631922245026,0.023588057607412338,-0.003322996897622943,0.9867976903915405
1674320774.61801887,80430392,1,-0.16061371564865112,0.02549511380493641,-0.0011599023127928376,0.9866873025894165
1674320774.63804889,80450422,1,-0.16062457859516144,0.02735426090657711,-0.0021863270085304976,0.9866340160369873
1674320774.65802479,80470398,1,-0.16067232191562653,0.02962327189743519,-0.0015367886517196894,0.9865619540214539
1674320774.69804978,80510423,1,-0.16119703650474548,0.037331461906433105,-0.0029024577233940363,0.9862116575241089
1674320774.73804975,80550423,1,-0.16169455647468567,0.04475853964686394,-0.003842065343633294,0.9858178496360779
1674320774.77806783,80590441,1,-0.16312405467033386,0.052286986261606216,0.0018865744350478053,0.985217273235321
1674320774.81799984,80630373,1,-0.16344666481018066,0.0581720806658268,0.002190902130678296,0.9848331809043884
1674320774.83810186,80650475,1,-0.16413308680057526,0.06168288737535477,-5.532540308195166e-05,0.9845077395439148
1674320774.85802674,80670400,1,-0.1642392873764038,0.0632701963186264,0.0008114503580145538,0.9843890070915222
1674320774.89802480,80710398,1,-0.1655532270669937,0.06598392128944397,0.0019723970908671618,0.9839890003204346
1674320774.93805575,80750429,1,-0.16618068516254425,0.06669897586107254,0.0007897938485257328,0.9838366508483887
1674320774.97802877,80790402,1,-0.16667810082435608,0.06720089167356491,-0.004582444205880165,0.9837080240249634
1674320775.01806378,80830437,1,-0.16786402463912964,0.0654250979423523,-0.007703704759478569,0.9836065769195557
1674320775.03805184,80850425,1,-0.1683768332004547,0.06552187353372574,-0.011268818750977516,0.9834780693054199
1674320775.05803776,80870411,1,-0.16896387934684753,0.06294871121644974,-0.01125316135585308,0.9835456609725952
1674320775.09802580,80910399,1,-0.16984756290912628,0.060694459825754166,-0.015633251518011093,0.9834752678871155
1674320775.13802481,80950398,1,-0.17034924030303955,0.05832469463348389,-0.02574385516345501,0.9833191633224487
1674320775.17806482,80990438,1,-0.1715705692768097,0.056581832468509674,-0.032774683088064194,0.9829994440078735
1674320775.21807194,81030445,1,-0.17281697690486908,0.05479840934276581,-0.03790830075740814,0.9826974868774414
1674320775.23803186,81050405,1,-0.1734086573123932,0.053061507642269135,-0.038870397955179214,0.9826509952545166
1674320775.25805974,81070433,1,-0.1742309033870697,0.051729220896959305,-0.040638163685798645,0.9825050830841064
1674320775.29803777,81110411,1,-0.1756497621536255,0.05025608465075493,-0.0419916994869709,0.9822719693183899
1674320775.33802676,81150400,1,-0.17720918357372284,0.049736812710762024,-0.04560767859220505,0.9818569421768188
1674320775.37805581,81190429,1,-0.1792483627796173,0.048226673156023026,-0.04401290789246559,0.9816349148750305
1674320775.41806173,81230435,1,-0.18114006519317627,0.046588022261857986,-0.041403211653232574,0.9814803004264832
1674320775.43802691,81250400,1,-0.1819562315940857,0.047286950051784515,-0.044123467057943344,0.9811773300170898
1674320775.45806885,81270442,1,-0.1830756813287735,0.047352079302072525,-0.04368291795253754,0.9809856414794922
1674320775.49805379,81310427,1,-0.18522340059280396,0.04653763398528099,-0.041428182274103165,0.980719268321991
1674320775.53803587,81350409,1,-0.187371164560318,0.04652700573205948,-0.04067816957831383,0.9803431034088135
1674320775.57802987,81390403,1,-0.18924325704574585,0.04687286168336868,-0.042061176151037216,0.9799085855484009
1674320775.61804891,81430422,1,-0.19201530516147614,0.04830989986658096,-0.0395912304520607,0.9794022440910339
1674320775.63799691,81450370,1,-0.19288894534111023,0.04786286503076553,-0.03829122334718704,0.9793042540550232
1674320775.65808582,81470459,1,-0.19417597353458405,0.047809407114982605,-0.037970468401908875,0.97906494140625
1674320775.69802976,81510403,1,-0.19614669680595398,0.04753013700246811,-0.037194423377513885,0.9787154793739319
1674320775.73803782,81550411,1,-0.19812878966331482,0.04771813750267029,-0.038049012422561646,0.9782741069793701
1674320775.77805376,81590427,1,-0.20025266706943512,0.046522412449121475,-0.03583599254488945,0.977982759475708
1674320775.81802583,81630399,1,-0.2018989473581314,0.04478680342435837,-0.03570445626974106,0.9777300953865051
1674320775.83803678,81650410,1,-0.2028350830078125,0.04461321607232094,-0.036173015832901,0.9775270223617554
1674320775.85805488,81670428,1,-0.20424304902553558,0.04360533505678177,-0.03369249403476715,0.9773679971694946
1674320775.89804792,81710421,1,-0.20573179423809052,0.04208080470561981,-0.03363301604986191,0.9771245718002319
1674320775.93807387,81750447,1,-0.20756717026233673,0.04016433656215668,-0.027555454522371292,0.9770073890686035
1674320775.97803879,81790412,1,-0.20919975638389587,0.04048577696084976,-0.027669018134474754,0.9766426086425781
1674320776.01802874,81830402,1,-0.2110801637172699,0.03896483778953552,-0.023053400218486786,0.9764196872711182
1674320776.03804493,81850418,1,-0.2116217166185379,0.03898164629936218,-0.02391405962407589,0.9762811064720154
1674320776.05802584,81870399,1,-0.21231438219547272,0.038288362324237823,-0.02149055339396,0.9762145280838013
1674320776.09804988,81910423,1,-0.21380369365215302,0.03808698058128357,-0.020320000126957893,0.9759223461151123
1674320776.13806176,81950435,1,-0.21558165550231934,0.037164557725191116,-0.0158079881221056,0.9756502509117126
1674320776.17805576,81990429,1,-0.21661968529224396,0.037498995661735535,-0.015391497872769833,0.9754142165184021
1674320776.21803689,82030410,1,-0.21803975105285645,0.03662034869194031,-0.011991123668849468,0.9751788973808289
1674320776.23803377,82050407,1,-0.2189067304134369,0.03697289898991585,-0.012120764702558517,0.9749696850776672
1674320776.25803685,82070410,1,-0.2197658270597458,0.03722529858350754,-0.01179442647844553,0.9747708439826965
1674320776.29805088,82110424,1,-0.22084833681583405,0.037147365510463715,-0.00976775772869587,0.9745514988899231
1674320776.33805275,82150426,1,-0.22193054854869843,0.03919066861271858,-0.00949624739587307,0.9742282629013062
1674320776.37805891,82190432,1,-0.2232174128293991,0.03883599489927292,-0.006146055646240711,0.9739753603935242
1674320776.41802883,82230402,1,-0.22409911453723907,0.039714038372039795,-0.006229558028280735,0.9737369418144226
1674320776.43805289,82250426,1,-0.22483117878437042,0.03968966379761696,-0.00516855763271451,0.9735753536224365
1674320776.45801878,82270392,1,-0.225267693400383,0.039794921875,-0.00500295078381896,0.9734709858894348
1674320776.49803281,82310406,1,-0.22634218633174896,0.04094589129090309,-0.00413444684818387,0.9731780886650085
1674320776.53804874,82350422,1,-0.22688932716846466,0.041972313076257706,-0.0037177230697125196,0.9730085730552673
1674320776.57804585,82390419,1,-0.22794626653194427,0.04332854971289635,-0.00442835409194231,0.9726991057395935
1674320776.61806893,82430442,1,-0.22823871672153473,0.04426632449030876,-0.005207982379943132,0.9725844264030457
1674320776.63805294,82450426,1,-0.22873227298259735,0.045110661536455154,-0.003305328544229269,0.9724379777908325
1674320776.65800595,82470379,1,-0.22951118648052216,0.04501575976610184,-0.002111725974828005,0.9722621440887451
1674320776.69802475,82510398,1,-0.22971880435943604,0.046780698001384735,-0.004301055800169706,0.9721226096153259
1674320776.73810482,82550478,1,-0.23011361062526703,0.04616894945502281,-0.003547893837094307,0.9720615148544312
1674320776.77805281,82590426,1,-0.23063230514526367,0.04570859298110008,-0.003894729306921363,0.9719589948654175
1674320776.81804490,82630418,1,-0.2309291660785675,0.04420686140656471,-0.0027031779754906893,0.971962034702301
1674320776.83802676,82650400,1,-0.23111701011657715,0.04332916811108589,-0.002918781479820609,0.9719562530517578
1674320776.85806274,82670436,1,-0.23120331764221191,0.04402808099985123,-0.003952143248170614,0.9719007015228271
1674320776.89802384,82710397,1,-0.23136092722415924,0.04306446388363838,-0.0032578231766819954,0.9719089269638062
1674320776.93802786,82750401,1,-0.23155948519706726,0.042142972350120544,-0.00417355727404356,0.9718985557556152
1674320776.97801185,82790385,1,-0.231754869222641,0.04278246685862541,-0.004403082188218832,0.97182297706604
1674320777.01804996,82830423,1,-0.23190172016620636,0.04344954341650009,-0.0046135731972754,0.9717574119567871
1674320777.03802776,82850401,1,-0.23159454762935638,0.04388968646526337,-0.007518029771745205,0.9717927575111389
1674320777.05807781,82870451,1,-0.23167379200458527,0.043034784495830536,-0.005562061443924904,0.9718252420425415
1674320777.09804273,82910416,1,-0.23205523192882538,0.04362538829445839,-0.00379828829318285,0.9717164039611816
1674320777.13799787,82950371,1,-0.2317533642053604,0.04484255984425545,-0.0035373528953641653,0.9717340469360352
1674320777.17803288,82990406,1,-0.23176227509975433,0.047445569187402725,-0.0014153968077152967,0.9716137051582336
1674320777.21805477,83030428,1,-0.23136943578720093,0.050156742334365845,0.0002015724458033219,0.9715721607208252
1674320777.23802686,83050400,1,-0.23149889707565308,0.052458714693784714,0.0012865790631622076,0.9714189171791077
1674320777.25805187,83070425,1,-0.231521874666214,0.052898284047842026,0.0034346000757068396,0.9713843464851379
1674320777.29804778,83110421,1,-0.23147547245025635,0.0574311800301075,0.0021816601511090994,0.9711415767669678
1674320777.33803391,83150407,1,-0.23097731173038483,0.060163866728544235,0.005090396385639906,0.9710838794708252
1674320777.37803388,83190407,1,-0.23052729666233063,0.06363698840141296,0.0043657515197992325,0.9709729552268982
1674320777.41802382,83230397,1,-0.23016129434108734,0.06607533991336823,0.005815969314426184,0.9708892703056335
1674320777.43805289,83250426,1,-0.23018214106559753,0.06612058728933334,0.007642674725502729,0.9708685874938965
1674320777.45805478,83270428,1,-0.22998008131980896,0.06733845919370651,0.008127277716994286,0.9708288311958313
1674320777.49805880,83310432,1,-0.2296132892370224,0.06824282556772232,0.00812468770891428,0.9708525538444519
1674320777.53807688,83350450,1,-0.2289212942123413,0.06756629794836044,0.006613294128328562,0.9710747003555298
1674320777.57804084,83390414,1,-0.22840498387813568,0.06409581750631332,0.0036233544815331697,0.971447229385376
1674320777.61802888,83430402,1,-0.22842489182949066,0.05677587911486626,0.004563450813293457,0.9718939065933228
1674320777.63804173,83450415,1,-0.2280360758304596,0.05326685309410095,0.0015025596367195249,0.9721933603286743
1674320777.65802884,83470402,1,-0.22792868316173553,0.050162870436906815,-0.000953031936660409,0.9723843336105347
1674320777.69805884,83510432,1,-0.2276921272277832,0.04301757737994194,-0.0028434917330741882,0.9727783203125
1674320777.73801279,83550386,1,-0.22710706293582916,0.03851107507944107,-0.007673848420381546,0.9730777740478516
1674320777.77806592,83590439,1,-0.22679169476032257,0.033660631626844406,-0.008042139001190662,0.9733282327651978
1674320777.81804085,83630414,1,-0.22644515335559845,0.030893802642822266,-0.011920742690563202,0.973460853099823
1674320777.83807182,83650445,1,-0.2260357141494751,0.029124964028596878,-0.013539153151214123,0.9735893607139587
1674320777.85802579,83670399,1,-0.22607360780239105,0.027027437463402748,-0.0144644845277071,0.9736277461051941
1674320777.89806175,83710435,1,-0.22558613121509552,0.02248905785381794,-0.01480498444288969,0.9738510847091675
1674320777.93805194,83750425,1,-0.22571152448654175,0.01786104403436184,-0.016817407682538033,0.9738852381706238
1674320777.97807789,83790451,1,-0.22550170123577118,0.011404171586036682,-0.01692924275994301,0.9740288853645325
1674320778.01806974,83830443,1,-0.22494420409202576,0.006505313329398632,-0.020023072138428688,0.9741441607475281
1674320778.03805590,83850429,1,-0.2253199964761734,0.004443236161023378,-0.02042892761528492,0.9740604758262634
1674320778.05800581,83870379,1,-0.22514963150024414,0.0026722445618361235,-0.02256944216787815,0.9740591049194336
1674320778.09802485,83910398,1,-0.22489219903945923,-0.0013688645558431745,-0.023846246302127838,0.9740908741950989
1674320778.13805389,83950427,1,-0.224635511636734,-0.0028177867643535137,-0.0282979067414999,0.9740278124809265
1674320778.17805982,83990433,1,-0.2247142642736435,-0.004565542098134756,-0.029902925714850426,0.9739550948143005
1674320778.21804595,84030419,1,-0.22456246614456177,-0.005479712970554829,-0.029803873971104622,0.97398841381073
1674320778.23803878,84050412,1,-0.22451193630695343,-0.005770436022430658,-0.032585494220256805,0.9739092588424683
1674320778.25800586,84070379,1,-0.22419919073581696,-0.006013229954987764,-0.03190642222762108,0.9740023612976074
1674320778.29804277,84110416,1,-0.22452333569526672,-0.004462887533009052,-0.03188326954841614,0.9739367365837097
1674320778.33803082,84150404,1,-0.22403882443904877,-0.0040839980356395245,-0.03109893761575222,0.9740753173828125
1674320778.37805581,84190429,1,-0.2237246334552765,-0.0021728714928030968,-0.031010566279292107,0.9741564989089966
1674320778.41803074,84230404,1,-0.22371253371238708,-0.0009197394247166812,-0.030832363292574883,0.9741669297218323
1674320778.43802977,84250403,1,-0.22348099946975708,0.0002304639492649585,-0.0302408616989851,0.9742390513420105
1674320778.45807576,84270449,1,-0.22323919832706451,0.0011052039917558432,-0.029580222442746162,0.9743141531944275
1674320778.49804282,84310416,1,-0.2229607254266739,0.002384158782660961,-0.028729325160384178,0.97440105676651
1674320778.53801680,84350390,1,-0.22264467179775238,0.003964918199926615,-0.026952989399433136,0.9745189547538757
1674320778.57806087,84390434,1,-0.22213798761367798,0.006375444587320089,-0.026776855811476707,0.9746266007423401
1674320778.61805677,84430430,1,-0.22167979180812836,0.008711454458534718,-0.024668527767062187,0.9747685194015503
1674320778.63803172,84450405,1,-0.22145433723926544,0.00889518205076456,-0.02199970744550228,0.9748819470405579
1674320778.65804577,84470419,1,-0.22130140662193298,0.010482188314199448,-0.02184547856450081,0.9749044179916382
1674320778.69804287,84510416,1,-0.22088268399238586,0.011183424852788448,-0.016651621088385582,0.9750940799713135
1674320778.73803782,84550411,1,-0.2202235758304596,0.011336947791278362,-0.01410187128931284,0.9752815961837769
1674320778.77802587,84590399,1,-0.21949034929275513,0.010085076093673706,-0.012677055783569813,0.9754801988601685
1674320778.81805682,84630430,1,-0.21916654706001282,0.00784648023545742,-0.00848772656172514,0.9756190180778503
1674320778.83804393,84650417,1,-0.21867309510707855,0.00732018705457449,-0.007580173201858997,0.9757412672042847
1674320778.85805178,84670425,1,-0.21860767900943756,0.005998275242745876,-0.007045065518468618,0.9757689833641052
1674320778.89806581,84710439,1,-0.21795351803302765,0.004262120462954044,-0.0055054971016943455,0.9759343266487122
1674320778.93807483,84750448,1,-0.21745215356349945,0.0032032348681241274,-0.0048935990780591965,0.9760534763336182
1674320778.97803974,84790413,1,-0.21712543070316315,0.001631742692552507,-0.003253709524869919,0.9761369228363037
1674320779.01803184,84830405,1,-0.2166603058576584,0.001260366290807724,-0.0031638469081372023,0.9762411117553711
1674320779.03807783,84850451,1,-0.2166277915239334,0.0007963561220094562,-0.003638636087998748,0.9762471914291382
1674320779.05806684,84870440,1,-0.21607232093811035,0.0013135146582499146,-0.005961600225418806,0.9763582944869995
1674320779.09804988,84910423,1,-0.21614080667495728,0.0021810499019920826,-0.004373846109956503,0.976349949836731
1674320779.13805175,84950425,1,-0.21592283248901367,0.002278985222801566,-0.003651919076219201,0.9764009118080139
1674320779.17801881,84990392,1,-0.21556328237056732,0.0031363179441541433,-0.0051849293522536755,0.9764710664749146
1674320779.21802592,85030399,1,-0.21577690541744232,0.003802940249443054,-0.004520404618233442,0.9764248132705688
1674320779.23806190,85050435,1,-0.21568754315376282,0.0035027279518544674,-0.0022583319805562496,0.9764535427093506
1674320779.25803781,85070411,1,-0.21581056714057922,0.004215217661112547,-0.002435413422062993,0.9764231443405151
1674320779.29805684,85110430,1,-0.21586646139621735,0.003995911683887243,0.003090046811848879,0.9764098525047302
1674320779.33805490,85150428,1,-0.21585562825202942,0.003404454328119755,0.009282715618610382,0.9763752222061157
1674320779.37807775,85190451,1,-0.21606288850307465,0.00048281552153639495,0.01843041554093361,0.9762053489685059
1674320779.41804194,85230415,1,-0.2163638025522232,-0.0009640731732361019,0.02762250415980816,0.9759215116500854
1674320779.43805289,85250426,1,-0.2164926677942276,-0.0016840435564517975,0.03048940747976303,0.9758065938949585
1674320779.45810485,85270478,1,-0.21646788716316223,-0.0023770902771502733,0.030550092458724976,0.9758087396621704
1674320779.49802494,85310398,1,-0.21683822572231293,-0.004296332597732544,0.03840329498052597,0.9754424095153809
1674320779.53805590,85350429,1,-0.2172258049249649,-0.004944834392517805,0.03934722766280174,0.975315511226654
1674320779.57807374,85390447,1,-0.21774201095104218,-0.006574101280421019,0.0435502864420414,0.9750120639801025
1674320779.61805773,85430431,1,-0.21828244626522064,-0.0075460802763700485,0.04317113384604454,0.9749010801315308
1674320779.63804984,85450423,1,-0.21853265166282654,-0.0074527510441839695,0.04162539169192314,0.9749129414558411
1674320779.65804195,85470415,1,-0.21885034441947937,-0.0067413984797894955,0.03810212388634682,0.9749909043312073
1674320779.69803476,85510408,1,-0.21906596422195435,-0.004996586591005325,0.029133165255188942,0.9752622246742249
1674320779.73805189,85550425,1,-0.21993295848369598,-0.002336257603019476,0.02119540050625801,0.9752818942070007
1674320779.77805972,85590433,1,-0.2204020768404007,0.0009342925623059273,0.00881663616746664,0.9753687977790833
1674320779.81806183,85630435,1,-0.2211787849664688,0.003317852970212698,0.001006141072139144,0.9752271175384521
1674320779.83805180,85650425,1,-0.2214382290840149,0.004170690197497606,-0.00476466678082943,0.9751538634300232
1674320779.85803890,85670412,1,-0.2220408171415329,0.005540069192647934,-0.008017788641154766,0.9749886393547058
1674320779.89801288,85710386,1,-0.22293199598789215,0.006891345605254173,-0.014708708971738815,0.9746986627578735
1674320779.93802977,85750403,1,-0.2237202376127243,0.009233239106833935,-0.01926400139927864,0.9744192361831665
1674320779.97804189,85790415,1,-0.22447486221790314,0.01048564724624157,-0.0226545799523592,0.9741600751876831
1674320780.01805687,85830430,1,-0.2251722365617752,0.01144204568117857,-0.02354937605559826,0.9739671349525452
1674320780.03802586,85850399,1,-0.22570183873176575,0.01193853747099638,-0.022515881806612015,0.9738630056381226
1674320780.05803895,85870412,1,-0.22608116269111633,0.011450610123574734,-0.020791232585906982,0.9738192558288574
1674320780.09803891,85910412,1,-0.2271132469177246,0.011340506374835968,-0.01962658390402794,0.9736045002937317
1674320780.13802886,85950402,1,-0.22748251259326935,0.011502811685204506,-0.017526810988783836,0.9735564589500427
1674320780.17803073,85990404,1,-0.22799228131771088,0.011752582155168056,-0.017263716086745262,0.9734389185905457
1674320780.21805191,86030425,1,-0.228378027677536,0.012989753857254982,-0.02194851264357567,0.9732384085655212
1674320780.23804188,86050415,1,-0.22850187122821808,0.013922504149377346,-0.02384454384446144,0.9731518626213074
1674320780.25804973,86070423,1,-0.22833624482154846,0.014188201166689396,-0.027271268889307976,0.9730969071388245
1674320780.29806376,86110437,1,-0.228481724858284,0.017698194831609726,-0.03634583577513695,0.972708523273468
1674320780.33804083,86150414,1,-0.22823922336101532,0.019800890237092972,-0.04497180134057999,0.9723643064498901
1674320780.37803483,86190408,1,-0.22824230790138245,0.023149356245994568,-0.054456837475299835,0.9718044996261597
1674320780.41806173,86230435,1,-0.22803950309753418,0.025933923199772835,-0.06220896914601326,0.9713163375854492
1674320780.43804288,86250416,1,-0.22764955461025238,0.027825122699141502,-0.0671403631567955,0.9710270762443542
1674320780.45805073,86270424,1,-0.22745606303215027,0.028903402388095856,-0.07059116661548615,0.9707961678504944
1674320780.49808192,86310455,1,-0.22728146612644196,0.033107154071331024,-0.07803092896938324,0.9701331257820129
1674320780.53807187,86350445,1,-0.22705669701099396,0.03718112036585808,-0.07966407388448715,0.9699053764343262
1674320780.57804179,86390415,1,-0.2267371118068695,0.042331796139478683,-0.08207304775714874,0.969568133354187
1674320780.61802983,86430403,1,-0.2267155945301056,0.04893849045038223,-0.08303948491811752,0.9691798090934753
1674320780.63806772,86450441,1,-0.22653044760227203,0.051773134618997574,-0.08022867143154144,0.9693125486373901
1674320780.65805078,86470424,1,-0.2266278713941574,0.05457158386707306,-0.07841529697179794,0.9692846536636353
1674320780.69805074,86510424,1,-0.2261640429496765,0.060307879000902176,-0.07477030903100967,0.9693410992622375
1674320780.73803687,86550410,1,-0.22593294084072113,0.06506407260894775,-0.06905723363161087,0.9695112705230713
1674320780.77803874,86590412,1,-0.2253381609916687,0.0670294314622879,-0.062142275273799896,0.9699835777282715
1674320780.81803894,86630412,1,-0.22495657205581665,0.06792017072439194,-0.05304363742470741,0.9705502390861511
1674320780.83807087,86650444,1,-0.22475565969944,0.0667353942990303,-0.04820353165268898,0.970931351184845
1674320780.85802674,86670400,1,-0.22453553974628448,0.06619097292423248,-0.04420533776283264,0.9712097644805908
1674320780.89805079,86710424,1,-0.22355534136295319,0.06438494473695755,-0.03856857866048813,0.9717973470687866
1674320780.93806195,86750435,1,-0.2230602204799652,0.0605296716094017,-0.028210364282131195,0.9725145101547241
1674320780.97808290,86790456,1,-0.2218746691942215,0.05676732957363129,-0.023594483733177185,0.9731353521347046
1674320781.01803875,86830412,1,-0.2209099978208542,0.05164822190999985,-0.01684846542775631,0.9737799167633057
1674320781.03805280,86850426,1,-0.22062820196151733,0.04996403306722641,-0.013808715157210827,0.9739795327186584
1674320781.05800176,86870375,1,-0.21989168226718903,0.0471264123916626,-0.0106922322884202,0.9743266701698303
1674320781.09802985,86910403,1,-0.2188435047864914,0.04249629005789757,-0.007871588692069054,0.9748023748397827
1674320781.13805175,86950425,1,-0.21792416274547577,0.03787226974964142,-0.0041928584687411785,0.975221574306488
1674320781.17802572,86990399,1,-0.21670101583003998,0.03306111693382263,-0.0011296372395008802,0.9756773710250854
1674320781.21805573,87030429,1,-0.21572266519069672,0.028619924560189247,0.00018077615823131055,0.9760351181030273
1674320781.23805594,87050429,1,-0.21542967855930328,0.026799658313393593,0.001504872227087617,0.976150393486023
1674320781.25800085,87070374,1,-0.215314120054245,0.024042770266532898,0.002574352780357003,0.9762454628944397
1674320781.29803085,87110404,1,-0.21442852914333344,0.02096652239561081,0.0012674791505560279,0.9765138030052185
1674320781.33806586,87150439,1,-0.21395426988601685,0.016556214541196823,0.003512074938043952,0.9766970276832581
1674320781.37806392,87190437,1,-0.21336717903614044,0.012773221358656883,0.0026538397651165724,0.9768849611282349
1674320781.41808081,87230454,1,-0.21294574439525604,0.009550237096846104,0.0010819971794262528,0.9770167469978333
1674320781.43803287,87250406,1,-0.21276113390922546,0.00783723033964634,0.0014931770274415612,0.9770716428756714
1674320781.45805573,87270429,1,-0.2125886231660843,0.006206915248185396,0.001102099777199328,0.9771214723587036
1674320781.49799895,87310372,1,-0.21248085796833038,0.004513009451329708,-0.0008439500234089792,0.9771544337272644
1674320781.53803086,87350404,1,-0.21245825290679932,0.002744195517152548,-0.000828429707325995,0.977165937423706
1674320781.57806182,87390435,1,-0.21274307370185852,0.0024184563662856817,0.000687552965246141,0.9771049618721008
1674320781.61805272,87430426,1,-0.21244871616363525,0.002087093424052,-0.000747348356526345,0.9771696925163269
1674320781.63802576,87450399,1,-0.21277035772800446,0.002117027761414647,-0.0006622939254157245,0.9770997166633606
1674320781.65805387,87470427,1,-0.2124105840921402,0.0019962855149060488,-0.0004373496922198683,0.9771783947944641
1674320781.69800282,87510376,1,-0.2127339392900467,0.0036426540464162827,-0.0032278962898999453,0.9770980477333069
