timestamp,TimeUS,C,Roll,Pitch,Yaw,VN,VE,VD,dPD,PN,PE,PD,GX,GY,GZ,OH
1674320764.05803585,69870409,1,-1.19,0.8,267.35,0.05349591746926308,-0.05149200186133385,-0.03628178685903549,-0.01892467588186264,0.07423825562000275,-0.335007905960083,6.627683162689209,0.03,-0.08,-0.09,271.77
1674320764.09802079,69910394,1,-1.19,0.8,267.36,0.05288800597190857,-0.051028911024332047,-0.03637373074889183,-0.02409537322819233,0.07454076409339905,-0.3340442478656769,6.626236915588379,0.03,-0.08,-0.09,271.77
1674320764.13805175,69950425,1,-1.2,0.8,267.36,0.05256350338459015,-0.051804665476083755,-0.03705492988228798,-0.03242399916052818,0.07548800855875015,-0.33417996764183044,6.624769687652588,0.03,-0.08,-0.09,271.77
1674320764.17804480,69990418,1,-1.19,0.8,267.36,0.052299436181783676,-0.05283575877547264,-0.03760090842843056,-0.0392468236386776,0.07657776772975922,-0.3346095085144043,6.623159885406494,0.03,-0.08,-0.09,271.77
1674320764.21806574,70030439,1,-1.19,0.8,267.36,0.05236754193902016,-0.05384856089949608,-0.03850153833627701,-0.04517432674765587,0.07782711088657379,-0.3353334069252014,6.621463298797607,0.03,-0.08,-0.09,271.77
1674320764.23802376,70050397,1,-1.19,0.8,267.36,0.05207877233624458,-0.05305389687418938,-0.03849994018673897,-0.045291949063539505,0.07788025587797165,-0.33434611558914185,6.621255397796631,0.03,-0.08,-0.09,271.77
1674320764.25804090,70070414,1,-1.19,0.8,267.36,0.0526888445019722,-0.053322918713092804,-0.03855053335428238,-0.041942521929740906,0.0784585177898407,-0.3344342112541199,6.620738983154297,0.03,-0.08,-0.09,271.77
1674320764.29802275,70110396,1,-1.19,0.8,267.37,0.052835945039987564,-0.05317050591111183,-0.03844594955444336,-0.03416959568858147,0.07927878946065903,-0.33387938141822815,6.619832992553711,0.03,-0.08,-0.09,271.77
1674320764.33802080,70150394,1,-1.19,0.8,267.37,0.052469704300165176,-0.051653143018484116,-0.03837602958083153,-0.028970815241336823,0.07995865494012833,-0.33294016122817993,6.618973255157471,0.03,-0.08,-0.09,271.77
1674320764.37804794,70190421,1,-1.19,0.8,267.38,0.052397992461919785,-0.051526833325624466,-0.038391537964344025,-0.026480823755264282,0.08114045858383179,-0.33304932713508606,6.617875576019287,0.03,-0.08,-0.09,271.77
1674320764.41805291,70230426,1,-1.19,0.8,267.38,0.05112287402153015,-0.050416894257068634,-0.03755931928753853,-0.016727684065699577,0.08157183229923248,-0.3318581283092499,6.618340015411377,0.03,-0.08,-0.09,271.77
1674320764.43802285,70250396,1,-1.18,0.8,267.39,0.050795529037714005,-0.04966584965586662,-0.03711124509572983,-0.009196643717586994,0.08160969614982605,-0.33091646432876587,6.618785858154297,0.03,-0.08,-0.09,271.77
1674320764.45802975,70270403,1,-1.18,0.8,267.39,0.05076569318771362,-0.04944493994116783,-0.03659326583147049,-0.0010412506526336074,0.08218550682067871,-0.3310123682022095,6.618595600128174,0.03,-0.08,-0.09,271.77
1674320764.49803376,70310407,1,-1.18,0.8,267.39,0.051460150629282,-0.04867425933480263,-0.03584333881735802,0.008390850387513638,0.08294264227151871,-0.33043766021728516,6.618669033050537,0.03,-0.08,-0.09,271.77
1674320764.53802395,70350397,1,-1.19,0.8,267.39,0.05118619278073311,-0.04750997573137283,-0.035020262002944946,0.010877728462219238,0.08353152126073837,-0.3294368386268616,6.6189866065979,0.03,-0.08,-0.09,271.77
1674320764.57803178,70390405,1,-1.19,0.8,267.39,0.04998112842440605,-0.04720686003565788,-0.03463926166296005,0.008973819203674793,0.08463066071271896,-0.32946649193763733,6.618607521057129,0.03,-0.08,-0.09,271.77
1674320764.61805081,70430424,1,-1.19,0.8,267.4,0.04754164442420006,-0.04484150931239128,-0.03405329957604408,0.006727886386215687,0.08472859859466553,-0.3281804025173187,6.618744850158691,0.03,-0.08,-0.09,271.77
1674320764.63802075,70450394,1,-1.18,0.8,267.4,0.04649495705962181,-0.04363645613193512,-0.03372429311275482,0.006307770032435656,0.08454561233520508,-0.32718005776405334,6.618981838226318,0.03,-0.08,-0.09,271.77
1674320764.65804195,70470415,1,-1.18,0.8,267.4,0.04635336995124817,-0.04301689937710762,-0.033419929444789886,0.006723762024194002,0.08491867035627365,-0.32713741064071655,6.618757724761963,0.03,-0.08,-0.09,271.77
1674320764.69806290,70510436,1,-1.18,0.8,267.41,0.045885369181632996,-0.04188822954893112,-0.03260721638798714,0.006175796501338482,0.08530243486166,-0.32638707756996155,6.618704795837402,0.03,-0.08,-0.09,271.77
1674320764.73800182,70550375,1,-1.18,0.8,267.41,0.044959500432014465,-0.04013098403811455,-0.03212323784828186,0.004484129138290882,0.08536533266305923,-0.3251558542251587,6.61897611618042,0.03,-0.08,-0.09,271.77
1674320764.77802181,70590395,1,-1.18,0.8,267.41,0.04358461871743202,-0.03895728290081024,-0.031831856817007065,0.0018675033934414387,0.08597974479198456,-0.3248697519302368,6.618681907653809,0.03,-0.08,-0.09,271.77
1674320764.81803894,70630412,1,-1.18,0.8,267.41,0.040722526609897614,-0.03649497777223587,-0.030785851180553436,0.0006506703794002533,0.08603476732969284,-0.32353150844573975,6.6188530921936035,0.03,-0.08,-0.09,271.77
1674320764.83800077,70650374,1,-1.18,0.8,267.42,0.039094917476177216,-0.03452257439494133,-0.030285708606243134,0.002356607699766755,0.08565057069063187,-0.32214534282684326,6.61928653717041,0.03,-0.08,-0.09,271.77
1674320764.85805082,70670424,1,-1.17,0.8,267.42,0.03853999450802803,-0.03354556858539581,-0.030400078743696213,0.004622439853847027,0.08583679050207138,-0.32180753350257874,6.619191646575928,0.03,-0.08,-0.09,271.77
1674320764.89806795,70710441,1,-1.17,0.8,267.42,0.03745937719941139,-0.031338877975940704,-0.029534704983234406,0.008020945824682713,0.08573471754789352,-0.32029005885124207,6.619391918182373,0.03,-0.08,-0.09,271.77
1674320764.93803287,70750406,1,-1.17,0.8,267.42,0.03586772084236145,-0.028502190485596657,-0.028921451419591904,0.008159197866916656,0.08530128002166748,-0.3182090222835541,6.619833946228027,0.03,-0.08,-0.09,271.77
1674320764.97803283,70790406,1,-1.17,0.8,267.43,0.034516122192144394,-0.026565248146653175,-0.028190668672323227,0.006593482103198767,0.08544497191905975,-0.31715214252471924,6.619723796844482,0.03,-0.08,-0.09,271.77
1674320765.01802778,70830401,1,-1.18,0.8,267.42,0.03211380913853645,-0.02365102991461754,-0.027432607486844063,0.00810537114739418,0.0851372480392456,-0.31493812799453735,6.62037992477417,0.03,-0.08,-0.09,271.77
1674320765.03806591,70850439,1,-1.18,0.8,267.43,0.030454443767666817,-0.02180572599172592,-0.026793116703629494,0.010224691592156887,0.0847514346241951,-0.3134290874004364,6.620901107788086,0.03,-0.08,-0.09,271.77
1674320765.05804682,70870420,1,-1.17,0.8,267.42,0.029429959133267403,-0.02092067338526249,-0.02623719908297062,0.012905786745250225,0.08486735820770264,-0.3129240870475769,6.620872497558594,0.03,-0.08,-0.09,271.77
1674320765.09806395,70910437,1,-1.17,0.8,267.42,0.028209270909428596,-0.018144767731428146,-0.02553544007241726,0.013943546451628208,0.0846499428153038,-0.31108811497688293,6.621100425720215,0.03,-0.08,-0.09,271.77
1674320765.13805079,70950424,1,-1.16,0.8,267.42,0.026979198679327965,-0.01508402731269598,-0.024481818079948425,0.011125970631837845,0.08415155857801437,-0.30869796872138977,6.621465682983398,0.03,-0.08,-0.09,271.77
1674320765.17802477,70990398,1,-1.17,0.79,267.42,0.02599189430475235,-0.013321024365723133,-0.024311352521181107,0.006493140943348408,0.08414831012487411,-0.3072468042373657,6.621341705322266,0.03,-0.08,-0.09,271.77
1674320765.21799278,71030366,1,-1.17,0.8,267.43,0.023366792127490044,-0.010845591314136982,-0.024102643132209778,0.0026353660505264997,0.08393079042434692,-0.30510130524635315,6.621413230895996,0.03,-0.08,-0.09,271.77
1674320765.23806190,71050435,1,-1.17,0.8,267.43,0.021818723529577255,-0.009530270472168922,-0.023923011496663094,0.0014030927559360862,0.08364808559417725,-0.3037164509296417,6.621557712554932,0.03,-0.08,-0.09,271.77
1674320765.25801992,71070393,1,-1.16,0.79,267.43,0.020625602453947067,-0.009042026475071907,-0.02382711134850979,0.0007483444060198963,0.08372270315885544,-0.30315133929252625,6.62137508392334,0.03,-0.08,-0.09,271.77
1674320765.29804492,71110418,1,-1.1500000000000001,0.79,267.43,0.01886943355202675,-0.007684304844588041,-0.023409726098179817,-0.00031005218625068665,0.08353327214717865,-0.3014001250267029,6.6213698387146,0.03,-0.08,-0.09,271.77
1674320765.33805585,71150429,1,-1.1500000000000001,0.79,267.43,0.017970280721783638,-0.005893850699067116,-0.02289459854364395,-0.0005769348936155438,0.08312267810106277,-0.2992616593837738,6.621631145477295,0.03,-0.08,-0.09,271.77
1674320765.37804294,71190416,1,-1.1500000000000001,0.79,267.42,0.017909657210111618,-0.004478824324905872,-0.022980891168117523,-0.0017781786154955626,0.08312451094388962,-0.2979221045970917,6.621471881866455,0.03,-0.08,-0.09,271.77
1674320765.41799974,71230373,1,-1.16,0.79,267.43,0.016991302371025085,-0.0026287268847227097,-0.02222391590476036,0.002259612549096346,0.0833074226975441,-0.2959858477115631,6.622450828552246,0.03,-0.08,-0.09,271.77
1674320765.43805695,71250430,1,-1.16,0.79,267.43,0.015956774353981018,-0.0012119991006329656,-0.021788643673062325,0.009144462645053864,0.0833740159869194,-0.2945476174354553,6.623509407043457,0.03,-0.08,-0.09,271.77
1674320765.45802379,71270397,1,-1.1500000000000001,0.79,267.43,0.015052476897835732,-0.0005373376770876348,-0.021907348185777664,0.016951343044638634,0.08356371521949768,-0.29387012124061584,6.623777389526367,0.03,-0.08,-0.09,271.77
1674320765.49802089,71310394,1,-1.1500000000000001,0.78,267.43,0.01390311773866415,0.0017535639926791191,-0.021325429901480675,0.027400802820920944,0.08381703495979309,-0.29192155599594116,6.624691009521484,0.03,-0.08,-0.09,271.77
1674320765.53805590,71350429,1,-1.1400000000000001,0.78,267.44,0.013262088410556316,0.003911597188562155,-0.020436996594071388,0.029271624982357025,0.08403944224119186,-0.28960877656936646,6.625786781311035,0.03,-0.08,-0.09,271.77
1674320765.57801986,71390393,1,-1.1300000000000001,0.78,267.44,0.013752278871834278,0.0052509605884552,-0.019837118685245514,0.026648860424757004,0.08441030234098434,-0.2880202531814575,6.626208305358887,0.03,-0.08,-0.09,271.77
1674320765.61807084,71430444,1,-1.1300000000000001,0.77,267.44,0.01386435329914093,0.0060351151041686535,-0.01921742595732212,0.022493530064821243,0.0847744569182396,-0.2863365113735199,6.6268157958984375,0.03,-0.08,-0.09,271.77
1674320765.63804674,71450420,1,-1.1400000000000001,0.77,267.44,0.013359910808503628,0.00659808749333024,-0.018848692998290062,0.021389765664935112,0.0849146917462349,-0.28528493642807007,6.627386093139648,0.03,-0.08,-0.09,271.77
1674320765.65802193,71470395,1,-1.1400000000000001,0.77,267.44,0.0128505639731884,0.006894856225699186,-0.018849389627575874,0.0209194328635931,0.08512537181377411,-0.2847186028957367,6.627448081970215,0.03,-0.08,-0.09,271.77
1674320765.69802094,71510394,1,-1.1400000000000001,0.77,267.44,0.01134222000837326,0.008195413276553154,-0.01833885721862316,0.01901993900537491,0.0854644924402237,-0.2832601070404053,6.627939701080322,0.03,-0.08,-0.09,271.77
1674320765.73803282,71550406,1,-1.1300000000000001,0.77,267.44,0.010156279429793358,0.008725139312446117,-0.01818118616938591,0.015362333506345749,0.08577598631381989,-0.28166326880455017,6.628620624542236,0.03,-0.08,-0.09,271.77
1674320765.77805495,71590428,1,-1.12,0.76,267.44,0.010370093397796154,0.00895979255437851,-0.017919786274433136,0.011469447985291481,0.08614588528871536,-0.2805507779121399,6.628781795501709,0.03,-0.08,-0.09,271.77
1674320765.81806779,71630441,1,-1.12,0.76,267.45,0.010273855179548264,0.008872098289430141,-0.017305029556155205,0.012880699709057808,0.08615224808454514,-0.27910614013671875,6.629887580871582,0.03,-0.08,-0.09,271.77
1674320765.83800793,71650381,1,-1.12,0.76,267.45,0.00975780002772808,0.009049647487699986,-0.017059020698070526,0.015542995184659958,0.08611806482076645,-0.2783025801181793,6.630619049072266,0.03,-0.08,-0.09,271.77
1674320765.85803890,71670412,1,-1.12,0.76,267.45,0.00926878023892641,0.009224623441696167,-0.016942795366048813,0.01889387145638466,0.0861966535449028,-0.2778402864933014,6.630788326263428,0.03,-0.08,-0.09,271.77
1674320765.89800382,71710377,1,-1.12,0.76,267.46,0.007480238564312458,0.010421263985335827,-0.016209084540605545,0.022602666169404984,0.08623020350933075,-0.2767157256603241,6.631601810455322,0.03,-0.08,-0.09,271.77
1674320765.93802190,71750395,1,-1.12,0.76,267.46,0.005965780932456255,0.010627619922161102,-0.015687353909015656,0.023173494264483452,0.08617441356182098,-0.2755422592163086,6.632691383361816,0.03,-0.08,-0.09,271.77
1674320765.97806382,71790437,1,-1.12,0.76,267.46,0.0044643166474998,0.010552524589002132,-0.015497038140892982,0.021140294149518013,0.0861910805106163,-0.274710476398468,6.633118152618408,0.03,-0.08,-0.09,271.77
1674320766.01805687,71830430,1,-1.11,0.76,267.45,0.004638252314180136,0.009772488847374916,-0.014814306050539017,0.023239849135279655,0.08679609000682831,-0.2737644612789154,6.634516716003418,0.03,-0.08,-0.09,271.77
1674320766.03800273,71850376,1,-1.11,0.76,267.46,0.005129888188093901,0.009643218480050564,-0.014359046705067158,0.025836413726210594,0.08717246353626251,-0.27328622341156006,6.635426998138428,0.03,-0.08,-0.09,271.77
1674320766.05804396,71870417,1,-1.11,0.76,267.46,0.005111323669552803,0.009447821415960789,-0.014166469685733318,0.029037808999419212,0.08741294592618942,-0.27297085523605347,6.635697841644287,0.03,-0.08,-0.09,271.77
1674320766.09803987,71910413,1,-1.11,0.76,267.46,0.005757592152804136,0.009195554070174694,-0.013444834388792515,0.03162016719579697,0.08804357796907425,-0.27232250571250916,6.636701583862305,0.03,-0.08,-0.09,271.77
1674320766.13802576,71950399,1,-1.11,0.75,267.47,0.005140363238751888,0.00840695295482874,-0.012839342467486858,0.030217565596103668,0.08880514651536942,-0.2717630863189697,6.637951374053955,0.03,-0.08,-0.09,271.77
1674320766.17801785,71990391,1,-1.11,0.75,267.48,0.0045867119915783405,0.007590291555970907,-0.012699751183390617,0.026464572176337242,0.08940714597702026,-0.27140119671821594,6.638576984405518,0.03,-0.08,-0.09,271.77
1674320766.21804476,72030418,1,-1.1,0.74,267.48,0.0048780282959342,0.006431346759200096,-0.012269669212400913,0.016328075900673866,0.08988765627145767,-0.27087369561195374,6.638103008270264,0.03,-0.08,-0.09,271.77
1674320766.23803473,72050408,1,-1.1,0.74,267.48,0.00473644956946373,0.006358507554978132,-0.012018339708447456,0.008804580196738243,0.09018442779779434,-0.2706437110900879,6.637866973876953,0.03,-0.08,-0.09,271.77
1674320766.25806093,72070434,1,-1.1,0.74,267.48,0.0047563123516738415,0.006450500804930925,-0.012205877341330051,0.001552094821818173,0.09037599712610245,-0.2704859673976898,6.637633800506592,0.03,-0.08,-0.09,271.77
1674320766.29805088,72110424,1,-1.1,0.74,267.48,0.004807333927601576,0.006507148966193199,-0.01241803728044033,-0.009805689565837383,0.09088021516799927,-0.2701902687549591,6.637225151062012,0.03,-0.08,-0.09,271.77
1674320766.33803582,72150409,1,-1.09,0.74,267.48,0.004603793378919363,0.006529413629323244,-0.012605995871126652,-0.01562928967177868,0.09149838238954544,-0.2700146734714508,6.636861324310303,0.03,-0.08,-0.09,271.77
1674320766.37803078,72190404,1,-1.09,0.74,267.48,0.00438831839710474,0.00656926492229104,-0.012491612695157528,-0.017948172986507416,0.09200184792280197,-0.2698962390422821,6.636476516723633,0.03,-0.08,-0.09,271.77
1674320766.41802287,72230396,1,-1.08,0.74,267.48,0.0039010783657431602,0.005555606912821531,-0.012758133932948112,-0.021152814850211143,0.09217747300863266,-0.26958999037742615,6.635555267333984,0.03,-0.08,-0.09,271.77
1674320766.43802476,72250398,1,-1.08,0.73,267.49,0.0036633301060646772,0.005094578489661217,-0.012840945273637772,-0.023499973118305206,0.09227540343999863,-0.2694951593875885,6.635036945343018,0.03,-0.08,-0.09,271.77
1674320766.45805383,72270427,1,-1.08,0.73,267.49,0.004098360892385244,0.004286757670342922,-0.013032250106334686,-0.025942550972104073,0.09236748516559601,-0.2694201171398163,6.634649753570557,0.03,-0.08,-0.09,271.77
1674320766.49800372,72310377,1,-1.08,0.73,267.49,0.00414354307577014,0.0027428932953625917,-0.013671641238033772,-0.029642291367053986,0.09258585423231125,-0.26939308643341064,6.633693695068359,0.03,-0.08,-0.09,271.77
1674320766.53805590,72350429,1,-1.08,0.73,267.49,0.003219076432287693,0.0019007005030289292,-0.013891102746129036,-0.031375519931316376,0.0928480327129364,-0.2695486545562744,6.632594585418701,0.03,-0.08,-0.09,271.77
1674320766.57801080,72390384,1,-1.08,0.72,267.5,0.0019394276896491647,0.0014844373799860477,-0.013825974427163601,-0.03156197816133499,0.0930580124258995,-0.2697315216064453,6.631548881530762,0.03,-0.08,-0.09,271.77
1674320766.61803794,72430411,1,-1.07,0.72,267.5,0.0010408085072413087,0.0013671632623299956,-0.013764148578047752,-0.025396807119250298,0.09311749041080475,-0.26918894052505493,6.631774425506592,0.03,-0.08,-0.09,271.77
1674320766.63803387,72450407,1,-1.07,0.72,267.5,0.0010084937093779445,0.0008978089899756014,-0.013745010830461979,-0.01912042684853077,0.09315095841884613,-0.26890769600868225,6.631946086883545,0.03,-0.08,-0.09,271.77
1674320766.65805483,72470428,1,-1.07,0.72,267.5,0.0013809261145070195,0.0012346110306680202,-0.013408731669187546,-0.012436667457222939,0.09318431466817856,-0.2687767744064331,6.6318840980529785,0.03,-0.08,-0.09,271.77
1674320766.69805384,72510427,1,-1.06,0.71,267.5,0.0012401917483657598,0.0009137787856161594,-0.013728469610214233,-0.004384390078485012,0.09327144920825958,-0.26847419142723083,6.631741046905518,0.03,-0.08,-0.09,271.77
1674320766.73806882,72550442,1,-1.06,0.71,267.5,0.0012543014017865062,0.00038152147317305207,-0.013131874613463879,-0.0014551737112924457,0.09340433776378632,-0.26822006702423096,6.631535053253174,0.03,-0.08,-0.09,271.77
1674320766.77803993,72590413,1,-1.06,0.71,267.51,0.000478845409816131,-0.0006208827253431082,-0.012767507694661617,-0.0015617135213688016,0.09352224320173264,-0.2681366801261902,6.6311869621276855,0.03,-0.08,-0.09,271.77
1674320766.81803989,72630413,1,-1.06,0.71,267.51,-3.37192773258721e-06,-0.00196480518206954,-0.012858984991908073,0.0009965397184714675,0.09412658959627151,-0.26776647567749023,6.631660461425781,0.03,-0.08,-0.09,271.77
1674320766.83802795,72650401,1,-1.05,0.71,267.51,0.0003842012374661863,-0.0025857810396701097,-0.01265269611030817,0.00398836936801672,0.09450923651456833,-0.2675785720348358,6.632000923156738,0.03,-0.08,-0.09,271.77
1674320766.85802794,72670401,1,-1.05,0.71,267.51,0.0006856231484562159,-0.0027553748805075884,-0.012443115003407001,0.007385058328509331,0.09470298141241074,-0.2675365209579468,6.632022857666016,0.03,-0.08,-0.09,271.77
1674320766.89805079,72710424,1,-1.05,0.7000000000000001,267.51,0.0024241541977971792,-0.003221558639779687,-0.012167742475867271,0.01000500749796629,0.095296710729599,-0.26740536093711853,6.632073402404785,0.03,-0.08,-0.09,271.77
1674320766.93805289,72750426,1,-1.05,0.7000000000000001,267.51,0.0026173389051109552,-0.0028925465885549784,-0.012761247344315052,0.006809410639107227,0.09608929604291916,-0.26733770966529846,6.632081985473633,0.03,-0.08,-0.09,271.77
1674320766.97805691,72790430,1,-1.06,0.7000000000000001,267.5,0.0034448220394551754,-0.004011725075542927,-0.012105077505111694,0.0038466667756438255,0.09668941050767899,-0.26740267872810364,6.631978988647461,0.03,-0.08,-0.09,271.77
1674320767.01803684,72830410,1,-1.06,0.7000000000000001,267.51,-0.00041440039058215916,-0.0038927318528294563,-0.011034727096557617,0.004961763508617878,0.09688016772270203,-0.2661343216896057,6.632302761077881,0.03,-0.08,-0.09,271.77
1674320767.03804994,72850423,1,-1.05,0.7000000000000001,267.52,0.00041170770418830216,-0.004390433896332979,-0.012542876414954662,0.004251342266798019,0.09698035567998886,-0.26536157727241516,6.632542133331299,0.03,-0.08,-0.09,271.77
1674320767.05802584,72870399,1,-1.05,0.6900000000000001,267.52,0.00023938209051266313,-0.005043389741331339,-0.012464752420783043,0.005534829571843147,0.09703657776117325,-0.2650638520717621,6.632518291473389,0.03,-0.08,-0.09,271.77
1674320767.09802485,72910398,1,-1.04,0.6900000000000001,267.52,-8.30586395750288e-06,-0.0038542470429092646,-0.012352388352155685,0.006226119585335255,0.09718970954418182,-0.26415884494781494,6.632615089416504,0.03,-0.08,-0.09,271.77
1674320767.13805079,72950424,1,-1.05,0.68,267.51,0.0013056321768090129,-0.002619475591927767,-0.012084129266440868,0.005121006164699793,0.0974566638469696,-0.2630678415298462,6.632777214050293,0.03,-0.08,-0.09,271.77
1674320767.17806888,72990442,1,-1.05,0.68,267.5,0.003662639297544956,-0.004276553634554148,-0.010641214437782764,0.004384033847600222,0.09771832823753357,-0.26237452030181885,6.632690906524658,0.03,-0.08,-0.09,271.77
1674320767.21806884,73030442,1,-1.08,0.68,267.54,0.008730443194508553,-0.010070879943668842,-0.009744210168719292,0.012335943058133125,0.09829100966453552,-0.2617022693157196,6.634407997131348,0.03,-0.08,-0.09,271.77
1674320767.23805594,73050429,1,-1.09,0.67,267.56,0.0002944291627500206,-0.0045122187584638596,-0.011746813543140888,0.01741916872560978,0.09857740998268127,-0.26128026843070984,6.635465145111084,0.03,-0.08,-0.09,271.77
1674320767.25801086,73070384,1,-1.09,0.67,267.54,-0.0161745585501194,0.004618483129888773,-0.012294568121433258,0.02458232082426548,0.09850911796092987,-0.2610122561454773,6.635830402374268,0.03,-0.08,-0.09,271.77
1674320767.29802990,73110403,1,-1.03,0.67,267.45,-0.008980143815279007,0.005909557919949293,-0.00992120336741209,0.03649987280368805,0.09789521247148514,-0.2599457800388336,6.636931419372559,0.03,-0.08,-0.08,271.77
1674320767.33803391,73150407,1,-1.01,0.66,267.49,0.03680183365941048,-0.023362260311841965,-0.0037782681174576283,0.04530012235045433,0.0991334468126297,-0.2594769299030304,6.638711452484131,0.03,-0.08,-0.08,271.77
1674320767.37805176,73190425,1,-1.02,0.64,267.49,-0.026394879445433617,0.006750863511115313,-0.009852152317762375,0.03765931725502014,0.09960076957941055,-0.259729266166687,6.639693737030029,0.03,-0.08,-0.08,271.77
1674320767.41800976,73230383,1,-1.02,0.63,267.47,0.0014322292990982533,-0.001326003111898899,-0.004126543179154396,0.044156841933727264,0.0984640046954155,-0.2587042450904846,6.64110803604126,0.03,-0.08,-0.08,271.77
1674320767.43802595,73250399,1,-0.99,0.62,267.48,0.026293886825442314,-0.02770715020596981,-0.0019495381275191903,0.04722891375422478,0.098690465092659,-0.2586771845817566,6.642252445220947,0.03,-0.08,-0.08,271.77
1674320767.45806885,73270442,1,-0.97,0.65,267.47,0.011004003696143627,-0.03280575945973396,-0.0005345424287952483,0.05021366849541664,0.09907297790050507,-0.2591131627559662,6.642730236053467,0.03,-0.08,-0.08,271.77
1674320767.49799776,73310371,1,-0.92,0.61,267.49,-0.013301054947078228,0.012451955117285252,-0.006272612139582634,0.04352454096078873,0.09866230934858322,-0.25916755199432373,6.643941879272461,0.03,-0.08,-0.08,271.77
1674320767.53802991,73350403,1,-0.98,0.62,267.46,0.021300431340932846,-0.010493435896933079,-0.006060798652470112,0.03853190690279007,0.09896773844957352,-0.2586052119731903,6.6453118324279785,0.03,-0.08,-0.08,271.77
1674320767.57806087,73390434,1,-1.03,0.64,267.38,-0.02060701884329319,-0.005317512899637222,-0.0007892404100857675,0.03763313218951225,0.09874104708433151,-0.25913771986961365,6.64613676071167,0.03,-0.08,-0.08,271.77
1674320767.61806774,73430441,1,-0.99,0.64,267.37,0.02926923893392086,-0.0008810365106910467,0.008292232640087605,0.052483245730400085,0.09993381798267365,-0.258606493473053,6.6488518714904785,0.03,-0.08,-0.07,271.77
1674320767.63800192,73450375,1,-1.01,0.65,267.35,0.02028278261423111,-0.022472990676760674,-0.0003806009772233665,0.04994581639766693,0.10104304552078247,-0.25882548093795776,6.650557518005371,0.03,-0.08,-0.07,271.77
1674320767.65805793,73470431,1,-0.9400000000000001,0.64,267.31,-0.021297216415405273,-0.014977850951254368,0.002881223801523447,0.06055031716823578,0.10121890157461166,-0.2592521607875824,6.651299476623535,0.03,-0.08,-0.07,271.77
1674320767.69803786,73510411,1,-0.92,0.62,267.29,0.016552066430449486,-0.0015975999413058162,-0.00866412278264761,0.056232959032058716,0.10145362466573715,-0.2592994272708893,6.653306007385254,0.03,-0.08,-0.07,271.77
1674320767.73799872,73550372,1,-0.9400000000000001,0.64,267.25,0.0029866001568734646,-0.02884170599281788,-0.003169713541865349,0.061338428407907486,0.10323701798915863,-0.26021644473075867,6.655858516693115,0.03,-0.08,-0.07,271.77
1674320767.77802992,73590403,1,-0.9500000000000001,0.64,267.23,0.007715398911386728,-0.0027912482619285583,-0.003786927554756403,0.05600564181804657,0.10358205437660217,-0.2611129879951477,6.657292366027832,0.03,-0.08,-0.07,271.77
1674320767.81805372,73630427,1,-0.99,0.62,267.18,0.025299537926912308,-0.03199334070086479,0.010676330886781216,0.06583721935749054,0.10546296834945679,-0.2612913250923157,6.659423828125,0.03,-0.08,-0.07,271.77
1674320767.83804393,73650417,1,-0.96,0.61,267.14,-0.005755171179771423,-0.03709837421774864,-0.00015453464584425092,0.05356049910187721,0.10622330754995346,-0.26193946599960327,6.660672664642334,0.03,-0.08,-0.07,271.77
1674320767.85803294,73670406,1,-0.92,0.61,267.12,-0.023384185507893562,-0.0060547711327672005,0.0024819769896566868,0.055907800793647766,0.1061163991689682,-0.2623744010925293,6.661233425140381,0.03,-0.08,-0.07,271.77
1674320767.89808583,73710459,1,-0.9400000000000001,0.61,267.09000000000003,0.03087991662323475,-0.02027633599936962,0.002640883671119809,0.051880281418561935,0.1071057990193367,-0.2625085711479187,6.662683486938477,0.03,-0.08,-0.07,271.77
1674320767.93804193,73750415,1,-0.9500000000000001,0.61,267.01,-0.009850852191448212,-0.024039151147007942,-0.0048955464735627174,0.03705660626292229,0.1085086241364479,-0.2637687623500824,6.6643595695495605,0.03,-0.08,-0.07,271.77
1674320767.97803283,73790406,1,-0.93,0.62,266.99,0.023587893694639206,-0.011012762784957886,0.005178845487535,0.0394509881734848,0.1090899109840393,-0.26405736804008484,6.6652092933654785,0.03,-0.08,-0.07,271.77
1674320768.01809382,73830467,1,-0.9500000000000001,0.63,266.95,0.01757725141942501,-0.03669707104563713,-0.002069394337013364,0.03125229477882385,0.10957732796669006,-0.26464706659317017,6.66769552230835,0.03,-0.08,-0.07,271.77
1674320768.03804493,73850418,1,-0.9500000000000001,0.62,266.94,-0.013155332766473293,-0.021394111216068268,-0.0005307846004143357,0.03581994026899338,0.10908187925815582,-0.2649252116680145,6.669110298156738,0.03,-0.08,-0.07,271.77
1674320768.05805373,73870427,1,-0.93,0.63,266.93,-0.003083862131461501,-0.005788832902908325,-0.005431110970675945,0.035171862691640854,0.10859985649585724,-0.2649574279785156,6.669727325439453,0.03,-0.08,-0.07,271.77
1674320768.09804583,73910419,1,-0.92,0.62,266.93,0.03590768948197365,-0.03688981756567955,0.007011566776782274,0.04953214153647423,0.10892750322818756,-0.26530227065086365,6.6712846755981445,0.03,-0.08,-0.06,271.77
1674320768.13807678,73950450,1,-0.9,0.61,266.85,-0.014022362418472767,-0.008871780708432198,-0.006288329139351845,0.03017512522637844,0.10835579037666321,-0.2662808895111084,6.67277193069458,0.03,-0.08,-0.06,271.77
1674320768.17803383,73990407,1,-0.88,0.59,266.82,0.029857167974114418,-0.031121384352445602,0.01083046942949295,0.03992659971117973,0.10815127938985825,-0.26655691862106323,6.673649311065674,0.03,-0.08,-0.06,271.77
1674320768.21801591,74030389,1,-0.91,0.59,266.77,0.007472964935004711,-0.04194335639476776,-0.0029332616832107306,0.016588106751441956,0.10800151526927948,-0.26687702536582947,6.674251556396484,0.03,-0.08,-0.06,271.77
1674320768.23805094,74050424,1,-0.92,0.5700000000000001,266.71,-0.022619418799877167,-0.02448849193751812,-0.002667069900780916,0.012248915620148182,0.10704286396503448,-0.26667946577072144,6.67462682723999,0.03,-0.08,-0.06,271.77
1674320768.25802779,74070401,1,-0.9400000000000001,0.55,266.71,-0.003338629612699151,-0.020977074280381203,0.013128627091646194,0.024522481486201286,0.10646926611661911,-0.2666964530944824,6.674749374389648,0.03,-0.08,-0.06,271.77
1674320768.29805183,74110425,1,-0.96,0.5,266.71,0.02738342061638832,-0.05927747115492821,0.005050075706094503,0.009121762588620186,0.10630150884389877,-0.26723748445510864,6.675103664398193,0.03,-0.08,-0.06,271.77
1674320768.33801079,74150384,1,-0.93,0.48,266.65,-0.008134306408464909,-0.0372484028339386,0.04428835213184357,0.04132087901234627,0.10518037527799606,-0.26816725730895996,6.675244331359863,0.03,-0.08,-0.06,271.77
1674320768.37803388,74190407,1,-0.85,0.44,266.6,0.02415071800351143,-0.028687939047813416,-0.003943485673516989,-0.011296252720057964,0.1043897196650505,-0.2683350145816803,6.675175666809082,0.03,-0.08,-0.06,271.77
1674320768.41803885,74230412,1,-0.88,0.42,266.56,0.0008301038178615272,-0.048376429826021194,-0.009090647101402283,-0.023591069504618645,0.10439445823431015,-0.26861464977264404,6.674694538116455,0.03,-0.08,-0.05,271.77
1674320768.43806291,74250436,1,-0.87,0.42,266.53000000000003,-0.010181989520788193,-0.01661893166601658,0.007919210940599442,-0.009774981997907162,0.1038322001695633,-0.2682114839553833,6.674417018890381,0.03,-0.08,-0.05,271.77
1674320768.45802593,74270399,1,-0.93,0.44,266.49,0.01393959205597639,-0.009793057106435299,0.007123956922441721,-0.0133280074223876,0.10358486324548721,-0.2678905725479126,6.674327850341797,0.03,-0.08,-0.05,271.77
1674320768.49805975,74310433,1,-0.9400000000000001,0.43,266.42,0.018029337748885155,-0.04315755143761635,0.0019023935310542583,-0.023625951260328293,0.10385610908269882,-0.2675871253013611,6.673662185668945,0.03,-0.08,-0.05,271.77
1674320768.53807282,74350446,1,-0.85,0.44,266.37,-0.022319089621305466,-0.014355090446770191,-0.0073789991438388824,-0.039470184594392776,0.10304705798625946,-0.2675314247608185,6.672305583953857,0.03,-0.08,-0.05,271.77
1674320768.57806373,74390437,1,-0.8300000000000001,0.41000000000000003,266.34000000000003,0.017952146008610725,-0.024058446288108826,0.008863741531968117,-0.02640867978334427,0.10272936522960663,-0.26714572310447693,6.671591281890869,0.03,-0.08,-0.05,271.77
1674320768.61807895,74430452,1,-0.89,0.41000000000000003,266.27,-0.005829494446516037,-0.046925138682127,0.015998098999261856,-0.02138669043779373,0.10376659780740738,-0.2665426731109619,6.670385360717773,0.03,-0.08,-0.04,271.77
1674320768.63805294,74450426,1,-0.92,0.38,266.26,-0.009306455962359905,-0.03679194673895836,-0.023589054122567177,-0.06205138936638832,0.10366587340831757,-0.2659253478050232,6.669658184051514,0.03,-0.08,-0.04,271.77
1674320768.65802288,74470396,1,-0.87,0.39,266.23,0.0003529316163621843,-0.02310849353671074,-0.028378859162330627,-0.06796437501907349,0.10386169701814651,-0.2657288610935211,6.669361114501953,0.03,-0.08,-0.04,271.77
1674320768.69802475,74510398,1,-0.9,0.33,266.22,0.045397982001304626,-0.053569722920656204,-0.037397243082523346,-0.07815153896808624,0.10556641966104507,-0.26527172327041626,6.66809606552124,0.03,-0.08,-0.04,271.77
1674320768.73805285,74550426,1,-0.89,0.32,266.06,-0.01774662919342518,-0.03878390043973923,-0.0231744647026062,-0.0662413090467453,0.10583905875682831,-0.26537176966667175,6.666277885437012,0.03,-0.08,-0.04,271.77
1674320768.77806282,74590436,1,-0.86,0.24,265.98,0.04120175912976265,-0.04336154833436012,-0.00295257312245667,-0.04635955020785332,0.10704920440912247,-0.26544705033302307,6.665213108062744,0.03,-0.08,-0.04,271.77
1674320768.81806779,74630441,1,-0.79,0.16,265.89,-0.004936568904668093,-0.04983620345592499,-0.01907719299197197,-0.05529271066188812,0.10759495198726654,-0.2655227482318878,6.664678573608398,0.03,-0.08,-0.04,271.77
1674320768.83805394,74650427,1,-0.79,0.12,265.84000000000003,0.014600452966988087,-0.045126162469387054,-0.00555271003395319,-0.03592933714389801,0.10780548304319382,-0.2651771903038025,6.664530277252197,0.03,-0.08,-0.04,271.77
1674320768.85803485,74670408,1,-0.81,0.09,265.82,0.02379520982503891,-0.04890637844800949,-0.0013199655804783106,-0.026091318577528,0.10849367827177048,-0.26561862230300903,6.664318084716797,0.03,-0.08,-0.04,271.77
1674320768.89799976,74710373,1,-0.8300000000000001,0.01,265.76,0.010368703864514828,-0.06456723064184189,-0.02062411978840828,-0.03862999007105827,0.10912282764911652,-0.26645007729530334,6.663398265838623,0.03,-0.08,-0.03,271.77
1674320768.93802786,74750401,1,-0.87,-0.08,265.66,0.024120096117258072,-0.0801919475197792,0.0194553192704916,0.0017969290493056178,0.1102190688252449,-0.2672790586948395,6.661949157714844,0.03,-0.08,-0.03,271.77
1674320768.97805190,74790425,1,-0.76,-0.22,265.63,0.016864236444234848,-0.07034140825271606,-0.027851363644003868,-0.04730583354830742,0.1113593727350235,-0.2685282826423645,6.660261631011963,0.03,-0.08,-0.03,271.77
1674320769.01805091,74830424,1,-0.66,-0.3,265.57,0.026088114827871323,-0.0707750916481018,-0.010214422829449177,-0.03778037801384926,0.11183811724185944,-0.2690715193748474,6.657724380493164,0.03,-0.08,-0.03,271.77
1674320769.03803277,74850406,1,-0.77,-0.41000000000000003,265.55,0.01718396507203579,-0.07715259492397308,-0.012309655547142029,-0.044816985726356506,0.1123516708612442,-0.2692336142063141,6.65621280670166,0.03,-0.08,-0.03,271.77
1674320769.05806184,74870435,1,-0.81,-0.49,265.54,0.027311602607369423,-0.07910739630460739,-0.041984736919403076,-0.07985559850931168,0.11295150220394135,-0.2700207829475403,6.655345439910889,0.03,-0.08,-0.03,271.77
1674320769.09800196,74910375,1,-0.65,-0.65,265.5,0.054713595658540726,-0.07094896584749222,-0.0341714583337307,-0.07763432711362839,0.11413048952817917,-0.2715590298175812,6.652725696563721,0.03,-0.08,-0.02,271.77
1674320769.13803291,74950406,1,-0.6900000000000001,-0.8,265.43,0.05580252408981323,-0.08725561201572418,-0.017602568492293358,-0.061261676251888275,0.11590688675642014,-0.27313658595085144,6.649709224700928,0.03,-0.08,-0.02,271.77
1674320769.17807293,74990446,1,-0.63,-1.0,265.4,0.06828708201646805,-0.10204345732927322,-0.013780985958874226,-0.05363938957452774,0.11809756606817245,-0.275898277759552,6.646671772003174,0.03,-0.08,-0.02,271.77
1674320769.21805096,75030424,1,-0.33,-1.27,265.34000000000003,0.0906822457909584,-0.09765563905239105,-0.004467335529625416,-0.041600022464990616,0.12051969766616821,-0.277670294046402,6.642524242401123,0.03,-0.08,-0.02,271.77
1674320769.23802686,75050400,1,-0.17,-1.42,265.3,0.08093030750751495,-0.11947008967399597,-0.09267421811819077,-0.12890319526195526,0.12187881022691727,-0.2786497473716736,6.639934062957764,0.03,-0.08,-0.02,271.77
1674320769.25804186,75070415,1,-0.2,-1.6500000000000001,265.28000000000003,0.10007472336292267,-0.1288943588733673,-0.09588345140218735,-0.13206547498703003,0.12347731739282608,-0.2803926467895508,6.637494087219238,0.03,-0.08,-0.02,271.77
1674320769.29804277,75110416,1,0.1,-2.1,265.2,0.09105883538722992,-0.13698656857013702,-0.1847502887248993,-0.21565869450569153,0.1272398829460144,-0.2838093340396881,6.63173770904541,0.03,-0.08,-0.01,271.77
1674320769.33800077,75150374,1,0.51,-2.64,265.11,0.12581130862236023,-0.14042611420154572,-0.1686914712190628,-0.18778343498706818,0.1315297782421112,-0.2872437834739685,6.624690055847168,0.03,-0.08,-0.01,271.77
1674320769.37802672,75190400,1,0.43,-3.54,265.01,0.125352144241333,-0.17045541107654572,-0.17487235367298126,-0.18258406221866608,0.13664180040359497,-0.2921897768974304,6.61638069152832,0.03,-0.08,-0.01,271.77
1674320769.41805673,75230430,1,0.9500000000000001,-4.51,264.91,0.15760616958141327,-0.18822243809700012,-0.36382749676704407,-0.36514854431152344,0.1424373835325241,-0.298041969537735,6.604359149932861,0.03,-0.08,-0.01,271.77
1674320769.43801188,75250385,1,0.99,-4.96,264.87,0.17910440266132355,-0.21487481892108917,-0.4441378712654114,-0.447936475276947,0.14565128087997437,-0.3012808561325073,6.597222328186035,0.03,-0.08,-0.01,271.77
1674320769.45805383,75270427,1,1.27,-5.44,264.76,0.17021004855632782,-0.22218520939350128,-0.37262028455734253,-0.3796931505203247,0.14904798567295074,-0.30502772331237793,6.589944839477539,0.03,-0.08,-0.01,271.77
1674320769.49804783,75310421,1,1.7,-6.03,264.66,0.2099139243364334,-0.24265612661838531,-0.47121626138687134,-0.4829299747943878,0.1567533314228058,-0.3133307099342346,6.573294162750244,0.03,-0.08,0.0,271.77
1674320769.53804088,75350414,1,2.0100000000000002,-6.29,264.57,0.23531939089298248,-0.28902557492256165,-0.5384502410888672,-0.5462120175361633,0.16509027779102325,-0.32251960039138794,6.554642677307129,0.03,-0.08,0.0,271.77
1674320769.57802892,75390402,1,1.71,-6.0,264.5,0.26270967721939087,-0.31006795167922974,-0.5370362401008606,-0.5384590029716492,0.17427003383636475,-0.33325818181037903,6.533871650695801,0.03,-0.08,0.0,271.77
1674320769.61803484,75430408,1,1.18,-5.2700000000000005,264.44,0.23989786207675934,-0.32410386204719543,-0.6844676733016968,-0.6779384613037109,0.18546618521213531,-0.3479986786842346,6.51090145111084,0.03,-0.08,0.0,271.77
1674320769.63804173,75450415,1,0.9,-4.84,264.42,0.27391481399536133,-0.34990254044532776,-0.6439935564994812,-0.6342010498046875,0.19122572243213654,-0.3559878468513489,6.4986443519592285,0.03,-0.08,0.0,271.77
1674320769.65805483,75470428,1,0.48,-4.34,264.41,0.2585834562778473,-0.33262038230895996,-0.6478779911994934,-0.6361931562423706,0.19678199291229248,-0.3635181486606598,6.485757827758789,0.03,-0.08,0.0,271.77
1674320769.69806790,75510441,1,-1.27,-3.4,264.33,0.2808305621147156,-0.358895868062973,-0.5693157315254211,-0.5518319606781006,0.2082170844078064,-0.3796587288379669,6.459573268890381,0.03,-0.08,0.0,271.77
1674320769.73806977,75550443,1,-3.0300000000000002,-2.46,264.26,0.26435089111328125,-0.3719314932823181,-0.7390039563179016,-0.7093736529350281,0.22041650116443634,-0.39734187722206116,6.431838035583496,0.03,-0.08,0.0,271.77
1674320769.77804375,75590417,1,-4.3500000000000005,-1.44,264.13,0.25476542115211487,-0.3630537986755371,-0.7080062627792358,-0.6722270846366882,0.23193730413913727,-0.41422170400619507,6.402256011962891,0.03,-0.08,0.0,271.77
1674320769.81802893,75630402,1,-6.2700000000000005,-0.43,263.98,0.23190240561962128,-0.3668871223926544,-0.7703896164894104,-0.7424777150154114,0.23976349830627441,-0.42752203345298767,6.368790149688721,0.03,-0.08,0.0,271.77
1674320769.83806181,75650435,1,-7.36,0.18,263.88,0.23575372993946075,-0.36794769763946533,-0.837973952293396,-0.8204671144485474,0.2432156801223755,-0.4340263307094574,6.350812911987305,0.03,-0.08,0.0,271.77
1674320769.85802674,75670400,1,-8.11,0.9500000000000001,263.73,0.19856983423233032,-0.3273983299732208,-0.8489899635314941,-0.8424602150917053,0.2468121349811554,-0.4403444230556488,6.333357334136963,0.03,-0.08,0.0,271.77
1674320769.89805579,75710429,1,-9.23,2.41,263.51,0.14495041966438293,-0.32117635011672974,-0.9524617195129395,-0.9627605080604553,0.2525050938129425,-0.45232775807380676,6.296612739562988,0.03,-0.08,0.01,271.77
1674320769.93801785,75750391,1,-10.59,3.79,263.25,0.12479885667562485,-0.26693207025527954,-0.9141608476638794,-0.9317726492881775,0.2558465003967285,-0.4628978371620178,6.257966041564941,0.03,-0.08,0.01,271.77
1674320769.97806692,75790440,1,-11.27,4.8500000000000005,263.06,0.08183559775352478,-0.22596371173858643,-1.0466569662094116,-1.0672204494476318,0.25787216424942017,-0.4721808135509491,6.217902183532715,0.03,-0.08,0.01,271.77
1674320770.01800680,75830380,1,-11.53,5.2,262.93,0.034822795540094376,-0.1702306866645813,-1.036849021911621,-1.064111590385437,0.2520577013492584,-0.47331130504608154,6.174971580505371,0.03,-0.09,0.01,271.77
1674320770.03803778,75850411,1,-11.36,5.11,262.96,0.01792455092072487,-0.15407025814056396,-1.05863618850708,-1.091509222984314,0.24743936955928802,-0.4723399877548218,6.153425693511963,0.03,-0.09,0.01,271.77
1674320770.05802488,75870398,1,-10.97,4.89,263.0,-0.07072719186544418,-0.12249699234962463,-1.0630532503128052,-1.101876974105835,0.24480506777763367,-0.47326281666755676,6.1312947273254395,0.03,-0.09,0.01,271.77
1674320770.09805274,75910426,1,-9.28,3.84,263.21,-0.02757597342133522,-0.10415520519018173,-1.0866585969924927,-1.1340588331222534,0.23664350807666779,-0.4722537696361542,6.086216926574707,0.03,-0.09,0.02,271.77
1674320770.13805485,75950428,1,-7.51,2.57,263.35,-0.0997120663523674,-0.03628191724419594,-1.1238765716552734,-1.1803995370864868,0.22604194283485413,-0.46841391921043396,6.039350986480713,0.03,-0.09,0.02,271.77
1674320770.17807388,75990447,1,-4.9,1.29,263.5,-0.1252838522195816,-0.01867043785750866,-1.084802508354187,-1.145642876625061,0.2165815532207489,-0.4653420150279999,5.992880821228027,0.03,-0.09,0.02,271.77
1674320770.21804476,76030418,1,-2.22,0.27,263.55,-0.13724520802497864,0.030336063355207443,-1.106014370918274,-1.1624953746795654,0.20009973645210266,-0.4607270359992981,5.944394588470459,0.04,-0.09,0.02,271.77
1674320770.23805285,76050426,1,-0.96,-0.15,263.63,-0.14229503273963928,0.0383475087583065,-1.1882201433181763,-1.2459216117858887,0.1904629021883011,-0.45747628808021545,5.9197163581848145,0.04,-0.09,0.02,271.77
1674320770.25802279,76070396,1,0.06,-0.55,263.61,-0.12000768631696701,0.023536743596196175,-1.2339032888412476,-1.2941073179244995,0.1844848394393921,-0.4555967450141907,5.8957133293151855,0.04,-0.09,0.02,271.77
1674320770.29802775,76110401,1,-2.6,14.48,181.39000000000001,-0.08932077884674072,0.0488116554915905,-1.193223476409912,-1.2530688047409058,0.17048989236354828,-0.4503089189529419,5.846791744232178,0.04,-0.09,0.02,271.77
1674320770.33805776,76150431,1,-1.77,13.55,181.39000000000001,0.007741734851151705,0.06479360908269882,-1.1510816812515259,-1.204115867614746,0.15876850485801697,-0.44357115030288696,5.799066543579102,0.04,-0.09,0.02,271.77
1674320770.37803984,76190413,1,-0.4,12.07,181.38,0.11061910539865494,0.04903654381632805,-1.0444471836090088,-1.0888794660568237,0.15537376701831818,-0.43836650252342224,5.753288745880127,0.04,-0.09,0.02,271.77
1674320770.41804481,76230418,1,0.46,9.97,181.12,0.22249025106430054,0.04085582494735718,-1.0959739685058594,-1.1267482042312622,0.149453803896904,-0.43185096979141235,5.709194183349609,0.04,-0.09,0.02,271.77
1674320770.43803978,76250413,1,0.8300000000000001,8.66,180.92000000000002,0.21987995505332947,0.02401837520301342,-1.0590893030166626,-1.079526424407959,0.146479532122612,-0.4285341799259186,5.688962936401367,0.04,-0.09,0.02,271.77
1674320770.45802188,76270395,1,1.59,7.28,180.71,0.28946948051452637,0.011999807320535183,-1.0718233585357666,-1.081547498703003,0.14832575619220734,-0.4268479645252228,5.6678290367126465,0.04,-0.09,0.02,271.77
1674320770.49803591,76310409,1,2.07,3.73,180.44,0.3018374443054199,-0.029780400916934013,-0.8855000734329224,-0.8940294981002808,0.1511559635400772,-0.4235159754753113,5.625448703765869,0.04,-0.09,0.02,271.77
1674320770.53802490,76350398,1,2.81,-0.04,180.65,0.32904699444770813,-0.046873532235622406,-0.9027109146118164,-0.9358900785446167,0.15447686612606049,-0.42153674364089966,5.582711696624756,0.04,-0.09,0.02,271.77
1674320770.57805872,76390432,1,3.04,-3.59,180.94,0.31191179156303406,-0.12069957703351974,-0.885850727558136,-0.9431378841400146,0.1610662192106247,-0.42320868372917175,5.542324066162109,0.04,-0.09,0.02,271.77
1674320770.61806273,76430436,1,3.19,-6.390000000000001,181.63,0.29563218355178833,-0.15243586897850037,-0.8639611005783081,-0.9496335387229919,0.1654297262430191,-0.42379721999168396,5.503205299377441,0.04,-0.09,0.02,271.77
1674320770.63802981,76450403,1,3.27,-7.36,182.1,0.2734639048576355,-0.18638040125370026,-0.7981857061386108,-0.8946146368980408,0.16564178466796875,-0.42489370703697205,5.483162879943848,0.04,-0.09,0.02,271.77
1674320770.65806794,76470441,1,3.09,-8.18,182.54,0.2257584035396576,-0.20880454778671265,-0.8324670791625977,-0.9402597546577454,0.16791850328445435,-0.4277988076210022,5.465628147125244,0.04,-0.09,0.02,271.77
1674320770.69803691,76510410,1,2.98,-9.16,183.68,0.15440912544727325,-0.24486935138702393,-0.8489029407501221,-0.9857789874076843,0.1674213707447052,-0.43553197383880615,5.427359580993652,0.04,-0.09,0.02,271.77
1674320770.73803091,76550404,1,2.49,-9.42,185.15,0.07266335934400558,-0.3425283432006836,-0.7211841940879822,-0.9022121429443359,0.1600327491760254,-0.4470600187778473,5.388503551483154,0.04,-0.09,0.02,271.77
1674320770.77802682,76590400,1,2.13,-9.08,186.59,0.023475755006074905,-0.3802069127559662,-0.659917414188385,-0.8691936135292053,0.1521429717540741,-0.4624462127685547,5.353755474090576,0.04,-0.09,0.02,271.77
1674320770.81804895,76630422,1,1.74,-8.14,188.0,-0.010634936392307281,-0.4446064829826355,-0.5635534524917603,-0.7759325504302979,0.1418413668870926,-0.4759393036365509,5.3261871337890625,0.04,-0.09,0.02,271.77
1674320770.83802891,76650402,1,1.54,-7.48,188.64000000000001,-0.03736129030585289,-0.4740840494632721,-0.5731233358383179,-0.7665945291519165,0.13369956612586975,-0.4838196635246277,5.312690734863281,0.04,-0.09,0.02,271.77
1674320770.85801291,76670386,1,1.1400000000000001,-6.7,189.25,-0.0778411328792572,-0.46005746722221375,-0.6299857497215271,-0.8016194105148315,0.1287720948457718,-0.4928150177001953,5.300576686859131,0.04,-0.09,0.02,271.77
1674320770.89804792,76710421,1,0.41000000000000003,-4.76,190.43,-0.07255680859088898,-0.5233190059661865,-0.4289131164550781,-0.5667251348495483,0.11362224072217941,-0.5128718018531799,5.274406909942627,0.04,-0.09,0.02,271.77
1674320770.93803287,76750406,1,0.01,-2.65,191.59,-0.13847249746322632,-0.584923267364502,-0.5190388560295105,-0.6497913002967834,0.09340411424636841,-0.5366573333740234,5.247906684875488,0.04,-0.09,0.02,271.77
1674320770.97804189,76790415,1,-0.09,-0.58,192.59,-0.14155369997024536,-0.6025117635726929,-0.4988671541213989,-0.6258160471916199,0.07648024708032608,-0.5630649328231812,5.22289514541626,0.04,-0.09,0.02,271.77
1674320771.01805282,76830426,1,-0.22,0.9500000000000001,193.61,-0.11918669193983078,-0.6363584399223328,-0.45110756158828735,-0.5837071537971497,0.07130736112594604,-0.5838413834571838,5.200358867645264,0.04,-0.09,0.02,271.77
1674320771.03804493,76850418,1,-0.19,1.6300000000000001,194.03,-0.08890464156866074,-0.6503002047538757,-0.3472505211830139,-0.47594162821769714,0.06974554061889648,-0.5945900082588196,5.189067363739014,0.04,-0.09,0.02,271.77
1674320771.05805182,76870425,1,0.0,2.13,194.51,-0.06212782859802246,-0.6508407592773438,-0.3707920014858246,-0.49539822340011597,0.06856483966112137,-0.6067922115325928,5.17954683303833,0.04,-0.09,0.02,271.77
1674320771.09805584,76910429,1,-0.04,2.44,195.29,-0.005365215241909027,-0.686034619808197,-0.3301055431365967,-0.4459737241268158,0.06862866133451462,-0.6321450471878052,5.159632205963135,0.04,-0.09,0.02,271.77
1674320771.13804793,76950421,1,0.22,2.41,195.94,0.0321391299366951,-0.6929445862770081,-0.24877454340457916,-0.36385947465896606,0.07310521602630615,-0.6586113572120667,5.140118598937988,0.04,-0.09,0.02,271.77
1674320771.17801476,76990388,1,0.45,2.15,196.46,0.11995517462491989,-0.7071747183799744,-0.2546880841255188,-0.3684462606906891,0.0803360566496849,-0.6865330934524536,5.123049259185791,0.04,-0.09,0.02,271.77
1674320771.21802473,77030398,1,0.21,1.8,196.87,0.1964646577835083,-0.7269260287284851,-0.2894781529903412,-0.4251888394355774,0.09700457751750946,-0.7056635618209839,5.105104446411133,0.04,-0.09,0.02,271.77
1674320771.23805285,77050426,1,0.08,1.68,197.02,0.23167620599269867,-0.7048746943473816,-0.29216474294662476,-0.4384351372718811,0.10903508961200714,-0.7142501473426819,5.095994472503662,0.04,-0.09,0.02,271.77
1674320771.25805187,77070425,1,0.19,1.51,197.16,0.2515428960323334,-0.7061057090759277,-0.3118278682231903,-0.4673270881175995,0.11782868951559067,-0.7250521779060364,5.089357852935791,0.04,-0.09,0.02,271.77
1674320771.29804993,77110423,1,-0.7000000000000001,1.1300000000000001,197.33,0.30944740772247314,-0.658317506313324,-0.17537494003772736,-0.33468636870384216,0.14253103733062744,-0.7447977066040039,5.075444221496582,0.04,-0.09,0.02,271.77
1674320771.33804893,77150422,1,-1.0,0.87,197.42000000000002,0.3993094861507416,-0.6804945468902588,-0.10690024495124817,-0.25966259837150574,0.17538781464099884,-0.7615854144096375,5.061667442321777,0.04,-0.09,0.02,271.77
1674320771.37802577,77190399,1,-1.3900000000000001,0.5700000000000001,197.37,0.45757630467414856,-0.6701804399490356,-0.17266693711280823,-0.314860999584198,0.20669281482696533,-0.7803899645805359,5.050637722015381,0.04,-0.09,0.02,271.77
1674320771.41802979,77230403,1,-1.93,0.4,197.08,0.49389931559562683,-0.6076087355613708,-0.0847797691822052,-0.22976532578468323,0.23431876301765442,-0.7906198501586914,5.0399909019470215,0.04,-0.09,0.02,271.77
1674320771.43806386,77250437,1,-2.1,0.22,196.92000000000002,0.5010149478912354,-0.6088240146636963,-0.10945435613393784,-0.25405868887901306,0.25038090348243713,-0.7928601503372192,5.034609317779541,0.04,-0.09,0.02,271.77
1674320771.45803094,77270404,1,-2.32,0.22,196.70000000000002,0.5476590394973755,-0.5996061563491821,-0.032434772700071335,-0.17758966982364655,0.2639603614807129,-0.7998677492141724,5.031411647796631,0.04,-0.09,0.02,271.77
1674320771.49804878,77310422,1,-2.45,0.18,196.24,0.5553397536277771,-0.534011721611023,-0.0025699862744659185,-0.14303173124790192,0.29530069231987,-0.8079374432563782,5.023924827575684,0.04,-0.09,0.02,271.77
1674320771.53807688,77350450,1,-3.23,0.35000000000000003,195.70000000000002,0.6212552785873413,-0.4933283030986786,-0.006521369330585003,-0.1404888778924942,0.33092308044433594,-0.8099583387374878,5.016335487365723,0.04,-0.09,0.02,271.77
1674320771.57807779,77390451,1,-3.8200000000000003,0.36,195.08,0.6251194477081299,-0.46596792340278625,-0.024630265310406685,-0.14952439069747925,0.3648049831390381,-0.8157756924629211,5.010135650634766,0.04,-0.09,0.02,271.77
1674320771.61804581,77430419,1,-4.28,0.42,194.4,0.6622910499572754,-0.4492354691028595,0.021469132974743843,-0.11018732190132141,0.3933255672454834,-0.8151699900627136,5.00430965423584,0.03,-0.09,0.02,271.77
1674320771.63804984,77450423,1,-4.36,0.36,194.12,0.6639589071273804,-0.3626788556575775,-0.06112009286880493,-0.19334034621715546,0.40819448232650757,-0.8114200234413147,5.0009965896606445,0.03,-0.09,0.02,271.77
1674320771.65802884,77470402,1,-4.68,0.42,193.76,0.6755611300468445,-0.37481868267059326,-0.03513384237885475,-0.16829191148281097,0.4223775565624237,-0.8133618831634521,4.999465465545654,0.03,-0.09,0.02,271.77
1674320771.69802189,77510395,1,-5.13,0.36,193.04,0.6920438408851624,-0.3518276810646057,0.025093063712120056,-0.11079765856266022,0.45221954584121704,-0.8109224438667297,4.9940266609191895,0.03,-0.09,0.02,271.77
1674320771.73804784,77550421,1,-4.7700000000000005,0.24,192.36,0.7054327726364136,-0.3282846510410309,0.1140533909201622,-0.03230029344558716,0.48259496688842773,-0.8019369840621948,4.987151145935059,0.03,-0.09,0.02,271.77
1674320771.77804875,77590422,1,-4.78,0.16,191.63,0.7250072956085205,-0.24500922858715057,0.003181338543072343,-0.1462603211402893,0.5126190185546875,-0.7975834012031555,4.982106685638428,0.03,-0.09,0.02,271.77
1674320771.81803989,77630413,1,-4.68,0.11,190.95000000000002,0.7144381999969482,-0.2218702733516693,0.1661597490310669,-0.0059828138910233974,0.5365031361579895,-0.7900171279907227,4.975995063781738,0.03,-0.09,0.02,271.77
1674320771.83805585,77650429,1,-4.78,0.1,190.59,0.7408334016799927,-0.19444088637828827,0.02980354242026806,-0.15076987445354462,0.5475829839706421,-0.7833301424980164,4.972242832183838,0.03,-0.09,0.02,271.77
1674320771.85800385,77670377,1,-4.59,0.16,190.24,0.7358559370040894,-0.18819446861743927,0.09438931196928024,-0.09388946741819382,0.5603731870651245,-0.7816861867904663,4.970572471618652,0.03,-0.09,0.02,271.77
1674320771.89802885,77710402,1,-4.79,0.11,189.6,0.7327098846435547,-0.15359120070934296,0.05456133186817169,-0.13677264750003815,0.5843421816825867,-0.7725635170936584,4.965081214904785,0.03,-0.09,0.02,271.77
1674320771.93805289,77750426,1,-5.39,0.18,188.95000000000002,0.7390256524085999,-0.08174513280391693,0.002448790706694126,-0.18605490028858185,0.6067096590995789,-0.7586223483085632,4.958637714385986,0.03,-0.09,0.02,271.77
1674320771.97805977,77790433,1,-5.53,0.17,188.39000000000001,0.7692966461181641,-0.055393390357494354,0.04537753015756607,-0.13252826035022736,0.631328284740448,-0.7487786412239075,4.955009460449219,0.03,-0.09,0.02,271.77
1674320772.01805878,77830432,1,-5.94,0.02,187.91,0.7344740629196167,0.013135850429534912,0.0037586025428026915,-0.16208559274673462,0.6493052840232849,-0.7384561896324158,4.951994895935059,0.03,-0.09,0.02,271.77
1674320772.03802681,77850400,1,-6.0,-0.05,187.66,0.7384675741195679,-0.0028706248849630356,0.030023915693163872,-0.12678593397140503,0.6559273600578308,-0.7315850257873535,4.950042247772217,0.03,-0.09,0.02,271.77
1674320772.05804491,77870418,1,-6.0600000000000005,-0.02,187.44,0.7566971182823181,0.058771997690200806,0.024378394708037376,-0.12476896494626999,0.6672424674034119,-0.7277964353561401,4.949685573577881,0.03,-0.09,0.02,271.77
1674320772.09800982,77910383,1,-6.19,-0.12,187.04,0.7319380044937134,0.10115264356136322,0.025069449096918106,-0.1077098548412323,0.6856162548065186,-0.7166173458099365,4.947031021118164,0.03,-0.09,0.02,271.77
1674320772.13803077,77950404,1,-6.32,-0.31,186.74,0.7300014495849609,0.11941146850585938,0.12103241682052612,-0.0006566773517988622,0.7009056210517883,-0.702277421951294,4.942962169647217,0.03,-0.09,0.02,271.77
1674320772.17805696,77990430,1,-6.34,-0.49,186.48,0.7329924702644348,0.15753963589668274,-0.009151460602879524,-0.11941363662481308,0.720288097858429,-0.6902291178703308,4.940493583679199,0.03,-0.09,0.02,271.77
1674320772.21806884,78030442,1,-6.05,-0.54,186.3,0.7460513710975647,0.17727307975292206,0.04745452105998993,-0.056002177298069,0.7314453721046448,-0.6815863251686096,4.938564300537109,0.03,-0.09,0.02,271.77
1674320772.23802686,78050400,1,-6.41,-0.66,186.26,0.7261333465576172,0.15287992358207703,0.1489713340997696,0.05300423130393028,0.7347630262374878,-0.6766175031661987,4.937344074249268,0.03,-0.09,0.02,271.77
1674320772.25805688,78070430,1,-6.2,-0.8,186.20000000000002,0.7427574992179871,0.17205968499183655,0.10442943125963211,0.013857644982635975,0.7435914278030396,-0.6724122762680054,4.937056541442871,0.03,-0.09,0.02,271.77
1674320772.29804873,78110422,1,-5.83,-0.93,186.17000000000002,0.7208425402641296,0.24162940680980682,-0.06433742493391037,-0.14913907647132874,0.7560447454452515,-0.6630677580833435,4.9344916343688965,0.03,-0.09,0.02,271.77
1674320772.33802390,78150397,1,-5.91,-0.99,186.11,0.7095844149589539,0.2619045078754425,0.03980609029531479,-0.04748648405075073,0.7644690275192261,-0.6532804369926453,4.930865287780762,0.03,-0.09,0.02,271.77
1674320772.37808490,78190458,1,-5.92,-1.24,186.16,0.6974993944168091,0.25333914160728455,0.0846182182431221,-0.0014786613173782825,0.7785035371780396,-0.6434436440467834,4.928919315338135,0.03,-0.09,0.02,271.77
1674320772.41806293,78230436,1,-5.21,-1.31,186.28,0.6995816826820374,0.2867261469364166,0.06071484833955765,-0.02349177375435829,0.7849695086479187,-0.6366523504257202,4.927119731903076,0.03,-0.09,0.02,271.77
1674320772.43800187,78250375,1,-5.11,-1.3800000000000001,186.37,0.6920475363731384,0.23426905274391174,0.09653185307979584,0.015030885115265846,0.7824004292488098,-0.6348281502723694,4.926126480102539,0.03,-0.09,0.02,271.77
1674320772.45803380,78270407,1,-5.08,-1.52,186.45000000000002,0.7024937868118286,0.2692103683948517,0.0926501452922821,0.013369826599955559,0.7881466746330261,-0.6312382817268372,4.926344871520996,0.03,-0.09,0.02,271.77
1674320772.49806786,78310441,1,-4.79,-1.57,186.62,0.6990105509757996,0.31541556119918823,0.08751103281974792,0.013452333398163319,0.7925441861152649,-0.6252850890159607,4.924966812133789,0.03,-0.09,0.02,271.77
1674320772.53804493,78350418,1,-4.75,-1.6500000000000001,186.79,0.6447417736053467,0.30498257279396057,0.12659911811351776,0.050083789974451065,0.790582001209259,-0.6206161975860596,4.9226884841918945,0.03,-0.09,0.02,271.77
1674320772.57803273,78390406,1,-4.65,-1.72,187.03,0.6435328722000122,0.3019196093082428,0.016838079318404198,-0.06130583584308624,0.7967768907546997,-0.613717257976532,4.921942234039307,0.03,-0.09,0.02,271.77
1674320772.61807084,78430444,1,-4.42,-1.6600000000000001,187.29,0.6165919303894043,0.3400585949420929,0.017811285331845284,-0.05217481404542923,0.7961742877960205,-0.6088255643844604,4.922860622406006,0.03,-0.09,0.02,271.77
1674320772.63803482,78450408,1,-4.74,-1.6,187.39000000000001,0.5965584516525269,0.2872925400733948,0.08921871334314346,0.03320952132344246,0.7895044088363647,-0.6084274053573608,4.92389440536499,0.03,-0.09,0.02,271.77
1674320772.65804982,78470423,1,-4.8500000000000005,-1.6,187.51,0.5943432450294495,0.36065027117729187,-0.00953751988708973,-0.04998563975095749,0.7924717664718628,-0.6050193309783936,4.924973964691162,0.03,-0.09,0.02,271.77
1674320772.69807196,78510445,1,-4.45,-1.41,187.8,0.589065432548523,0.3549473285675049,-0.004232281353324652,-0.01813519559800625,0.7895258069038391,-0.6008971929550171,4.926149368286133,0.03,-0.09,0.02,271.77
1674320772.73804092,78550414,1,-4.59,-1.25,188.09,0.5514454245567322,0.36611515283584595,0.009502865374088287,0.0077283442951738834,0.7808496356010437,-0.5984141230583191,4.9266886711120605,0.03,-0.09,0.02,271.77
1674320772.77805185,78590425,1,-4.21,-0.91,188.34,0.5592988133430481,0.3712618947029114,0.02771124802529812,0.031770672649145126,0.7811752557754517,-0.5927259922027588,4.926856517791748,0.03,-0.09,0.02,271.77
1674320772.81802678,78630400,1,-4.17,-0.65,188.62,0.5378761887550354,0.34640949964523315,-0.006635567639023066,-0.009914268739521503,0.7750526070594788,-0.590676486492157,4.925723075866699,0.03,-0.09,0.02,271.77
1674320772.83806682,78650440,1,-4.0600000000000005,-0.47000000000000003,188.82,0.5233885049819946,0.32900795340538025,-0.05212153494358063,-0.0598553903400898,0.7657512426376343,-0.5925927758216858,4.925105571746826,0.03,-0.09,0.02,271.77
1674320772.85804892,78670422,1,-4.18,-0.26,188.92000000000002,0.5258548259735107,0.36799657344818115,-0.10366944968700409,-0.11542945355176926,0.7666515111923218,-0.5900455713272095,4.924702167510986,0.03,-0.09,0.02,271.77
1674320772.89805079,78710424,1,-4.3100000000000005,-0.22,189.28,0.5121768116950989,0.3422919809818268,0.06564810127019882,0.0503653921186924,0.7598779201507568,-0.5887141227722168,4.923783302307129,0.03,-0.09,0.02,271.77
1674320772.93804789,78750421,1,-3.97,-0.16,189.64000000000001,0.4993615746498108,0.3678820729255676,-0.07830167561769485,-0.09107445180416107,0.7470288276672363,-0.5902778506278992,4.922570705413818,0.03,-0.09,0.02,271.77
1674320772.97803283,78790406,1,-4.32,-0.2,189.97,0.5089914202690125,0.35247349739074707,0.0503743514418602,0.04207457974553108,0.7444477677345276,-0.5867779850959778,4.921651363372803,0.03,-0.09,0.02,271.77
1674320773.01801991,78830393,1,-4.0200000000000005,-0.43,190.43,0.4823957085609436,0.34182241559028625,-0.057512301951646805,-0.0528152696788311,0.7328804731369019,-0.5852475166320801,4.9222731590271,0.03,-0.09,0.02,271.77
1674320773.03804183,78850415,1,-3.9,-0.39,190.67000000000002,0.4678714871406555,0.3760119676589966,-0.096538245677948,-0.0820435881614685,0.7233403325080872,-0.5860501527786255,4.922689437866211,0.03,-0.09,0.02,271.77
1674320773.05802584,78870399,1,-3.8000000000000003,-0.44,190.85,0.46368804574012756,0.35736456513404846,-0.11445387452840805,-0.09033357352018356,0.7238033413887024,-0.5827423930168152,4.922611713409424,0.03,-0.09,0.02,271.77
1674320773.09805489,78910428,1,-3.36,-0.54,191.25,0.4597691595554352,0.34918898344039917,0.009398067370057106,0.04301784187555313,0.7164335250854492,-0.5796061158180237,4.922081470489502,0.03,-0.09,0.02,271.77
1674320773.13807988,78950453,1,-3.21,-0.6900000000000001,191.66,0.4521043300628662,0.3380771577358246,0.013808310963213444,0.0419035404920578,0.7033447027206421,-0.5789483785629272,4.920900821685791,0.03,-0.09,0.02,271.77
1674320773.17808795,78990461,1,-2.79,-0.85,192.05,0.4566115438938141,0.34295129776000977,0.043000105768442154,0.05886869132518768,0.7003393769264221,-0.5740476250648499,4.91959285736084,0.03,-0.09,0.02,271.77
