timestamp,TimeUS,DesRoll,Roll,DesPitch,Pitch,DesYaw,Yaw,ErrRP,ErrYaw,AEKF
1665697324.46316695,39405900,0.0,0.58,0.0,-1.24,67.02,67.01,0.0,0.07,3
1665697324.56269097,39505424,0.0,0.58,0.0,-1.24,67.02,66.99,0.0,0.07,3
1665697324.66277289,39605506,0.0,0.58,0.0,-1.24,67.02,66.97,0.0,0.07,3
1665697324.76275992,39705493,0.0,0.58,0.0,-1.24,67.02,66.94,0.0,0.09,3
1665697324.86274290,39805476,0.0,0.58,0.0,-1.24,67.02,66.9,0.0,0.1,3
1665697324.96278596,39905519,0.0,0.58,0.0,-1.24,67.02,66.86,0.0,0.08,3
1665697325.06279302,40005526,0.0,0.58,0.0,-1.24,67.02,66.78,0.0,0.08,3
1665697325.16275692,40105490,0.0,0.58,0.0,-1.24,67.02,66.7,0.0,0.07,3
1665697325.26281786,40205551,0.0,0.58,0.0,-1.24,67.02,66.64,0.0,0.07,3
1665697325.36279202,40305525,0.0,0.58,0.0,-1.24,67.02,66.6,0.0,0.07,3
1665697325.46278501,40405518,0.0,0.58,0.0,-1.23,67.02,66.59,0.01,0.1,3
1665697325.56271505,40505448,0.0,0.58,0.0,-1.23,67.02,66.59,0.01,0.12,3
1665697325.66269803,40605431,0.0,0.58,0.0,-1.24,67.02,66.63,0.01,0.12,3
1665697325.76274991,40705483,0.0,0.58,0.0,-1.24,67.02,66.71000000000001,0.01,0.13,3
1665697325.86277795,40805511,0.0,0.5700000000000001,0.0,-1.24,67.02,66.82000000000001,0.01,0.12,3
1665697325.96291399,40905647,0.0,0.5700000000000001,0.0,-1.24,67.02,66.89,0.01,0.11,3
1665697326.06273198,41005465,0.0,0.5700000000000001,0.0,-1.24,67.02,66.94,0.01,0.11,3
1665697326.16280794,41105541,0.0,0.5700000000000001,0.0,-1.24,67.02,66.95,0.01,0.09,3
1665697326.26271605,41205449,0.0,0.5700000000000001,0.0,-1.24,67.02,66.92,0.01,0.08,3
1665697326.36279106,41305524,0.0,0.5700000000000001,0.0,-1.24,67.02,66.88,0.01,0.11,3
1665697326.46283793,41405571,0.0,0.5700000000000001,0.0,-1.24,66.85,66.85,0.01,0.1,3
1665697326.56280804,41505541,0.0,0.5700000000000001,0.0,-1.24,66.8,66.8,0.01,0.11,3
1665697326.66275597,41605489,0.0,0.5700000000000001,0.0,-1.24,66.73,66.73,0.01,0.11,3
1665697326.76278305,41705516,0.0,0.5700000000000001,0.0,-1.24,66.64,66.64,0.01,0.09,3
1665697326.86279798,41805531,0.0,0.5700000000000001,0.0,-1.24,66.57000000000001,66.57000000000001,0.01,0.08,3
1665697326.96280098,41905534,0.0,0.5700000000000001,0.0,-1.24,66.53,66.53,0.01,0.07,3
1665697327.06288195,42005615,0.0,0.5700000000000001,0.0,-1.24,66.52,66.52,0.01,0.06,3
1665697327.16270089,42105434,0.0,0.58,0.0,-1.24,66.53,66.53,0.01,0.06,3
1665697327.26274586,42205479,0.0,0.58,0.0,-1.24,66.54,66.54,0.01,0.06,3
1665697327.36277890,42305512,0.0,0.58,0.0,-1.23,66.55,66.55,0.01,0.06,3
1665697327.46281695,42405550,0.0,0.58,0.0,-1.24,66.55,66.55,0.01,0.06,3
1665697327.56272101,42505454,0.0,0.58,0.0,-1.24,66.55,66.55,0.01,0.05,3
1665697327.66273904,42605472,0.0,0.58,0.0,-1.24,66.55,66.55,0.01,0.05,3
1665697327.76273084,42705464,0.0,0.58,0.0,-1.24,66.56,66.56,0.01,0.05,3
1665697327.86274099,42805474,0.0,0.58,0.0,-1.24,66.58,66.58,0.01,0.07,3
1665697327.96283197,42905565,0.0,0.58,0.0,-1.24,66.61,66.61,0.01,0.07,3
1665697328.06291485,43005648,0.0,0.5700000000000001,0.0,-1.24,66.66,66.66,0.01,0.08,3
1665697328.16275907,43105492,0.0,0.58,0.0,-1.24,66.72,66.72,0.01,0.07,3
1665697328.26273990,43205473,0.0,0.5700000000000001,0.0,-1.24,66.79,66.79,0.01,0.06,3
1665697328.36281085,43305544,0.0,0.5700000000000001,0.0,-1.24,66.86,66.86,0.01,0.1,3
1665697328.46282697,43405560,0.0,0.58,0.0,-1.24,66.92,66.92,0.01,0.09,3
1665697328.56278205,43505515,0.0,0.58,0.0,-1.24,66.92,66.92,0.01,0.09,3
1665697328.66270304,43605436,0.0,0.58,0.0,-1.24,66.9,66.9,0.01,0.07,3
1665697328.76280189,43705535,0.0,0.58,0.0,-1.24,66.86,66.86,0.01,0.09,3
1665697328.86293507,43805668,0.0,0.5700000000000001,0.0,-1.24,66.81,66.81,0.01,0.09,3
1665697328.96280503,43905538,0.0,0.5700000000000001,0.0,-1.24,66.76,66.76,0.01,0.12,3
1665697329.06281900,44005552,0.0,0.5700000000000001,0.0,-1.24,66.69,66.69,0.01,0.1,3
1665697329.16276193,44105495,0.0,0.58,0.0,-1.24,66.66,66.66,0.01,0.09,3
1665697329.26274490,44205478,0.0,0.58,0.0,-1.24,66.65,66.65,0.0,0.08,3
1665697329.36276793,44305501,0.0,0.58,0.0,-1.24,66.65,66.65,0.0,0.06,3
1665697329.46275306,44405486,0.0,0.58,0.0,-1.24,66.65,66.65,0.0,0.05,3
1665697329.56273293,44505466,0.0,0.58,0.0,-1.24,66.64,66.64,0.0,0.06,3
1665697329.66280890,44605542,0.0,0.58,0.0,-1.24,66.64,66.63,0.0,0.05,3
1665697329.76280785,44705541,0.0,0.58,0.0,-1.24,66.64,66.63,0.0,0.05,3
1665697329.86282396,44805557,0.0,0.58,0.0,-1.24,66.65,66.64,0.0,0.04,3
1665697329.96285200,44905585,0.0,0.58,0.0,-1.24,66.64,66.64,0.0,0.04,3
1665697330.06280804,45005541,0.0,0.58,0.0,-1.24,66.64,66.64,0.0,0.05,3
1665697330.16288686,45105620,0.0,0.5700000000000001,0.0,-1.24,66.63,66.63,0.0,0.08,3
1665697330.26271296,45205446,0.0,0.58,0.0,-1.24,66.6,66.6,0.0,0.08,3
1665697330.36279988,45305533,0.0,0.5700000000000001,0.0,-1.24,66.59,66.59,0.0,0.07,3
1665697330.46277905,45405512,0.0,0.5700000000000001,0.0,-1.24,66.59,66.59,0.0,0.07,3
1665697330.56279206,45505525,0.0,0.5700000000000001,0.0,-1.24,66.6,66.6,0.0,0.06,3
1665697330.66283584,45605569,0.0,0.5700000000000001,0.0,-1.23,66.62,66.6,0.0,0.1,3
1665697330.76273489,45705468,0.0,0.5700000000000001,0.0,-1.23,66.61,66.6,0.0,0.09,3
1665697330.86277294,45805506,0.0,0.5700000000000001,0.0,-1.24,66.58,66.56,0.0,0.1,3
1665697330.96276689,45905500,0.0,0.5700000000000001,0.0,-1.23,66.51,66.49,0.0,0.1,3
1665697331.06280994,46005543,0.0,0.5700000000000001,0.0,-1.23,66.43,66.41,0.0,0.08,3
1665697331.16278601,46105519,0.0,0.5700000000000001,0.0,-1.24,66.33,66.32000000000001,0.0,0.07,3
1665697331.26275587,46205489,0.0,0.5700000000000001,0.0,-1.24,66.25,66.23,0.0,0.11,3
1665697331.36282706,46305560,0.0,0.5700000000000001,0.0,-1.24,66.19,66.17,0.0,0.1,3
1665697331.46278596,46405519,0.0,0.5700000000000001,0.0,-1.24,66.19,66.16,0.0,0.1,3
1665697331.56287193,46505605,0.0,0.5700000000000001,0.0,-1.24,66.2,66.17,0.0,0.1,3
1665697331.66278887,46605522,0.0,0.5700000000000001,0.0,-1.24,66.2,66.17,0.0,0.09,3
1665697331.76271701,46705450,0.0,0.5700000000000001,0.0,-1.24,66.19,66.16,0.0,0.08,3
1665697331.86279798,46805531,0.0,0.5700000000000001,0.0,-1.24,66.18,66.14,0.0,0.07,3
1665697331.96277499,46905508,0.0,0.5700000000000001,0.0,-1.24,66.16,66.12,0.0,0.09,3
1665697332.06279707,47005530,0.0,0.5700000000000001,0.0,-1.24,66.14,66.11,0.0,0.09,3
1665697332.16279006,47105523,0.0,0.5700000000000001,0.0,-1.24,66.11,66.07000000000001,0.0,0.1,3
1665697332.26295805,47205691,0.0,0.56,0.0,-1.24,66.05,66.02,0.0,0.11,3
1665697332.36275601,47305489,0.0,0.5700000000000001,0.0,-1.24,66.02,65.98,0.0,0.13,3
1665697332.46281195,47405545,0.0,0.5700000000000001,0.0,-1.24,65.99,65.95,0.0,0.11,3
1665697332.56274486,47505478,0.0,0.5700000000000001,0.0,-1.24,65.97,65.94,0.0,0.13,3
1665697332.66275287,47605486,0.0,0.56,0.0,-1.24,65.97,65.93,0.0,0.12,3
1665697332.76278305,47705516,0.0,0.56,0.0,-1.25,65.99,65.96000000000001,0.0,0.1,3
1665697332.86277485,47805508,0.0,0.56,0.0,-1.25,66.03,65.99,0.0,0.1,3
1665697332.96278405,47905517,0.0,0.56,0.0,-1.25,66.05,66.01,0.0,0.12,3
1665697333.06282592,48005559,0.0,0.56,0.0,-1.25,66.07000000000001,66.03,0.0,0.13,3
1665697333.16279387,48105527,0.0,0.56,0.0,-1.25,66.11,66.07000000000001,0.0,0.11,3
1665697333.26279402,48205527,0.0,0.56,0.0,-1.25,67.27,66.14,0.0,0.1,3
1665697333.36283898,48305572,0.0,0.56,0.0,-1.25,68.72,66.21000000000001,0.0,0.09,3
1665697333.46274304,48405476,0.0,0.56,0.0,-1.25,70.16,66.26,0.0,0.08,3
1665697333.56277084,48505504,0.0,0.5700000000000001,0.0,-1.25,71.61,66.28,0.0,0.11,3
1665697333.66277099,48605504,0.0,0.5700000000000001,0.0,-1.25,73.05,66.29,0.0,0.1,3
1665697333.76273084,48705464,0.0,0.5700000000000001,0.0,-1.25,74.5,66.31,0.0,0.11,3
1665697333.86272287,48805456,0.0,0.5700000000000001,0.0,-1.25,75.94,66.33,0.0,0.1,3
1665697333.96272683,48905460,0.0,0.5700000000000001,0.0,-1.25,77.39,66.36,0.0,0.09,3
1665697334.06275105,49005484,0.0,0.5700000000000001,0.0,-1.25,78.91,66.39,0.0,0.08,3
1665697334.16275787,49105491,0.0,0.5700000000000001,0.0,-1.24,80.88,66.43,0.0,0.08,3
1665697334.26280689,49205540,0.0,0.5700000000000001,0.0,-1.24,83.62,66.47,0.0,0.12,3
1665697334.36293387,49305667,0.0,0.5700000000000001,0.0,-1.24,86.5,66.5,0.0,0.11,3
1665697334.46276784,49405501,0.0,0.5700000000000001,0.0,-1.24,89.39,66.57000000000001,0.0,0.09,3
1665697334.56278396,49505517,0.0,0.56,0.0,-1.24,92.16,66.63,0.0,0.1,3
1665697334.66279387,49605527,0.0,0.5700000000000001,0.0,-1.24,93.39,66.68,0.0,0.1,3
1665697334.76279402,49705527,0.0,0.5700000000000001,0.0,-1.24,93.39,66.7,0.0,0.09,3
1665697334.86284900,49805582,0.0,0.56,0.0,-1.24,93.37,66.68,0.0,0.1,3
1665697334.96270990,49905443,0.0,0.56,0.0,-1.24,93.32000000000001,66.65,0.0,0.08,3
1665697335.06272292,50005456,0.0,0.56,0.0,-1.24,93.3,66.62,0.0,0.13,3
1665697335.16290593,50105639,0.0,0.56,0.0,-1.24,93.28,66.61,0.0,0.11,3
1665697335.26277089,50205504,0.0,0.56,0.0,-1.24,66.63,66.63,0.0,0.09,3
1665697335.36274695,50305480,0.0,0.56,0.0,-1.24,66.67,66.67,0.0,0.07,3
1665697335.46273494,50405468,0.0,0.56,0.0,-1.24,66.72,66.72,0.0,0.07,3
1665697335.56276703,50505500,0.0,0.56,0.0,-1.24,66.75,66.75,0.0,0.08,3
1665697335.66272402,50605457,0.0,0.55,0.0,-1.24,66.76,66.76,0.0,0.08,3
1665697335.76278186,50705515,0.0,0.55,0.0,-1.24,66.75,66.75,0.0,0.09,3
1665697335.86280203,50805535,0.0,0.55,0.0,-1.24,66.73,66.73,0.0,0.1,3
1665697335.96281600,50905549,0.0,0.55,0.0,-1.24,66.7,66.7,0.0,0.08,3
1665697336.06288099,51005614,0.0,0.55,0.0,-1.24,66.65,66.65,0.0,0.07,3
1665697336.16282487,51105558,0.0,0.55,0.0,-1.24,66.59,66.59,0.0,0.08,3
1665697336.26279783,51205531,0.0,0.55,0.0,-1.24,66.54,66.54,0.0,0.06,3
1665697336.36279798,51305531,0.0,0.55,0.0,-1.24,66.5,66.5,0.0,0.05,3
1665697336.46290588,51405639,0.0,0.56,0.0,-1.24,66.45,66.45,0.0,0.04,3
1665697336.56270099,51505434,0.0,0.56,0.0,-1.24,66.42,66.42,0.0,0.04,3
1665697336.66280603,51605539,0.0,0.56,0.0,-1.24,66.4,66.4,0.0,0.09,3
1665697336.76277900,51705512,0.0,0.56,0.0,-1.24,66.38,66.38,0.0,0.07,3
1665697336.86280084,51805534,0.0,0.56,0.0,-1.24,66.33,66.33,0.0,0.08,3
1665697336.96283984,51905573,0.0,0.5700000000000001,0.0,-1.25,66.28,66.28,0.0,0.08,3
1665697337.06276393,52005497,0.0,0.5700000000000001,0.0,-1.25,66.24,66.24,0.0,0.07,3
1665697337.16279101,52105524,0.0,0.5700000000000001,0.0,-1.25,66.23,66.23,0.0,0.09,3
1665697337.26272488,52205458,0.0,0.58,0.0,-1.24,66.24,66.24,0.0,0.1,3
1665697337.36276889,52305502,0.0,0.58,0.0,-1.24,66.24,66.24,0.0,0.11,3
1665697337.46277499,52405508,0.0,0.58,0.0,-1.25,66.21000000000001,66.21000000000001,0.0,0.1,3
1665697337.56278801,52505521,0.0,0.59,0.0,-1.25,66.19,66.19,0.0,0.11,3
1665697337.66275787,52605491,0.0,0.59,0.0,-1.25,66.19,66.19,0.0,0.09,3
1665697337.76285100,52705584,0.0,0.59,0.0,-1.25,66.21000000000001,66.21000000000001,0.0,0.12,3
1665697337.86290884,52805642,0.0,0.6,0.0,-1.25,66.24,66.24,0.0,0.11,3
1665697337.96280789,52905541,0.0,0.59,0.0,-1.25,66.29,66.29,0.0,0.09,3
1665697338.06278205,53005515,0.0,0.59,0.0,-1.26,66.35,66.35,0.0,0.11,3
1665697338.16274190,53105475,0.0,0.59,0.0,-1.26,66.41,66.41,0.0,0.11,3
1665697338.26277900,53205512,0.0,0.59,0.0,-1.25,66.46000000000001,66.46000000000001,0.0,0.1,3
1665697338.36279202,53305525,0.0,0.59,0.0,-1.25,66.52,66.52,0.0,0.08,3
1665697338.46280098,53405534,0.0,0.58,0.0,-1.26,66.58,66.58,0.0,0.12,3
1665697338.56287289,53505606,0.0,0.58,0.0,-1.26,66.63,66.63,0.0,0.12,3
1665697338.66279101,53605524,0.0,0.58,0.0,-1.26,66.63,66.63,0.0,0.14,3
1665697338.76292586,53705659,0.0,0.58,0.0,-1.26,66.63,66.63,0.0,0.16,3
1665697338.86281395,53805547,0.0,0.5700000000000001,0.0,-1.27,66.63,66.63,0.0,0.15,3
1665697338.96280503,53905538,0.0,0.5700000000000001,0.0,-1.27,66.68,66.68,0.0,0.13,3
1665697339.06280494,54005538,0.0,0.5700000000000001,0.0,-1.28,66.73,66.73,0.0,0.11,3
1665697339.16273594,54105469,0.0,0.5700000000000001,0.0,-1.28,66.77,66.77,0.0,0.11,3
1665697339.26277685,54205510,0.0,0.5700000000000001,0.0,-1.28,66.81,66.81,0.0,0.12,3
1665697339.36280298,54305536,0.0,0.58,0.0,-1.28,66.82000000000001,66.82000000000001,0.0,0.12,3
1665697339.46281290,54405546,0.0,0.58,0.0,-1.28,66.8,66.8,0.0,0.1,3
1665697339.56277800,54505511,0.0,0.58,0.0,-1.28,66.76,66.76,0.0,0.11,3
1665697339.66280699,54605540,0.0,0.59,0.0,-1.28,66.71000000000001,66.71000000000001,0.0,0.1,3
1665697339.76277184,54705505,0.0,0.59,0.0,-1.28,66.66,66.66,0.0,0.09,3
1665697339.86278892,54805522,0.0,0.59,0.0,-1.27,66.61,66.61,0.0,0.08,3
1665697339.96279693,54905530,0.0,0.59,0.0,-1.27,66.57000000000001,66.57000000000001,0.0,0.11,3
1665697340.06280804,55005541,0.0,0.59,0.0,-1.27,66.54,66.54,0.0,0.11,3
1665697340.16275501,55105488,0.0,0.59,0.0,-1.27,66.54,66.54,0.0,0.09,3
1665697340.26357603,55206309,0.0,0.58,0.0,-1.27,66.55,66.55,0.0,0.08,3
1665697340.36272597,55305459,0.0,0.58,0.0,-1.27,66.55,66.55,0.0,0.07,3
1665697340.46277189,55405505,0.0,0.58,0.0,-1.27,66.55,66.56,0.0,0.07,3
1665697340.56281185,55505545,0.0,0.58,0.0,-1.27,66.55,66.57000000000001,0.0,0.06,3
1665697340.66294003,55605673,0.0,0.58,0.0,-1.27,66.55,66.59,0.0,0.06,3
1665697340.76275802,55705491,0.0,0.58,0.0,-1.28,66.55,66.61,0.0,0.09,3
1665697340.86282706,55805560,0.0,0.58,0.0,-1.28,66.55,66.64,0.0,0.09,3
1665697340.96284485,55905578,0.0,0.59,0.0,-1.28,66.55,66.64,0.0,0.08,3
1665697341.06278706,56005520,0.0,0.59,0.0,-1.28,66.55,66.62,0.0,0.1,3
1665697341.16268897,56105422,0.0,0.59,0.0,-1.27,66.55,66.59,0.0,0.12,3
1665697341.26272607,56205459,0.0,0.59,0.0,-1.27,66.55,66.58,0.01,0.1,3
1665697341.36274099,56305474,0.0,0.59,0.0,-1.27,66.55,66.6,0.01,0.09,3
1665697341.46289492,56405628,0.0,0.59,0.0,-1.27,66.55,66.64,0.01,0.07,3
1665697341.56279087,56505524,0.0,0.59,0.0,-1.27,66.55,66.68,0.01,0.1,3
1665697341.66271901,56605452,0.0,0.59,0.0,-1.27,66.55,66.71000000000001,0.01,0.09,3
1665697341.76272702,56705460,0.0,0.59,0.0,-1.27,66.55,66.75,0.01,0.07,3
1665697341.86274886,56805482,0.0,0.59,0.0,-1.27,66.55,66.8,0.01,0.07,3
1665697341.96279097,56905524,0.0,0.59,0.0,-1.27,66.55,66.84,0.01,0.06,3
1665697342.06272388,57005457,0.0,0.6,0.0,-1.26,66.55,66.87,0.01,0.06,3
1665697342.16277885,57105512,0.0,0.6,0.0,-1.26,66.55,66.87,0.01,0.06,3
1665697342.26275396,57205487,0.0,0.6,0.0,-1.26,66.55,66.86,0.01,0.08,3
1665697342.36285186,57305585,0.0,0.6,0.0,-1.26,66.86,66.86,0.01,0.08,3
1665697342.46279407,57405527,0.0,0.6,0.0,-1.26,66.86,66.86,0.01,0.07,3
1665697342.56278586,57505519,0.0,0.6,0.0,-1.26,66.87,66.87,0.01,0.07,3
1665697342.66278386,57605517,0.0,0.6,0.0,-1.26,66.88,66.88,0.01,0.06,3
1665697342.76292396,57705657,0.0,0.6,0.0,-1.26,66.89,66.89,0.01,0.05,3
1665697342.86275291,57805486,0.0,0.6,0.0,-1.26,66.89,66.9,0.01,0.06,3
1665697342.96277595,57905509,0.0,0.6,0.0,-1.26,66.89,66.91,0.01,0.06,3
1665697343.06279993,58005533,0.0,0.6,0.0,-1.26,66.89,66.93,0.01,0.09,3
1665697343.16270900,58105442,0.0,0.6,0.0,-1.26,66.89,66.94,0.01,0.09,3
1665697343.26278996,58205523,0.0,0.6,0.0,-1.26,66.89,66.97,0.01,0.1,3
1665697343.36273384,58305467,0.0,0.6,0.0,-1.26,66.89,67.01,0.01,0.12,3
1665697343.46275902,58405492,0.0,0.6,0.0,-1.26,66.89,67.04,0.01,0.12,3
1665697343.56281090,58505544,0.0,0.61,0.0,-1.26,66.89,67.06,0.01,0.11,3
1665697343.66278195,58605515,0.0,0.61,0.0,-1.26,66.89,67.1,0.01,0.09,3
1665697343.76279783,58705531,0.0,0.61,0.0,-1.26,66.89,67.13,0.01,0.08,3
1665697343.86281395,58805547,0.0,0.61,0.0,-1.26,66.89,67.15,0.01,0.08,3
1665697343.96280003,58905533,0.0,0.61,0.0,-1.26,66.89,67.17,0.01,0.08,3
1665697344.06282687,59005560,0.0,0.61,0.0,-1.26,66.89,67.18,0.01,0.08,3
1665697344.16283703,59105570,0.0,0.61,0.0,-1.25,66.89,67.2,0.01,0.07,3
1665697344.26277184,59205505,0.0,0.61,0.0,-1.25,66.89,67.2,0.01,0.08,3
1665697344.36271501,59305448,0.0,0.59,0.0,-1.24,66.89,67.18,0.01,0.11,3
1665697344.46283984,59405573,0.0,0.58,0.0,-1.23,66.89,67.15,0.01,0.11,3
1665697344.56281400,59505547,0.0,0.59,0.0,-1.22,66.89,67.14,0.01,0.09,3
1665697344.66278005,59605513,0.0,0.5700000000000001,0.0,-1.21,66.89,67.2,0.01,0.1,3
1665697344.76271296,59705446,0.0,0.56,0.0,-1.21,66.89,67.3,0.01,0.11,3
1665697344.86301899,59805752,0.0,0.59,0.0,-1.2,66.89,67.36,0.01,0.14,3
1665697344.96278000,59905513,0.0,0.5700000000000001,0.0,-1.21,66.89,67.38,0.01,0.11,3
1665697345.06285691,60005590,0.0,0.5700000000000001,0.0,-1.2,66.89,67.48,0.01,0.13,3
1665697345.16273093,60105464,0.0,0.58,0.0,-1.2,66.89,67.57000000000001,0.01,0.15,3
1665697345.26286697,60205600,0.0,0.5700000000000001,0.0,-1.2,66.89,67.61,0.01,0.15,3
1665697345.36278486,60305518,0.0,0.61,0.0,-1.23,66.89,67.72,0.01,0.12,3
1665697345.46277595,60405509,0.0,0.58,0.0,-1.24,66.89,67.81,0.01,0.11,3
1665697345.56283402,60505567,0.0,0.59,0.0,-1.22,66.89,67.86,0.01,0.09,3
1665697345.66280293,60605536,0.0,0.6,0.0,-1.22,66.89,67.94,0.01,0.1,3
1665697345.76281691,60705550,0.0,0.58,0.0,-1.23,66.89,68.0,0.01,0.08,3
1665697345.86289001,60805623,0.0,0.6,0.0,-1.23,66.89,68.0,0.01,0.06,3
1665697345.96285200,60905585,0.0,0.58,0.0,-1.22,66.89,68.05,0.01,0.05,3
1665697346.06276298,61005496,0.0,0.59,0.0,-1.22,66.89,68.1,0.01,0.09,3
1665697346.16279292,61105526,0.0,0.6,0.0,-1.23,66.89,68.09,0.01,0.07,3
1665697346.26274204,61205475,0.0,0.5700000000000001,0.0,-1.23,66.89,68.08,0.01,0.06,3
1665697346.36273885,61305472,0.0,0.6,0.0,-1.23,66.89,68.08,0.01,0.05,3
1665697346.46277189,61405505,0.0,0.59,0.0,-1.22,66.89,68.04,0.01,0.04,3
1665697346.56274390,61505477,0.0,0.59,0.0,-1.23,66.89,68.0,0.01,0.07,3
1665697346.66273904,61605472,0.0,0.6,0.0,-1.23,66.89,68.01,0.01,0.11,3
1665697346.76275492,61705488,0.0,0.59,0.0,-1.23,68.01,68.01,0.01,0.1,3
1665697346.86292505,61805658,0.0,0.61,0.0,-1.23,68.05,68.05,0.01,0.09,3
1665697346.96290588,61905639,0.0,0.59,0.0,-1.24,68.11,68.11,0.01,0.1,3
1665697347.06280398,62005537,0.0,0.6,0.0,-1.24,68.14,68.14,0.01,0.11,3
1665697347.16279697,62105530,0.0,0.61,0.0,-1.23,68.19,68.19,0.01,0.11,3
1665697347.26278090,62205514,0.0,0.59,0.0,-1.24,68.2,68.2,0.01,0.1,3
1665697347.36276102,62305494,0.0,0.61,0.0,-1.24,68.22,68.22,0.01,0.09,3
1665697347.46275687,62405490,0.0,0.6,0.0,-1.24,68.24,68.24,0.01,0.08,3
1665697347.56273198,62505465,0.0,0.6,0.0,-1.24,68.25,68.25,0.01,0.08,3
1665697347.66277289,62605506,0.0,0.61,0.0,-1.24,68.26,68.26,0.01,0.07,3
1665697347.76282907,62705562,0.0,0.59,0.0,-1.25,68.28,68.28,0.01,0.07,3
1665697347.86273003,62805463,0.0,0.6,0.0,-1.25,68.26,68.26,0.01,0.1,3
1665697347.96275187,62905485,0.0,0.59,0.0,-1.24,68.25,68.25,0.01,0.12,3
1665697348.06274700,63005480,0.0,0.59,0.0,-1.24,68.27,68.27,0.01,0.13,3
1665697348.16273904,63105472,0.0,0.59,0.0,-1.25,68.26,68.26,0.01,0.1,3
1665697348.26276898,63205502,0.0,0.58,0.0,-1.24,68.26,68.27,0.01,0.09,3
1665697348.36277604,63305509,0.0,0.59,0.0,-1.24,68.26,68.29,0.01,0.13,3
1665697348.46280289,63405536,0.0,0.58,0.0,-1.24,68.26,68.3,0.01,0.15,3
1665697348.56274891,63505482,0.0,0.58,0.0,-1.24,68.26,68.32000000000001,0.01,0.13,3
1665697348.66287804,63605611,0.0,0.59,0.0,-1.24,68.26,68.38,0.01,0.11,3
1665697348.76281285,63705546,0.0,0.58,0.0,-1.24,68.26,68.45,0.01,0.09,3
1665697348.86280990,63805543,0.0,0.59,0.0,-1.24,68.26,68.51,0.01,0.11,3
1665697348.96270704,63905440,0.0,0.58,0.0,-1.24,68.26,68.57000000000001,0.01,0.13,3
1665697349.06288099,64005614,0.0,0.58,0.0,-1.24,68.26,68.59,0.01,0.13,3
1665697349.16277790,64105511,0.0,0.58,0.0,-1.24,68.26,68.60000000000001,0.01,0.14,3
1665697349.26278400,64205517,0.0,0.5700000000000001,0.0,-1.24,68.26,68.61,0.01,0.14,3
1665697349.36276889,64305502,0.0,0.58,0.0,-1.24,68.26,68.63,0.01,0.16,3
1665697349.46280694,64405540,0.0,0.58,0.0,-1.24,68.26,68.63,0.01,0.13,3
1665697349.56280303,64505536,0.0,0.58,0.0,-1.24,68.26,68.62,0.01,0.13,3
1665697349.66279387,64605527,0.0,0.59,0.0,-1.24,68.26,68.60000000000001,0.01,0.12,3
1665697349.76274204,64705475,0.0,0.58,0.0,-1.24,68.26,68.57000000000001,0.01,0.11,3
1665697349.86277199,64805505,0.0,0.58,0.0,-1.24,68.26,68.54,0.01,0.1,3
1665697349.96277094,64905504,0.0,0.58,0.0,-1.24,68.26,68.52,0.01,0.08,3
1665697350.06280184,65005535,0.0,0.58,0.0,-1.23,68.26,68.51,0.0,0.08,3
1665697350.16279507,65105528,0.0,0.59,0.0,-1.23,68.26,68.51,0.0,0.1,3
1665697350.26279402,65205527,0.0,0.58,0.0,-1.23,68.26,68.51,0.0,0.09,3
1665697350.36285686,65305590,0.0,0.59,0.0,-1.23,68.26,68.5,0.0,0.07,3
1665697350.46288991,65405623,0.0,0.58,0.0,-1.23,68.48,68.48,0.01,0.1,3
1665697350.56278491,65505518,0.0,0.58,0.0,-1.23,68.47,68.47,0.01,0.08,3
1665697350.66273689,65605470,0.0,0.59,0.0,-1.23,68.45,68.45,0.0,0.07,3
1665697350.76279092,65705524,0.0,0.58,0.0,-1.23,68.42,68.42,0.0,0.07,3
1665697350.86280203,65805535,0.0,0.58,0.0,-1.23,68.41,68.41,0.0,0.07,3
1665697350.96279192,65905525,0.0,0.58,0.0,-1.22,68.4,68.4,0.0,0.08,3
1665697351.06277084,66005504,0.0,0.58,0.0,-1.22,68.39,68.39,0.0,0.08,3
1665697351.16291189,66105645,0.0,0.58,0.0,-1.22,68.39,68.39,0.0,0.08,3
1665697351.26278806,66205521,0.0,0.58,0.0,-1.22,68.38,68.38,0.0,0.07,3
1665697351.36287284,66305606,0.0,0.59,0.0,-1.22,68.35000000000001,68.35000000000001,0.0,0.08,3
1665697351.46278787,66405521,0.0,0.58,0.0,-1.22,68.33,68.33,0.0,0.1,3
1665697351.56279993,66505533,0.0,0.58,0.0,-1.22,68.3,68.3,0.0,0.1,3
1665697351.66282606,66605559,0.0,0.59,0.0,-1.22,68.27,68.27,0.0,0.12,3
1665697351.76279783,66705531,0.0,0.58,0.0,-1.22,68.21000000000001,68.21000000000001,0.0,0.11,3
1665697351.86281085,66805544,0.0,0.58,0.0,-1.23,68.16,68.16,0.0,0.1,3
1665697351.96284485,66905578,0.0,0.58,0.0,-1.23,68.11,68.11,0.0,0.09,3
1665697352.06272388,67005457,0.0,0.58,0.0,-1.23,68.08,68.08,0.0,0.1,3
1665697352.16274405,67105477,0.0,0.58,0.0,-1.23,68.08,68.08,0.0,0.11,3
1665697352.26286602,67205599,0.0,0.58,0.0,-1.23,68.09,68.09,0.0,0.1,3
1665697352.36280799,67305541,0.0,0.58,0.0,-1.23,68.1,68.1,0.0,0.09,3
1665697352.46279407,67405527,0.0,0.58,0.0,-1.22,68.1,68.1,0.0,0.1,3
1665697352.56277704,67505510,0.0,0.58,0.0,-1.22,68.1,68.1,0.0,0.09,3
1665697352.66281199,67605545,0.0,0.58,0.0,-1.22,68.09,68.09,0.0,0.09,3
1665697352.76275587,67705489,0.0,0.58,0.0,-1.22,68.08,68.08,0.0,0.11,3
1665697352.86274886,67805482,0.0,0.59,0.0,-1.21,68.07000000000001,68.07000000000001,0.0,0.09,3
1665697352.96279693,67905530,0.0,0.58,0.0,-1.21,68.05,68.05,0.0,0.07,3
1665697353.06280684,68005540,0.0,0.59,0.0,-1.21,68.03,68.03,0.0,0.07,3
1665697353.16285586,68105589,0.0,0.59,0.0,-1.21,68.01,68.01,0.0,0.06,3
1665697353.26295805,68205691,0.0,0.59,0.0,-1.21,68.0,68.0,0.0,0.07,3
1665697353.36280584,68305539,0.0,0.59,0.0,-1.21,67.99,67.99,0.0,0.06,3
1665697353.46279287,68405526,0.0,0.58,0.0,-1.21,67.99,67.99,0.0,0.06,3
1665697353.56280994,68505543,0.0,0.58,0.0,-1.21,67.98,67.98,0.0,0.08,3
1665697353.66269994,68605433,0.0,0.58,0.0,-1.21,67.96000000000001,67.96000000000001,0.0,0.12,3
1665697353.76272702,68705460,0.0,0.58,0.0,-1.21,67.97,67.97,0.0,0.1,3
1665697353.86284995,68805583,0.0,0.59,0.0,-1.2,67.99,67.99,0.0,0.1,3
1665697353.96280193,68905535,0.0,0.59,0.0,-1.2,68.04,68.04,0.0,0.08,3
1665697354.06283689,69005570,0.0,0.59,0.0,-1.2,68.07000000000001,68.07000000000001,0.0,0.11,3
1665697354.16276383,69105497,0.0,0.59,0.0,-1.2,68.1,68.1,0.0,0.09,3
1665697354.26276588,69205499,0.0,0.59,0.0,-1.2,68.12,68.12,0.0,0.13,3
1665697354.36275887,69305492,0.0,0.6,0.0,-1.2,68.15,68.15,0.0,0.11,3
1665697354.46279407,69405527,0.0,0.6,0.0,-1.2,68.16,68.16,0.0,0.12,3
1665697354.56279898,69505532,0.0,0.6,0.0,-1.2,68.14,68.14,0.0,0.1,3
1665697354.66279507,69605528,0.0,0.6,0.0,-1.19,68.14,68.14,0.0,0.09,3
1665697354.76278090,69705514,0.0,0.6,0.0,-1.19,68.15,68.15,0.0,0.1,3
1665697354.86281800,69805551,0.0,0.61,0.0,-1.2,68.16,68.16,0.0,0.09,3
1665697354.96293092,69905664,0.0,0.6,0.0,-1.19,68.19,68.19,0.0,0.08,3
1665697355.06280398,70005537,0.0,0.6,0.0,-1.19,68.22,68.22,0.0,0.09,3
1665697355.16281796,70105551,0.0,0.6,0.0,-1.19,68.24,68.24,0.0,0.08,3
1665697355.26269484,70205428,0.0,0.6,0.0,-1.19,68.26,68.26,0.0,0.07,3
1665697355.36290598,70305639,0.0,0.6,0.0,-1.19,68.27,68.27,0.0,0.06,3
1665697355.46279407,70405527,0.0,0.6,0.0,-1.19,68.27,68.27,0.0,0.07,3
1665697355.56280589,70505539,0.0,0.6,0.0,-1.19,68.27,68.27,0.0,0.06,3
1665697355.66272092,70605454,0.0,0.6,0.0,-1.19,68.28,68.28,0.0,0.05,3
1665697355.76275301,70705486,0.0,0.6,0.0,-1.19,68.29,68.29,0.0,0.06,3
1665697355.86286402,70805597,0.0,0.6,0.0,-1.19,68.3,68.3,0.0,0.05,3
1665697355.96274090,70905474,0.0,0.6,0.0,-1.19,68.31,68.31,0.0,0.06,3
1665697356.06280398,71005537,0.0,0.6,0.0,-1.19,68.3,68.3,0.0,0.08,3
1665697356.16280293,71105536,0.0,0.6,0.0,-1.19,68.29,68.29,0.0,0.09,3
1665697356.26277494,71205508,0.0,0.6,0.0,-1.19,68.29,68.29,0.0,0.08,3
1665697356.36281586,71305549,0.0,0.6,0.0,-1.19,68.3,68.3,0.0,0.09,3
1665697356.46278691,71405520,0.0,0.6,0.0,-1.19,68.33,68.33,0.0,0.1,3
1665697356.56281495,71505548,0.0,0.6,0.0,-1.19,68.35000000000001,68.35000000000001,0.0,0.09,3
1665697356.66279602,71605529,0.0,0.6,0.0,-1.19,68.35000000000001,68.35000000000001,0.0,0.08,3
1665697356.76286006,71705593,0.0,0.6,0.0,-1.19,68.33,68.33,0.0,0.06,3
1665697356.86279202,71805525,0.0,0.6,0.0,-1.19,68.31,68.31,0.0,0.06,3
1665697356.96282196,71905555,0.0,0.6,0.0,-1.19,68.29,68.29,0.0,0.08,3
1665697357.06277299,72005506,0.0,0.6,0.0,-1.2,68.27,68.27,0.0,0.07,3
1665697357.16274405,72105477,0.0,0.6,0.0,-1.2,68.25,68.25,0.0,0.06,3
1665697357.26272488,72205458,0.0,0.6,0.0,-1.2,68.23,68.23,0.0,0.06,3
1665697357.36275697,72305490,0.0,0.6,0.0,-1.2,68.21000000000001,68.21000000000001,0.0,0.05,3
1665697357.46295404,72405687,0.0,0.6,0.0,-1.2,68.21000000000001,68.21000000000001,0.0,0.05,3
1665697357.56274104,72505474,0.0,0.6,0.0,-1.2,68.22,68.22,0.0,0.07,3
1665697357.66284299,72605576,0.0,0.6,0.0,-1.19,68.23,68.23,0.0,0.06,3
1665697357.76279187,72705525,0.0,0.6,0.0,-1.19,68.22,68.22,0.0,0.06,3
1665697357.86278605,72805519,0.0,0.6,0.0,-1.19,68.21000000000001,68.21000000000001,0.0,0.07,3
1665697357.96281791,72905551,0.0,0.6,0.0,-1.19,68.2,68.2,0.0,0.08,3
1665697358.06284285,73005576,0.0,0.6,0.0,-1.19,68.17,68.17,0.0,0.11,3
1665697358.16280103,73105534,0.0,0.6,0.0,-1.19,68.14,68.14,0.0,0.11,3
1665697358.26280594,73205539,0.0,0.6,0.0,-1.2,68.12,68.12,0.0,0.12,3
1665697358.36273193,73305465,0.0,0.6,0.0,-1.2,68.11,68.11,0.0,0.1,3
1665697358.46283793,73405571,0.0,0.59,0.0,-1.2,68.1,68.1,0.0,0.08,3
1665697358.56289387,73505627,0.0,0.59,0.0,-1.2,68.09,68.09,0.0,0.1,3
1665697358.66279507,73605528,0.0,0.59,0.0,-1.2,68.07000000000001,68.07000000000001,0.0,0.12,3
1665697358.76278400,73705517,0.0,0.59,0.0,-1.2,68.07000000000001,68.07000000000001,0.0,0.11,3
1665697358.86275101,73805484,0.0,0.59,0.0,-1.2,68.07000000000001,68.07000000000001,0.0,0.11,3
1665697358.96275401,73905487,0.0,0.59,0.0,-1.2,68.06,68.06,0.0,0.12,3
1665697359.06276488,74005498,0.0,0.59,0.0,-1.2,68.04,68.04,0.0,0.1,3
1665697359.16282892,74105562,0.0,0.59,0.0,-1.2,68.01,68.01,0.0,0.1,3
1665697359.26276398,74205497,0.0,0.59,0.0,-1.2,67.98,67.98,0.0,0.1,3
1665697359.36280799,74305541,0.0,0.59,0.0,-1.2,67.95,67.95,0.0,0.12,3
1665697359.46286607,74405599,0.0,0.59,0.0,-1.2,67.93,67.93,0.0,0.11,3
1665697359.56296301,74505696,0.0,0.59,0.0,-1.2,67.91,67.91,0.0,0.09,3
1665697359.66279697,74605530,0.0,0.59,0.0,-1.2,67.9,67.9,0.0,0.09,3
1665697359.76278996,74705523,0.0,0.58,0.0,-1.2,67.89,67.89,0.0,0.08,3
1665697359.86278796,74805521,0.0,0.59,0.0,-1.2,67.87,67.87,0.0,0.09,3
1665697359.96280003,74905533,0.0,0.58,0.0,-1.21,67.87,67.87,0.0,0.09,3
1665697360.06277299,75005506,0.0,0.58,0.0,-1.2,67.87,67.87,0.0,0.12,3
1665697360.16279006,75105523,0.0,0.58,0.0,-1.2,67.9,67.9,0.0,0.14,3
1665697360.26280189,75205535,0.0,0.58,0.0,-1.2,67.91,67.91,0.0,0.13,3
1665697360.36293697,75305670,0.0,0.58,0.0,-1.2,67.92,67.92,0.0,0.12,3
1665697360.46276093,75405494,0.0,0.58,0.0,-1.2,67.95,67.95,0.0,0.11,3
1665697360.56275797,75505491,0.0,0.59,0.0,-1.2,67.98,67.98,0.0,0.1,3
1665697360.66273785,75605471,0.0,0.59,0.0,-1.2,68.02,68.02,0.0,0.1,3
1665697360.76272106,75705454,0.0,0.59,0.0,-1.2,68.05,68.05,0.0,0.1,3
1665697360.86279392,75805527,0.0,0.59,0.0,-1.2,68.08,68.08,0.0,0.11,3
1665697360.96278191,75905515,0.0,0.59,0.0,-1.2,68.1,68.1,0.0,0.1,3
1665697361.06278706,76005520,0.0,0.59,0.0,-1.2,68.11,68.11,0.0,0.09,3
1665697361.16278291,76105516,0.0,0.59,0.0,-1.2,68.09,68.09,0.0,0.09,3
1665697361.26290298,76205636,0.0,0.59,0.0,-1.2,68.08,68.08,0.0,0.08,3
1665697361.36283398,76305567,0.0,0.59,0.0,-1.21,68.06,68.06,0.0,0.08,3
1665697361.46274686,76405480,0.0,0.59,0.0,-1.21,68.03,68.03,0.0,0.09,3
1665697361.56274486,76505478,0.0,0.59,0.0,-1.21,68.02,68.02,0.0,0.11,3
1665697361.66293192,76605665,0.0,0.59,0.0,-1.21,68.0,68.0,0.0,0.1,3
1665697361.76279998,76705533,0.0,0.59,0.0,-1.21,68.01,68.01,0.0,0.09,3
1665697361.86278391,76805517,0.0,0.59,0.0,-1.22,68.02,68.02,0.0,0.1,3
1665697361.96280193,76905535,0.0,0.59,0.0,-1.22,68.04,68.04,0.0,0.11,3
1665697362.06277084,77005504,0.0,0.59,0.0,-1.22,68.05,68.05,0.0,0.13,3
1665697362.16282487,77105558,0.0,0.59,0.0,-1.22,68.08,68.08,0.0,0.14,3
1665697362.26275396,77205487,0.0,0.59,0.0,-1.22,68.13,68.13,0.0,0.12,3
1665697362.36275387,77305487,0.0,0.59,0.0,-1.22,68.16,68.16,0.0,0.1,3
1665697362.46282506,77405558,0.0,0.59,0.0,-1.22,68.17,68.17,0.0,0.1,3
1665697362.56279397,77505527,0.0,0.59,0.0,-1.22,68.18,68.18,0.0,0.08,3
1665697362.66276097,77605494,0.0,0.59,0.0,-1.22,68.18,68.18,0.0,0.08,3
1665697362.76278806,77705521,0.0,0.59,0.0,-1.22,68.18,68.18,0.0,0.08,3
1665697362.86279607,77805529,0.0,0.59,0.0,-1.23,68.19,68.19,0.0,0.07,3
1665697362.96280694,77905540,0.0,0.6,0.0,-1.23,68.19,68.19,0.0,0.06,3
1665697363.06282592,78005559,0.0,0.6,0.0,-1.23,68.2,68.2,0.0,0.05,3
1665697363.16275001,78105483,0.0,0.6,0.0,-1.23,68.21000000000001,68.21000000000001,0.0,0.04,3
1665697363.26284504,78205578,0.0,0.6,0.0,-1.23,68.22,68.22,0.0,0.05,3
1665697363.36278796,78305521,0.0,0.6,0.0,-1.23,68.23,68.23,0.0,0.04,3
1665697363.46274400,78405477,0.0,0.61,0.0,-1.23,68.23,68.23,0.0,0.04,3
1665697363.56274199,78505475,0.0,0.61,0.0,-1.23,68.24,68.24,0.0,0.04,3
1665697363.66274786,78605481,0.0,0.61,0.0,-1.23,68.26,68.26,0.0,0.04,3
1665697363.76292706,78705660,0.0,0.61,0.0,-1.23,68.26,68.26,0.0,0.04,3
1665697363.86281300,78805546,0.0,0.62,0.0,-1.23,68.27,68.27,0.0,0.08,3
1665697363.96285987,78905593,0.0,0.62,0.0,-1.24,68.28,68.28,0.0,0.08,3
1665697364.06280303,79005536,0.0,0.62,0.0,-1.23,68.27,68.27,0.0,0.08,3
1665697364.16276288,79105496,0.0,0.62,0.0,-1.23,68.25,68.25,0.0,0.07,3
1665697364.26280284,79205536,0.0,0.62,0.0,-1.23,68.23,68.23,0.0,0.09,3
1665697364.36281300,79305546,0.0,0.61,0.0,-1.23,68.21000000000001,68.21000000000001,0.0,0.09,3
1665697364.46280503,79405538,0.0,0.61,0.0,-1.23,68.2,68.2,0.0,0.09,3
1665697364.56271005,79505443,0.0,0.61,0.0,-1.23,68.21000000000001,68.21000000000001,0.0,0.1,3
1665697364.66277695,79605510,0.0,0.61,0.0,-1.23,68.23,68.23,0.0,0.1,3
1665697364.76277590,79705509,0.0,0.61,0.0,-1.23,68.27,68.27,0.0,0.08,3
1665697364.86292505,79805658,0.0,0.61,0.0,-1.23,68.31,68.31,0.0,0.08,3
1665697364.96283007,79905563,0.0,0.61,0.0,-1.23,68.35000000000001,68.35000000000001,0.0,0.08,3
1665697365.06273603,80005469,0.0,0.61,0.0,-1.22,68.37,68.37,0.0,0.08,3
1665697365.16273904,80105472,0.0,0.61,0.0,-1.23,68.38,68.38,0.0,0.07,3
1665697365.26278591,80205519,0.0,0.61,0.0,-1.23,68.37,68.37,0.0,0.1,3
1665697365.36282206,80305555,0.0,0.61,0.0,-1.23,68.36,68.36,0.0,0.09,3
1665697405.16270590,120105439,0.0,0.63,0.0,-1.22,68.05,68.05,0.0,0.07,3
1665697405.26269007,120205423,0.0,0.62,0.0,-1.23,68.05,68.05,0.0,0.07,3
1665697405.36281896,120305552,0.0,0.62,0.0,-1.23,68.05,68.04,0.0,0.06,3
1665697405.46278691,120405520,0.0,0.62,0.0,-1.23,68.05,68.03,0.0,0.06,3
1665697405.56276393,120505497,0.0,0.62,0.0,-1.23,68.05,68.04,0.0,0.06,3
1665697405.66271996,120605453,0.0,0.62,0.0,-1.23,68.05,68.04,0.0,0.09,3
1665697405.76295495,120705688,0.0,0.62,0.0,-1.23,68.05,68.05,0.0,0.08,3
1665697405.86274195,120805475,0.0,0.62,0.0,-1.23,68.05,68.04,0.0,0.08,3
1665697405.96275306,120905486,0.0,0.62,0.0,-1.23,68.05,68.04,0.0,0.08,3
1665697406.06274891,121005482,0.0,0.62,0.0,-1.23,68.05,68.04,0.0,0.11,3
1665697406.16281199,121105545,0.0,0.62,0.0,-1.23,68.05,68.03,0.0,0.12,3
1665697406.26284289,121205576,0.0,0.62,0.0,-1.23,68.05,68.04,0.0,0.11,3
1665697406.36280203,121305535,0.0,0.61,0.0,-1.23,68.05,68.06,0.0,0.09,3
1665697406.46283698,121405570,0.0,0.61,0.0,-1.23,68.05,68.09,0.0,0.09,3
1665697406.56279206,121505525,0.0,0.61,0.0,-1.23,68.05,68.11,0.0,0.08,3
1665697406.66278601,121605519,0.0,0.61,0.0,-1.23,68.05,68.13,0.0,0.11,3
1665697406.76270103,121705434,0.0,0.62,0.0,-1.23,68.05,68.15,0.0,0.1,3
1665697406.86275601,121805489,0.0,0.62,0.0,-1.22,68.05,68.16,0.0,0.08,3
1665697406.96279407,121905527,0.0,0.62,0.0,-1.22,68.05,68.18,0.0,0.08,3
1665697407.06278801,122005521,0.0,0.62,0.0,-1.22,68.05,68.2,0.0,0.1,3
1665697407.16284800,122105581,0.0,0.62,0.0,-1.22,68.23,68.23,0.0,0.09,3
1665697407.26271796,122205451,0.0,0.62,0.0,-1.22,68.25,68.25,0.0,0.08,3
1665697407.36275387,122305487,0.0,0.62,0.0,-1.23,68.28,68.28,0.0,0.1,3
1665697407.46275091,122405484,0.0,0.61,0.0,-1.23,68.3,68.3,0.0,0.12,3
1665697407.56281996,122505553,0.0,0.61,0.0,-1.22,68.33,68.33,0.0,0.12,3
1665697407.66277003,122605503,0.0,0.62,0.0,-1.22,68.37,68.37,0.01,0.13,3
1665697407.76275587,122705489,0.0,0.61,0.0,-1.22,68.4,68.4,0.01,0.14,3
1665697407.86295891,122805692,0.0,0.62,0.0,-1.22,68.42,68.42,0.01,0.15,3
1665697407.96278596,122905519,0.0,0.62,0.0,-1.22,68.46000000000001,68.46000000000001,0.01,0.12,3
1665697408.06288791,123005621,0.0,0.62,0.0,-1.22,68.5,68.5,0.01,0.11,3
1665697408.16279101,123105524,0.0,0.62,0.0,-1.22,68.53,68.53,0.01,0.11,3
1665697408.26277900,123205512,0.0,0.62,0.0,-1.22,68.56,68.56,0.01,0.11,3
1665697408.36274505,123305478,0.0,0.62,0.0,-1.22,68.58,68.58,0.01,0.09,3
1665697408.46274996,123405483,0.0,0.62,0.0,-1.23,68.58,68.58,0.01,0.09,3
1665697408.56282592,123505559,0.0,0.62,0.0,-1.23,68.57000000000001,68.57000000000001,0.01,0.09,3
1665697408.66280484,123605538,0.0,0.62,0.0,-1.23,68.56,68.56,0.01,0.08,3
1665697408.76270700,123705440,0.0,0.62,0.0,-1.23,68.55,68.55,0.01,0.08,3
1665697408.86283493,123805568,0.0,0.62,0.0,-1.23,68.53,68.53,0.02,0.08,3
1665697408.96287489,123905608,0.0,0.62,0.0,-1.23,68.52,68.52,0.02,0.09,3
1665697409.06275392,124005487,0.0,0.62,0.0,-1.23,68.52,68.52,0.01,0.08,3
1665697409.16277385,124105507,0.0,0.62,0.0,-1.23,68.51,68.51,0.01,0.08,3
1665697409.26275802,124205491,0.0,0.62,0.0,-1.23,68.5,68.5,0.01,0.09,3
1665697409.36281490,124305548,0.0,0.62,0.0,-1.23,68.5,68.5,0.01,0.1,3
1665697409.46279407,124405527,0.0,0.62,0.0,-1.23,68.5,68.52,0.01,0.09,3
1665697409.56277800,124505511,0.0,0.62,0.0,-1.23,68.5,68.53,0.01,0.11,3
1665697409.66282296,124605556,0.0,0.62,0.0,-1.23,68.5,68.55,0.01,0.09,3
1665697409.76282287,124705556,0.0,0.62,0.0,-1.23,68.5,68.55,0.01,0.08,3
1665697409.86290002,124805633,0.0,0.62,0.0,-1.23,68.5,68.55,0.01,0.1,3
1665697409.96287298,124905606,0.0,0.62,0.0,-1.23,68.5,68.54,0.01,0.1,3
1665697410.06275606,125005489,0.0,0.61,0.0,-1.23,68.5,68.53,0.01,0.11,3
1665697410.16278195,125105515,0.0,0.62,0.0,-1.23,68.5,68.52,0.01,0.09,3
1665697410.26271892,125205452,0.0,0.62,0.0,-1.23,68.5,68.51,0.01,0.08,3
1665697410.36276984,125305503,0.0,0.62,0.0,-1.23,68.5,68.5,0.01,0.09,3
1665697410.46277690,125405510,0.0,0.62,0.0,-1.23,68.5,68.49,0.01,0.1,3
1665697410.56277084,125505504,0.0,0.62,0.0,-1.23,68.5,68.48,0.01,0.08,3
1665697410.66272497,125605458,0.0,0.62,0.0,-1.23,68.5,68.47,0.01,0.07,3
1665697410.76286793,125705601,0.0,0.62,0.0,-1.22,68.5,68.45,0.01,0.07,3
1665697410.86279488,125805528,0.0,0.62,0.0,-1.22,68.5,68.44,0.01,0.07,3
1665697410.96276999,125905503,0.0,0.62,0.0,-1.22,68.5,68.44,0.01,0.06,3
1665697411.06279206,126005525,0.0,0.62,0.0,-1.22,68.5,68.45,0.01,0.07,3
1665697411.16281891,126105552,0.0,0.62,0.0,-1.22,68.5,68.46000000000001,0.01,0.06,3
1665697411.26279306,126205526,0.0,0.61,0.0,-1.22,68.5,68.47,0.01,0.08,3
1665697411.36281705,126305550,0.0,0.62,0.0,-1.22,68.5,68.48,0.01,0.06,3
1665697411.46284294,126405576,0.0,0.62,0.0,-1.23,68.5,68.48,0.01,0.08,3
1665697411.56275988,126505493,0.0,0.62,0.0,-1.23,68.5,68.47,0.01,0.09,3
1665697411.66286302,126605596,0.0,0.61,0.0,-1.23,68.5,68.47,0.01,0.08,3
1665697411.76280093,126705534,0.0,0.61,0.0,-1.23,68.5,68.47,0.01,0.1,3
1665697411.86279202,126805525,0.0,0.61,0.0,-1.23,68.5,68.46000000000001,0.01,0.08,3
1665697411.96275806,126905491,0.0,0.61,0.0,-1.23,68.5,68.45,0.01,0.11,3
1665697412.06290984,127005643,0.0,0.61,0.0,-1.24,68.44,68.44,0.0,0.12,3
1665697412.16278386,127105517,0.0,0.61,0.0,-1.24,68.44,68.44,0.0,0.13,3
1665697412.26275086,127205484,0.0,0.61,0.0,-1.24,68.45,68.45,0.0,0.11,3
1665697412.36277795,127305511,0.0,0.61,0.0,-1.24,68.47,68.47,0.0,0.13,3
1665697412.46280384,127405537,0.0,0.61,0.0,-1.24,68.51,68.51,0.0,0.12,3
1665697412.56285501,127505588,0.0,0.61,0.0,-1.24,68.53,68.53,0.0,0.1,3
1665697412.66278696,127605520,0.0,0.6,0.0,-1.24,68.54,68.54,0.0,0.15,3
1665697412.76286006,127705593,0.0,0.6,0.0,-1.24,68.55,68.55,0.0,0.14,3
1665697412.86279392,127805527,0.0,0.61,0.0,-1.23,68.54,68.54,0.0,0.12,3
1665697412.96280193,127905535,0.0,0.6,0.0,-1.24,68.52,68.52,0.0,0.13,3
1665697413.06272602,128005459,0.0,0.61,0.0,-1.23,68.5,68.5,0.0,0.11,3
1665697413.16273785,128105471,0.0,0.61,0.0,-1.24,68.47,68.47,0.0,0.09,3
1665697413.26278901,128205522,0.0,0.6,0.0,-1.24,68.44,68.44,0.0,0.09,3
1665697413.36284089,128305574,0.0,0.6,0.0,-1.24,68.43,68.43,0.0,0.09,3
1665697413.46284389,128405577,0.0,0.6,0.0,-1.24,68.42,68.42,0.0,0.08,3
1665697413.56275296,128505486,0.0,0.6,0.0,-1.24,68.42,68.42,0.0,0.09,3
1665697413.66280890,128605542,0.0,0.6,0.0,-1.24,68.42,68.42,0.0,0.09,3
1665697413.76274300,128705476,0.0,0.6,0.0,-1.24,68.43,68.43,0.0,0.13,3
1665697413.86275101,128805484,0.0,0.6,0.0,-1.23,68.43,68.43,0.0,0.13,3
1665697413.96281695,128905550,0.0,0.6,0.0,-1.23,68.44,68.44,0.0,0.14,3
1665697414.06279802,129005531,0.0,0.6,0.0,-1.23,68.46000000000001,68.46000000000001,0.0,0.14,3
1665697414.16293502,129105668,0.0,0.59,0.0,-1.24,68.46000000000001,68.46000000000001,0.0,0.14,3
1665697414.26280189,129205535,0.0,0.59,0.0,-1.23,68.46000000000001,68.46000000000001,0.0,0.13,3
1665697414.36290693,129305640,0.0,0.59,0.0,-1.23,68.47,68.47,0.0,0.11,3
1665697414.46280694,129405540,0.0,0.59,0.0,-1.23,68.48,68.48,0.0,0.09,3
1665697414.56277585,129505509,0.0,0.59,0.0,-1.23,68.49,68.49,0.0,0.09,3
1665697414.66274905,129605482,0.0,0.58,0.0,-1.23,68.5,68.5,0.0,0.09,3
1665697414.76278591,129705519,0.0,0.58,0.0,-1.23,68.5,68.5,0.0,0.1,3
1665697414.86280298,129805536,0.0,0.59,0.0,-1.23,68.5,68.5,0.0,0.09,3
1665697414.96277785,129905511,0.0,0.58,0.0,-1.22,68.5,68.5,0.0,0.09,3
1665697415.06274986,130005483,0.0,0.59,0.0,-1.22,68.5,68.5,0.0,0.09,3
1665697415.16275001,130105483,0.0,0.59,0.0,-1.22,68.51,68.51,0.0,0.08,3
1665697415.26280904,130205542,0.0,0.59,0.0,-1.22,68.52,68.52,0.0,0.06,3
1665697415.36278486,130305518,0.0,0.59,0.0,-1.22,68.53,68.53,0.0,0.06,3
1665697415.46277595,130405509,0.0,0.59,0.0,-1.22,68.55,68.55,0.0,0.09,3
1665697415.56281090,130505544,0.0,0.59,0.0,-1.21,68.55,68.55,0.0,0.09,3
1665697415.66277599,130605509,0.0,0.59,0.0,-1.21,68.57000000000001,68.57000000000001,0.0,0.11,3
1665697415.76279783,130705531,0.0,0.59,0.0,-1.21,68.59,68.59,0.0,0.13,3
1665697415.86280990,130805543,0.0,0.6,0.0,-1.21,68.62,68.62,0.0,0.11,3
1665697415.96281505,130905548,0.0,0.6,0.0,-1.21,68.65,68.65,0.0,0.11,3
1665697416.06278706,131005520,0.0,0.6,0.0,-1.21,68.69,68.69,0.0,0.1,3
1665697416.16281605,131105549,0.0,0.6,0.0,-1.21,68.72,68.72,0.0,0.09,3
1665697416.26292300,131205656,0.0,0.6,0.0,-1.21,68.74,68.74,0.0,0.09,3
1665697416.36284399,131305577,0.0,0.59,0.0,-1.22,68.75,68.75,0.0,0.08,3
1665697416.46278191,131405515,0.0,0.59,0.0,-1.22,68.77,68.77,0.0,0.07,3
1665697416.56281495,131505548,0.0,0.59,0.0,-1.22,68.77,68.77,0.0,0.06,3
1665697416.66278601,131605519,0.0,0.59,0.0,-1.22,68.77,68.77,0.0,0.05,3
1665697416.76276493,131705498,0.0,0.59,0.0,-1.22,68.77,68.77,0.0,0.04,3
1665697416.86274600,131805479,0.0,0.59,0.0,-1.22,68.77,68.77,0.0,0.04,3
1665697416.96281099,131905544,0.0,0.59,0.0,-1.22,68.77,68.77,0.0,0.04,3
1665697417.06290293,132005636,0.0,0.59,0.0,-1.22,68.77,68.77,0.0,0.07,3
1665697417.16281796,132105551,0.0,0.6,0.0,-1.22,68.77,68.77,0.0,0.05,3
1665697417.26277399,132205507,0.0,0.6,0.0,-1.22,68.76,68.76,0.0,0.06,3
1665697417.36284184,132305575,0.0,0.6,0.0,-1.22,68.75,68.75,0.0,0.07,3
1665697417.46279407,132405527,0.0,0.6,0.0,-1.21,68.74,68.74,0.0,0.07,3
1665697417.56279492,132505528,0.0,0.6,0.0,-1.22,68.72,68.72,0.0,0.06,3
1665697417.66278887,132605522,0.0,0.6,0.0,-1.22,68.72,68.72,0.0,0.06,3
1665697417.76278687,132705520,0.0,0.61,0.0,-1.22,68.71000000000001,68.71000000000001,0.0,0.05,3
1665697417.86282587,132805559,0.0,0.61,0.0,-1.22,68.71000000000001,68.71000000000001,0.0,0.05,3
1665697417.96284795,132905581,0.0,0.61,0.0,-1.22,68.7,68.7,0.0,0.05,3
1665697418.06275105,133005484,0.0,0.61,0.0,-1.22,68.7,68.7,0.0,0.05,3
1665697418.16273093,133105464,0.0,0.61,0.0,-1.22,68.7,68.7,0.0,0.04,3
1665697418.26277399,133205507,0.0,0.61,0.0,-1.22,68.69,68.69,0.0,0.05,3
1665697418.36295485,133305688,0.0,0.61,0.0,-1.22,68.68,68.68,0.0,0.05,3
1665697418.46281886,133405552,0.0,0.61,0.0,-1.22,68.68,68.68,0.0,0.04,3
1665697418.56282496,133505558,0.0,0.61,0.0,-1.22,68.67,68.67,0.0,0.07,3
1665697418.66280198,133605535,0.0,0.61,0.0,-1.22,68.67,68.67,0.0,0.07,3
1665697418.76276398,133705497,0.0,0.61,0.0,-1.22,68.67,68.67,0.0,0.06,3
1665697418.86288285,133805616,0.0,0.61,0.0,-1.22,68.66,68.66,0.0,0.05,3
1665697418.96281099,133905544,0.0,0.61,0.0,-1.22,68.65,68.65,0.0,0.07,3
1665697419.06281590,134005549,0.0,0.61,0.0,-1.22,68.65,68.65,0.0,0.07,3
1665697419.16283798,134105571,0.0,0.61,0.0,-1.22,68.65,68.65,0.0,0.07,3
1665697419.26273704,134205470,0.0,0.61,0.0,-1.22,68.66,68.66,0.0,0.07,3
1665697419.36275601,134305489,0.0,0.61,0.0,-1.23,68.68,68.68,0.0,0.08,3
1665697419.46286988,134405603,0.0,0.61,0.0,-1.23,68.69,68.69,0.0,0.07,3
1665697419.56275702,134505490,0.0,0.62,0.0,-1.23,68.7,68.7,0.0,0.07,3
1665697419.66272497,134605458,0.0,0.62,0.0,-1.23,68.7,68.7,0.0,0.06,3
1665697419.76279998,134705533,0.0,0.62,0.0,-1.23,68.7,68.7,0.0,0.07,3
1665697419.86277294,134805506,0.0,0.62,0.0,-1.23,68.7,68.7,0.0,0.08,3
1665697419.96273804,134905471,0.0,0.62,0.0,-1.23,68.7,68.7,0.0,0.08,3
1665697420.06278586,135005519,0.0,0.62,0.0,-1.23,68.69,68.69,0.0,0.07,3
1665697420.16280985,135105543,0.0,0.62,0.0,-1.23,68.68,68.68,0.0,0.06,3
1665697420.26277494,135205508,0.0,0.62,0.0,-1.23,68.67,68.67,0.0,0.07,3
1665697420.36282396,135305557,0.0,0.62,0.0,-1.23,68.67,68.67,0.0,0.08,3
1665697420.46296000,135405693,0.0,0.61,0.0,-1.23,68.66,68.66,0.0,0.1,3
1665697420.56279802,135505531,0.0,0.61,0.0,-1.23,68.67,68.67,0.0,0.09,3
1665697420.66288400,135605617,0.0,0.61,0.0,-1.23,68.67,68.67,0.0,0.1,3
1665697420.76270986,135705443,0.0,0.61,0.0,-1.23,68.67,68.67,0.0,0.11,3
1665697420.86277795,135805511,0.0,0.61,0.0,-1.23,68.66,68.66,0.0,0.13,3
1665697420.96277285,135905506,0.0,0.61,0.0,-1.23,68.66,68.66,0.0,0.11,3
1665697421.06278586,136005519,0.0,0.61,0.0,-1.23,68.68,68.68,0.0,0.1,3
1665697421.16279507,136105528,0.0,0.61,0.0,-1.23,68.7,68.7,0.0,0.1,3
1665697421.26274204,136205475,0.0,0.61,0.0,-1.23,68.72,68.72,0.0,0.08,3
1665697421.36278296,136305516,0.0,0.61,0.0,-1.23,68.73,68.73,0.0,0.08,3
1665697421.46280289,136405536,0.0,0.6,0.0,-1.23,68.75,68.75,0.0,0.09,3
1665697421.56279492,136505528,0.0,0.6,0.0,-1.23,68.76,68.76,0.0,0.11,3
1665697421.66276789,136605501,0.0,0.6,0.0,-1.23,68.76,68.76,0.0,0.14,3
1665697421.76280785,136705541,0.0,0.6,0.0,-1.23,68.76,68.76,0.0,0.13,3
1665697421.86277795,136805511,0.0,0.6,0.0,-1.23,68.76,68.76,0.0,0.11,3
1665697421.96277499,136905508,0.0,0.6,0.0,-1.23,68.75,68.75,0.0,0.11,3
1665697422.06285286,137005586,0.0,0.6,0.0,-1.23,68.75,68.75,0.0,0.11,3
1665697422.16279697,137105530,0.0,0.6,0.0,-1.23,68.76,68.76,0.0,0.09,3
1665697422.26282907,137205562,0.0,0.6,0.0,-1.23,68.77,68.77,0.0,0.07,3
1665697422.36278892,137305522,0.0,0.6,0.0,-1.23,68.78,68.78,0.0,0.09,3
1665697422.46287394,137405607,0.0,0.6,0.0,-1.23,68.78,68.78,0.0,0.09,3
1665697422.56289506,137505628,0.0,0.6,0.0,-1.23,68.77,68.77,0.0,0.09,3
1665697422.66278601,137605519,0.0,0.6,0.0,-1.23,68.77,68.77,0.0,0.08,3
1665697422.76272988,137705463,0.0,0.61,0.0,-1.23,68.77,68.77,0.0,0.09,3
1665697422.86275887,137805492,0.0,0.61,0.0,-1.22,68.76,68.76,0.0,0.1,3
1665697422.96276903,137905502,0.0,0.61,0.0,-1.22,68.75,68.75,0.0,0.09,3
1665697423.06278300,138005516,0.0,0.61,0.0,-1.22,68.74,68.74,0.0,0.08,3
1665697423.16275191,138105485,0.0,0.61,0.0,-1.22,68.74,68.74,0.0,0.08,3
1665697423.26278591,138205519,0.0,0.61,0.0,-1.22,68.73,68.73,0.0,0.08,3
1665697423.36287284,138305606,0.0,0.61,0.0,-1.22,68.73,68.73,0.0,0.06,3
1665697423.46283484,138405568,0.0,0.61,0.0,-1.22,68.72,68.72,0.0,0.05,3
1665697423.56281996,138505553,0.0,0.61,0.0,-1.22,68.72,68.72,0.0,0.04,3
1665697423.66279602,138605529,0.0,0.61,0.0,-1.22,68.71000000000001,68.71000000000001,0.0,0.04,3
1665697423.76280999,138705543,0.0,0.61,0.0,-1.21,68.71000000000001,68.71000000000001,0.0,0.04,3
1665697423.86280704,138805540,0.0,0.62,0.0,-1.21,68.71000000000001,68.71000000000001,0.0,0.04,3
1665697423.96274495,138905478,0.0,0.62,0.0,-1.21,68.71000000000001,68.71000000000001,0.0,0.04,3
1665697424.06277084,139005504,0.0,0.62,0.0,-1.21,68.71000000000001,68.71000000000001,0.0,0.04,3
1665697424.16279006,139105523,0.0,0.62,0.0,-1.21,68.71000000000001,68.71000000000001,0.0,0.04,3
1665697424.26283383,139205567,0.0,0.62,0.0,-1.21,68.71000000000001,68.71000000000001,0.0,0.05,3
1665697424.36280894,139305542,0.0,0.62,0.0,-1.21,68.72,68.72,0.0,0.05,3
1665697424.46275401,139405487,0.0,0.62,0.0,-1.21,68.72,68.72,0.0,0.05,3
1665697424.56275201,139505485,0.0,0.62,0.0,-1.21,68.73,68.73,0.0,0.08,3
1665697424.66298795,139605721,0.0,0.62,0.0,-1.21,68.74,68.74,0.0,0.09,3
1665697424.76277900,139705512,0.0,0.62,0.0,-1.21,68.75,68.75,0.0,0.08,3
1665697424.86278105,139805514,0.0,0.62,0.0,-1.21,68.75,68.75,0.0,0.08,3
1665697424.96285105,139905584,0.0,0.62,0.0,-1.21,68.74,68.74,0.0,0.09,3
1665697425.06279898,140005532,0.0,0.62,0.0,-1.21,68.73,68.73,0.0,0.08,3
1665697425.16287088,140105604,0.0,0.62,0.0,-1.21,68.72,68.72,0.0,0.13,3
1665697425.26279187,140205525,0.0,0.62,0.0,-1.21,68.72,68.72,0.0,0.1,3
1665697425.36281800,140305551,0.0,0.62,0.0,-1.21,68.74,68.74,0.0,0.1,3
1665697425.46270800,140405441,0.0,0.62,0.0,-1.2,68.77,68.77,0.0,0.12,3
1665697425.56274700,140505480,0.0,0.62,0.0,-1.2,68.8,68.8,0.0,0.12,3
1665697425.66278291,140605516,0.0,0.63,0.0,-1.2,68.83,68.83,0.0,0.11,3
1665697425.76277900,140705512,0.0,0.63,0.0,-1.19,68.87,68.87,0.0,0.11,3
1665697425.86272192,140805455,0.0,0.63,0.0,-1.19,68.91,68.91,0.0,0.09,3
1665697425.96275806,140905491,0.0,0.63,0.0,-1.19,68.93,68.93,0.0,0.08,3
1665697426.06285787,141005591,0.0,0.63,0.0,-1.19,68.95,68.95,0.0,0.07,3
1665697426.16278195,141105515,0.0,0.63,0.0,-1.19,68.95,68.95,0.0,0.05,3
1665697426.26275206,141205485,0.0,0.63,0.0,-1.19,68.95,68.95,0.0,0.06,3
1665697426.36275101,141305484,0.0,0.63,0.0,-1.19,68.95,68.95,0.0,0.06,3
1665697426.46276593,141405499,0.0,0.63,0.0,-1.19,68.94,68.94,0.0,0.04,3
1665697426.56280684,141505540,0.0,0.63,0.0,-1.19,68.94,68.94,0.0,0.06,3
1665697426.66278386,141605517,0.0,0.63,0.0,-1.19,68.94,68.94,0.0,0.06,3
1665697426.76292300,141705656,0.0,0.63,0.0,-1.19,68.94,68.94,0.0,0.07,3
1665697426.86282206,141805555,0.0,0.63,0.0,-1.19,68.93,68.93,0.0,0.06,3
1665697426.96288300,141905616,0.0,0.63,0.0,-1.19,68.93,68.93,0.0,0.07,3
1665697437.06277204,152005505,0.0,0.64,0.0,-1.21,68.67,68.51,0.0,0.1,3
1665697437.16278195,152105515,0.0,0.64,0.0,-1.21,68.92,68.5,0.0,0.08,3
1665697437.26284599,152205579,0.0,0.64,0.0,-1.21,69.09,68.5,0.0,0.11,3
1665697437.36279607,152305529,0.0,0.64,0.0,-1.21,69.28,68.5,0.0,0.09,3
1665697437.46283984,152405573,0.0,0.64,0.0,-1.21,69.45,68.52,0.0,0.09,3
1665697437.56283998,152505573,0.0,0.64,0.0,-1.21,69.71000000000001,68.54,0.0,0.08,3
1665697437.66278005,152605513,0.0,0.64,0.0,-1.21,70.16,68.56,0.0,0.08,3
1665697437.76287389,152705607,0.0,0.64,0.0,-1.21,70.34,68.57000000000001,0.0,0.06,3
1665697437.86279893,152805532,0.0,0.64,0.0,-1.22,70.34,68.58,0.0,0.11,3
1665697437.96271396,152905447,0.0,0.64,0.0,-1.22,70.34,68.58,0.0,0.09,3
1665697438.06273103,153005464,0.0,0.64,0.0,-1.22,70.34,68.59,0.01,0.09,3
1665697438.16274786,153105481,0.0,0.64,0.0,-1.22,70.34,68.61,0.01,0.1,3
1665697438.26275086,153205484,0.0,0.64,0.0,-1.22,70.34,68.62,0.01,0.1,3
1665697438.36273098,153305464,0.0,0.64,0.0,-1.22,70.34,68.62,0.01,0.09,3
1665697438.46272492,153405458,0.0,0.64,0.0,-1.22,70.34,68.62,0.01,0.08,3
1665697438.56276393,153505497,0.0,0.64,0.0,-1.22,70.34,68.61,0.01,0.09,3
1665697438.66280103,153605534,0.0,0.64,0.0,-1.22,70.34,68.60000000000001,0.01,0.08,3
1665697438.76273799,153705471,0.0,0.64,0.0,-1.22,70.34,68.60000000000001,0.01,0.06,3
1665697438.86287284,153805606,0.0,0.64,0.0,-1.22,70.34,68.61,0.01,0.06,3
1665697438.96277189,153905505,0.0,0.64,0.0,-1.22,70.34,68.62,0.01,0.07,3
1665697439.06280994,154005543,0.0,0.64,0.0,-1.22,68.62,68.62,0.01,0.07,3
1665697439.16280985,154105543,0.0,0.64,0.0,-1.22,68.62,68.62,0.01,0.05,3
1665697439.26282787,154205561,0.0,0.64,0.0,-1.23,68.61,68.61,0.01,0.06,3
1665697439.36293006,154305663,0.0,0.64,0.0,-1.23,68.61,68.61,0.01,0.05,3
1665697439.46278501,154405518,0.0,0.64,0.0,-1.23,68.60000000000001,68.60000000000001,0.01,0.05,3
1665697439.56282091,154505554,0.0,0.65,0.0,-1.23,68.60000000000001,68.60000000000001,0.01,0.05,3
1665697439.66274595,154605479,0.0,0.65,0.0,-1.23,68.59,68.59,0.01,0.05,3
1665697439.76277494,154705508,0.0,0.65,0.0,-1.23,68.59,68.59,0.01,0.04,3
1665697439.86291194,154805645,0.0,0.65,0.0,-1.23,68.58,68.58,0.01,0.05,3
1665697439.96274495,154905478,0.0,0.65,0.0,-1.23,68.58,68.57000000000001,0.01,0.04,3
1665697440.06273985,155005473,0.0,0.65,0.0,-1.23,68.58,68.57000000000001,0.01,0.06,3
1665697440.16274190,155105475,0.0,0.65,0.0,-1.23,68.58,68.56,0.01,0.05,3
1665697440.26276493,155205498,0.0,0.65,0.0,-1.23,68.58,68.56,0.01,0.06,3
1665697440.36281204,155305545,0.0,0.66,0.0,-1.23,68.58,68.57000000000001,0.01,0.06,3
1665697440.46289086,155405624,0.0,0.65,0.0,-1.23,68.58,68.57000000000001,0.01,0.1,3
1665697440.56276488,155505498,0.0,0.65,0.0,-1.23,68.58,68.57000000000001,0.01,0.11,3
1665697440.66276598,155605499,0.0,0.65,0.0,-1.23,68.58,68.57000000000001,0.01,0.1,3
1665697440.76283288,155705566,0.0,0.65,0.0,-1.23,68.58,68.57000000000001,0.01,0.11,3
1665697440.86280203,155805535,0.0,0.65,0.0,-1.23,68.58,68.57000000000001,0.01,0.1,3
1665697440.96285486,155905588,0.0,0.65,0.0,-1.23,68.58,68.58,0.01,0.11,3
1665697441.06272507,156005458,0.0,0.65,0.0,-1.23,68.58,68.59,0.01,0.1,3
1665697441.16274500,156105478,0.0,0.65,0.0,-1.23,68.58,68.59,0.01,0.09,3
1665697441.26275802,156205491,0.0,0.66,0.0,-1.23,68.58,68.58,0.01,0.09,3
1665697441.36283588,156305569,0.0,0.66,0.0,-1.23,68.58,68.57000000000001,0.01,0.08,3
1665697441.46296692,156405700,0.0,0.66,0.0,-1.23,68.58,68.56,0.01,0.07,3
1665697441.56271791,156505451,0.0,0.66,0.0,-1.23,68.58,68.56,0.01,0.06,3
1665697441.66275096,156605484,0.0,0.66,0.0,-1.23,68.58,68.56,0.01,0.06,3
1665697441.76280403,156705537,0.0,0.66,0.0,-1.23,68.58,68.56,0.01,0.04,3
1665697441.86277294,156805506,0.0,0.64,0.0,-1.22,68.58,68.55,0.01,0.06,3
1665697441.96278095,156905514,0.0,0.6,0.0,-1.2,68.58,68.54,0.01,0.08,3
1665697442.06277585,157005509,0.0,0.6,0.0,-1.17,68.58,68.58,0.0,0.13,3
1665697442.16277504,157105508,0.0,0.64,0.0,-1.17,68.58,68.64,0.0,0.14,3
1665697442.26285005,157205583,0.0,0.6,0.0,-1.19,68.58,68.61,0.01,0.15,3
1665697442.36284590,157305579,0.0,0.63,0.0,-1.19,68.58,68.64,0.01,0.17,3
1665697442.46282196,157405555,0.0,0.62,0.0,-1.18,68.58,68.74,0.01,0.16,3
1665697442.56281090,157505544,0.0,0.61,0.0,-1.17,68.58,68.77,0.01,0.19,3
1665697442.66281390,157605547,0.0,0.63,0.0,-1.18,68.58,68.8,0.01,0.2,3
1665697442.76282287,157705556,0.0,0.61,0.0,-1.19,68.58,68.9,0.01,0.2,3
1665697442.86279893,157805532,0.0,0.66,0.0,-1.19,68.58,68.95,0.01,0.18,3
1665697442.96280289,157905536,0.0,0.63,0.0,-1.2,68.58,68.97,0.01,0.17,3
1665697443.06279993,158005533,0.0,0.63,0.0,-1.21,68.58,69.05,0.01,0.15,3
1665697443.16285706,158105590,0.0,0.66,0.0,-1.2,68.58,69.08,0.01,0.15,3
1665697443.26275396,158205487,0.0,0.61,0.0,-1.2,68.58,69.05,0.01,0.15,3
1665697443.36278892,158305522,0.0,0.66,0.0,-1.21,68.58,69.07000000000001,0.01,0.13,3
1665697443.46275401,158405487,0.0,0.64,0.0,-1.21,68.58,69.10000000000001,0.01,0.14,3
1665697443.56290197,158505635,0.0,0.62,0.0,-1.21,68.58,69.08,0.01,0.17,3
1665697443.66281104,158605544,0.0,0.66,0.0,-1.21,68.58,69.11,0.01,0.16,3
1665697443.76280403,158705537,0.0,0.62,0.0,-1.21,68.58,69.16,0.01,0.13,3
1665697443.86276603,158805499,0.0,0.64,0.0,-1.2,68.58,69.18,0.01,0.12,3
1665697443.96282887,158905562,0.0,0.65,0.0,-1.21,68.58,69.21000000000001,0.01,0.1,3
1665697444.06286597,159005599,0.0,0.64,0.0,-1.21,68.58,69.28,0.01,0.1,3
1665697444.16268706,159105420,0.0,0.66,0.0,-1.22,68.58,69.29,0.01,0.08,3
1665697444.26273799,159205471,0.0,0.64,0.0,-1.22,69.3,69.3,0.01,0.08,3
1665697444.36280298,159305536,0.0,0.66,0.0,-1.22,69.36,69.36,0.01,0.07,3
1665697444.46279097,159405524,0.0,0.65,0.0,-1.23,69.35000000000001,69.35000000000001,0.01,0.06,3
1665697444.56281304,159505546,0.0,0.64,0.0,-1.23,69.33,69.33,0.01,0.07,3
1665697444.66280794,159605541,0.0,0.67,0.0,-1.23,69.36,69.36,0.01,0.07,3
1665697444.76275492,159705488,0.0,0.64,0.0,-1.23,69.38,69.38,0.01,0.1,3
1665697444.86275101,159805484,0.0,0.66,0.0,-1.23,69.37,69.37,0.01,0.08,3
1665697444.96283293,159905566,0.0,0.67,0.0,-1.23,69.4,69.4,0.01,0.07,3
1665697445.06275296,160005486,0.0,0.65,0.0,-1.23,69.45,69.45,0.01,0.07,3
1665697445.16275787,160105491,0.0,0.68,0.0,-1.23,69.44,69.44,0.01,0.07,3
1665697445.26276588,160205499,0.0,0.65,0.0,-1.23,69.45,69.45,0.0,0.07,3
1665697445.36277795,160305511,0.0,0.67,0.0,-1.23,69.49,69.49,0.0,0.06,3
1665697445.46284294,160405576,0.0,0.67,0.0,-1.23,69.48,69.48,0.0,0.05,3
1665697445.56280184,160505535,0.0,0.66,0.0,-1.23,69.45,69.45,0.0,0.06,3
1665697445.66294384,160605677,0.0,0.68,0.0,-1.24,69.47,69.47,0.0,0.06,3
1665697445.76271987,160705453,0.0,0.66,0.0,-1.24,69.47,69.47,0.0,0.07,3
1665697445.86284494,160805578,0.0,0.67,0.0,-1.23,69.44,69.44,0.0,0.06,3
1665697445.96278405,160905517,0.0,0.68,0.0,-1.23,69.44,69.44,0.0,0.08,3
1665697446.06280994,161005543,0.0,0.66,0.0,-1.24,69.44,69.44,0.0,0.07,3
1665697446.16272402,161105457,0.0,0.68,0.0,-1.24,69.42,69.42,0.0,0.06,3
1665697446.26273084,161205464,0.0,0.66,0.0,-1.24,69.43,69.43,0.0,0.06,3
1665697446.36276388,161305497,0.0,0.67,0.0,-1.24,69.45,69.45,0.0,0.05,3
1665697446.46278000,161405513,0.0,0.68,0.0,-1.24,69.43,69.43,0.0,0.06,3
1665697446.56279588,161505529,0.0,0.66,0.0,-1.24,69.43,69.43,0.0,0.06,3
1665697446.66283989,161605573,0.0,0.68,0.0,-1.24,69.45,69.45,0.0,0.07,3
1665697446.76284003,161705573,0.0,0.66,0.0,-1.24,69.45,69.45,0.0,0.06,3
1665697446.86281300,161805546,0.0,0.67,0.0,-1.24,69.45,69.45,0.0,0.05,3
1665697446.96280003,161905533,0.0,0.67,0.0,-1.23,69.46000000000001,69.46000000000001,0.0,0.07,3
1665697447.06277084,162005504,0.0,0.65,0.0,-1.23,69.46000000000001,69.46000000000001,0.0,0.07,3
1665697447.16278887,162105522,0.0,0.67,0.0,-1.23,69.45,69.45,0.0,0.08,3
1665697447.26283383,162205567,0.0,0.65,0.0,-1.24,69.46000000000001,69.46000000000001,0.0,0.06,3
1665697447.36278296,162305516,0.0,0.66,0.0,-1.24,69.46000000000001,69.46000000000001,0.0,0.08,3
1665697447.46276283,162405496,0.0,0.66,0.0,-1.24,69.45,69.45,0.0,0.07,3
1665697447.56283402,162505567,0.0,0.65,0.0,-1.24,69.47,69.47,0.0,0.12,3
1665697447.66283298,162605566,0.0,0.66,0.0,-1.24,69.5,69.5,0.0,0.1,3
1665697447.76286793,162705601,0.0,0.65,0.0,-1.24,69.49,69.49,0.0,0.08,3
1665697447.86274695,162805480,0.0,0.66,0.0,-1.23,69.49,69.49,0.0,0.07,3
1665697447.96278286,162905516,0.0,0.66,0.0,-1.23,69.5,69.5,0.0,0.06,3
1665697448.06280589,163005539,0.0,0.65,0.0,-1.23,69.49,69.49,0.0,0.05,3
1665697448.16278195,163105515,0.0,0.67,0.0,-1.24,69.48,69.48,0.0,0.07,3
1665697448.26278901,163205522,0.0,0.66,0.0,-1.24,69.49,69.49,0.0,0.1,3
1665697448.36280894,163305542,0.0,0.66,0.0,-1.24,69.47,69.47,0.0,0.1,3
1665697448.46278405,163405517,0.0,0.66,0.0,-1.24,69.45,69.45,0.0,0.1,3
1665697448.56288695,163505620,0.0,0.65,0.0,-1.24,69.44,69.44,0.0,0.08,3
1665697448.66281104,163605544,0.0,0.66,0.0,-1.24,69.42,69.42,0.0,0.1,3
1665697448.76280093,163705534,0.0,0.65,0.0,-1.24,69.4,69.4,0.0,0.12,3
1665697448.86272192,163805455,0.0,0.65,0.0,-1.24,69.42,69.42,0.0,0.1,3
1665697448.96272588,163905459,0.0,0.66,0.0,-1.24,69.43,69.43,0.0,0.08,3
1665697449.06281686,164005550,0.0,0.65,0.0,-1.24,69.42,69.42,0.0,0.09,3
1665697449.16277003,164105503,0.0,0.66,0.0,-1.24,69.43,69.43,0.0,0.11,3
1665697449.26271987,164205453,0.0,0.65,0.0,-1.24,69.43,69.43,0.0,0.1,3
1665697449.36274886,164305482,0.0,0.65,0.0,-1.24,69.42,69.42,0.0,0.09,3
1665697449.46287084,164405604,0.0,0.65,0.0,-1.24,69.42,69.42,0.0,0.08,3
1665697449.56277490,164505508,0.0,0.64,0.0,-1.24,69.43,69.43,0.0,0.08,3
1665697449.66277504,164605508,0.0,0.65,0.0,-1.24,69.41,69.41,0.0,0.07,3
1665697449.76276898,164705502,0.0,0.64,0.0,-1.24,69.41,69.41,0.0,0.08,3
1665697449.86294198,164805675,0.0,0.64,0.0,-1.24,69.4,69.4,0.0,0.07,3
1665697449.96277094,164905504,0.0,0.64,0.0,-1.24,69.38,69.38,0.0,0.06,3
1665697450.06281495,165005548,0.0,0.63,0.0,-1.24,69.37,69.37,0.0,0.06,3
1665697450.16285706,165105590,0.0,0.64,0.0,-1.24,69.37,69.37,0.0,0.06,3
1665697450.26280189,165205535,0.0,0.63,0.0,-1.24,69.36,69.36,0.0,0.05,3
1665697450.36284590,165305579,0.0,0.63,0.0,-1.24,69.35000000000001,69.35000000000001,0.0,0.05,3
1665697450.46283388,165405567,0.0,0.64,0.0,-1.24,69.36,69.36,0.0,0.05,3
1665697450.56273699,165505470,0.0,0.63,0.0,-1.24,69.37,69.37,0.0,0.12,3
1665697450.66278195,165605515,0.0,0.63,0.0,-1.24,69.36,69.36,0.0,0.11,3
1665697450.76278901,165705522,0.0,0.63,0.0,-1.24,69.38,69.38,0.0,0.11,3
1665697450.86279893,165805532,0.0,0.63,0.0,-1.24,69.4,69.4,0.0,0.09,3
1665697450.96272898,165905462,0.0,0.63,0.0,-1.24,69.41,69.41,0.0,0.07,3
1665697451.06274605,166005479,0.0,0.63,0.0,-1.24,69.42,69.42,0.0,0.08,3
1665697451.16276884,166105502,0.0,0.63,0.0,-1.23,69.42,69.42,0.0,0.08,3
1665697451.26277494,166205508,0.0,0.63,0.0,-1.23,69.41,69.41,0.0,0.1,3
1665697451.36277795,166305511,0.0,0.63,0.0,-1.24,69.41,69.41,0.0,0.09,3
1665697451.46283484,166405568,0.0,0.63,0.0,-1.24,69.39,69.39,0.0,0.08,3
1665697451.56281495,166505548,0.0,0.62,0.0,-1.24,69.37,69.37,0.0,0.08,3
1665697451.66281295,166605546,0.0,0.63,0.0,-1.24,69.35000000000001,69.35000000000001,0.0,0.08,3
1665697451.76278400,166705517,0.0,0.63,0.0,-1.24,69.35000000000001,69.35000000000001,0.0,0.1,3
1665697451.86281586,166805549,0.0,0.63,0.0,-1.24,69.35000000000001,69.35000000000001,0.0,0.08,3
1665697451.96292591,166905659,0.0,0.63,0.0,-1.24,69.34,69.34,0.0,0.07,3
1665697452.06272507,167005458,0.0,0.62,0.0,-1.24,69.33,69.33,0.0,0.08,3
1665697452.16286993,167105603,0.0,0.63,0.0,-1.24,69.32000000000001,69.32000000000001,0.0,0.07,3
1665697452.26278996,167205523,0.0,0.62,0.0,-1.24,69.3,69.3,0.0,0.08,3
1665697452.36278701,167305520,0.0,0.63,0.0,-1.24,69.3,69.3,0.0,0.07,3
1665697452.46280384,167405537,0.0,0.63,0.0,-1.23,69.29,69.29,0.0,0.07,3
1665697452.56274390,167505477,0.0,0.62,0.0,-1.24,69.28,69.28,0.0,0.07,3
1665697452.66276383,167605497,0.0,0.63,0.0,-1.24,69.29,69.29,0.0,0.07,3
1665697452.76273584,167705469,0.0,0.63,0.0,-1.23,69.3,69.3,0.0,0.1,3
1665697452.86278987,167805523,0.0,0.63,0.0,-1.23,69.3,69.3,0.0,0.09,3
1665697452.96277905,167905512,0.0,0.63,0.0,-1.23,69.29,69.29,0.0,0.09,3
1665697453.06291604,168005649,0.0,0.63,0.0,-1.23,69.27,69.27,0.0,0.08,3
1665697453.16279006,168105523,0.0,0.63,0.0,-1.23,69.25,69.25,0.0,0.08,3
1665697453.26280093,168205534,0.0,0.63,0.0,-1.23,69.24,69.24,0.0,0.07,3
1665697453.36281800,168305551,0.0,0.63,0.0,-1.23,69.25,69.25,0.0,0.08,3
1665697453.46281385,168405547,0.0,0.63,0.0,-1.23,69.24,69.24,0.0,0.08,3
1665697453.56270695,168505440,0.0,0.63,0.0,-1.23,69.25,69.25,0.0,0.08,3
1665697453.66275001,168605483,0.0,0.63,0.0,-1.23,69.26,69.26,0.0,0.08,3
1665697453.76276088,168705494,0.0,0.63,0.0,-1.23,69.26,69.26,0.0,0.06,3
1665697453.86280584,168805539,0.0,0.63,0.0,-1.23,69.26,69.26,0.0,0.05,3
1665697453.96285105,168905584,0.0,0.63,0.0,-1.23,69.27,69.27,0.0,0.06,3
1665697454.06291294,169005646,0.0,0.62,0.0,-1.23,69.27,69.27,0.0,0.05,3
1665697454.16273904,169105472,0.0,0.63,0.0,-1.23,69.28,69.28,0.0,0.07,3
1665697454.26274204,169205475,0.0,0.62,0.0,-1.23,69.28,69.28,0.0,0.08,3
1665697454.36283207,169305565,0.0,0.63,0.0,-1.23,69.28,69.28,0.0,0.07,3
1665697454.46276093,169405494,0.0,0.63,0.0,-1.22,69.28,69.28,0.0,0.06,3
