timestamp,TimeUS,I,Status,GMS,GWk,NSats,HDop,Lat,Lng,Alt,Spd,GCrs,VZ,Yaw,U
1665697324.59999990,39542733,0,3,423742600,2231,14,0.75,42.690025399999996,-84.488631,268.45,0.017691805958747864,227.29061889648438,0.01100000087171793,0.0,1
1665697324.77967405,39722407,0,3,423742800,2231,14,0.75,42.690025399999996,-84.48863109999999,268.45,0.02418677508831024,209.74488830566406,-0.06200000271201134,0.0,1
1665697325.00048804,39943221,0,3,423743000,2231,14,0.75,42.690025399999996,-84.4886312,268.48,0.023537207394838333,257.7352294921875,-0.0560000017285347,0.0,1
1665697325.20047092,40143204,0,3,423743200,2231,14,0.75,42.6900255,-84.4886314,268.49,0.03088689222931862,330.9454040527344,-0.08400000631809235,0.0,1
1665697325.40048385,40343217,0,3,423743400,2231,14,0.75,42.6900255,-84.4886315,268.49,0.03807886689901352,246.80142211914062,-0.05400000140070915,0.0,1
1665697325.60052705,40543260,0,3,423743600,2231,14,0.75,42.6900255,-84.4886317,268.49,0.06476110219955444,256.6075134277344,-0.009000000543892384,0.0,1
1665697325.80051804,40743251,0,3,423743800,2231,14,0.75,42.6900255,-84.4886318,268.49,0.01303840521723032,184.39871215820312,-0.03700000047683716,0.0,1
1665697326.01963997,40962373,0,3,423744000,2231,14,0.75,42.6900256,-84.4886319,268.49,0.038288380950689316,49.236392974853516,0.04000000283122063,0.0,1
1665697326.17964697,41122380,0,3,423744200,2231,14,0.75,42.6900256,-84.4886319,268.49,0.009433981962502003,122.00537109375,0.06100000441074371,0.0,1
1665697326.40048695,41343220,0,3,423744400,2231,14,0.75,42.6900257,-84.488632,268.48,0.03736308589577675,254.47589111328125,-0.004000000189989805,0.0,1
1665697326.60044098,41543174,0,3,423744600,2231,14,0.75,42.6900257,-84.48863209999999,268.47,0.010000000707805157,233.13009643554688,-0.06100000441074371,0.0,1
1665697326.80050993,41743243,0,3,423744800,2231,14,0.75,42.6900258,-84.4886322,268.47,0.0382099486887455,42.878902435302734,-0.03800000250339508,0.0,1
1665697327.00052500,41943258,0,3,423745000,2231,14,0.75,42.6900258,-84.4886322,268.47,0.004472136031836271,153.43495178222656,-0.024000000208616257,0.0,1
1665697327.20052695,42143260,0,3,423745200,2231,14,0.75,42.6900258,-84.48863229999999,268.46,0.02200000174343586,180.0,-0.032999999821186066,0.0,1
1665697327.40058303,42343316,0,3,423745400,2231,14,0.75,42.6900258,-84.48863229999999,268.45,0.023000001907348633,90.0,-0.006000000052154064,0.0,1
1665697327.57973599,42522469,0,3,423745600,2231,14,0.75,42.6900258,-84.48863229999999,268.44,0.01600000075995922,0.0,0.02500000037252903,0.0,1
1665697327.80069494,42743428,0,3,423745800,2231,14,0.75,42.690025899999995,-84.4886324,268.43,0.014764823019504547,28.300756454467773,0.01900000125169754,0.0,1
1665697328.00047803,42943211,0,3,423746000,2231,14,0.75,42.690025899999995,-84.4886325,268.43,0.02607681043446064,355.6012878417969,0.05900000408291817,0.0,1
1665697328.20046496,43143198,0,3,423746200,2231,14,0.75,42.690025899999995,-84.4886325,268.42,0.015811389312148094,235.30484008789062,-0.02800000086426735,0.0,1
1665697328.40049005,43343223,0,3,423746400,2231,14,0.75,42.690025899999995,-84.4886326,268.41,0.032649654895067215,62.65011978149414,0.024000000208616257,0.0,1
1665697328.60052085,43543254,0,3,423746600,2231,14,0.75,42.690025899999995,-84.4886326,268.4,0.010295630432665348,330.9454040527344,0.02800000086426735,0.0,1
1665697328.80052900,43743262,0,3,423746800,2231,14,0.75,42.690025899999995,-84.4886327,268.39,0.008544004522264004,200.55606079101562,-0.029000001028180122,0.0,1
1665697329.00045085,43943184,0,3,423747000,2231,14,0.75,42.690025899999995,-84.4886327,268.39,0.04491102695465088,191.5601348876953,-0.004000000189989805,0.0,1
1665697329.20049405,44143227,0,3,423747200,2231,14,0.75,42.6900258,-84.48863279999999,268.38,0.020024985074996948,357.1376037597656,0.01900000125169754,0.0,1
1665697329.40049291,44343226,0,3,423747400,2231,14,0.75,42.690025899999995,-84.48863279999999,268.36,0.024351593106985092,70.82098388671875,0.049000002443790436,0.0,1
1665697329.60042286,44543156,0,3,423747600,2231,14,0.75,42.6900258,-84.48863279999999,268.33,0.02607681043446064,147.52879333496094,0.005000000353902578,0.0,1
1665697329.80043197,44743165,0,3,423747800,2231,14,0.75,42.6900258,-84.4886329,268.31,0.037947334349155426,251.5650634765625,-0.004000000189989805,0.0,1
1665697330.00045300,44943186,0,3,423748000,2231,14,0.75,42.6900257,-84.488633,268.28000000000003,0.03023243322968483,124.2156982421875,0.08800000697374344,0.0,1
1665697330.20047092,45143204,0,3,423748200,2231,14,0.75,42.6900257,-84.488633,268.25,0.013416407629847527,333.4349365234375,-0.055000003427267075,0.0,1
1665697330.40059400,45343327,0,3,423748400,2231,14,0.75,42.6900257,-84.488633,268.23,0.04049691557884216,20.2248592376709,0.007000000216066837,0.0,1
1665697330.60048389,45543217,0,3,423748600,2231,14,0.75,42.6900257,-84.488633,268.22,0.015524175018072128,194.93142700195312,0.013000000268220901,0.0,1
1665697330.80042291,45743156,0,3,423748800,2231,14,0.75,42.6900257,-84.4886331,268.19,0.0070710680447518826,81.8698959350586,-0.03100000135600567,0.0,1
1665697331.00047898,45943212,0,3,423749000,2231,14,0.75,42.6900257,-84.488633,268.17,0.03162277862429619,34.695152282714844,-0.007000000216066837,0.0,1
1665697331.20047092,46143204,0,3,423749200,2231,14,0.75,42.6900257,-84.4886331,268.16,0.020615529268980026,194.0362548828125,-0.06300000101327896,0.0,1
1665697331.40039992,46343133,0,3,423749400,2231,14,0.75,42.6900256,-84.4886331,268.14,0.022360680624842644,349.6951599121094,0.04500000178813934,0.0,1
1665697331.60045004,46543183,0,3,423749600,2231,14,0.75,42.6900256,-84.4886332,268.12,0.028231188654899597,202.93209838867188,-0.036000002175569534,0.0,1
1665697331.80043888,46743172,0,3,423749800,2231,14,0.75,42.6900256,-84.4886332,268.09000000000003,0.017804494127631187,38.1572265625,0.014000000432133675,0.0,1
1665697332.00062895,46943362,0,3,423750000,2231,14,0.75,42.6900255,-84.4886332,268.07,0.018867963925004005,212.00538635253906,0.08100000023841858,0.0,1
1665697332.20045495,47143188,0,3,423750200,2231,14,0.75,42.6900255,-84.48863329999999,268.04,0.011704700998961926,250.01690673828125,-0.026000000536441803,0.0,1
1665697332.40055299,47343286,0,3,423750400,2231,14,0.75,42.690025399999996,-84.48863329999999,268.02,0.012206556275486946,214.99203491210938,-0.03100000135600567,0.0,1
1665697332.60046196,47543195,0,3,423750600,2231,14,0.75,42.690025399999996,-84.48863329999999,268.01,0.027784887701272964,30.256439208984375,0.01100000087171793,0.0,1
1665697332.80051494,47743248,0,3,423750800,2231,14,0.75,42.690025399999996,-84.48863329999999,267.98,0.0036055513191968203,303.6900634765625,0.023000001907348633,0.0,1
1665697333.00039792,47943131,0,3,423751000,2231,14,0.75,42.690025399999996,-84.48863329999999,267.96,0.005099019967019558,11.309930801391602,0.02800000086426735,0.0,1
1665697333.20051503,48143248,0,3,423751200,2231,14,0.75,42.690025399999996,-84.48863329999999,267.94,0.0187882948666811,64.79887390136719,0.0560000017285347,0.0,1
1665697333.40047193,48343205,0,3,423751400,2231,14,0.75,42.690025299999995,-84.48863329999999,267.91,0.00800000037997961,90.0,0.018000001087784767,0.0,1
1665697333.60051084,48543244,0,3,423751600,2231,14,0.75,42.690025299999995,-84.4886334,267.89,0.012000000104308128,270.0,0.007000000216066837,0.0,1
1665697333.80046201,48743195,0,3,423751800,2231,14,0.75,42.690025299999995,-84.4886334,267.87,0.022671569138765335,228.5763397216797,-0.026000000536441803,0.0,1
1665697334.00051093,48943244,0,3,423752000,2231,14,0.75,42.6900252,-84.4886334,267.84000000000003,0.01702938787639141,220.23635864257812,-0.04400000348687172,0.0,1
1665697334.20048499,49143218,0,3,423752200,2231,14,0.75,42.6900251,-84.48863349999999,267.83,0.0213775597512722,169.21568298339844,0.06700000166893005,0.0,1
1665697334.37974596,49322479,0,3,423752400,2231,14,0.75,42.6900251,-84.48863349999999,267.79,0.011180340312421322,259.6951599121094,0.01900000125169754,0.0,1
1665697334.60038996,49543123,0,3,423752600,2231,14,0.75,42.690025,-84.48863349999999,267.77,0.00984885822981596,113.96247863769531,0.03400000184774399,0.0,1
1665697334.80026984,49743003,0,3,423752800,2231,14,0.75,42.690025,-84.48863349999999,267.74,0.014422205276787281,56.309932708740234,0.04700000211596489,0.0,1
1665697335.00023293,49942966,0,3,423753000,2231,14,0.75,42.6900249,-84.48863349999999,267.71,0.009219544939696789,220.60130310058594,0.0020000000949949026,0.0,1
1665697335.20029306,50143026,0,3,423753200,2231,14,0.75,42.6900249,-84.4886336,267.69,0.014317821711301804,347.9052429199219,0.015000000596046448,0.0,1
1665697335.40029287,50343026,0,3,423753400,2231,14,0.75,42.6900249,-84.4886336,267.67,0.01600000075995922,0.0,0.006000000052154064,0.0,1
1665697335.60040188,50543135,0,3,423753600,2231,14,0.75,42.690024799999996,-84.4886336,267.65,0.025019992142915726,2.2906100749969482,0.06200000271201134,0.0,1
1665697335.80037284,50743106,0,3,423753800,2231,14,0.75,42.690024799999996,-84.4886337,267.62,0.035227831453084946,235.40771484375,-0.03800000250339508,0.0,1
1665697336.00027704,50943010,0,3,423754000,2231,14,0.75,42.690024699999995,-84.4886337,267.6,0.01726267673075199,10.007978439331055,0.03700000047683716,0.0,1
1665697336.20043993,51143173,0,3,423754200,2231,14,0.75,42.690024699999995,-84.4886337,267.57,0.017804494127631187,141.84275817871094,-0.052000001072883606,0.0,1
1665697336.40040588,51343139,0,3,423754400,2231,14,0.75,42.6900246,-84.4886338,267.56,0.020000001415610313,270.0,0.06300000101327896,0.0,1
1665697336.60024905,51542982,0,3,423754600,2231,14,0.75,42.6900246,-84.4886338,267.53000000000003,0.007000000216066837,180.0,0.02800000086426735,0.0,1
1665697336.80025196,51742985,0,3,423754800,2231,14,0.75,42.6900245,-84.4886338,267.5,0.024698179215192795,121.75946807861328,0.07500000298023224,0.0,1
1665697337.00027204,51943005,0,3,423755000,2231,14,0.75,42.6900244,-84.4886338,267.47,0.04024922475218773,243.43496704101562,-0.01100000087171793,0.0,1
1665697337.20025206,52142985,0,3,423755200,2231,14,0.75,42.6900243,-84.4886339,267.45,0.011401754803955555,195.255126953125,-0.013000000268220901,0.0,1
1665697337.40028787,52343021,0,3,423755400,2231,14,0.75,42.690024199999996,-84.4886339,267.43,0.03413209691643715,148.17254638671875,-0.06300000101327896,0.0,1
1665697337.60029602,52543029,0,3,423755600,2231,14,0.75,42.690024099999995,-84.4886339,267.42,0.00824621133506298,255.96377563476562,0.0650000050663948,0.0,1
1665697337.80027103,52743004,0,3,423755800,2231,14,0.75,42.690024,-84.4886339,267.39,0.005656854715198278,45.0,0.02500000037252903,0.0,1
1665697338.00032902,52943062,0,3,423756000,2231,14,0.75,42.690024,-84.48863399999999,267.37,0.02402082458138466,272.3859558105469,-0.05000000074505806,0.0,1
1665697338.20034885,53143082,0,3,423756200,2231,14,0.75,42.6900239,-84.4886341,267.35,0.0230867937207222,287.6501159667969,-0.01900000125169754,0.0,1
1665697338.40027404,53343007,0,3,423756400,2231,14,0.75,42.6900239,-84.4886341,267.34000000000003,0.03138471022248268,22.47943115234375,0.023000001907348633,0.0,1
1665697338.60027385,53543007,0,3,423756600,2231,14,0.75,42.6900238,-84.4886341,267.31,0.0072111026383936405,33.690067291259766,0.03200000151991844,0.0,1
1665697338.80026293,53742996,0,3,423756800,2231,14,0.75,42.6900238,-84.4886341,267.29,0.03354102000594139,26.56505012512207,0.09200000762939453,0.0,1
1665697339.00031900,53943052,0,3,423757000,2231,14,0.75,42.6900237,-84.4886341,267.25,0.003000000026077032,90.0,-0.06599999964237213,0.0,1
1665697339.20030785,54143041,0,3,423757200,2231,14,0.75,42.690023599999996,-84.4886341,267.24,0.0353553406894207,135.0,-0.02200000174343586,0.0,1
1665697339.40029502,54343028,0,3,423757400,2231,14,0.75,42.690023499999995,-84.4886341,267.22,0.01612451672554016,209.74488830566406,0.010000000707805157,0.0,1
1665697339.60022902,54542962,0,3,423757600,2231,14,0.75,42.690023499999995,-84.4886341,267.2,0.017492856830358505,300.9637451171875,0.039000000804662704,0.0,1
1665697339.77972889,54722462,0,3,423757800,2231,14,0.75,42.6900234,-84.4886341,267.17,0.018027758225798607,3.1798300743103027,0.032999999821186066,0.0,1
1665697340.00032902,54943062,0,3,423758000,2231,14,0.75,42.6900234,-84.4886341,267.14,0.01835756003856659,29.35775375366211,0.0690000057220459,0.0,1
1665697340.20030785,55143041,0,3,423758200,2231,14,0.75,42.6900233,-84.48863419999999,267.11,0.025455845519900322,315.0,0.046000003814697266,0.0,1
1665697340.40044188,55343175,0,3,423758400,2231,14,0.75,42.6900233,-84.48863419999999,267.1,0.00632455525919795,71.56504821777344,0.026000000536441803,0.0,1
1665697340.60033393,55543067,0,3,423758600,2231,14,0.75,42.6900232,-84.48863419999999,267.07,0.030016662552952766,88.0908432006836,0.003000000026077032,0.0,1
1665697340.80028200,55743015,0,3,423758800,2231,14,0.75,42.6900232,-84.48863419999999,267.05,0.003162277629598975,198.43495178222656,0.049000002443790436,0.0,1
1665697341.00038385,55943117,0,3,423759000,2231,14,0.75,42.6900231,-84.48863419999999,267.02,0.03498571366071701,239.0362548828125,-0.04800000041723251,0.0,1
1665697341.17975497,56122488,0,3,423759200,2231,14,0.75,42.6900231,-84.4886343,266.99,0.019924860447645187,17.52556610107422,-0.00800000037997961,0.0,1
1665697341.40043187,56343165,0,3,423759400,2231,14,0.75,42.690023,-84.4886343,266.97,0.01664331741631031,122.7352294921875,0.009000000543892384,0.0,1
1665697341.60030985,56543043,0,3,423759600,2231,14,0.75,42.690023,-84.4886343,266.95,0.0072111026383936405,56.309932708740234,0.07400000095367432,0.0,1
1665697341.80033493,56743068,0,3,423759800,2231,14,0.75,42.690022899999995,-84.4886344,266.93,0.05905929207801819,208.30076599121094,0.0020000000949949026,0.0,1
1665697342.00034595,56943079,0,3,423760000,2231,14,0.75,42.6900227,-84.4886344,266.91,0.023537207394838333,167.73521423339844,-0.029000001028180122,0.0,1
1665697342.20030594,57143039,0,3,423760200,2231,14,0.75,42.6900227,-84.4886344,266.9,0.02640075795352459,24.623565673828125,-0.01100000087171793,0.0,1
1665697342.40033102,57343064,0,3,423760400,2231,14,0.75,42.6900227,-84.4886344,266.89,0.01077033020555973,21.801406860351562,-0.017000000923871994,0.0,1
1665697342.57969999,57522433,0,3,423760600,2231,14,0.75,42.6900226,-84.4886344,266.87,0.014000000432133675,90.0,0.06800000369548798,0.0,1
1665697342.80025601,57742989,0,3,423760800,2231,14,0.75,42.6900226,-84.48863449999999,266.85,0.026476405560970306,280.8855285644531,-0.021000001579523087,0.0,1
1665697343.00036788,57943101,0,3,423761000,2231,14,0.75,42.6900225,-84.48863449999999,266.84000000000003,0.018248287960886955,260.5376892089844,-0.07000000029802322,0.0,1
1665697343.20033884,58143072,0,3,423761200,2231,14,0.75,42.6900225,-84.48863449999999,266.83,0.01702938787639141,183.36647033691406,0.009000000543892384,0.0,1
1665697343.40035987,58343093,0,3,423761400,2231,14,0.75,42.6900224,-84.4886346,266.82,0.008544004522264004,339.4439697265625,0.029000001028180122,0.0,1
1665697343.60038996,58543123,0,3,423761600,2231,14,0.75,42.6900224,-84.4886346,266.8,0.015620499849319458,219.8055877685547,0.03200000151991844,0.0,1
1665697343.80037498,58743108,0,3,423761800,2231,14,0.75,42.690022299999995,-84.4886346,266.78000000000003,0.011180340312421322,333.4349365234375,0.06400000303983688,0.0,1
1665697344.00035501,58943088,0,3,423762000,2231,14,0.75,42.690022299999995,-84.4886346,266.75,0.02202271670103073,272.6025695800781,0.013000000268220901,0.0,1
1665697344.20028591,59143019,0,3,423762200,2231,14,0.75,42.690022299999995,-84.48863469999999,266.74,0.02147091180086136,332.241455078125,0.0650000050663948,0.0,1
1665697344.40026093,59342994,0,3,423762400,2231,14,0.75,42.6900222,-84.48863469999999,266.73,0.0252982210367918,198.43495178222656,0.029000001028180122,0.0,1
1665697344.60054994,59543283,0,3,423762600,2231,14,0.75,42.6900221,-84.48863469999999,266.71,0.039293769747018814,165.2564239501953,0.04000000283122063,0.0,1
1665697344.80034590,59743079,0,3,423762800,2231,14,0.75,42.690022,-84.48863469999999,266.7,0.00984885822981596,246.0375213623047,0.05400000140070915,0.0,1
1665697345.00035787,59943091,0,3,423763000,2231,14,0.75,42.690022,-84.4886346,266.67,0.0072111026383936405,56.309932708740234,0.007000000216066837,0.0,1
1665697345.17973304,60122466,0,3,423763200,2231,14,0.75,42.6900219,-84.4886346,266.66,0.014764823019504547,118.3007583618164,-0.0430000014603138,0.0,1
1665697345.40035486,60343088,0,3,423763400,2231,14,0.75,42.6900219,-84.48863449999999,266.64,0.017720045521855354,16.38953971862793,0.05300000309944153,0.0,1
1665697345.60026884,60543002,0,3,423763600,2231,14,0.75,42.6900219,-84.48863449999999,266.64,0.02302173152565956,267.51043701171875,0.027000000700354576,0.0,1
1665697345.80029297,60743026,0,3,423763800,2231,14,0.75,42.6900219,-84.48863449999999,266.62,0.016278821974992752,100.6196517944336,-0.03800000250339508,0.0,1
1665697346.00027800,60943011,0,3,423764000,2231,14,0.75,42.6900218,-84.4886344,266.63,0.006403124425560236,38.65980529785156,0.04700000211596489,0.0,1
1665697346.20030999,61143043,0,3,423764200,2231,14,0.75,42.6900218,-84.4886344,266.64,0.022360680624842644,280.30487060546875,0.04000000283122063,0.0,1
1665697346.40036201,61343095,0,3,423764400,2231,14,0.75,42.6900218,-84.4886344,266.63,0.0020000000949949026,0.0,0.020000001415610313,0.0,1
1665697346.57972884,61522462,0,3,423764600,2231,14,0.75,42.690021699999996,-84.4886344,266.62,0.025059929117560387,208.61045837402344,-0.012000000104308128,0.0,1
1665697346.80032897,61743062,0,3,423764800,2231,14,0.75,42.690021699999996,-84.4886344,266.62,0.009055385366082191,263.6598205566406,-0.029000001028180122,0.0,1
1665697347.00034499,61943078,0,3,423765000,2231,14,0.75,42.690021699999996,-84.4886343,266.61,0.03201562166213989,75.52970123291016,0.0020000000949949026,0.0,1
1665697347.20043302,62143166,0,3,423765200,2231,14,0.75,42.690021699999996,-84.4886341,266.61,0.04002499207854271,77.00537872314453,-0.03200000151991844,0.0,1
1665697347.40031695,62343050,0,3,423765400,2231,14,0.75,42.690021699999996,-84.48863399999999,266.62,0.005656854715198278,225.0,0.004000000189989805,0.0,1
1665697347.60028100,62543014,0,3,423765600,2231,14,0.75,42.690021699999996,-84.48863399999999,266.62,0.031906113028526306,327.80426025390625,0.010000000707805157,0.0,1
1665697347.80030489,62743038,0,3,423765800,2231,14,0.75,42.690021699999996,-84.48863399999999,266.63,0.036124784499406815,311.633544921875,-0.006000000052154064,0.0,1
1665697347.97972298,62922456,0,3,423766000,2231,14,0.75,42.690021699999996,-84.48863399999999,266.65,0.028160257264971733,6.115503311157227,0.09100000560283661,0.0,1
1665697348.20036292,63143096,0,3,423766200,2231,14,0.75,42.690021699999996,-84.4886339,266.65,0.00632455525919795,71.56504821777344,-0.03200000151991844,0.0,1
1665697348.40039301,63343126,0,3,423766400,2231,14,0.75,42.690021699999996,-84.4886338,266.66,0.011704700998961926,199.9831085205078,0.004000000189989805,0.0,1
1665697348.60029984,63543033,0,3,423766600,2231,14,0.75,42.690021699999996,-84.4886338,266.67,0.019723083823919296,329.5344543457031,-0.01900000125169754,0.0,1
1665697348.80048704,63743220,0,3,423766800,2231,14,0.75,42.690021699999996,-84.4886337,266.67,0.02325940877199173,25.463342666625977,0.03100000135600567,0.0,1
1665697349.00034690,63943080,0,3,423767000,2231,14,0.75,42.690021699999996,-84.4886336,266.68,0.020000001415610313,306.8699035644531,0.049000002443790436,0.0,1
1665697349.20030904,64143042,0,3,423767200,2231,14,0.75,42.6900216,-84.4886336,266.68,0.01726267673075199,100.00797271728516,0.055000003427267075,0.0,1
1665697349.40031886,64343052,0,3,423767400,2231,14,0.75,42.6900216,-84.48863349999999,266.68,0.007000000216066837,270.0,0.02500000037252903,0.0,1
1665697349.60033584,64543069,0,3,423767600,2231,14,0.75,42.6900216,-84.4886334,266.67,0.00806225836277008,150.25511169433594,-0.04200000315904617,0.0,1
1665697349.80027795,64743011,0,3,423767800,2231,14,0.75,42.6900216,-84.4886334,266.69,0.013416407629847527,296.5650634765625,0.032999999821186066,0.0,1
1665697350.01975989,64962493,0,3,423768000,2231,14,0.75,42.6900215,-84.48863329999999,266.7,0.017691805958747864,312.7093811035156,-0.024000000208616257,0.0,1
1665697350.20034003,65143073,0,3,423768200,2231,14,0.75,42.6900215,-84.4886332,266.71,0.013416407629847527,26.56505012512207,0.08400000631809235,0.0,1
1665697350.40031004,65343043,0,3,423768400,2231,14,0.75,42.6900214,-84.4886332,266.71,0.027802878990769386,217.69424438476562,0.023000001907348633,0.0,1
1665697350.60023093,65542964,0,3,423768600,2231,14,0.75,42.6900214,-84.4886331,266.72,0.0344383530318737,25.82098960876465,0.04400000348687172,0.0,1
1665697350.80028391,65743017,0,3,423768800,2231,14,0.75,42.6900214,-84.488633,266.72,0.02024845778942108,237.0947723388672,0.026000000536441803,0.0,1
1665697351.00028706,65943020,0,3,423769000,2231,14,0.75,42.6900213,-84.488633,266.74,0.00412310566753149,104.0362319946289,-0.01100000087171793,0.0,1
1665697351.20028591,66143019,0,3,423769200,2231,14,0.75,42.6900212,-84.4886329,266.75,0.006000000052154064,180.0,-0.017000000923871994,0.0,1
1665697351.40032792,66343061,0,3,423769400,2231,14,0.75,42.6900212,-84.48863279999999,266.76,0.02376973070204258,14.620871543884277,0.03800000250339508,0.0,1
1665697351.60028195,66543015,0,3,423769600,2231,14,0.75,42.6900212,-84.4886327,266.77,0.0298328697681427,50.440330505371094,0.030000001192092896,0.0,1
1665697351.80027103,66743004,0,3,423769800,2231,14,0.75,42.690021099999996,-84.4886326,266.78000000000003,0.016552945598959923,25.016891479492188,0.027000000700354576,0.0,1
1665697352.00037003,66943103,0,3,423770000,2231,14,0.75,42.690021099999996,-84.4886325,266.78000000000003,0.0187882948666811,64.79887390136719,-0.013000000268220901,0.0,1
1665697352.20026994,67143003,0,3,423770200,2231,14,0.75,42.690021099999996,-84.4886324,266.79,0.03125699982047081,262.64764404296875,-0.003000000026077032,0.0,1
1665697352.40028906,67343022,0,3,423770400,2231,14,0.75,42.690021099999996,-84.4886324,266.8,0.023086795583367348,355.0302734375,-0.012000000104308128,0.0,1
1665697352.60039306,67543126,0,3,423770600,2231,14,0.75,42.690021099999996,-84.48863229999999,266.81,0.00806225836277008,119.744873046875,-0.018000001087784767,0.0,1
1665697352.80027604,67743009,0,3,423770800,2231,14,0.75,42.690021,-84.4886322,266.82,0.024186773225665092,7.125016212463379,0.046000003814697266,0.0,1
1665697353.00048804,67943221,0,3,423771000,2231,14,0.75,42.690021,-84.48863209999999,266.83,0.01664331741631031,32.73522186279297,-0.004000000189989805,0.0,1
1665697353.20019293,68142926,0,3,423771200,2231,14,0.75,42.690021,-84.488632,266.84000000000003,0.018439089879393578,257.47119140625,-0.013000000268220901,0.0,1
1665697353.37969899,68322432,0,3,423771400,2231,14,0.75,42.690021,-84.488632,266.86,0.03800000250339508,0.0,0.046000003814697266,0.0,1
1665697353.60030890,68543042,0,3,423771600,2231,14,0.75,42.690021,-84.4886319,266.87,0.01345362514257431,138.01278686523438,-0.04500000178813934,0.0,1
1665697353.80027604,68743009,0,3,423771800,2231,14,0.75,42.6900209,-84.4886318,266.88,0.009486833587288857,108.4349365234375,-0.014000000432133675,0.0,1
1665697354.00031805,68943051,0,3,423772000,2231,14,0.75,42.6900209,-84.4886317,266.9,0.020124612376093864,206.56504821777344,0.006000000052154064,0.0,1
1665697354.20028901,69143022,0,3,423772200,2231,14,0.75,42.6900208,-84.48863159999999,266.91,0.013892443850636482,30.256439208984375,-0.036000002175569534,0.0,1
1665697354.40034604,69343079,0,3,423772400,2231,14,0.75,42.6900208,-84.48863159999999,266.92,0.014866068959236145,160.34616088867188,-0.039000000804662704,0.0,1
1665697354.60029888,69543032,0,3,423772600,2231,14,0.75,42.6900207,-84.4886315,266.94,0.00412310566753149,104.0362319946289,0.0010000000474974513,0.0,1
1665697354.77971697,69722450,0,3,423772800,2231,14,0.75,42.6900207,-84.4886314,266.95,0.014142136089503765,8.13010311126709,0.08700000494718552,0.0,1
1665697355.00024986,69942983,0,3,423773000,2231,14,0.75,42.6900207,-84.4886314,266.95,0.01077033020555973,291.8014221191406,-0.049000002443790436,0.0,1
1665697355.20024300,70142976,0,3,423773200,2231,14,0.75,42.6900206,-84.4886313,266.97,0.016278821974992752,312.51043701171875,0.024000000208616257,0.0,1
1665697355.40028906,70343022,0,3,423773400,2231,14,0.75,42.6900206,-84.4886313,266.98,0.01702938787639141,86.63353729248047,0.08900000154972076,0.0,1
1665697355.60028386,70543017,0,3,423773600,2231,14,0.75,42.6900206,-84.4886312,266.98,0.003000000026077032,0.0,0.07100000232458115,0.0,1
1665697355.80032396,70743057,0,3,423773800,2231,14,0.75,42.690020499999996,-84.48863109999999,266.98,0.010000000707805157,36.869895935058594,0.05400000140070915,0.0,1
1665697356.01971602,70962449,0,3,423774000,2231,14,0.75,42.690020499999996,-84.488631,266.99,0.01720465160906315,305.5376892089844,0.046000003814697266,0.0,1
1665697356.20036888,71143102,0,3,423774200,2231,14,0.75,42.690020499999996,-84.488631,267.01,0.012041594833135605,138.366455078125,0.05000000074505806,0.0,1
1665697356.40022206,71342955,0,3,423774400,2231,14,0.75,42.690020499999996,-84.48863089999999,267.01,0.017464250326156616,346.7594909667969,0.017000000923871994,0.0,1
1665697356.60034394,71543077,0,3,423774600,2231,14,0.75,42.690020399999995,-84.48863089999999,267.02,0.02302173152565956,182.48956298828125,-0.03800000250339508,0.0,1
1665697356.80020094,71742934,0,3,423774800,2231,14,0.75,42.690020399999995,-84.4886308,267.04,0.030083218589425087,68.55225372314453,0.015000000596046448,0.0,1
1665697357.00025702,71942990,0,3,423775000,2231,14,0.75,42.690020399999995,-84.4886307,267.05,0.00800000037997961,180.0,0.0010000000474974513,0.0,1
1665697357.20049000,72143223,0,3,423775200,2231,14,0.75,42.6900203,-84.4886306,267.07,0.014142136089503765,351.8699035644531,0.02500000037252903,0.0,1
1665697357.40031695,72343050,0,3,423775400,2231,14,0.75,42.6900203,-84.4886306,267.08,0.02140093594789505,217.4053497314453,-0.013000000268220901,0.0,1
1665697357.60033894,72543072,0,3,423775600,2231,14,0.75,42.6900202,-84.4886305,267.1,0.005385165102779865,111.80139923095703,-0.005000000353902578,0.0,1
1665697357.80037689,72743110,0,3,423775800,2231,14,0.75,42.6900202,-84.4886305,267.12,0.02154066041111946,338.1986083984375,0.03800000250339508,0.0,1
1665697358.01966000,72962393,0,3,423776000,2231,14,0.75,42.6900202,-84.48863039999999,267.14,0.03373425453901291,78.02386474609375,0.026000000536441803,0.0,1
1665697358.20028806,73143021,0,3,423776200,2231,14,0.75,42.6900201,-84.4886303,267.15,0.02408318966627121,355.2363586425781,0.030000001192092896,0.0,1
1665697358.40024805,73342981,0,3,423776400,2231,14,0.75,42.6900201,-84.4886302,267.15,0.0070710680447518826,261.8699035644531,0.004000000189989805,0.0,1
1665697358.60028291,73543016,0,3,423776600,2231,14,0.75,42.6900201,-84.4886302,267.17,0.010000000707805157,53.13010025024414,0.0560000017285347,0.0,1
1665697358.80028105,73743014,0,3,423776800,2231,14,0.75,42.69002,-84.4886301,267.18,0.011704700998961926,160.0168914794922,0.023000001907348633,0.0,1
1665697359.00033498,73943068,0,3,423777000,2231,14,0.75,42.690019899999996,-84.4886301,267.2,0.012206556275486946,304.9920349121094,0.05400000140070915,0.0,1
1665697359.20034790,74143081,0,3,423777200,2231,14,0.75,42.690019899999996,-84.48863,267.22,0.018867963925004005,57.99461364746094,-0.009000000543892384,0.0,1
1665697359.40031886,74343052,0,3,423777400,2231,14,0.75,42.690019799999995,-84.48863,267.24,0.011180340312421322,349.6951599121094,0.018000001087784767,0.0,1
1665697359.60027504,74543008,0,3,423777600,2231,14,0.75,42.690019799999995,-84.48863,267.26,0.02385372295975685,236.97613525390625,0.03800000250339508,0.0,1
1665697359.80038905,74743122,0,3,423777800,2231,14,0.75,42.6900197,-84.48863,267.27,0.018027756363153458,109.44002532958984,-0.00800000037997961,0.0,1
1665697360.00025702,74942990,0,3,423778000,2231,14,0.75,42.6900196,-84.48863,267.29,0.03811823949217796,265.48602294921875,-0.05400000140070915,0.0,1
1665697360.17962599,75122359,0,3,423778200,2231,14,0.75,42.6900195,-84.48863,267.31,0.004242640919983387,315.0,0.05100000277161598,0.0,1
1665697360.40029407,75343027,0,3,423778400,2231,14,0.75,42.6900195,-84.48862989999999,267.33,0.022472206503152847,147.72434997558594,0.004000000189989805,0.0,1
1665697360.60026097,75542994,0,3,423778600,2231,14,0.75,42.6900194,-84.48862989999999,267.33,0.03471311181783676,11.63363265991211,-0.005000000353902578,0.0,1
1665697360.80036092,75743094,0,3,423778800,2231,14,0.75,42.6900194,-84.4886298,267.35,0.01720465160906315,54.46232223510742,-0.007000000216066837,0.0,1
1665697361.00029707,75943030,0,3,423779000,2231,14,0.75,42.6900194,-84.4886298,267.37,0.003162277629598975,288.4349365234375,0.032999999821186066,0.0,1
1665697361.20026088,76142994,0,3,423779200,2231,14,0.75,42.690019299999996,-84.4886298,267.39,0.011180340312421322,349.6951599121094,0.026000000536441803,0.0,1
1665697361.40048885,76343222,0,3,423779400,2231,14,0.75,42.690019299999996,-84.48862969999999,267.4,0.04070626571774483,62.175899505615234,0.06700000166893005,0.0,1
1665697361.57975888,76522492,0,3,423779600,2231,14,0.75,42.690019199999995,-84.4886296,267.41,0.010816654190421104,326.3099365234375,0.07600000500679016,0.0,1
1665697361.80023193,76742965,0,3,423779800,2231,14,0.75,42.690019199999995,-84.4886296,267.42,0.017492856830358505,59.03623962402344,0.01600000075995922,0.0,1
1665697362.00027585,76943009,0,3,423780000,2231,14,0.75,42.690019199999995,-84.4886295,267.43,0.006708203814923763,333.4349365234375,-0.018000001087784767,0.0,1
1665697362.20023584,77142969,0,3,423780200,2231,14,0.75,42.6900191,-84.4886294,267.45,0.02523886039853096,33.6900634765625,0.036000002175569534,0.0,1
1665697362.40032697,77343060,0,3,423780400,2231,14,0.75,42.6900191,-84.4886294,267.45,0.0353553406894207,298.73980712890625,-0.02800000086426735,0.0,1
1665697362.60028791,77543021,0,3,423780600,2231,14,0.75,42.6900191,-84.4886294,267.47,0.011401754803955555,105.25511169433594,0.049000002443790436,0.0,1
1665697362.80025005,77742983,0,3,423780800,2231,14,0.75,42.690019,-84.4886294,267.49,0.013152946718037128,98.74615478515625,0.004000000189989805,0.0,1
1665697363.00029707,77943030,0,3,423781000,2231,14,0.75,42.690019,-84.4886293,267.51,0.017000000923871994,90.0,0.014000000432133675,0.0,1
1665697363.20026588,78142999,0,3,423781200,2231,14,0.75,42.6900189,-84.48862919999999,267.51,0.015231546945869923,246.80142211914062,-0.03100000135600567,0.0,1
1665697363.40029407,78343027,0,3,423781400,2231,14,0.75,42.6900188,-84.48862919999999,267.53000000000003,0.03551056236028671,122.3474349975586,0.049000002443790436,0.0,1
1665697363.60028291,78543016,0,3,423781600,2231,14,0.75,42.6900188,-84.4886291,267.55,0.017720045521855354,73.6104507446289,0.03100000135600567,0.0,1
1665697363.80023885,78742972,0,3,423781800,2231,14,0.75,42.690018699999996,-84.4886291,267.56,0.015811389312148094,214.69515991210938,0.009000000543892384,0.0,1
1665697364.00034189,78943075,0,3,423782000,2231,14,0.75,42.690018699999996,-84.4886291,267.57,0.028635643422603607,335.224853515625,0.00800000037997961,0.0,1
1665697364.20027995,79143013,0,3,423782200,2231,14,0.75,42.690018599999995,-84.4886291,267.6,0.011045361869037151,264.8055725097656,0.032999999821186066,0.0,1
1665697364.40036106,79343094,0,3,423782400,2231,14,0.75,42.690018599999995,-84.4886291,267.6,0.018000001087784767,0.0,0.01900000125169754,0.0,1
1665697364.60032892,79543062,0,3,423782600,2231,14,0.75,42.690018599999995,-84.4886291,267.62,0.01720465160906315,305.5376892089844,-0.014000000432133675,0.0,1
1665697364.80026984,79743003,0,3,423782800,2231,14,0.75,42.690018599999995,-84.4886291,267.64,0.013000000268220901,292.619873046875,0.02200000174343586,0.0,1
1665697365.00028086,79943014,0,3,423783000,2231,14,0.75,42.6900185,-84.4886291,267.65,0.013416407629847527,243.43496704101562,-0.032999999821186066,0.0,1
1665697365.20033789,80143071,0,3,423783200,2231,14,0.75,42.6900185,-84.488629,267.66,0.018681542947888374,195.5241241455078,-0.003000000026077032,0.0,1
1665697365.40032792,80343061,0,3,423783400,2231,14,0.75,42.6900184,-84.488629,267.68,0.02163330838084221,303.6900634765625,0.02500000037252903,0.0,1
1665697405.20025706,120142990,0,3,423823200,2231,14,0.75,42.690020499999996,-84.48862629999999,268.33,0.024698179215192795,21.370620727539062,-0.00800000037997961,0.0,1
1665697405.40028501,120343018,0,3,423823400,2231,14,0.75,42.690020499999996,-84.4886262,268.34000000000003,0.021189620718359947,19.2900447845459,0.009000000543892384,0.0,1
1665697405.60028386,120543017,0,3,423823600,2231,14,0.75,42.690020499999996,-84.4886262,268.35,0.0058309524320065975,239.0362548828125,-0.010000000707805157,0.0,1
1665697405.80032086,120743054,0,3,423823800,2231,14,0.75,42.690020499999996,-84.48862609999999,268.35,0.017000000923871994,241.92752075195312,-0.07400000095367432,0.0,1
1665697406.00036788,120943101,0,3,423824000,2231,14,0.75,42.690020499999996,-84.48862609999999,268.36,0.017464250326156616,23.629375457763672,0.07800000160932541,0.0,1
1665697406.20037699,121143110,0,3,423824200,2231,14,0.75,42.690020499999996,-84.488626,268.35,0.015524175018072128,255.06858825683594,-0.017000000923871994,0.0,1
1665697406.40035105,121343084,0,3,423824400,2231,14,0.75,42.690020399999995,-84.488626,268.36,0.012041594833135605,184.76365661621094,-0.02500000037252903,0.0,1
1665697406.60033488,121543068,0,3,423824600,2231,14,0.75,42.690020399999995,-84.488626,268.37,0.009899495169520378,135.0,0.013000000268220901,0.0,1
1665697406.80025291,121742986,0,3,423824800,2231,14,0.75,42.6900203,-84.4886259,268.38,0.0036055513191968203,33.690067291259766,-0.010000000707805157,0.0,1
1665697407.00029588,121943029,0,3,423825000,2231,14,0.75,42.6900203,-84.4886259,268.38,0.02202271670103073,357.3974304199219,-0.04200000315904617,0.0,1
1665697407.20025706,122142990,0,3,423825200,2231,14,0.75,42.690020399999995,-84.4886259,268.39,0.01077033020555973,291.8014221191406,0.0010000000474974513,0.0,1
1665697407.40034890,122343082,0,3,423825400,2231,14,0.75,42.6900203,-84.4886259,268.39,0.029154760763049126,247.8336639404297,-0.03700000047683716,0.0,1
1665697407.60041785,122543151,0,3,423825600,2231,14,0.75,42.6900203,-84.4886258,268.39,0.01910497434437275,137.12109375,-0.04800000041723251,0.0,1
1665697407.80038595,122743119,0,3,423825800,2231,14,0.75,42.6900203,-84.4886258,268.4,0.020518286153674126,46.97492980957031,0.00800000037997961,0.0,1
1665697408.00036192,122943095,0,3,423826000,2231,14,0.75,42.6900203,-84.4886258,268.4,0.03818376734852791,225.0,-0.012000000104308128,0.0,1
1665697408.20035505,123143088,0,3,423826200,2231,14,0.75,42.6900202,-84.4886257,268.41,0.03551056236028671,32.347442626953125,0.023000001907348633,0.0,1
1665697408.40043497,123343168,0,3,423826400,2231,14,0.75,42.6900202,-84.4886257,268.41,0.018601076677441597,126.25382995605469,-0.015000000596046448,0.0,1
1665697408.60025406,123542987,0,3,423826600,2231,14,0.75,42.6900202,-84.48862559999999,268.42,0.037443291395902634,34.114471435546875,0.10000000149011612,0.0,1
1665697408.80032086,123743054,0,3,423826800,2231,14,0.75,42.6900202,-84.48862559999999,268.42,0.009486833587288857,251.5650634765625,0.01100000087171793,0.0,1
1665697409.00028896,123943022,0,3,423827000,2231,14,0.75,42.6900202,-84.4886255,268.41,0.019798990339040756,45.0,0.00800000037997961,0.0,1
1665697409.20038199,124143115,0,3,423827200,2231,14,0.75,42.6900202,-84.4886255,268.43,0.011045361869037151,264.8055725097656,0.02800000086426735,0.0,1
1665697409.40032792,124343061,0,3,423827400,2231,14,0.75,42.6900201,-84.4886255,268.44,0.018439089879393578,282.52880859375,0.04100000113248825,0.0,1
1665697409.60027099,124543004,0,3,423827600,2231,14,0.75,42.6900201,-84.48862539999999,268.43,0.016278821974992752,79.38034057617188,-0.012000000104308128,0.0,1
1665697409.80031705,124743050,0,3,423827800,2231,14,0.75,42.6900201,-84.4886253,268.44,0.020518286153674126,46.97492980957031,0.06400000303983688,0.0,1
1665697410.01976085,124962494,0,3,423828000,2231,14,0.75,42.6900201,-84.4886253,268.45,0.01835756003856659,240.6422576904297,-0.039000000804662704,0.0,1
1665697410.20043397,125143167,0,3,423828200,2231,14,0.75,42.69002,-84.4886253,268.46,0.010295630432665348,240.94540405273438,-0.0020000000949949026,0.0,1
1665697410.40031004,125343043,0,3,423828400,2231,14,0.75,42.69002,-84.4886252,268.45,0.027202941477298737,197.1027374267578,0.0020000000949949026,0.0,1
1665697410.60027599,125543009,0,3,423828600,2231,14,0.75,42.69002,-84.4886251,268.44,0.009486833587288857,161.56504821777344,-0.01100000087171793,0.0,1
1665697410.80030489,125743038,0,3,423828800,2231,14,0.75,42.69002,-84.488625,268.43,0.018681542947888374,15.524110794067383,-0.036000002175569534,0.0,1
1665697411.00024796,125942981,0,3,423829000,2231,14,0.75,42.69002,-84.488625,268.44,0.015620499849319458,39.805572509765625,0.014000000432133675,0.0,1
1665697411.20036888,126143102,0,3,423829200,2231,14,0.75,42.69002,-84.4886248,268.44,0.026683328673243523,167.00537109375,-0.07600000500679016,0.0,1
1665697411.40032887,126343062,0,3,423829400,2231,14,0.75,42.690019899999996,-84.4886247,268.44,0.02088061347603798,73.30075073242188,0.01600000075995922,0.0,1
1665697411.60033703,126543070,0,3,423829600,2231,14,0.75,42.69002,-84.4886246,268.43,0.03623534366488457,50.599334716796875,0.007000000216066837,0.0,1
1665697411.80049205,126743225,0,3,423829800,2231,14,0.75,42.69002,-84.4886245,268.43,0.02408318966627121,48.366458892822266,0.01900000125169754,0.0,1
1665697412.01962399,126962357,0,3,423830000,2231,14,0.75,42.69002,-84.48862439999999,268.43,0.011045361869037151,174.80557250976562,-0.027000000700354576,0.0,1
1665697412.20026994,127143003,0,3,423830200,2231,14,0.75,42.69002,-84.48862439999999,268.42,0.020223749801516533,261.46923828125,0.029000001028180122,0.0,1
1665697412.40038705,127343120,0,3,423830400,2231,14,0.75,42.69002,-84.4886243,268.41,0.005099019967019558,191.3099365234375,0.05300000309944153,0.0,1
1665697412.60026503,127542998,0,3,423830600,2231,14,0.75,42.690019899999996,-84.4886243,268.41,0.013000000268220901,67.380126953125,0.004000000189989805,0.0,1
1665697412.80034304,127743076,0,3,423830800,2231,14,0.75,42.690019899999996,-84.48862419999999,268.41,0.004472136031836271,153.43495178222656,0.01900000125169754,0.0,1
1665697413.00029802,127943031,0,3,423831000,2231,14,0.75,42.690019899999996,-84.4886241,268.4,0.018867963925004005,32.00537872314453,-0.02500000037252903,0.0,1
1665697413.17964292,128122376,0,3,423831200,2231,14,0.75,42.69002,-84.488624,268.4,0.009219544939696789,49.398704528808594,-0.021000001579523087,0.0,1
1665697413.40030289,128343036,0,3,423831400,2231,14,0.75,42.69002,-84.4886239,268.41,0.006708203814923763,116.5650405883789,-0.020000001415610313,0.0,1
1665697413.60033107,128543064,0,3,423831600,2231,14,0.75,42.69002,-84.4886238,268.4,0.007000000216066837,90.0,-0.039000000804662704,0.0,1
1665697413.80036783,128743101,0,3,423831800,2231,14,0.75,42.69002,-84.4886238,268.4,0.023537207394838333,12.264772415161133,0.046000003814697266,0.0,1
1665697414.00037193,128943105,0,3,423832000,2231,14,0.75,42.69002,-84.48862369999999,268.39,0.02828427217900753,8.13010311126709,0.018000001087784767,0.0,1
1665697414.20023394,129142967,0,3,423832200,2231,14,0.75,42.69002,-84.4886236,268.37,0.028301943093538284,237.99462890625,-0.07500000298023224,0.0,1
1665697414.40028000,129343013,0,3,423832400,2231,14,0.75,42.69002,-84.4886236,268.39,0.026627056300640106,34.28687286376953,0.02200000174343586,0.0,1
1665697414.57973194,129522465,0,3,423832600,2231,14,0.75,42.6900201,-84.4886235,268.38,0.0150332972407341,3.814074754714966,0.01100000087171793,0.0,1
1665697414.80029106,129743024,0,3,423832800,2231,14,0.75,42.6900201,-84.4886234,268.36,0.02617250569164753,223.45184326171875,-0.0020000000949949026,0.0,1
1665697415.00028086,129943014,0,3,423833000,2231,14,0.75,42.6900201,-84.4886234,268.35,0.0,0.0,0.005000000353902578,0.0,1
1665697415.20034194,130143075,0,3,423833200,2231,14,0.75,42.6900201,-84.4886233,268.34000000000003,0.017804494127631187,321.8427734375,0.04100000113248825,0.0,1
1665697415.40035200,130343085,0,3,423833400,2231,14,0.75,42.6900201,-84.4886233,268.33,0.018027756363153458,236.3099365234375,-0.004000000189989805,0.0,1
1665697415.60036802,130543101,0,3,423833600,2231,14,0.75,42.6900201,-84.48862319999999,268.32,0.028635643422603607,102.09474182128906,0.020000001415610313,0.0,1
1665697415.80024195,130742975,0,3,423833800,2231,14,0.75,42.6900201,-84.4886231,268.31,0.00806225836277008,29.74488067626953,0.0860000029206276,0.0,1
1665697416.00043702,130943170,0,3,423834000,2231,14,0.75,42.6900201,-84.48862299999999,268.29,0.024596748873591423,333.4349365234375,-0.009000000543892384,0.0,1
1665697416.20023298,131142966,0,3,423834200,2231,14,0.75,42.6900201,-84.48862299999999,268.28000000000003,0.027073973789811134,355.76361083984375,0.007000000216066837,0.0,1
1665697416.40025496,131342988,0,3,423834400,2231,14,0.75,42.6900202,-84.4886229,268.28000000000003,0.02523886039853096,33.6900634765625,0.015000000596046448,0.0,1
1665697416.60030389,131543037,0,3,423834600,2231,14,0.75,42.6900202,-84.4886228,268.28000000000003,0.010816654190421104,33.6900634765625,-0.0020000000949949026,0.0,1
1665697416.80034804,131743081,0,3,423834800,2231,14,0.75,42.6900202,-84.4886227,268.27,0.03224903345108032,187.12503051757812,-0.06400000303983688,0.0,1
1665697417.00032997,131943063,0,3,423835000,2231,14,0.75,42.6900201,-84.4886226,268.26,0.005000000353902578,216.86990356445312,-0.04200000315904617,0.0,1
1665697417.20029902,132143032,0,3,423835200,2231,14,0.75,42.6900201,-84.48862249999999,268.26,0.00707106851041317,225.0,0.014000000432133675,0.0,1
1665697417.40036798,132343101,0,3,423835400,2231,14,0.75,42.6900201,-84.4886224,268.25,0.02408318966627121,85.2363510131836,-0.0010000000474974513,0.0,1
1665697417.60026884,132543002,0,3,423835600,2231,14,0.75,42.6900201,-84.4886223,268.25,0.00824621133506298,345.9637451171875,0.052000001072883606,0.0,1
1665697417.80023599,132742969,0,3,423835800,2231,14,0.75,42.6900201,-84.4886222,268.24,0.030463093891739845,203.1986083984375,-0.04700000211596489,0.0,1
1665697418.00022697,132942960,0,3,423836000,2231,14,0.75,42.6900201,-84.4886222,268.23,0.00806225836277008,330.255126953125,0.007000000216066837,0.0,1
1665697418.20027590,133143009,0,3,423836200,2231,14,0.75,42.6900201,-84.4886221,268.23,0.026248810812830925,72.25532531738281,0.052000001072883606,0.0,1
1665697418.40033388,133343067,0,3,423836400,2231,14,0.75,42.6900201,-84.4886219,268.22,0.013928388245403767,68.96248626708984,0.06000000238418579,0.0,1
1665697418.60035896,133543092,0,3,423836600,2231,14,0.75,42.6900202,-84.48862179999999,268.2,0.021931713446974754,223.15240478515625,-0.030000001192092896,0.0,1
1665697418.80028796,133743021,0,3,423836800,2231,14,0.75,42.6900201,-84.48862179999999,268.21,0.02080865204334259,54.782405853271484,0.11900000274181366,0.0,1
1665697419.00026107,133942994,0,3,423837000,2231,14,0.75,42.6900202,-84.4886217,268.19,0.005656854715198278,315.0,0.012000000104308128,0.0,1
1665697419.20033193,134143065,0,3,423837200,2231,14,0.75,42.6900202,-84.4886216,268.18,0.015000000596046448,270.0,0.0430000014603138,0.0,1
1665697419.40031099,134343044,0,3,423837400,2231,14,0.75,42.6900202,-84.4886215,268.16,0.029154760763049126,157.83364868164062,0.07500000298023224,0.0,1
1665697419.60023284,134542966,0,3,423837600,2231,14,0.75,42.6900201,-84.4886215,268.15,0.014000000432133675,180.0,0.036000002175569534,0.0,1
1665697419.80027485,134743008,0,3,423837800,2231,14,0.75,42.6900201,-84.4886214,268.15,0.022090723738074303,84.8055648803711,-0.024000000208616257,0.0,1
1665697420.00030398,134943037,0,3,423838000,2231,14,0.75,42.6900202,-84.4886212,268.14,0.03471311181783676,41.49646759033203,0.003000000026077032,0.0,1
1665697420.20043588,135143169,0,3,423838200,2231,14,0.75,42.6900202,-84.4886211,268.15,0.0259422454982996,27.552806854248047,-0.005000000353902578,0.0,1
1665697420.40033984,135343073,0,3,423838400,2231,14,0.75,42.6900203,-84.488621,268.14,0.00412310566753149,345.9637451171875,-0.03800000250339508,0.0,1
1665697420.60029292,135543026,0,3,423838600,2231,14,0.75,42.6900203,-84.4886209,268.12,0.03921734541654587,199.35899353027344,-0.04700000211596489,0.0,1
1665697420.80031300,135743046,0,3,423838800,2231,14,0.75,42.6900203,-84.4886209,268.13,0.026248810812830925,49.635459899902344,0.07800000160932541,0.0,1
1665697421.00041795,135943151,0,3,423839000,2231,14,0.75,42.6900203,-84.48862079999999,268.12,0.03130495175719261,26.56505012512207,0.03100000135600567,0.0,1
1665697421.20028687,136143020,0,3,423839200,2231,14,0.75,42.690020399999995,-84.4886207,268.1,0.015524175018072128,255.06858825683594,-0.009000000543892384,0.0,1
1665697421.37962985,136322363,0,3,423839400,2231,14,0.75,42.690020399999995,-84.4886207,268.09000000000003,0.024698179215192795,328.24053955078125,-0.024000000208616257,0.0,1
1665697421.60026789,136543001,0,3,423839600,2231,14,0.75,42.690020399999995,-84.48862059999999,268.08,0.02202271670103073,320.52752685546875,0.006000000052154064,0.0,1
1665697421.80035305,136743086,0,3,423839800,2231,14,0.75,42.690020499999996,-84.48862059999999,268.08,0.010049876756966114,264.2894287109375,-0.020000001415610313,0.0,1
1665697422.00028896,136943022,0,3,423840000,2231,14,0.75,42.690020499999996,-84.4886205,268.07,0.022090723738074303,84.8055648803711,0.02500000037252903,0.0,1
1665697422.20030189,137143035,0,3,423840200,2231,14,0.75,42.690020499999996,-84.4886204,268.06,0.021931713446974754,43.15238952636719,0.04500000178813934,0.0,1
1665697422.40023589,137342969,0,3,423840400,2231,14,0.75,42.690020499999996,-84.4886203,268.05,0.0022360680159181356,206.56504821777344,0.026000000536441803,0.0,1
1665697422.60028505,137543018,0,3,423840600,2231,14,0.75,42.690020499999996,-84.4886203,268.04,0.012369317002594471,194.0362548828125,-0.0010000000474974513,0.0,1
1665697422.77968788,137722421,0,3,423840800,2231,14,0.75,42.690020499999996,-84.4886202,268.03000000000003,0.010816654190421104,123.6900634765625,0.032999999821186066,0.0,1
1665697423.00030494,137943038,0,3,423841000,2231,14,0.75,42.690020499999996,-84.48862009999999,268.01,0.005099019967019558,191.3099365234375,-0.05000000074505806,0.0,1
1665697423.20033789,138143071,0,3,423841200,2231,14,0.75,42.690020499999996,-84.48862009999999,268.02,0.007615773472934961,336.8014221191406,-0.0020000000949949026,0.0,1
1665697423.40037394,138343107,0,3,423841400,2231,14,0.75,42.690020499999996,-84.48862,268.01,0.009433981962502003,302.00537109375,-0.015000000596046448,0.0,1
1665697423.60025907,138542992,0,3,423841600,2231,14,0.75,42.690020499999996,-84.48862,268.0,0.0010000000474974513,90.0,0.018000001087784767,0.0,1
1665697423.80029392,138743027,0,3,423841800,2231,14,0.75,42.690020499999996,-84.48861989999999,267.99,0.014422205276787281,213.69007873535156,-0.017000000923871994,0.0,1
1665697424.00024605,138942979,0,3,423842000,2231,14,0.75,42.690020499999996,-84.48861989999999,268.0,0.042201895266771317,13.706960678100586,0.01900000125169754,0.0,1
1665697424.17972589,139122459,0,3,423842200,2231,14,0.75,42.690020499999996,-84.4886198,268.0,0.006708203814923763,153.43495178222656,-0.005000000353902578,0.0,1
1665697424.40045500,139343188,0,3,423842400,2231,14,0.75,42.690020499999996,-84.4886198,267.99,0.02280350960791111,254.74488830566406,-0.00800000037997961,0.0,1
1665697424.60030484,139543038,0,3,423842600,2231,14,0.75,42.690020499999996,-84.4886197,267.99,0.036769554018974304,67.61985778808594,0.06400000303983688,0.0,1
1665697424.80028391,139743017,0,3,423842800,2231,14,0.75,42.690020499999996,-84.48861959999999,267.97,0.010000000707805157,233.13009643554688,-0.04000000283122063,0.0,1
1665697425.00019598,139942929,0,3,423843000,2231,14,0.75,42.690020499999996,-84.48861959999999,267.98,0.01345362514257431,318.0127868652344,-0.021000001579523087,0.0,1
1665697425.20030689,140143040,0,3,423843200,2231,14,0.75,42.690020499999996,-84.48861959999999,267.96,0.04700000211596489,270.0,-0.02500000037252903,0.0,1
1665697425.40026689,140343000,0,3,423843400,2231,14,0.75,42.690020499999996,-84.48861959999999,267.96,0.03330165147781372,221.3477783203125,0.030000001192092896,0.0,1
1665697425.60033488,140543068,0,3,423843600,2231,14,0.75,42.690020499999996,-84.48861959999999,267.95,0.01303840521723032,184.39871215820312,0.005000000353902578,0.0,1
1665697425.80027294,140743006,0,3,423843800,2231,14,0.75,42.690020499999996,-84.4886195,267.95,0.02325940877199173,295.4633483886719,0.036000002175569534,0.0,1
1665697426.00028300,140943016,0,3,423844000,2231,14,0.75,42.690020499999996,-84.4886195,267.94,0.011661904864013195,329.0362548828125,0.029000001028180122,0.0,1
1665697426.20026803,141143001,0,3,423844200,2231,14,0.75,42.690020499999996,-84.4886195,267.93,0.018027756363153458,213.69007873535156,-0.02200000174343586,0.0,1
1665697426.40037704,141343110,0,3,423844400,2231,14,0.75,42.690020399999995,-84.4886195,267.93,0.022561030462384224,167.1957244873047,0.017000000923871994,0.0,1
1665697426.60021091,141542944,0,3,423844600,2231,14,0.75,42.690020399999995,-84.48861939999999,267.92,0.025179356336593628,6.842772960662842,-0.05300000309944153,0.0,1
1665697426.80030584,141743039,0,3,423844800,2231,14,0.75,42.690020499999996,-84.48861939999999,267.92,0.021840332075953484,344.0545959472656,-0.05900000408291817,0.0,1
1665697437.20035291,152143086,0,3,423855200,2231,14,0.75,42.6900209,-84.4886212,267.72,0.024351593106985092,199.17901611328125,-0.009000000543892384,0.0,1
1665697437.40035796,152343091,0,3,423855400,2231,14,0.75,42.6900209,-84.48862129999999,267.72,0.013416407629847527,26.56505012512207,-0.046000003814697266,0.0,1
1665697437.60027289,152543006,0,3,423855600,2231,14,0.75,42.690021,-84.4886214,267.72,0.017888544127345085,333.4349365234375,-0.024000000208616257,0.0,1
1665697437.80028892,152743022,0,3,423855800,2231,14,0.75,42.690021,-84.4886215,267.72,0.007615773472934961,23.198589324951172,0.009000000543892384,0.0,1
1665697438.00023293,152942966,0,3,423856000,2231,14,0.75,42.690021,-84.4886216,267.73,0.030870698392391205,204.90476989746094,-0.017000000923871994,0.0,1
1665697438.20028400,153143017,0,3,423856200,2231,14,0.75,42.6900209,-84.4886217,267.74,0.012529964558780193,331.3895568847656,-0.036000002175569534,0.0,1
1665697438.40032005,153343053,0,3,423856400,2231,14,0.75,42.690021,-84.48862179999999,267.73,0.026000000536441803,337.380126953125,0.009000000543892384,0.0,1
1665697438.60030699,153543040,0,3,423856600,2231,14,0.75,42.690021,-84.4886219,267.74,0.011661904864013195,239.0362548828125,0.01100000087171793,0.0,1
1665697438.80035996,153743093,0,3,423856800,2231,14,0.75,42.690021,-84.48862199999999,267.74,0.023086795583367348,85.03025817871094,-0.01900000125169754,0.0,1
1665697439.00039506,153943128,0,3,423857000,2231,14,0.75,42.690021,-84.4886221,267.74,0.0070710680447518826,98.13009643554688,-0.06599999964237213,0.0,1
1665697439.20034885,154143082,0,3,423857200,2231,14,0.75,42.690021,-84.4886221,267.74,0.029546573758125305,23.962488174438477,0.03100000135600567,0.0,1
1665697439.40030193,154343035,0,3,423857400,2231,14,0.75,42.690021,-84.4886222,267.73,0.022472206503152847,122.275634765625,0.01600000075995922,0.0,1
1665697439.60025501,154542988,0,3,423857600,2231,14,0.75,42.690021,-84.4886223,267.73,0.021260293200612068,221.18592834472656,-0.024000000208616257,0.0,1
1665697439.80024004,154742973,0,3,423857800,2231,14,0.75,42.690021,-84.4886224,267.73,0.012083047069609165,65.55604553222656,0.02200000174343586,0.0,1
1665697440.01975584,154962489,0,3,423858000,2231,14,0.75,42.690021,-84.4886224,267.73,0.014317821711301804,77.90524291992188,0.006000000052154064,0.0,1
1665697440.20036983,155143103,0,3,423858200,2231,14,0.75,42.690021,-84.48862249999999,267.73,0.00806225836277008,330.255126953125,0.014000000432133675,0.0,1
1665697440.40037704,155343110,0,3,423858400,2231,14,0.75,42.690021,-84.4886226,267.72,0.005099019967019558,101.30992126464844,-0.004000000189989805,0.0,1
1665697440.60038590,155543119,0,3,423858600,2231,14,0.75,42.690021,-84.4886227,267.71,0.018027758225798607,266.8201904296875,-0.015000000596046448,0.0,1
1665697440.80037498,155743108,0,3,423858800,2231,14,0.75,42.690021,-84.4886229,267.71,0.025179356336593628,353.1572265625,-0.026000000536441803,0.0,1
1665697441.00029302,155943026,0,3,423859000,2231,14,0.75,42.690021,-84.48862299999999,267.72,0.00707106851041317,135.0,0.04700000211596489,0.0,1
1665697441.20049095,156143224,0,3,423859200,2231,14,0.75,42.690021,-84.48862299999999,267.71,0.005000000353902578,216.86990356445312,-0.032999999821186066,0.0,1
1665697441.40031004,156343043,0,3,423859400,2231,14,0.75,42.690021,-84.48862319999999,267.72,0.022472206503152847,290.8544616699219,0.02200000174343586,0.0,1
1665697441.60028100,156543014,0,3,423859600,2231,14,0.75,42.690021,-84.4886233,267.72,0.01044030673801899,196.69924926757812,-0.024000000208616257,0.0,1
1665697441.80036402,156743097,0,3,423859800,2231,14,0.75,42.690021,-84.4886234,267.72,0.025059929117560387,241.38955688476562,-0.05700000375509262,0.0,1
1665697442.00034690,156943080,0,3,423860000,2231,14,0.75,42.690021,-84.4886235,267.73,0.014764823019504547,241.69924926757812,-0.0430000014603138,0.0,1
1665697442.20040798,157143141,0,3,423860200,2231,14,0.75,42.6900209,-84.4886236,267.73,0.011704700998961926,109.98310089111328,-0.08700000494718552,0.0,1
1665697442.40036893,157343102,0,3,423860400,2231,14,0.75,42.6900209,-84.48862369999999,267.74,0.02376973070204258,157.7509765625,-0.03500000014901161,0.0,1
1665697442.60035801,157543091,0,3,423860600,2231,14,0.75,42.6900209,-84.4886238,267.75,0.02202271670103073,267.3974609375,-0.04700000211596489,0.0,1
1665697442.80028987,157743023,0,3,423860800,2231,14,0.75,42.6900209,-84.4886239,267.74,0.016401220113039017,52.43140411376953,0.03800000250339508,0.0,1
1665697443.00032306,157943056,0,3,423861000,2231,14,0.75,42.6900209,-84.4886239,267.73,0.04949747398495674,45.0,0.021000001579523087,0.0,1
1665697443.17971087,158122444,0,3,423861200,2231,14,0.75,42.690021,-84.488624,267.72,0.01345362514257431,41.98720932006836,0.03200000151991844,0.0,1
1665697443.40035105,158343084,0,3,423861400,2231,14,0.75,42.690021,-84.488624,267.72,0.01702938787639141,220.23635864257812,-0.012000000104308128,0.0,1
1665697443.60037398,158543107,0,3,423861600,2231,14,0.75,42.6900209,-84.48862419999999,267.71,0.04024922475218773,243.43496704101562,-0.01900000125169754,0.0,1
1665697443.80033803,158743071,0,3,423861800,2231,14,0.75,42.6900209,-84.4886243,267.7,0.012529964558780193,28.610454559326172,-0.024000000208616257,0.0,1
1665697444.00037193,158943105,0,3,423862000,2231,14,0.75,42.6900209,-84.4886243,267.71,0.03606937825679779,46.12329864501953,0.012000000104308128,0.0,1
1665697444.20031595,159143049,0,3,423862200,2231,14,0.75,42.690021,-84.48862439999999,267.7,0.0255538672208786,329.4207763671875,-0.0020000000949949026,0.0,1
1665697444.40038586,159343119,0,3,423862400,2231,14,0.75,42.690021,-84.4886245,267.69,0.018601076677441597,216.25384521484375,-0.005000000353902578,0.0,1
1665697444.60025191,159542985,0,3,423862600,2231,14,0.75,42.6900209,-84.4886246,267.69,0.01910497434437275,132.87889099121094,0.0020000000949949026,0.0,1
1665697444.80033803,159743071,0,3,423862800,2231,14,0.75,42.6900209,-84.4886247,267.68,0.0036055513191968203,56.309932708740234,0.03400000184774399,0.0,1
1665697445.00032997,159943063,0,3,423863000,2231,14,0.75,42.6900209,-84.4886247,267.68,0.017888544127345085,153.43495178222656,-0.021000001579523087,0.0,1
1665697445.20027900,160143012,0,3,423863200,2231,14,0.75,42.6900209,-84.4886248,267.67,0.02408318966627121,228.36647033691406,-0.012000000104308128,0.0,1
1665697445.40043783,160343171,0,3,423863400,2231,14,0.75,42.6900209,-84.48862489999999,267.67,0.016401220113039017,37.5685920715332,0.055000003427267075,0.0,1
1665697445.60031986,160543053,0,3,423863600,2231,14,0.75,42.6900209,-84.488625,267.66,0.008944272063672543,116.5650405883789,-0.06300000101327896,0.0,1
1665697445.80023384,160742967,0,3,423863800,2231,14,0.75,42.6900208,-84.4886251,267.66,0.01664331741631031,212.7352294921875,-0.01100000087171793,0.0,1
1665697446.01970387,160962437,0,3,423864000,2231,14,0.75,42.6900208,-84.4886251,267.66,0.017691805958747864,42.709388732910156,-0.046000003814697266,0.0,1
1665697446.20032287,161143056,0,3,423864200,2231,14,0.75,42.6900209,-84.4886252,267.65,0.015000000596046448,53.13010025024414,0.02200000174343586,0.0,1
1665697446.40025806,161342991,0,3,423864400,2231,14,0.75,42.6900208,-84.4886252,267.64,0.005000000353902578,233.13009643554688,0.07100000232458115,0.0,1
1665697446.60027385,161543007,0,3,423864600,2231,14,0.75,42.6900208,-84.4886253,267.64,0.022472206503152847,212.27565002441406,-0.04200000315904617,0.0,1
1665697446.80034900,161743082,0,3,423864800,2231,14,0.75,42.6900208,-84.48862539999999,267.65,0.019798990339040756,315.0,-0.03100000135600567,0.0,1
1665697447.00027394,161943007,0,3,423865000,2231,14,0.75,42.6900208,-84.4886255,267.64,0.011313709430396557,45.0,-0.01600000075995922,0.0,1
1665697447.20028687,162143020,0,3,423865200,2231,14,0.75,42.6900208,-84.48862559999999,267.65,0.016970563679933548,45.0,0.007000000216066837,0.0,1
1665697447.40029001,162343023,0,3,423865400,2231,14,0.75,42.6900208,-84.48862559999999,267.65,0.007810249924659729,129.80557250976562,0.03800000250339508,0.0,1
1665697447.60028791,162543021,0,3,423865600,2231,14,0.75,42.6900208,-84.4886257,267.63,0.029966648668050766,205.70997619628906,-0.09400000423192978,0.0,1
1665697447.80029893,162743032,0,3,423865800,2231,14,0.75,42.6900207,-84.4886258,267.64,0.020223749801516533,188.53077697753906,0.003000000026077032,0.0,1
1665697448.01963496,162962368,0,3,423866000,2231,14,0.75,42.6900207,-84.4886258,267.64,0.02983286790549755,76.42955780029297,0.030000001192092896,0.0,1
1665697448.20026088,163142994,0,3,423866200,2231,14,0.75,42.6900207,-84.4886258,267.64,0.022203605622053146,187.7651824951172,-0.02500000037252903,0.0,1
1665697448.40036607,163343099,0,3,423866400,2231,14,0.75,42.6900207,-84.4886259,267.66,0.0394081249833107,35.70669174194336,0.06700000166893005,0.0,1
1665697448.60025406,163542987,0,3,423866600,2231,14,0.75,42.6900207,-84.4886259,267.65,0.00984885822981596,246.0375213623047,-0.005000000353902578,0.0,1
1665697448.80027294,163743006,0,3,423866800,2231,14,0.75,42.6900206,-84.488626,267.66,0.02942787855863571,189.7824249267578,0.01100000087171793,0.0,1
1665697449.00025797,163942991,0,3,423867000,2231,14,0.75,42.6900206,-84.48862609999999,267.66,0.013892443850636482,59.743560791015625,-0.032999999821186066,0.0,1
1665697449.20032787,164143061,0,3,423867200,2231,14,0.75,42.6900206,-84.48862609999999,267.67,0.021095024421811104,328.5704345703125,0.046000003814697266,0.0,1
1665697449.40029883,164343032,0,3,423867400,2231,14,0.75,42.6900206,-84.4886262,267.66,0.014317821711301804,335.224853515625,-0.01600000075995922,0.0,1
1665697449.60049105,164543224,0,3,423867600,2231,14,0.75,42.6900206,-84.48862629999999,267.66,0.03036445379257202,17.241458892822266,0.02200000174343586,0.0,1
1665697449.80037403,164743107,0,3,423867800,2231,14,0.75,42.6900206,-84.48862629999999,267.67,0.019209373742341995,38.65980529785156,0.09000000357627869,0.0,1
1665697450.00028086,164943014,0,3,423868000,2231,14,0.75,42.6900206,-84.4886264,267.66,0.018027758225798607,273.1798400878906,0.005000000353902578,0.0,1
1665697450.20026803,165143001,0,3,423868200,2231,14,0.75,42.6900206,-84.4886265,267.66,0.017464250326156616,23.629375457763672,0.014000000432133675,0.0,1
1665697450.40028501,165343018,0,3,423868400,2231,14,0.75,42.6900206,-84.4886265,267.67,0.006403124425560236,321.3402099609375,-0.005000000353902578,0.0,1
1665697450.60026884,165543002,0,3,423868600,2231,14,0.75,42.6900206,-84.48862659999999,267.66,0.009219544939696789,310.6012878417969,-0.07300000637769699,0.0,1
1665697450.80024791,165742981,0,3,423868800,2231,14,0.75,42.6900206,-84.4886267,267.67,0.0255538672208786,210.57923889160156,0.012000000104308128,0.0,1
1665697451.00033092,165943064,0,3,423869000,2231,14,0.75,42.6900206,-84.4886267,267.66,0.01603122055530548,356.4236755371094,0.01100000087171793,0.0,1
1665697451.20031691,166143050,0,3,423869200,2231,14,0.75,42.6900206,-84.48862679999999,267.66,0.023537207394838333,77.73522186279297,0.032999999821186066,0.0,1
