timestamp,TimeUS,Lat,Lng,Alt,RelHomeAlt,RelOriginAlt
1665697324.46338892,39406122,42.690025299999995,-84.48863089999999,268.4499816894531,-0.2199016958475113,0.010098295286297798
1665697324.56296587,39505699,42.690025299999995,-84.48863089999999,268.4499816894531,-0.21702507138252258,0.012974927201867104
1665697324.66302490,39605758,42.690025399999996,-84.488631,268.4499816894531,-0.21345432102680206,0.016545673832297325
1665697324.76297784,39705711,42.690025399999996,-84.488631,268.4499816894531,-0.20870466530323029,0.021295329555869102
1665697324.86299896,39805732,42.690025399999996,-84.48863109999999,268.4499816894531,-0.2037753462791443,0.026224656030535698
1665697324.96299291,39905726,42.690025399999996,-84.48863109999999,268.4499816894531,-0.1987469643354416,0.031253036111593246
1665697325.06302595,40005759,42.690025399999996,-84.4886312,268.47998046875,-0.19411413371562958,0.03588585555553436
1665697325.16296697,40105700,42.690025399999996,-84.4886312,268.47998046875,-0.18958045542240143,0.04041954129934311
1665697325.26300097,40205734,42.6900255,-84.4886314,268.489990234375,-0.18576593697071075,0.04423406347632408
1665697325.36297488,40305708,42.6900255,-84.4886314,268.489990234375,-0.1831674724817276,0.046832527965307236
1665697325.46297789,40405711,42.6900255,-84.4886315,268.489990234375,-0.18127086758613586,0.048729121685028076
1665697325.56296802,40505701,42.6900255,-84.4886315,268.489990234375,-0.17850230634212494,0.0514976866543293
1665697325.66292095,40605654,42.6900255,-84.4886317,268.489990234375,-0.17550978064537048,0.054490212351083755
1665697325.76303101,40705764,42.6900255,-84.4886317,268.489990234375,-0.17339956760406494,0.056600421667099
1665697325.86302686,40805760,42.6900255,-84.4886318,268.489990234375,-0.1713215559720993,0.058678433299064636
1665697325.96313190,40905865,42.6900255,-84.4886318,268.489990234375,-0.16912201046943665,0.060877978801727295
1665697326.06298590,41005719,42.6900256,-84.4886319,268.489990234375,-0.16564492881298065,0.06435506790876389
1665697326.16309595,41105829,42.6900256,-84.4886319,268.489990234375,-0.16230927407741547,0.06769071519374847
1665697326.26293707,41205670,42.6900256,-84.4886319,268.489990234375,-0.15920059382915497,0.07079939544200897
1665697326.36299396,41305727,42.6900256,-84.4886319,268.489990234375,-0.1571674346923828,0.07283256202936172
1665697326.46306801,41405801,42.6900257,-84.488632,268.47998046875,-0.15589077770709991,0.07410921156406403
1665697326.56300187,41505735,42.6900257,-84.488632,268.47998046875,-0.15559467673301697,0.07440531253814697
1665697326.66295886,41605692,42.6900257,-84.48863209999999,268.4700012207031,-0.15505708754062653,0.07494290918111801
1665697326.76294899,41705682,42.6900257,-84.48863209999999,268.4700012207031,-0.1550588756799698,0.07494111359119415
1665697326.86297703,41805710,42.6900258,-84.4886322,268.4700012207031,-0.15469135344028473,0.07530863583087921
1665697326.96302485,41905758,42.6900258,-84.4886322,268.4700012207031,-0.1553438901901245,0.07465610653162003
1665697327.06308889,42005822,42.6900258,-84.4886322,268.4700012207031,-0.15613479912281036,0.07386519759893417
1665697327.16294289,42105676,42.6900258,-84.4886322,268.4700012207031,-0.15765254199504852,0.07234744727611542
1665697327.26297903,42205712,42.6900258,-84.48863229999999,268.4599914550781,-0.1590181589126587,0.07098183780908585
1665697327.36303902,42305772,42.6900258,-84.48863229999999,268.4599914550781,-0.16034339368343353,0.069656603038311
1665697327.46306586,42405799,42.6900258,-84.48863229999999,268.4499816894531,-0.16072523593902588,0.06927476078271866
1665697327.56297684,42505710,42.6900258,-84.48863229999999,268.4499816894531,-0.15983852744102478,0.07016146183013916
1665697327.66299891,42605732,42.6900258,-84.48863229999999,268.44000244140625,-0.15874406695365906,0.07125592231750488
1665697327.76299691,42705730,42.6900258,-84.48863229999999,268.44000244140625,-0.15914680063724518,0.07085319608449936
1665697327.86295795,42805691,42.690025899999995,-84.4886324,268.42999267578125,-0.16127383708953857,0.06872615963220596
1665697327.96314692,42905880,42.690025899999995,-84.4886324,268.42999267578125,-0.16371120512485504,0.0662887841463089
1665697328.06317592,43005909,42.690025899999995,-84.4886325,268.42999267578125,-0.16283617913722992,0.06716381013393402
1665697328.16298199,43105715,42.690025899999995,-84.4886325,268.42999267578125,-0.1621844321489334,0.06781555712223053
1665697328.26291585,43205649,42.690025899999995,-84.4886325,268.41998291015625,-0.16215617954730988,0.06784380972385406
1665697328.36297798,43305711,42.690025899999995,-84.4886325,268.41998291015625,-0.16232255101203918,0.06767743825912476
1665697328.46304488,43405778,42.690025899999995,-84.4886326,268.4100036621094,-0.1635143905878067,0.06648559868335724
1665697328.56296802,43505701,42.690025899999995,-84.4886326,268.4100036621094,-0.1668110340833664,0.06318895518779755
1665697328.66292191,43605655,42.690025899999995,-84.4886326,268.3999938964844,-0.16958820819854736,0.06041179224848747
1665697328.76303291,43705766,42.690025899999995,-84.4886326,268.3999938964844,-0.17278730869293213,0.05721268430352211
1665697328.86315393,43805887,42.690025899999995,-84.4886327,268.3899841308594,-0.17623917758464813,0.053760819137096405
1665697328.96308589,43905819,42.690025899999995,-84.4886327,268.3899841308594,-0.1806141883134842,0.049385812133550644
1665697329.06307888,44005812,42.690025899999995,-84.4886327,268.3899841308594,-0.18241775035858154,0.047582242637872696
1665697329.16305804,44105791,42.690025899999995,-84.4886327,268.3899841308594,-0.18189038336277008,0.04810960590839386
1665697329.26309085,44205824,42.6900258,-84.48863279999999,268.3800048828125,-0.18507151305675507,0.044928476214408875
1665697329.36309600,44305829,42.6900258,-84.48863279999999,268.3800048828125,-0.192313089966774,0.03768690302968025
1665697329.46310401,44405837,42.690025899999995,-84.48863279999999,268.3599853515625,-0.19539715349674225,0.03460284322500229
1665697329.56299591,44505729,42.690025899999995,-84.48863279999999,268.3599853515625,-0.20015010237693787,0.029849888756871223
1665697329.66302896,44605762,42.6900258,-84.48863279999999,268.3299865722656,-0.20398278534412384,0.0260172076523304
1665697329.76310301,44705836,42.6900258,-84.48863279999999,268.3299865722656,-0.20774143934249878,0.02225855179131031
1665697329.86309195,44805825,42.6900258,-84.4886329,268.30999755859375,-0.21225140988826752,0.017748581245541573
1665697329.96312499,44905858,42.6900258,-84.4886329,268.30999755859375,-0.21791228652000427,0.012087702751159668
1665697330.06304884,45005782,42.6900257,-84.488633,268.2799987792969,-0.22396135330200195,0.00603864761069417
1665697330.16311884,45105852,42.6900257,-84.488633,268.2799987792969,-0.22600260376930237,0.003997392952442169
1665697330.26296186,45205695,42.6900257,-84.488633,268.25,-0.22438833117485046,0.005611664615571499
1665697330.36303806,45305771,42.6900257,-84.488633,268.25,-0.2262789011001587,0.0037210993468761444
1665697330.46309805,45405831,42.6900257,-84.488633,268.22998046875,-0.22857674956321716,0.0014232504181563854
1665697330.56305385,45505787,42.6900257,-84.488633,268.22998046875,-0.23218439519405365,-0.0021843973081558943
1665697330.66310692,45605840,42.6900257,-84.488633,268.2200012207031,-0.23763173818588257,-0.007631740998476744
1665697330.76307297,45705806,42.6900257,-84.488633,268.2200012207031,-0.2424842119216919,-0.01248421985656023
1665697330.86311197,45805845,42.6900257,-84.4886331,268.19000244140625,-0.24863357841968536,-0.018633587285876274
1665697330.96309996,45905833,42.6900257,-84.4886331,268.19000244140625,-0.2547105848789215,-0.024710603058338165
1665697331.06310797,46005841,42.6900257,-84.488633,268.16998291015625,-0.2616574168205261,-0.031657423824071884
1665697331.16303205,46105765,42.6900257,-84.488633,268.16998291015625,-0.2658712565898895,-0.03587125986814499
1665697331.26300287,46205736,42.6900257,-84.4886331,268.1600036621094,-0.26640599966049194,-0.036406010389328
1665697331.36311102,46305844,42.6900257,-84.4886331,268.1600036621094,-0.2635975182056427,-0.03359753265976906
1665697331.46310592,46405839,42.6900256,-84.4886331,268.1399841308594,-0.262253075838089,-0.03225308284163475
1665697331.56316900,46505902,42.6900256,-84.4886331,268.1399841308594,-0.2635370194911957,-0.033537015318870544
1665697331.66302705,46605760,42.6900256,-84.4886332,268.1199951171875,-0.2685645520687103,-0.03856455162167549
1665697331.76296592,46705699,42.6900256,-84.4886332,268.1199951171875,-0.2696663439273834,-0.03966635838150978
1665697331.86303306,46805766,42.6900256,-84.4886332,268.0899963378906,-0.2709110379219055,-0.04091104120016098
1665697331.96305704,46905790,42.6900256,-84.4886332,268.0899963378906,-0.2738923132419586,-0.04389231652021408
1665697332.06306291,47005796,42.6900255,-84.4886332,268.07000732421875,-0.2754819691181183,-0.04548198729753494
1665697332.16301298,47105746,42.6900255,-84.4886332,268.07000732421875,-0.2752443850040436,-0.045244380831718445
1665697332.26318502,47205918,42.6900255,-84.48863329999999,268.0400085449219,-0.2729880213737488,-0.042988020926713943
1665697332.36311793,47305851,42.6900255,-84.48863329999999,268.0400085449219,-0.26995083689689636,-0.039950836449861526
1665697332.46314001,47405873,42.690025399999996,-84.48863329999999,268.0199890136719,-0.2697466015815735,-0.03974660485982895
1665697332.56307101,47505804,42.690025399999996,-84.48863329999999,268.0199890136719,-0.27240079641342163,-0.042400795966386795
1665697332.66299987,47605733,42.690025399999996,-84.48863329999999,268.0099792480469,-0.2741025984287262,-0.044102612882852554
1665697332.76308298,47705816,42.690025399999996,-84.48863329999999,268.0099792480469,-0.2744706869125366,-0.04447070509195328
1665697332.86303592,47805769,42.690025399999996,-84.48863329999999,267.97998046875,-0.27411186695098877,-0.04411187022924423
1665697332.96300697,47905740,42.690025399999996,-84.48863329999999,267.97998046875,-0.2732345461845398,-0.04323454946279526
1665697333.06302595,48005759,42.690025399999996,-84.48863329999999,267.9599914550781,-0.2772103548049927,-0.04721035063266754
1665697333.16302991,48105763,42.690025399999996,-84.48863329999999,267.9599914550781,-0.2812313139438629,-0.05123130604624748
1665697333.26297283,48205706,42.690025399999996,-84.48863329999999,267.94000244140625,0.20422053337097168,-0.055779457092285156
1665697333.36300993,48305743,42.690025399999996,-84.48863329999999,267.94000244140625,0.19986310601234436,-0.060136884450912476
1665697333.46299291,48405726,42.690025299999995,-84.48863329999999,267.9100036621094,0.19607560336589813,-0.0639243945479393
1665697333.56302285,48505756,42.690025299999995,-84.48863329999999,267.9100036621094,0.19228774309158325,-0.06771224737167358
1665697333.66301203,48605745,42.690025299999995,-84.4886334,267.8899841308594,0.1891292780637741,-0.07087071985006332
1665697333.76299906,48705732,42.690025299999995,-84.4886334,267.8899841308594,0.18551108241081238,-0.07448890805244446
1665697333.86304402,48805777,42.690025299999995,-84.4886334,267.8699951171875,0.1815822422504425,-0.07841775566339493
1665697333.96301794,48905751,42.690025299999995,-84.4886334,267.8699951171875,0.17839108407497406,-0.08160891383886337
1665697334.06298304,49005716,42.6900252,-84.4886334,267.8399963378906,0.17522267997264862,-0.08477731049060822
1665697334.16306305,49105796,42.6900252,-84.4886334,267.8399963378906,0.17239248752593994,-0.08760751038789749
1665697334.26312184,49205855,42.6900255,-84.488632,268.1199951171875,0.16946525871753693,-0.09053473174571991
1665697334.36317301,49305906,42.6900255,-84.488632,268.1199951171875,0.16552701592445374,-0.0944729745388031
1665697334.46298003,49405713,42.6900255,-84.488632,268.1199951171875,0.16280817985534668,-0.09719181805849075
1665697334.56298590,49505719,42.6900255,-84.488632,268.1199951171875,0.1604793518781662,-0.09952063858509064
1665697334.66297483,49605708,42.6900255,-84.488632,268.1099853515625,0.15775680541992188,-0.10224318504333496
1665697334.76297903,49705712,42.6900255,-84.488632,268.1099853515625,0.15460056066513062,-0.10539942979812622
1665697334.86305404,49805787,42.6900255,-84.488632,268.1099853515625,0.15170703828334808,-0.10829295963048935
1665697334.96295595,49905689,42.6900255,-84.488632,268.1000061035156,0.14807341992855072,-0.11192657798528671
1665697335.06293297,50005666,42.6900255,-84.488632,268.1000061035156,0.14535678923130035,-0.11464320868253708
1665697335.16308784,50105821,42.690025399999996,-84.488632,268.1000061035156,0.14282387495040894,-0.1171761155128479
1665697335.26303101,50205764,42.690025399999996,-84.488632,268.1000061035156,0.14044761657714844,-0.1195523738861084
1665697335.36303306,50305766,42.690025399999996,-84.488632,268.0899963378906,0.13809634745121002,-0.12190365046262741
1665697335.46301985,50405753,42.690025399999996,-84.488632,268.0899963378906,0.13738512992858887,-0.12261486798524857
1665697335.56305790,50505791,42.6900255,-84.48863209999999,268.0899963378906,0.13739529252052307,-0.12260470539331436
1665697335.66295600,50605689,42.6900255,-84.48863209999999,268.0899963378906,0.13559091091156006,-0.12440908700227737
1665697335.76308393,50705817,42.6900255,-84.48863209999999,268.0899963378906,0.1329794079065323,-0.12702058255672455
1665697335.86308193,50805815,42.690025399999996,-84.4886322,268.0899963378906,0.13328814506530762,-0.12671184539794922
1665697335.96304393,50905777,42.690025399999996,-84.4886322,268.0899963378906,0.13422197103500366,-0.12577801942825317
1665697336.06313086,51005864,42.690025399999996,-84.4886322,268.0899963378906,0.13397200405597687,-0.12602798640727997
1665697336.16302800,51105761,42.690025399999996,-84.4886322,268.0899963378906,0.13166207075119019,-0.12833791971206665
1665697336.26303196,51205765,42.690025399999996,-84.4886322,268.0899963378906,0.13432154059410095,-0.12567844986915588
1665697336.36303091,51305764,42.690025399999996,-84.4886322,268.0899963378906,0.1374690979719162,-0.12253089249134064
1665697336.46314788,51405881,42.690025399999996,-84.4886322,268.1000061035156,0.1401422619819641,-0.11985773593187332
1665697336.56296897,51505702,42.690025399999996,-84.4886322,268.1000061035156,0.14222760498523712,-0.11777238547801971
1665697336.66303706,51605770,42.690025399999996,-84.48863229999999,268.1000061035156,0.1431732028722763,-0.11682678759098053
1665697336.76304889,51705782,42.690025399999996,-84.48863229999999,268.1000061035156,0.1404421180486679,-0.11955787986516953
1665697336.86307693,51805810,42.690025299999995,-84.48863229999999,268.0899963378906,0.1341242641210556,-0.12587572634220123
1665697336.96312189,51905855,42.690025299999995,-84.48863229999999,268.0799865722656,0.12720485031604767,-0.13279514014720917
1665697337.06304789,52005781,42.690025299999995,-84.48863229999999,268.07000732421875,0.11985699832439423,-0.1401429921388626
1665697337.16310287,52105836,42.6900252,-84.48863229999999,268.07000732421875,0.11250521242618561,-0.14749477803707123
1665697337.26296997,52205703,42.6900252,-84.48863229999999,268.05999755859375,0.1078292727470398,-0.15217071771621704
1665697337.36302090,52305754,42.6900252,-84.4886324,268.05999755859375,0.1039847731590271,-0.15601521730422974
1665697337.46304584,52405779,42.6900251,-84.4886324,268.05999755859375,0.10261784493923187,-0.15738214552402496
1665697337.56299686,52505730,42.6900251,-84.4886324,268.05999755859375,0.10330450534820557,-0.15669548511505127
1665697337.66299391,52605727,42.6900251,-84.4886324,268.05999755859375,0.10074326395988464,-0.1592567265033722
1665697337.76310706,52705840,42.690025,-84.4886324,268.04998779296875,0.09939959645271301,-0.16060039401054382
1665697337.86317706,52805910,42.690025,-84.4886324,268.04998779296875,0.09853215515613556,-0.16146783530712128
1665697337.96305299,52905786,42.690025,-84.4886324,268.04998779296875,0.09928357601165771,-0.16071641445159912
1665697338.06301594,53005749,42.6900249,-84.4886324,268.05999755859375,0.1021764874458313,-0.15782350301742554
1665697338.16303992,53105773,42.6900249,-84.4886324,268.05999755859375,0.10381455719470978,-0.15618543326854706
1665697338.26305294,53205786,42.6900249,-84.4886325,268.05999755859375,0.1060527116060257,-0.15394727885723114
1665697338.36306190,53305795,42.6900249,-84.4886325,268.05999755859375,0.10735160112380981,-0.15264838933944702
1665697338.46307707,53405810,42.690024799999996,-84.4886325,268.05999755859375,0.10646151006221771,-0.15353848040103912
1665697338.56314492,53505878,42.690024799999996,-84.4886325,268.05999755859375,0.1040986031293869,-0.15590138733386993
1665697338.66308784,53605821,42.690024799999996,-84.4886325,268.05999755859375,0.10152468085289001,-0.15847530961036682
1665697338.76315904,53705892,42.690024799999996,-84.4886325,268.04998779296875,0.09630227088928223,-0.1636977195739746
1665697338.86311388,53805847,42.690024799999996,-84.4886325,268.04998779296875,0.09142303466796875,-0.16857695579528809
1665697338.96314001,53905873,42.690024799999996,-84.4886325,268.0400085449219,0.08856123685836792,-0.17143875360488892
1665697339.06303096,54005764,42.690024799999996,-84.4886325,268.0400085449219,0.08896975219249725,-0.17103023827075958
1665697339.16298199,54105715,42.690024799999996,-84.4886325,268.04998779296875,0.08999735116958618,-0.17000263929367065
1665697339.26303005,54205763,42.690024799999996,-84.4886325,268.04998779296875,0.09104311466217041,-0.16895687580108643
1665697339.36304188,54305775,42.690024699999995,-84.4886325,268.0400085449219,0.08979463577270508,-0.17020535469055176
1665697339.46305704,54405790,42.690024699999995,-84.4886325,268.04998779296875,0.090364009141922,-0.16963598132133484
1665697339.56301403,54505747,42.6900246,-84.4886325,268.04998779296875,0.09274615347385406,-0.16725383698940277
1665697339.66304207,54605775,42.6900246,-84.4886325,268.04998779296875,0.09308676421642303,-0.1669132262468338
1665697339.76305199,54705785,42.6900246,-84.4886325,268.04998779296875,0.09441830217838287,-0.16558168828487396
1665697339.86306691,54805800,42.6900245,-84.4886325,268.04998779296875,0.09495066106319427,-0.16504932940006256
1665697339.96308303,54905816,42.6900245,-84.4886325,268.04998779296875,0.09292617440223694,-0.1670738160610199
1665697340.06307602,55005809,42.6900245,-84.4886325,268.04998779296875,0.09018640220165253,-0.1698135882616043
1665697340.16307807,55105811,42.6900245,-84.4886325,268.0400085449219,0.0876416265964508,-0.17235836386680603
1665697340.26373601,55206469,42.6900245,-84.4886325,268.0400085449219,0.006323967128992081,-0.1736760288476944
1665697340.36294293,55305676,42.6900245,-84.4886326,268.0400085449219,0.004976648837327957,-0.17502334713935852
1665697340.46306801,55405801,42.6900244,-84.4886326,268.0400085449219,0.0028393156826496124,-0.17716068029403687
1665697340.56307197,55505805,42.6900244,-84.4886326,268.0400085449219,0.00022603943943977356,-0.1797739565372467
1665697340.66317701,55605910,42.6900244,-84.4886326,268.0299987792969,-0.0018473230302333832,-0.18184731900691986
1665697340.76295590,55705689,42.6900244,-84.4886326,268.0299987792969,-0.003638487309217453,-0.18363848328590393
1665697340.86300397,55805737,42.6900243,-84.4886326,268.0299987792969,-0.006029408425092697,-0.18602940440177917
1665697340.96301889,55905752,42.6900243,-84.4886326,268.0299987792969,-0.008645843714475632,-0.1886458396911621
1665697341.06297588,56005709,42.6900243,-84.4886326,268.0199890136719,-0.010447259992361069,-0.19044725596904755
1665697341.16291189,56105645,42.690024199999996,-84.4886326,268.0199890136719,-0.011741336435079575,-0.19174133241176605
1665697341.26297998,56205713,42.690024199999996,-84.4886326,268.0199890136719,-0.012088309973478317,-0.1920883059501648
1665697341.36294985,56305683,42.690024199999996,-84.4886326,268.0199890136719,-0.012934084981679916,-0.1929340809583664
1665697341.46309090,56405824,42.690024099999995,-84.4886326,268.0199890136719,-0.013884302228689194,-0.19388429820537567
1665697341.56302691,56505760,42.690024099999995,-84.4886326,268.0199890136719,-0.015563961118459702,-0.19556395709514618
1665697341.66291595,56605649,42.690024099999995,-84.4886326,268.0199890136719,-0.01930704340338707,-0.19930703938007355
1665697341.76303506,56705768,42.690024099999995,-84.4886326,268.0099792480469,-0.023363661020994186,-0.20336365699768066
1665697341.86301303,56805746,42.690024,-84.4886327,268.0099792480469,-0.026889290660619736,-0.2068892866373062
1665697341.96310091,56905834,42.690024,-84.4886327,268.0,-0.030390601605176926,-0.2103905975818634
1665697342.06289792,57005631,42.6900239,-84.4886327,268.0,-0.03232329711318016,-0.21232329308986664
1665697342.16295195,57105685,42.6900238,-84.4886327,268.0,-0.033821430057287216,-0.2138214260339737
1665697342.26296592,57205699,42.6900238,-84.4886327,268.0,-0.03436284884810448,-0.21436284482479095
1665697342.36309791,57305831,42.6900238,-84.4886327,268.0,-0.03396650776267052,-0.213966503739357
1665697342.46302605,57405759,42.6900237,-84.4886327,268.0,-0.033201199024915695,-0.21320119500160217
1665697342.56298399,57505717,42.6900237,-84.4886327,268.0,-0.03235599026083946,-0.21235598623752594
1665697342.66295385,57605687,42.6900237,-84.4886327,268.0,-0.03395925089716911,-0.2139592468738556
1665697342.76313806,57705871,42.6900237,-84.4886327,268.0,-0.0363863967359066,-0.21638639271259308
1665697342.86300206,57805735,42.690023599999996,-84.48863279999999,268.0,-0.03716723248362541,-0.2171672284603119
1665697342.96302295,57905756,42.690023599999996,-84.48863279999999,268.0,-0.03759099170565605,-0.21759098768234253
1665697343.06303406,58005767,42.690023599999996,-84.48863279999999,268.0,-0.03541327640414238,-0.21541327238082886
1665697343.16298199,58105715,42.690023599999996,-84.48863279999999,268.0,-0.032042425125837326,-0.2120424211025238
1665697343.26308298,58205816,42.690023499999995,-84.4886329,268.0099792480469,-0.028653737157583237,-0.20865373313426971
1665697343.36304498,58305778,42.690023499999995,-84.4886329,268.0099792480469,-0.02574927732348442,-0.2057492733001709
1665697343.46306205,58405795,42.690023499999995,-84.4886329,268.0099792480469,-0.023735743016004562,-0.20373573899269104
1665697343.56300306,58505736,42.6900234,-84.4886329,268.0099792480469,-0.023187752813100815,-0.2031877487897873
1665697343.66301203,58605745,42.6900234,-84.4886329,268.0099792480469,-0.02414807304739952,-0.204148069024086
1665697343.76304603,58705779,42.6900234,-84.488633,268.0099792480469,-0.025098692625761032,-0.2050986886024475
1665697343.86299205,58805725,42.6900234,-84.488633,268.0099792480469,-0.02767796441912651,-0.207677960395813
1665697343.96310401,58905837,42.6900233,-84.488633,268.0,-0.03052252158522606,-0.21052251756191254
1665697344.06299186,59005725,42.6900233,-84.488633,268.0,-0.03264641389250755,-0.21264640986919403
1665697344.16304207,59105775,42.6900233,-84.4886331,268.0,-0.03487863764166832,-0.2148786336183548
1665697344.26298690,59205720,42.6900233,-84.4886331,268.0,-0.03879809007048607,-0.21879808604717255
1665697344.36291099,59305644,42.6900233,-84.4886331,267.989990234375,-0.04177860543131828,-0.22177860140800476
1665697344.46306086,59405794,42.6900232,-84.4886331,267.989990234375,-0.043962132185697556,-0.22396212816238403
1665697344.56305599,59505789,42.6900232,-84.4886332,267.989990234375,-0.04611657187342644,-0.22611656785011292
1665697344.66302204,59605755,42.6900232,-84.4886332,267.989990234375,-0.04816920682787895,-0.22816920280456543
1665697344.76297498,59705708,42.6900231,-84.4886332,267.97998046875,-0.05013464018702507,-0.23013463616371155
1665697344.86321497,59805948,42.6900231,-84.4886332,267.97998046875,-0.05326872691512108,-0.23326872289180756
1665697344.96307087,59905804,42.690023,-84.4886332,267.97998046875,-0.05657654628157616,-0.23657654225826263
1665697345.06311893,60005852,42.690023,-84.4886332,267.97998046875,-0.058278944343328476,-0.23827894032001495
1665697345.16289306,60105626,42.690023,-84.4886332,267.97998046875,-0.05965195223689079,-0.23965194821357727
1665697345.26313496,60205868,42.690022899999995,-84.4886332,267.97998046875,-0.058151643723249435,-0.2381516396999359
1665697345.36299300,60305726,42.690022899999995,-84.4886332,267.97998046875,-0.057550158351659775,-0.23755015432834625
1665697345.46306491,60405798,42.690022899999995,-84.4886332,267.97998046875,-0.05874290689826012,-0.2387429028749466
1665697345.56303000,60505763,42.6900228,-84.4886331,267.97998046875,-0.05976400896906853,-0.239764004945755
1665697345.66298103,60605714,42.6900228,-84.4886331,267.9700012207031,-0.06064055487513542,-0.2406405508518219
1665697345.76302600,60705759,42.6900228,-84.4886332,267.9700012207031,-0.061352234333753586,-0.24135223031044006
1665697345.86307192,60805805,42.6900228,-84.4886331,267.97998046875,-0.06000761315226555,-0.24000760912895203
1665697345.96305394,60905787,42.6900228,-84.4886331,267.97998046875,-0.059142615646123886,-0.23914261162281036
1665697346.06296206,61005695,42.6900227,-84.4886331,267.9700012207031,-0.06033192202448845,-0.24033191800117493
1665697346.16304588,61105779,42.6900227,-84.4886331,267.9700012207031,-0.062419261783361435,-0.2424192577600479
1665697346.26300883,61205742,42.6900227,-84.4886331,267.9700012207031,-0.06476816534996033,-0.2447681576013565
1665697346.36299491,61305728,42.6900227,-84.4886331,267.9700012207031,-0.06743212044239044,-0.24743211269378662
1665697346.46308589,61405819,42.6900227,-84.4886331,267.9700012207031,-0.06924563646316528,-0.24924562871456146
1665697346.56306100,61505794,42.6900226,-84.4886331,267.9599914550781,-0.07074977457523346,-0.25074976682662964
1665697346.66299105,61605724,42.6900226,-84.4886331,267.9700012207031,-0.06990911066532135,-0.24990910291671753
1665697346.76298094,61705714,42.6900226,-84.4886331,267.9700012207031,-0.06802725791931152,-0.2480272501707077
1665697346.86316085,61805894,42.6900226,-84.4886331,267.9700012207031,-0.06406548619270325,-0.24406547844409943
1665697346.96318984,61905923,42.6900225,-84.4886331,267.97998046875,-0.05992322787642479,-0.23992322385311127
1665697347.06297302,62005706,42.6900225,-84.4886331,267.97998046875,-0.05586368963122368,-0.23586368560791016
1665697347.16300988,62105743,42.6900225,-84.4886331,267.97998046875,-0.05207948014140129,-0.23207947611808777
1665697347.26298189,62205715,42.6900225,-84.4886331,267.989990234375,-0.04816487058997154,-0.22816486656665802
1665697347.36292791,62305661,42.6900225,-84.4886331,267.989990234375,-0.04477029666304588,-0.22477029263973236
1665697347.46300793,62405741,42.6900225,-84.4886331,267.989990234375,-0.043131064623594284,-0.22313106060028076
1665697347.56295490,62505688,42.6900224,-84.488633,267.989990234375,-0.04287261888384819,-0.22287261486053467
1665697347.66301990,62605753,42.6900224,-84.488633,267.989990234375,-0.042313288897275925,-0.2223132848739624
1665697347.76306295,62705796,42.6900224,-84.488633,267.989990234375,-0.04165556654334068,-0.22165556252002716
1665697347.86300707,62805740,42.6900224,-84.488633,267.989990234375,-0.04092004522681236,-0.22092004120349884
1665697347.96302605,62905759,42.6900224,-84.488633,268.0,-0.03993643447756767,-0.21993643045425415
1665697348.06295800,63005691,42.6900225,-84.488633,267.989990234375,-0.043029364198446274,-0.22302936017513275
1665697348.16298294,63105716,42.6900225,-84.488633,267.989990234375,-0.045671891421079636,-0.2256718873977661
1665697348.26298594,63205719,42.6900225,-84.488633,267.989990234375,-0.04635527357459068,-0.22635526955127716
1665697348.36303306,63305766,42.6900225,-84.4886329,267.989990234375,-0.04543368145823479,-0.22543367743492126
1665697348.46301603,63405749,42.6900225,-84.4886329,267.989990234375,-0.043510790914297104,-0.22351078689098358
1665697348.56294298,63505676,42.6900224,-84.4886329,267.989990234375,-0.04255349561572075,-0.22255349159240723
1665697348.66303992,63605773,42.6900224,-84.4886329,267.989990234375,-0.0411745123565197,-0.22117450833320618
1665697348.76302505,63705758,42.6900224,-84.4886329,268.0,-0.03943343088030815,-0.21943342685699463
1665697348.86301899,63805752,42.6900224,-84.48863279999999,268.0,-0.03795928880572319,-0.21795928478240967
1665697348.96293402,63905667,42.6900224,-84.48863279999999,268.0,-0.037173982709646225,-0.2171739786863327
1665697349.06308103,64005814,42.6900224,-84.48863279999999,268.0,-0.038311537355184555,-0.21831153333187103
1665697349.16301894,64105752,42.6900224,-84.48863279999999,268.0,-0.0395682267844677,-0.21956822276115417
1665697349.26298499,64205718,42.6900224,-84.48863279999999,267.989990234375,-0.041889142245054245,-0.22188913822174072
1665697349.36301589,64305749,42.6900224,-84.4886327,267.989990234375,-0.045577969402074814,-0.2255779653787613
1665697349.46305084,64405784,42.6900224,-84.4886327,267.989990234375,-0.049417998641729355,-0.22941799461841583
1665697349.56306696,64505800,42.6900224,-84.4886327,267.97998046875,-0.054201435297727585,-0.23420143127441406
1665697349.66305590,64605789,42.6900224,-84.4886327,267.97998046875,-0.05724553391337395,-0.23724552989006042
1665697349.76297092,64705704,42.6900224,-84.4886326,267.97998046875,-0.05867655202746391,-0.2386765480041504
1665697349.86299491,64805728,42.690022299999995,-84.4886326,267.9700012207031,-0.06092492863535881,-0.2409249246120453
1665697349.96302485,64905758,42.690022299999995,-84.4886326,267.9700012207031,-0.06210317835211754,-0.24210317432880402
1665697350.06297207,65005705,42.690022299999995,-84.4886326,267.9700012207031,-0.06104173883795738,-0.24104173481464386
1665697350.16298294,65105716,42.690022299999995,-84.4886326,267.97998046875,-0.05933920666575432,-0.2393392026424408
1665697350.26296687,65205700,42.690022299999995,-84.4886325,267.9700012207031,-0.060014691203832626,-0.2400146871805191
1665697350.36303687,65305770,42.690022299999995,-84.4886325,267.9700012207031,-0.060890670865774155,-0.24089066684246063
1665697350.46317506,65405908,42.690022299999995,-84.4886325,267.9700012207031,-0.06217474862933159,-0.24217474460601807
1665697350.56301498,65505748,42.690022299999995,-84.4886325,267.9700012207031,-0.06613054871559143,-0.2461305409669876
1665697350.66301394,65605747,42.690022299999995,-84.4886324,267.9700012207031,-0.06939126551151276,-0.24939125776290894
1665697350.76307392,65705807,42.690022299999995,-84.4886324,267.9700012207031,-0.0661095678806305,-0.24610956013202667
1665697350.86306500,65805798,42.6900222,-84.4886324,267.9700012207031,-0.06162884458899498,-0.24162884056568146
1665697350.96306992,65905803,42.6900222,-84.4886324,267.97998046875,-0.05817281827330589,-0.23817281424999237
1665697351.06307793,66005811,42.6900222,-84.48863229999999,267.97998046875,-0.054690759629011154,-0.23469075560569763
1665697351.16317892,66105912,42.6900222,-84.48863229999999,267.97998046875,-0.05191491171717644,-0.23191490769386292
1665697351.26307988,66205813,42.6900222,-84.48863229999999,267.989990234375,-0.04893044754862785,-0.22893044352531433
1665697351.36315703,66305890,42.6900222,-84.4886322,267.989990234375,-0.04472106322646141,-0.2247210592031479
1665697351.46305490,66405788,42.6900221,-84.4886322,267.989990234375,-0.04042373225092888,-0.22042372822761536
1665697351.56302190,66505755,42.6900221,-84.4886322,268.0,-0.03696487471461296,-0.21696487069129944
1665697351.66308784,66605821,42.6900221,-84.48863209999999,268.0,-0.035948511213064194,-0.21594850718975067
1665697351.76302505,66705758,42.6900221,-84.48863209999999,268.0,-0.036952417343854904,-0.21695241332054138
1665697351.86305499,66805788,42.6900221,-84.488632,268.0,-0.037653204053640366,-0.21765320003032684
1665697351.96305299,66905786,42.6900221,-84.488632,268.0,-0.037173207849264145,-0.21717320382595062
1665697352.06301999,67005753,42.6900221,-84.4886319,268.0,-0.03557844087481499,-0.21557843685150146
1665697352.16301703,67105750,42.6900221,-84.4886319,268.0,-0.03320176526904106,-0.21320176124572754
1665697352.26310587,67205839,42.6900221,-84.4886318,268.0,-0.03148747608065605,-0.21148747205734253
1665697352.36307502,67305808,42.690022,-84.4886318,268.0,-0.030156653374433517,-0.21015664935112
1665697352.46307802,67405811,42.690022,-84.4886318,268.0099792480469,-0.029613103717565536,-0.20961309969425201
1665697352.56307006,67505803,42.690022,-84.4886317,268.0099792480469,-0.028421413153409958,-0.20842140913009644
1665697352.66311598,67605849,42.690022,-84.4886317,268.0099792480469,-0.025254618376493454,-0.20525461435317993
1665697352.76307893,67705812,42.690022,-84.4886317,268.0099792480469,-0.022152569144964218,-0.2021525651216507
1665697352.86301684,67805750,42.690022,-84.48863159999999,268.0199890136719,-0.019216220825910568,-0.19921621680259705
1665697352.96312404,67905857,42.690022,-84.48863159999999,268.0199890136719,-0.018277224153280258,-0.19827722012996674
1665697353.06307197,68005805,42.690022,-84.48863159999999,268.0199890136719,-0.017910312861204147,-0.19791030883789062
1665697353.16316199,68105895,42.690022,-84.4886315,268.0199890136719,-0.0174807570874691,-0.19748075306415558
1665697353.26325297,68205986,42.6900219,-84.4886315,268.0199890136719,-0.018019434064626694,-0.19801943004131317
1665697353.36300206,68305735,42.6900219,-84.4886315,268.0199890136719,-0.019615795463323593,-0.19961579144001007
1665697353.46303988,68405773,42.6900219,-84.4886314,268.0099792480469,-0.021507617086172104,-0.20150761306285858
1665697353.56305099,68505784,42.6900219,-84.4886314,268.0099792480469,-0.023874755948781967,-0.20387475192546844
1665697353.66297603,68605709,42.6900219,-84.4886314,268.0099792480469,-0.025110449641942978,-0.20511044561862946
1665697353.76298785,68705721,42.6900219,-84.4886313,268.0099792480469,-0.023819129914045334,-0.2038191258907318
1665697353.86307693,68805810,42.6900218,-84.4886313,268.0099792480469,-0.02217980846762657,-0.20217980444431305
1665697353.96308804,68905821,42.6900218,-84.4886312,268.0099792480469,-0.021845173090696335,-0.2018451690673828
1665697354.06310105,69005834,42.6900218,-84.4886312,268.0099792480469,-0.023078199476003647,-0.20307819545269012
1665697354.16305685,69105790,42.6900218,-84.4886312,268.0099792480469,-0.025110986083745956,-0.20511098206043243
1665697354.26309490,69205828,42.6900218,-84.48863109999999,268.0099792480469,-0.026036258786916733,-0.2060362547636032
1665697354.36310101,69305834,42.6900218,-84.48863109999999,268.0099792480469,-0.025335144251585007,-0.20533514022827148
1665697354.46311188,69405845,42.690021699999996,-84.488631,268.0099792480469,-0.023691322654485703,-0.20369131863117218
1665697354.56312895,69505862,42.690021699999996,-84.488631,268.0099792480469,-0.02119065448641777,-0.20119065046310425
1665697354.66302896,69605762,42.690021699999996,-84.488631,268.0199890136719,-0.01894574984908104,-0.19894574582576752
1665697354.76300502,69705738,42.6900216,-84.48863089999999,268.0199890136719,-0.017796751111745834,-0.1977967470884323
1665697354.86301088,69805744,42.6900216,-84.48863089999999,268.0199890136719,-0.019483696669340134,-0.1994836926460266
1665697354.96323991,69905973,42.6900216,-84.4886308,268.0099792480469,-0.021363552659749985,-0.20136354863643646
1665697355.06305003,70005783,42.6900216,-84.4886308,268.0099792480469,-0.020584505051374435,-0.2005845010280609
1665697355.16301394,70105747,42.6900216,-84.4886308,268.0199890136719,-0.01932695135474205,-0.19932694733142853
1665697355.26296306,70205696,42.6900215,-84.4886307,268.0199890136719,-0.019659336656332016,-0.1996593326330185
1665697355.36314297,70305876,42.6900215,-84.4886307,268.0099792480469,-0.021069716662168503,-0.20106971263885498
1665697355.46307492,70405808,42.6900215,-84.4886307,268.0099792480469,-0.023130442947149277,-0.20313043892383575
1665697355.56308794,70505821,42.6900215,-84.4886306,268.0099792480469,-0.026249226182699203,-0.20624922215938568
1665697355.66307187,70605805,42.6900215,-84.4886306,268.0,-0.03182807192206383,-0.2118280678987503
1665697355.76303101,70705764,42.6900214,-84.4886306,268.0,-0.039845239371061325,-0.2198452353477478
1665697355.86313891,70805872,42.6900214,-84.4886305,267.989990234375,-0.04717711731791496,-0.22717711329460144
1665697355.96308494,70905818,42.6900214,-84.4886305,267.97998046875,-0.05115821585059166,-0.23115821182727814
1665697356.06308889,71005822,42.6900214,-84.4886305,267.97998046875,-0.05391765758395195,-0.23391765356063843
1665697356.16312003,71105853,42.6900214,-84.48863039999999,267.97998046875,-0.05749594792723656,-0.23749594390392303
1665697356.26302099,71205754,42.6900214,-84.48863039999999,267.9700012207031,-0.06068791076540947,-0.24068790674209595
1665697356.36304283,71305776,42.6900213,-84.48863039999999,267.9700012207031,-0.062039028853178024,-0.2420390248298645
1665697356.46310592,71405839,42.6900213,-84.4886303,267.9700012207031,-0.062210824340581894,-0.24221082031726837
1665697356.56304693,71505780,42.6900213,-84.4886303,267.9700012207031,-0.06261742115020752,-0.2426174134016037
1665697356.66303301,71605766,42.6900213,-84.4886303,267.9700012207031,-0.06246819719672203,-0.2424681931734085
1665697356.76305294,71705786,42.6900213,-84.4886302,267.9700012207031,-0.061677973717451096,-0.24167796969413757
1665697356.86302304,71805756,42.6900212,-84.4886301,267.9700012207031,-0.06086302921175957,-0.24086302518844604
1665697356.96306896,71905802,42.6900212,-84.4886301,267.9700012207031,-0.060242485255002975,-0.24024248123168945
1665697357.06304789,72005781,42.6900212,-84.4886301,267.97998046875,-0.0593688003718853,-0.23936879634857178
1665697357.16302085,72105754,42.6900212,-84.4886301,267.9700012207031,-0.06029417738318443,-0.2402941733598709
1665697357.26301003,72205743,42.6900212,-84.48863,267.9700012207031,-0.06096571311354637,-0.24096570909023285
1665697357.36305904,72305792,42.690021099999996,-84.48863,267.9700012207031,-0.06028897687792778,-0.24028897285461426
1665697357.46322989,72405963,42.690021099999996,-84.48862989999999,267.97998046875,-0.05943487212061882,-0.2394348680973053
1665697357.56298995,72505723,42.690021099999996,-84.48862989999999,267.97998046875,-0.057608794420957565,-0.23760879039764404
1665697357.66315389,72605887,42.690021099999996,-84.48862989999999,267.97998046875,-0.05717332288622856,-0.23717331886291504
1665697357.76301193,72705745,42.690021099999996,-84.48862989999999,267.97998046875,-0.0571901760995388,-0.23719017207622528
1665697357.86304092,72805774,42.690021,-84.4886298,267.97998046875,-0.055921521037817,-0.23592151701450348
1665697357.96309805,72905831,42.690021,-84.4886298,267.97998046875,-0.05479132756590843,-0.2347913235425949
1665697358.06308699,73005820,42.690021,-84.4886298,267.97998046875,-0.05454806610941887,-0.23454806208610535
1665697358.16303492,73105768,42.690021,-84.48862969999999,267.97998046875,-0.055936750024557114,-0.2359367460012436
1665697358.26303697,73205770,42.690021,-84.48862969999999,267.97998046875,-0.0582793764770031,-0.23827937245368958
1665697358.36298895,73305722,42.690021,-84.4886296,267.9700012207031,-0.06188146397471428,-0.24188145995140076
1665697358.46309304,73405826,42.690021,-84.4886296,267.9700012207031,-0.06526872515678406,-0.24526871740818024
1665697358.56311703,73505850,42.690021,-84.4886296,267.9700012207031,-0.0686834454536438,-0.24868343770503998
1665697358.66305494,73605788,42.6900209,-84.4886295,267.9599914550781,-0.07237143814563751,-0.2523714303970337
1665697358.76304603,73705779,42.6900209,-84.4886295,267.9599914550781,-0.07683314383029938,-0.25683313608169556
1665697358.86304688,73805780,42.6900209,-84.4886295,267.9499816894531,-0.08132682740688324,-0.2613268196582794
1665697358.96310902,73905842,42.6900209,-84.4886294,267.9499816894531,-0.08361519873142242,-0.2636151909828186
1665697359.06308603,74005819,42.6900209,-84.4886294,267.9499816894531,-0.0852285772562027,-0.2652285695075989
1665697359.16311288,74105846,42.6900208,-84.4886294,267.9499816894531,-0.08866940438747406,-0.26866939663887024
1665697359.26302791,74205761,42.6900208,-84.4886293,267.9499816894531,-0.09000743925571442,-0.2700074315071106
1665697359.36308289,74305816,42.6900208,-84.4886293,267.9499816894531,-0.0892738550901413,-0.2692738473415375
1665697359.46316290,74405896,42.6900208,-84.4886293,267.9499816894531,-0.08666430413722992,-0.2666642963886261
1665697359.56325793,74505991,42.6900208,-84.48862919999999,267.9499816894531,-0.08342258632183075,-0.26342257857322693
1665697359.66302991,74605763,42.6900208,-84.48862919999999,267.9499816894531,-0.08074744045734406,-0.26074743270874023
1665697359.76301885,74705752,42.6900207,-84.48862919999999,267.9599914550781,-0.07933701574802399,-0.25933700799942017
1665697359.86303806,74805771,42.6900207,-84.48862919999999,267.9599914550781,-0.07766415178775787,-0.25766414403915405
1665697359.96304297,74905776,42.6900207,-84.48862919999999,267.9599914550781,-0.0756974071264267,-0.2556973993778229
1665697360.06303596,75005769,42.6900206,-84.4886291,267.9599914550781,-0.07413752377033234,-0.2541375160217285
1665697360.16306901,75105802,42.6900206,-84.4886291,267.9599914550781,-0.07181738317012787,-0.25181737542152405
1665697360.26306796,75205801,42.6900206,-84.4886291,267.9599914550781,-0.07035227119922638,-0.25035226345062256
1665697360.36318088,75305914,42.6900206,-84.4886291,267.9700012207031,-0.0685957670211792,-0.24859575927257538
1665697360.46311402,75405847,42.690020499999996,-84.4886291,267.9700012207031,-0.06586660444736481,-0.245866596698761
1665697360.56304884,75505782,42.690020499999996,-84.4886291,267.9700012207031,-0.06364728510379791,-0.2436472773551941
1665697360.66298485,75605718,42.690020499999996,-84.4886291,267.9700012207031,-0.06313823163509369,-0.24313822388648987
1665697360.76298094,75705714,42.690020399999995,-84.488629,267.9700012207031,-0.06268863379955292,-0.2426886260509491
1665697360.86307883,75805812,42.690020399999995,-84.488629,267.9700012207031,-0.06403355300426483,-0.244033545255661
1665697360.96308804,75905821,42.690020399999995,-84.488629,267.9700012207031,-0.06469058990478516,-0.24469058215618134
1665697361.06308889,76005822,42.690020399999995,-84.4886289,267.9700012207031,-0.06559361517429352,-0.2455936074256897
1665697361.16302204,76105755,42.690020399999995,-84.4886289,267.9700012207031,-0.06761576235294342,-0.2476157546043396
1665697361.26315188,76205885,42.6900203,-84.4886289,267.9700012207031,-0.06951476633548737,-0.24951475858688354
1665697361.36306691,76305800,42.6900203,-84.4886289,267.9599914550781,-0.07185126841068268,-0.25185126066207886
1665697361.46304893,76405782,42.6900203,-84.4886288,267.9599914550781,-0.0750681608915329,-0.2550681531429291
1665697361.56300902,76505742,42.6900203,-84.4886288,267.9599914550781,-0.07778511941432953,-0.2577851116657257
1665697361.66313195,76605865,42.6900203,-84.4886288,267.9499816894531,-0.08011896908283234,-0.2601189613342285
1665697361.76307988,76705813,42.6900203,-84.48862869999999,267.9499816894531,-0.08187858760356903,-0.2618785798549652
1665697361.86305404,76805787,42.6900202,-84.48862869999999,267.9499816894531,-0.0829058438539505,-0.2629058361053467
1665697361.96308088,76905814,42.6900202,-84.48862869999999,267.9499816894531,-0.08386199176311493,-0.2638619840145111
1665697362.06308484,77005818,42.6900202,-84.48862869999999,267.9499816894531,-0.08295018970966339,-0.26295018196105957
1665697362.16314006,77105873,42.6900202,-84.4886286,267.9499816894531,-0.08070914447307587,-0.26070913672447205
1665697362.26302505,77205758,42.6900202,-84.4886286,267.9599914550781,-0.07838793098926544,-0.2583879232406616
1665697362.36301589,77305749,42.6900202,-84.4886286,267.9599914550781,-0.07462890446186066,-0.25462889671325684
1665697362.46311498,77405848,42.6900201,-84.48862849999999,267.9700012207031,-0.06883977353572845,-0.24883976578712463
1665697362.56298685,77505720,42.6900201,-84.48862849999999,267.9700012207031,-0.0632048100233078,-0.24320480227470398
1665697362.66300702,77605740,42.6900201,-84.48862849999999,267.97998046875,-0.05953576788306236,-0.23953576385974884
1665697362.76302290,77705756,42.6900201,-84.48862849999999,267.97998046875,-0.0566350482404232,-0.23663504421710968
1665697362.86304092,77805774,42.69002,-84.48862849999999,267.97998046875,-0.051752638071775436,-0.23175263404846191
1665697362.96305490,77905788,42.69002,-84.4886284,267.989990234375,-0.04785328730940819,-0.22785328328609467
1665697363.06301904,78005752,42.69002,-84.4886284,267.989990234375,-0.04544217512011528,-0.22544217109680176
1665697363.16300988,78105743,42.69002,-84.4886284,267.989990234375,-0.04478005692362785,-0.22478005290031433
1665697363.26308393,78205817,42.69002,-84.4886283,267.989990234375,-0.04346233233809471,-0.2234623283147812
1665697363.36307693,78305810,42.690019899999996,-84.4886283,267.989990234375,-0.040652450174093246,-0.22065244615077972
1665697363.46307898,78405812,42.690019899999996,-84.4886283,268.0,-0.037969183176755905,-0.21796917915344238
1665697363.56303596,78505769,42.690019899999996,-84.4886282,268.0,-0.03583606705069542,-0.2158360630273819
1665697363.66304803,78605781,42.690019799999995,-84.4886282,268.0,-0.0344853512942791,-0.21448534727096558
1665697363.76316285,78705896,42.690019799999995,-84.4886282,268.0,-0.03344480320811272,-0.2134447991847992
1665697363.86310291,78805836,42.6900197,-84.4886281,268.0,-0.03374337777495384,-0.21374337375164032
1665697363.96317887,78905912,42.6900197,-84.4886281,268.0,-0.03551022335886955,-0.21551021933555603
1665697364.06302691,79005760,42.6900197,-84.4886281,268.0,-0.036104466766119,-0.21610446274280548
1665697364.16299486,79105728,42.6900197,-84.4886281,268.0,-0.03828823193907738,-0.21828822791576385
1665697364.26311398,79205847,42.6900196,-84.4886281,268.0,-0.039053674787282944,-0.21905367076396942
1665697364.36305285,79305786,42.6900196,-84.48862799999999,268.0,-0.039170023053884506,-0.21917001903057098
1665697364.46305299,79405786,42.6900196,-84.48862799999999,268.0,-0.03887803480029106,-0.21887803077697754
1665697364.56296492,79505698,42.6900196,-84.48862799999999,268.0,-0.03681383654475212,-0.2168138325214386
1665697364.66300893,79605742,42.6900196,-84.48862799999999,268.0,-0.03270484134554863,-0.2127048373222351
1665697364.76304698,79705780,42.6900195,-84.48862799999999,268.0099792480469,-0.0291132889688015,-0.20911328494548798
1665697364.86315894,79805892,42.6900195,-84.48862799999999,268.0099792480469,-0.028450559824705124,-0.2084505558013916
1665697364.96310806,79905841,42.6900195,-84.48862799999999,268.0099792480469,-0.028669502586126328,-0.2086694985628128
1665697365.06301785,80005751,42.6900195,-84.48862799999999,268.0099792480469,-0.026887085288763046,-0.20688708126544952
1665697365.16308904,80105822,42.6900195,-84.48862799999999,268.0099792480469,-0.02364875003695488,-0.20364874601364136
1665697365.26309395,80205827,42.6900194,-84.48862799999999,268.0199890136719,-0.01974981650710106,-0.19974981248378754
1665697365.36311698,80305850,42.6900194,-84.48862799999999,268.0199890136719,-0.01605130359530449,-0.19605129957199097
1665697405.16295600,120105689,42.6900209,-84.48862539999999,268.0,0.009461503475904465,-0.21053849160671234
1665697405.26292396,120205657,42.6900209,-84.48862539999999,268.0,0.008899729698896408,-0.2111002653837204
1665697405.36305690,120305790,42.6900209,-84.48862539999999,268.0,0.0077088139951229095,-0.2122911810874939
1665697405.46299195,120405725,42.6900209,-84.4886253,268.0,0.006185557693243027,-0.21381443738937378
1665697405.56298804,120505721,42.6900209,-84.4886253,268.0,0.004619058221578598,-0.2153809368610382
1665697405.66301584,120605749,42.6900209,-84.4886253,268.0,0.003303956240415573,-0.21669603884220123
1665697405.76316404,120705897,42.6900209,-84.4886253,268.0,0.0017686598002910614,-0.21823133528232574
1665697405.86305594,120805789,42.6900209,-84.4886252,268.0,0.0014182589948177338,-0.21858173608779907
1665697405.96305799,120905791,42.6900209,-84.4886252,268.0,0.0021390430629253387,-0.21786095201969147
1665697406.06297803,121005711,42.6900209,-84.4886252,268.0,0.001061704009771347,-0.21893829107284546
1665697406.16301703,121105750,42.6900209,-84.4886252,267.989990234375,-0.0009435303509235382,-0.22094352543354034
1665697406.26304483,121205778,42.6900209,-84.4886252,267.989990234375,-0.001554299145936966,-0.22155429422855377
1665697406.36296892,121305702,42.6900209,-84.4886251,267.989990234375,-0.0023181475698947906,-0.2223181426525116
1665697406.46300793,121405741,42.6900209,-84.4886251,267.989990234375,-0.002649713307619095,-0.2226497083902359
1665697406.56297207,121505705,42.6900209,-84.4886251,267.989990234375,-0.0028945840895175934,-0.2228945791721344
1665697406.66298604,121605719,42.6900209,-84.4886251,267.989990234375,-0.0026132501661777496,-0.22261324524879456
1665697406.76293492,121705668,42.6900209,-84.4886251,267.989990234375,-0.0027037449181079865,-0.2227037400007248
1665697406.86300087,121805734,42.6900209,-84.488625,267.989990234375,-0.0026913173496723175,-0.22269131243228912
1665697406.96305704,121905790,42.6900209,-84.488625,267.989990234375,-0.0027172602713108063,-0.2227172553539276
1665697407.06298399,122005717,42.6900209,-84.488625,267.989990234375,-0.0017758198082447052,-0.2217758148908615
1665697407.16310000,122105833,42.6900209,-84.488625,267.989990234375,-0.000639740377664566,-0.22063973546028137
1665697407.26297784,122205711,42.6900209,-84.488625,268.0,0.0006909482181072235,-0.21930904686450958
1665697407.36304998,122305783,42.6900209,-84.488625,268.0,0.001667167991399765,-0.21833282709121704
1665697407.46306300,122405796,42.6900209,-84.488625,268.0,0.0031822286546230316,-0.21681776642799377
1665697407.56301498,122505748,42.6900209,-84.488625,268.0,0.00481177493929863,-0.21518822014331818
1665697407.66304398,122605777,42.6900209,-84.48862489999999,268.0,0.0071148984134197235,-0.21288509666919708
1665697407.76297688,122705710,42.6900209,-84.48862489999999,268.0,0.00943150743842125,-0.21056848764419556
1665697407.86322784,122805961,42.6900209,-84.48862489999999,268.0099792480469,0.010835137218236923,-0.20916485786437988
1665697407.96300507,122905738,42.6900209,-84.48862489999999,268.0099792480469,0.01061030849814415,-0.20938968658447266
1665697408.06311584,123005849,42.6900209,-84.48862489999999,268.0099792480469,0.010165896266698837,-0.20983409881591797
1665697408.16300893,123105742,42.6900209,-84.48862489999999,268.0,0.00871485099196434,-0.21128514409065247
1665697408.26295495,123205688,42.6900209,-84.4886248,268.0,0.006130348891019821,-0.21386964619159698
1665697408.36298800,123305721,42.6900209,-84.4886248,268.0,0.003505345433950424,-0.21649464964866638
1665697408.46295691,123405690,42.6900208,-84.4886248,268.0,0.001623358577489853,-0.21837663650512695
1665697408.56306005,123505793,42.6900208,-84.4886248,267.989990234375,-0.0001237727701663971,-0.2201237678527832
1665697408.66306591,123605799,42.6900208,-84.4886247,267.989990234375,-0.003688652068376541,-0.22368864715099335
1665697408.76301384,123705747,42.6900208,-84.4886247,267.989990234375,-0.007482174783945084,-0.2274821698665619
1665697408.86307597,123805809,42.6900208,-84.4886246,267.97998046875,-0.01062915101647377,-0.23062914609909058
1665697408.96315002,123905883,42.6900208,-84.4886246,267.97998046875,-0.01356441155076027,-0.23356440663337708
1665697409.06298184,124005715,42.6900208,-84.4886246,267.97998046875,-0.016410131007432938,-0.23641012609004974
1665697409.16300893,124105742,42.6900208,-84.4886246,267.97998046875,-0.01926322653889656,-0.23926322162151337
1665697409.26299191,124205725,42.6900208,-84.4886245,267.9700012207031,-0.022382695227861404,-0.2423826903104782
1665697409.36300993,124305743,42.6900208,-84.4886245,267.9700012207031,-0.02505432441830635,-0.24505431950092316
1665697409.46301389,124405747,42.6900208,-84.4886245,267.9700012207031,-0.028156209737062454,-0.24815620481967926
1665697409.56298900,124505722,42.6900208,-84.4886245,267.9599914550781,-0.031115446239709854,-0.25111544132232666
1665697409.66303802,124605771,42.6900208,-84.4886245,267.9599914550781,-0.03328222408890724,-0.25328221917152405
1665697409.76299691,124705730,42.6900208,-84.4886245,267.9599914550781,-0.035564783960580826,-0.25556477904319763
1665697409.86310506,124805838,42.6900208,-84.48862439999999,267.9599914550781,-0.03832215443253517,-0.258322149515152
1665697409.96309304,124905826,42.6900208,-84.48862439999999,267.9499816894531,-0.041080210357904434,-0.26108020544052124
1665697410.06298900,125005722,42.6900208,-84.48862439999999,267.9499816894531,-0.042606715112924576,-0.2626067101955414
1665697410.16303587,125105769,42.6900208,-84.48862439999999,267.9499816894531,-0.04329058900475502,-0.2632905840873718
1665697410.26298904,125205722,42.6900208,-84.4886243,267.9499816894531,-0.043806497007608414,-0.2638064920902252
1665697410.36304498,125305778,42.6900207,-84.4886243,267.9499816894531,-0.044382307678461075,-0.2643823027610779
1665697410.46305203,125405785,42.6900207,-84.4886243,267.9499816894531,-0.044893864542245865,-0.26489385962486267
1665697410.56295705,125505690,42.6900207,-84.4886243,267.9499816894531,-0.04598039761185646,-0.26598039269447327
1665697410.66297483,125605708,42.6900207,-84.4886243,267.9499816894531,-0.046897146850824356,-0.26689714193344116
1665697410.76313090,125705864,42.6900206,-84.4886243,267.9499816894531,-0.04765552654862404,-0.26765552163124084
1665697410.86304784,125805781,42.6900206,-84.48862419999999,267.9499816894531,-0.0474722720682621,-0.2674722671508789
1665697410.96296597,125905699,42.6900206,-84.48862419999999,267.9499816894531,-0.04743150249123573,-0.26743149757385254
1665697411.06299400,126005727,42.6900206,-84.48862419999999,267.9499816894531,-0.04811990633606911,-0.2681199014186859
1665697411.16299486,126105728,42.6900206,-84.4886241,267.9499816894531,-0.04977056756615639,-0.2697705626487732
1665697411.26300192,126205735,42.6900206,-84.4886241,267.9499816894531,-0.049820248037576675,-0.2698202431201935
1665697411.36299706,126305730,42.6900206,-84.4886241,267.9499816894531,-0.049499157816171646,-0.26949915289878845
1665697411.46303988,126405773,42.6900206,-84.488624,267.9499816894531,-0.049593690782785416,-0.2695936858654022
1665697411.56299806,126505731,42.6900206,-84.488624,267.9499816894531,-0.04971716180443764,-0.26971715688705444
1665697411.66307402,126605807,42.6900206,-84.4886239,267.9499816894531,-0.04844609275460243,-0.26844608783721924
1665697411.76305389,126705787,42.6900206,-84.4886239,267.9499816894531,-0.04802340641617775,-0.26802340149879456
1665697411.86303186,126805765,42.6900206,-84.4886238,267.9499816894531,-0.049115005880594254,-0.26911500096321106
1665697411.96302891,126905762,42.6900206,-84.4886238,267.94000244140625,-0.05062955990433693,-0.27062955498695374
1665697412.06320190,127005935,42.6900206,-84.48862369999999,267.94000244140625,-0.0513208843767643,-0.2713208794593811
1665697412.16310906,127105842,42.6900206,-84.48862369999999,267.9499816894531,-0.04981318488717079,-0.2698131799697876
1665697412.26301599,127205749,42.6900206,-84.4886236,267.94000244140625,-0.05048665776848793,-0.27048665285110474
1665697412.36303091,127305764,42.690020499999996,-84.4886236,267.94000244140625,-0.052295539528131485,-0.2722955346107483
1665697412.46309304,127405826,42.690020499999996,-84.4886236,267.94000244140625,-0.05559069290757179,-0.2755906879901886
1665697412.56311393,127505847,42.690020499999996,-84.4886235,267.92999267578125,-0.06103295460343361,-0.2810329496860504
1665697412.66312003,127605853,42.690020499999996,-84.4886235,267.92999267578125,-0.06732743978500366,-0.28732743859291077
1665697412.76305103,127705784,42.690020499999996,-84.4886235,267.91998291015625,-0.07249331474304199,-0.2924933135509491
1665697412.86302590,127805759,42.690020499999996,-84.4886234,267.91998291015625,-0.07473748922348022,-0.29473748803138733
1665697412.96304297,127905776,42.690020499999996,-84.4886234,267.91998291015625,-0.07591965794563293,-0.29591965675354004
1665697413.06298399,128005717,42.690020499999996,-84.4886234,267.91998291015625,-0.0758114755153656,-0.2958114743232727
1665697413.16304588,128105779,42.690020499999996,-84.4886233,267.91998291015625,-0.07499563694000244,-0.29499563574790955
1665697413.26305795,128205791,42.690020499999996,-84.4886233,267.91998291015625,-0.07030647993087769,-0.2903064787387848
1665697413.36310196,128305835,42.690020499999996,-84.48862319999999,267.92999267578125,-0.067324697971344,-0.2873246967792511
1665697413.46311402,128405847,42.690020499999996,-84.48862319999999,267.92999267578125,-0.06480267643928528,-0.2848026752471924
1665697413.56305194,128505785,42.690020499999996,-84.48862319999999,267.92999267578125,-0.06322979927062988,-0.283229798078537
1665697413.66310787,128605841,42.690020499999996,-84.4886231,267.92999267578125,-0.06175706163048744,-0.28175705671310425
1665697413.76300597,128705739,42.690020499999996,-84.4886231,267.92999267578125,-0.0618894137442112,-0.281889408826828
1665697413.86301994,128805753,42.690020499999996,-84.48862299999999,267.92999267578125,-0.06194615736603737,-0.2819461524486542
1665697413.96303892,128905772,42.690020499999996,-84.48862299999999,267.92999267578125,-0.0632103681564331,-0.2832103669643402
1665697414.06301785,129005751,42.690020499999996,-84.48862299999999,267.92999267578125,-0.064310222864151,-0.2843102216720581
1665697414.16325498,129105988,42.690020499999996,-84.4886229,267.92999267578125,-0.06423953175544739,-0.2842395305633545
1665697414.26303887,129205772,42.690020499999996,-84.4886229,267.92999267578125,-0.06408771872520447,-0.2840877175331116
1665697414.36314201,129305875,42.690020499999996,-84.4886229,267.92999267578125,-0.06407508254051208,-0.2840750813484192
1665697414.46304393,129405777,42.690020499999996,-84.4886228,267.92999267578125,-0.06314972043037415,-0.28314971923828125
1665697414.56301403,129505747,42.690020499999996,-84.4886228,267.92999267578125,-0.06248733773827553,-0.28248733282089233
1665697414.66303301,129605766,42.690020499999996,-84.4886228,267.92999267578125,-0.06241390481591225,-0.28241389989852905
1665697414.76305604,129705789,42.690020499999996,-84.4886227,267.92999267578125,-0.06264299154281616,-0.28264299035072327
1665697414.86308002,129805813,42.690020499999996,-84.4886227,267.92999267578125,-0.0625828206539154,-0.2825828194618225
1665697414.96308088,129905814,42.690020499999996,-84.4886227,267.92999267578125,-0.06371870636940002,-0.28371870517730713
1665697415.06303596,130005769,42.690020499999996,-84.4886227,267.92999267578125,-0.06567332148551941,-0.2856733202934265
1665697415.16308284,130105816,42.690020499999996,-84.4886227,267.92999267578125,-0.06818661093711853,-0.28818660974502563
1665697415.26313996,130205873,42.690020499999996,-84.4886226,267.91998291015625,-0.07184851169586182,-0.2918485105037689
1665697415.36312604,130305859,42.690020499999996,-84.4886226,267.91998291015625,-0.07658687233924866,-0.29658687114715576
1665697415.46302390,130405757,42.690020499999996,-84.4886226,267.9100036621094,-0.08074697852134705,-0.30074697732925415
1665697415.56303501,130505768,42.690020499999996,-84.4886226,267.9100036621094,-0.0852077305316925,-0.3052077293395996
1665697415.66306186,130605795,42.690020499999996,-84.48862249999999,267.9100036621094,-0.08748605847358704,-0.30748605728149414
1665697415.76301193,130705745,42.690020499999996,-84.48862249999999,267.9100036621094,-0.08846423029899597,-0.3084642291069031
1665697415.86304998,130805783,42.690020499999996,-84.4886224,267.8999938964844,-0.09072232246398926,-0.31072232127189636
1665697415.96304893,130905782,42.690020499999996,-84.4886224,267.8999938964844,-0.09429189562797546,-0.31429189443588257
1665697416.06303406,131005767,42.690020499999996,-84.4886224,267.8999938964844,-0.0978899598121643,-0.3178899586200714
1665697416.16305590,131105789,42.690020499999996,-84.4886224,267.8899841308594,-0.10068759322166443,-0.32068759202957153
1665697416.26314998,131205883,42.690020499999996,-84.4886223,267.8899841308594,-0.10187548398971558,-0.3218754827976227
1665697416.36307883,131305812,42.690020499999996,-84.4886223,267.8899841308594,-0.10150861740112305,-0.32150861620903015
1665697416.46306491,131405798,42.6900206,-84.4886223,267.8899841308594,-0.10061460733413696,-0.32061460614204407
1665697416.56308198,131505815,42.6900206,-84.4886222,267.8999938964844,-0.09978547692298889,-0.319785475730896
1665697416.66310501,131605838,42.6900206,-84.4886222,267.8999938964844,-0.09913322329521179,-0.3191332221031189
