timestamp,TimeUS,C,Q1,Q2,Q3,Q4
1665697324.46191406,39404647,1,0.8308740258216858,0.010590096935629845,-0.00696792546659708,0.5563161373138428
1665697324.56184506,39504578,1,0.8309975266456604,0.010564872995018959,-0.006978155579417944,0.5561320185661316
1665697324.66183591,39604569,1,0.8310835361480713,0.010545698925852776,-0.006973301991820335,0.5560038685798645
1665697324.76184702,39704580,1,0.8312588930130005,0.010544191114604473,-0.006945005618035793,0.555742084980011
1665697324.86183500,39804568,1,0.8314260840415955,0.010533361695706844,-0.00693087512627244,0.5554922819137573
1665697324.96181488,39904548,1,0.8316683173179626,0.010502672754228115,-0.006915062200278044,0.5551303029060364
1665697325.06184602,40004579,1,0.8320472836494446,0.01049466896802187,-0.006919865496456623,0.5545622706413269
1665697325.16183591,40104569,1,0.8324692845344543,0.01048686821013689,-0.0069471304304897785,0.5539283752441406
1665697325.26181483,40204548,1,0.8327799439430237,0.010483569465577602,-0.006962458603084087,0.5534610748291016
1665697325.36181688,40304550,1,0.832991361618042,0.010476179420948029,-0.006977051962167025,0.553142786026001
1665697325.46182394,40404557,1,0.8330408334732056,0.010473718866705894,-0.006967498920857906,0.5530684590339661
1665697325.56181407,40504547,1,0.8330406546592712,0.010468961670994759,-0.006983333732932806,0.5530686378479004
1665697325.66181397,40604547,1,0.8328797817230225,0.010486777871847153,-0.006997502874583006,0.5533103346824646
1665697325.76185203,40704585,1,0.8325055241584778,0.010467836633324623,-0.006976372096687555,0.5538739562034607
1665697325.86185098,40804584,1,0.8320138454437256,0.010471764951944351,-0.006979913916438818,0.5546121001243591
1665697325.96185303,40904586,1,0.8316362500190735,0.01047354657202959,-0.006975352764129639,0.555178165435791
1665697326.06184793,41004581,1,0.8314440250396729,0.010486437007784843,-0.006964720785617828,0.5554659366607666
1665697326.16184306,41104576,1,0.8313962817192078,0.010496465489268303,-0.0069379620254039764,0.5555375218391418
1665697326.26183891,41204572,1,0.8315352201461792,0.010547962971031666,-0.006932798307389021,0.5553286075592041
1665697326.36186004,41304593,1,0.8317525386810303,0.010552455671131611,-0.006955582182854414,0.555002748966217
1665697326.46185184,41404585,1,0.8319101929664612,0.010547172278165817,-0.006950723938643932,0.5547665357589722
1665697326.56182289,41504556,1,0.8321598172187805,0.010544618591666222,-0.006943467538803816,0.5543920993804932
1665697326.66182184,41604555,1,0.8324934840202332,0.01055964082479477,-0.006954082287847996,0.5538905262947083
1665697326.76180792,41704541,1,0.8329379558563232,0.01053166575729847,-0.006947105284780264,0.5532225966453552
1665697326.86181784,41804551,1,0.8332858681678772,0.010457007214426994,-0.0069374823942780495,0.5526999235153198
1665697326.96183205,41904565,1,0.8334730863571167,0.010426766239106655,-0.006968973204493523,0.5524176955223083
1665697327.06192303,42004656,1,0.8335264921188354,0.010413721203804016,-0.006954273208975792,0.5523375868797302
1665697327.16181588,42104549,1,0.8335257172584534,0.01035606861114502,-0.006944992113858461,0.5523399710655212
1665697327.26181984,42204553,1,0.8334344625473022,0.010321293957531452,-0.006949024740606546,0.5524782538414001
1665697327.36184692,42304580,1,0.833381712436676,0.01029297523200512,-0.006925423629581928,0.5525586009025574
1665697327.46186590,42404599,1,0.8333965539932251,0.010247712023556232,-0.006914186291396618,0.552537202835083
1665697327.56186604,42504599,1,0.8334299325942993,0.010218655690550804,-0.006905339192599058,0.5524874925613403
1665697327.66183400,42604567,1,0.833421528339386,0.010219390504062176,-0.006864958442747593,0.5525006651878357
1665697327.76184201,42704575,1,0.8333896994590759,0.010228184051811695,-0.006869017146527767,0.5525484681129456
1665697327.86184692,42804580,1,0.8333075046539307,0.010214562527835369,-0.006852520629763603,0.5526728630065918
1665697327.96184301,42904576,1,0.8331733345985413,0.010206654667854309,-0.006841760594397783,0.5528753995895386
1665697328.06186986,43004603,1,0.8329786062240601,0.01020146906375885,-0.006838858127593994,0.5531688332557678
1665697328.16182995,43104563,1,0.832714855670929,0.01017784047871828,-0.006826215889304876,0.5535663962364197
1665697328.26182294,43204556,1,0.8324034214019775,0.010188305750489235,-0.006838024593889713,0.5540342926979065
1665697328.36181498,43304548,1,0.8320905566215515,0.010197844356298447,-0.006835169158875942,0.5545039772987366
1665697328.46182203,43404555,1,0.8318095803260803,0.010197071358561516,-0.006835698615759611,0.5549253225326538
1665697328.56182003,43504553,1,0.8317792415618896,0.01021910086274147,-0.006816081237047911,0.5549706816673279
1665697328.66181684,43604550,1,0.8319094181060791,0.010228876024484634,-0.006825241260230541,0.5547751784324646
1665697328.76181602,43704549,1,0.83212810754776,0.010228408500552177,-0.0068193282932043076,0.5544471740722656
1665697328.86185884,43804592,1,0.8323758244514465,0.010251416824758053,-0.006813964806497097,0.5540748834609985
1665697328.96184301,43904576,1,0.832661509513855,0.010240035131573677,-0.006853065919131041,0.553645133972168
1665697329.06186104,44004594,1,0.8329968452453613,0.010276519693434238,-0.006907088682055473,0.5531392097473145
1665697329.16184592,44104579,1,0.8331856727600098,0.01029299758374691,-0.00694793276488781,0.5528538823127747
1665697329.26184392,44204577,1,0.8331981897354126,0.010277573950588703,-0.0069329035468399525,0.5528354644775391
1665697329.36183786,44304571,1,0.8332052230834961,0.010249059647321701,-0.006929086055606604,0.5528254508972168
1665697329.46183991,44404573,1,0.8332425951957703,0.010252568870782852,-0.006920673884451389,0.5527691841125488
1665697329.56184983,44504583,1,0.8332895040512085,0.01026657223701477,-0.006923104170709848,0.5526981949806213
1665697329.66181898,44604552,1,0.8333563804626465,0.010253379121422768,-0.0069195241667330265,0.5525975823402405
1665697329.76181293,44704546,1,0.8333727717399597,0.010235737077891827,-0.006919099949300289,0.5525732040405273
1665697329.86181307,44804546,1,0.8333436846733093,0.010210422798991203,-0.006887533701956272,0.5526180267333984
1665697329.96182203,44904555,1,0.8333366513252258,0.010196278803050518,-0.006907645147293806,0.5526285767555237
1665697330.06182098,45004554,1,0.8333789706230164,0.010194732807576656,-0.0069127436727285385,0.5525647401809692
1665697330.16181588,45104549,1,0.8334439992904663,0.010214477777481079,-0.006899163592606783,0.5524663925170898
1665697330.26181197,45204545,1,0.8335967659950256,0.010237081907689571,-0.006875913590192795,0.5522357821464539
1665697330.36181498,45304548,1,0.8336517810821533,0.010216353461146355,-0.006857357453554869,0.5521533489227295
1665697330.46184587,45404579,1,0.8336586356163025,0.010230262763798237,-0.00682768365368247,0.5521431565284729
1665697330.56184793,45504581,1,0.8336343765258789,0.010209320113062859,-0.006786447484046221,0.5521805882453918
1665697330.66185403,45604587,1,0.8336333632469177,0.01019829697906971,-0.006768563762307167,0.5521825551986694
1665697330.76182604,45704559,1,0.8336567878723145,0.010148822329938412,-0.006774805951863527,0.5521480441093445
1665697330.86183906,45804572,1,0.8338340520858765,0.01012016087770462,-0.00676352484151721,0.5518810153007507
1665697330.96183801,45904571,1,0.8341561555862427,0.010099275968968868,-0.006776750553399324,0.5513942837715149
1665697331.06184292,46004576,1,0.834570050239563,0.010060489177703857,-0.006765190977603197,0.5507683753967285
1665697331.16184807,46104581,1,0.8350299000740051,0.010047411546111107,-0.0067827096208930016,0.5500710010528564
1665697331.26181483,46204548,1,0.8354341983795166,0.010035150684416294,-0.00677902577444911,0.5494570732116699
1665697331.36182189,46304555,1,0.8357331156730652,0.010053884238004684,-0.006774481851607561,0.5490020513534546
1665697331.46180487,46404538,1,0.835801362991333,0.010067446157336235,-0.0067344107665121555,0.5488982796669006
1665697331.56181788,46504551,1,0.8357973694801331,0.010083043947815895,-0.006710133049637079,0.5489044189453125
1665697331.66181397,46604547,1,0.8358091115951538,0.010106259025633335,-0.006743202917277813,0.548885703086853
1665697331.76181197,46704545,1,0.8359072804450989,0.01010850165039301,-0.006742461118847132,0.5487362146377563
1665697331.86181784,46804551,1,0.8360212445259094,0.010098597966134548,-0.006739303935319185,0.54856276512146
1665697331.96181393,46904547,1,0.8361178636550903,0.010119404643774033,-0.006747412495315075,0.548414945602417
1665697332.06186604,47004599,1,0.836223840713501,0.010143416002392769,-0.006764566991478205,0.5482527017593384
1665697332.16185284,47104586,1,0.8364012241363525,0.01016082614660263,-0.006800289731472731,0.547981321811676
1665697332.26188684,47204620,1,0.8366692066192627,0.01017909124493599,-0.00682494044303894,0.5475714206695557
1665697332.36184406,47304577,1,0.836842954158783,0.010218755342066288,-0.006834632717072964,0.5473049879074097
1665697332.46184206,47404575,1,0.8370081782341003,0.010221153497695923,-0.006855397019535303,0.5470519661903381
1665697332.56184006,47504573,1,0.837098240852356,0.010252515785396099,-0.006853682920336723,0.5469135642051697
1665697332.66183686,47604570,1,0.837131142616272,0.010297866538167,-0.006864539347589016,0.5468622446060181
1665697332.76182795,47704561,1,0.8370236754417419,0.01034468412399292,-0.006881955545395613,0.5470256209373474
1665697332.86181903,47804552,1,0.8368794918060303,0.010337237268686295,-0.006882737390697002,0.5472462773323059
1665697332.96181393,47904547,1,0.8367846608161926,0.010355095379054546,-0.0068886601366102695,0.5473908185958862
1665697333.06182289,48004556,1,0.8366929888725281,0.010382450185716152,-0.006922845728695393,0.5475299954414368
1665697333.16181684,48104550,1,0.836501955986023,0.010419740341603756,-0.006932254880666733,0.5478209853172302
1665697333.26181483,48204548,1,0.8361704349517822,0.010432546027004719,-0.0069116554223001,0.5483269095420837
1665697333.36181593,48304549,1,0.8358376026153564,0.010471519082784653,-0.006879858206957579,0.5488337874412537
1665697333.46181893,48404552,1,0.8356350660324097,0.010500608012080193,-0.006867317948490381,0.5491417050361633
1665697333.56186199,48504595,1,0.8355221152305603,0.010516248643398285,-0.006868505850434303,0.5493132472038269
1665697333.66185093,48604584,1,0.8354754447937012,0.010540934279561043,-0.006848492659628391,0.5493839979171753
1665697333.76181602,48704549,1,0.8353942632675171,0.010571482591331005,-0.006851569749414921,0.5495067834854126
1665697333.86182284,48804556,1,0.835334837436676,0.010558812879025936,-0.0068456497974693775,0.5495975017547607
1665697333.96184301,48904576,1,0.8352249264717102,0.010551895014941692,-0.006801838055253029,0.5497651696205139
1665697334.06185484,49004588,1,0.8350528478622437,0.010532144457101822,-0.006766087841242552,0.5500273108482361
1665697334.16184998,49104583,1,0.8348817825317383,0.010509188286960125,-0.006747472565621138,0.5502876043319702
1665697334.26179004,49204523,1,0.8347166776657104,0.010496889241039753,-0.006724770180881023,0.5505384802818298
1665697334.36181688,49304550,1,0.8345234990119934,0.01050937082618475,-0.006730937864631414,0.5508309602737427
1665697334.46182799,49404561,1,0.8342583775520325,0.010506140068173409,-0.006718311458826065,0.5512326955795288
1665697334.56180096,49504534,1,0.8339738249778748,0.010511614382266998,-0.006718799471855164,0.5516629219055176
1665697334.66181684,49604550,1,0.8337397575378418,0.010509594343602657,-0.0067259399220347404,0.55201655626297
1665697334.76181984,49704553,1,0.8336324095726013,0.010530983097851276,-0.006707035470753908,0.5521785616874695
1665697334.86185098,49804584,1,0.833695113658905,0.010517147369682789,-0.0067113302648067474,0.5520840287208557
1665697334.96181703,49904550,1,0.8338828086853027,0.010493306443095207,-0.006743796169757843,0.551800549030304
1665697335.06182885,50004562,1,0.8340003490447998,0.010499920696020126,-0.0067534553818404675,0.5516226291656494
1665697335.16186500,50104598,1,0.8340951204299927,0.010496051982045174,-0.006742566823959351,0.5514795780181885
1665697335.26185083,50204584,1,0.8339910507202148,0.010491413995623589,-0.006765096448361874,0.5516366958618164
1665697335.36185002,50304583,1,0.833782434463501,0.010465015657246113,-0.006790997926145792,0.5519521832466125
1665697335.46184397,50404577,1,0.8335681557655334,0.010441037826240063,-0.006789740640670061,0.5522762537002563
1665697335.56184506,50504578,1,0.8333978652954102,0.010425862856209278,-0.006806227378547192,0.5525332689285278
1665697335.66184187,50604575,1,0.8333235383033752,0.010396496392786503,-0.006792477797716856,0.5526460409164429
1665697335.76186585,50704599,1,0.8333852887153625,0.010358283296227455,-0.006803444586694241,0.5525535345077515
1665697335.86185193,50804585,1,0.8334996700286865,0.01034795306622982,-0.006824729964137077,0.5523808598518372
1665697335.96182203,50904555,1,0.8336500525474548,0.010312158614397049,-0.006829436868429184,0.5521544814109802
1665697336.06182289,51004556,1,0.8338999152183533,0.010294854640960693,-0.00680980971083045,0.5517776012420654
1665697336.16181397,51104547,1,0.8341808319091797,0.010312347672879696,-0.0068357898853719234,0.5513522028923035
1665697336.26181293,51204546,1,0.8344387412071228,0.010309609584510326,-0.006827607285231352,0.550961971282959
1665697336.36181593,51304549,1,0.8346808552742004,0.010340393520891666,-0.006868413649499416,0.5505939722061157
1665697336.46181583,51404549,1,0.8349043726921082,0.010376053862273693,-0.006890257820487022,0.5502541065216064
1665697336.56182098,51504554,1,0.8350711464881897,0.010367377661168575,-0.006868031341582537,0.5500014424324036
1665697336.66184402,51604577,1,0.8351859450340271,0.010375075973570347,-0.006836543325334787,0.5498272776603699
1665697336.76184487,51704578,1,0.8352624773979187,0.01037021167576313,-0.006845881696790457,0.5497110486030579
1665697336.86184597,51804579,1,0.8354395627975464,0.010365336202085018,-0.006848948076367378,0.5494418740272522
1665697336.96185088,51904584,1,0.8357000350952148,0.010379757732152939,-0.006811622530221939,0.5490458607673645
1665697337.06184793,52004581,1,0.8359068632125854,0.010399879887700081,-0.006821191404014826,0.5487303733825684
1665697337.16184807,52104581,1,0.8359492421150208,0.010410675778985023,-0.006789317354559898,0.5486660599708557
1665697337.26183605,52204569,1,0.8359261751174927,0.01042703166604042,-0.006748369429260492,0.5487013459205627
1665697337.36183786,52304571,1,0.8359278440475464,0.010435805656015873,-0.0067399353720247746,0.5486987233161926
1665697337.46181798,52404551,1,0.8360325694084167,0.010494202375411987,-0.006736868992447853,0.5485381484031677
1665697337.56182384,52504557,1,0.8361358046531677,0.010567929595708847,-0.006714688614010811,0.5483795404434204
1665697337.66178894,52604522,1,0.8361643552780151,0.010613003745675087,-0.0066941580735147,0.5483353734016418
1665697337.76182604,52704559,1,0.8360528349876404,0.010664225555956364,-0.006709157954901457,0.5485042333602905
1665697337.86181903,52804552,1,0.8359032273292542,0.010689588263630867,-0.006725889164954424,0.5487315654754639
1665697337.96181583,52904549,1,0.8356418609619141,0.010697340592741966,-0.0067658331245183945,0.5491288900375366
1665697338.06182694,53004560,1,0.8353466987609863,0.010718099772930145,-0.00676303543150425,0.5495773553848267
1665697338.16181493,53104548,1,0.8350999355316162,0.010703504085540771,-0.006743920501321554,0.5499528050422668
1665697338.26184201,53204575,1,0.8348540663719177,0.010701010935008526,-0.006774011068046093,0.5503255724906921
1665697338.36184788,53304581,1,0.8345722556114197,0.01069716177880764,-0.0068185958079993725,0.5507524609565735
1665697338.46185303,53404586,1,0.8343061804771423,0.010681020095944405,-0.006881324574351311,0.5511549711227417
1665697338.56182194,53504555,1,0.8340719938278198,0.0107053117826581,-0.0069735245779156685,0.5515075922012329
1665697338.66183090,53604564,1,0.8340203762054443,0.010746118612587452,-0.007036308292299509,0.5515841245651245
1665697338.76184607,53704579,1,0.8340679407119751,0.010725868865847588,-0.007077908609062433,0.5515120625495911
1665697338.86188602,53804619,1,0.8340297937393188,0.010727484710514545,-0.007109592203050852,0.5515692234039307
1665697338.96184897,53904582,1,0.8337933421134949,0.010716577060520649,-0.007161526009440422,0.5519261360168457
1665697339.06182289,54004556,1,0.8335486054420471,0.010742894373834133,-0.0071808104403316975,0.5522949695587158
1665697339.16181803,54104551,1,0.8333472609519958,0.010767755098640919,-0.007187815383076668,0.5525981783866882
1665697339.26180792,54204541,1,0.833192765712738,0.010806112550199032,-0.007195830810815096,0.5528302192687988
1665697339.36181402,54304547,1,0.8331201672554016,0.010823328979313374,-0.007168511860072613,0.5529396533966064
1665697339.46181297,54404546,1,0.8332043886184692,0.010854015126824379,-0.007141112815588713,0.5528125166893005
1665697339.56182003,54504553,1,0.8334329128265381,0.01089011412113905,-0.007097807712852955,0.5524677038192749
1665697339.66181302,54604546,1,0.8336505889892578,0.010893752798438072,-0.0070775649510324,0.552139401435852
1665697339.76181102,54704544,1,0.8338853120803833,0.010868540965020657,-0.0070572299882769585,0.5517855882644653
1665697339.86185002,54804583,1,0.8341288566589355,0.01086733490228653,-0.007094744127243757,0.5514169335365295
1665697339.96184897,54904582,1,0.8343027234077454,0.010851618833839893,-0.007071495521813631,0.5511544346809387
1665697340.06185699,55004590,1,0.8344311118125916,0.010817335918545723,-0.0070893182419240475,0.5509605407714844
1665697340.16183901,55104572,1,0.8344475626945496,0.01080439891666174,-0.0070792934857308865,0.5509359240531921
1665697340.26183605,55204569,1,0.8344159722328186,0.010817029513418674,-0.0071225459687411785,0.5509830117225647
1665697340.36184096,55304574,1,0.8343799114227295,0.010782590135931969,-0.00710332952439785,0.5510385036468506
1665697340.46185589,55404589,1,0.8343446254730225,0.010775044560432434,-0.007100148592144251,0.5510920882225037
1665697340.56182790,55504561,1,0.8342908024787903,0.010780954733490944,-0.007093299180269241,0.5511735677719116
1665697340.66184187,55604575,1,0.8342136144638062,0.010809925384819508,-0.007079898379743099,0.551289975643158
1665697340.76182103,55704554,1,0.8341063857078552,0.010827811434864998,-0.007072371430695057,0.5514520406723022
1665697340.86181784,55804551,1,0.8339729309082031,0.010855618864297867,-0.007041984237730503,0.5516536235809326
1665697340.96181703,55904550,1,0.8339410424232483,0.010908079333603382,-0.007049273233860731,0.5517006516456604
1665697341.06183195,56004565,1,0.8340591192245483,0.010932053439319134,-0.006963498890399933,0.5515227913856506
1665697341.16181493,56104548,1,0.8342074155807495,0.010916265659034252,-0.006883023772388697,0.5512998104095459
1665697341.26182103,56204554,1,0.8342654705047607,0.010919108055531979,-0.006839658133685589,0.5512124300003052
1665697341.36184406,56304577,1,0.8341848254203796,0.010913418605923653,-0.006872046738862991,0.5513342022895813
1665697341.46185303,56404586,1,0.8340182304382324,0.010912993922829628,-0.006861929781734943,0.5515862703323364
1665697341.56185198,56504585,1,0.8338189125061035,0.010925048030912876,-0.006844107527285814,0.5518875122070312
1665697341.66181803,56604551,1,0.8336507678031921,0.010909253731369972,-0.006827241275459528,0.5521420240402222
1665697341.76184106,56704574,1,0.8334349989891052,0.01093335822224617,-0.0068442667834460735,0.5524669885635376
1665697341.86184597,56804579,1,0.8332067131996155,0.010938536375761032,-0.006856360472738743,0.5528109669685364
1665697341.96186304,56904596,1,0.8329935669898987,0.010947193019092083,-0.0068265278823673725,0.5531322360038757
1665697342.06184793,57004581,1,0.8328990936279297,0.010927434079349041,-0.006793673615902662,0.5532752871513367
1665697342.16182685,57104560,1,0.8328624367713928,0.010897173546254635,-0.006749140564352274,0.5533316731452942
1665697342.26181793,57204551,1,0.8329084515571594,0.0109056755900383,-0.006767154671251774,0.553261935710907
1665697342.36180186,57304535,1,0.8329535126686096,0.010899540968239307,-0.006762565113604069,0.5531942844390869
1665697342.46184087,57404574,1,0.8329229354858398,0.010859545320272446,-0.006753141526132822,0.5532411932945251
1665697342.56181693,57504550,1,0.832891047000885,0.01085571851581335,-0.0067337024956941605,0.553289532661438
1665697342.66181803,57604551,1,0.832858681678772,0.010839266702532768,-0.0067436895333230495,0.5533384084701538
1665697342.76181889,57704552,1,0.8328072428703308,0.010786728002130985,-0.006757900584489107,0.5534167289733887
1665697342.86182785,57804561,1,0.8327685594558716,0.01078425906598568,-0.006739037111401558,0.5534752607345581
1665697342.96186304,57904596,1,0.8327184915542603,0.010794898495078087,-0.006730544380843639,0.5535504221916199
1665697343.06186390,58004597,1,0.8326365351676941,0.010797695256769657,-0.006736642215400934,0.553673505783081
1665697343.16185188,58104585,1,0.8325502276420593,0.010784575715661049,-0.0067075262777507305,0.5538039803504944
1665697343.26184297,58204576,1,0.8324360251426697,0.010828370228409767,-0.006694080773741007,0.5539749264717102
1665697343.36185598,58304589,1,0.832237958908081,0.010824390687048435,-0.006658804602921009,0.5542729496955872
1665697343.46184707,58404580,1,0.832082986831665,0.010839445516467094,-0.006607609335333109,0.5545058846473694
1665697343.56185198,58504585,1,0.8319624662399292,0.01084072794765234,-0.006617081817239523,0.5546865463256836
1665697343.66182089,58604554,1,0.8317891359329224,0.010895908810198307,-0.006602821871638298,0.5549455285072327
1665697343.76181102,58704544,1,0.8316369652748108,0.010895665735006332,-0.00661803875118494,0.555173397064209
1665697343.86184096,58804574,1,0.8315203785896301,0.010890874080359936,-0.006611259654164314,0.5553480982780457
1665697343.96181583,58904549,1,0.8314432501792908,0.010869888588786125,-0.006615923717617989,0.5554639101028442
1665697344.06183004,59004563,1,0.8314117789268494,0.010849432088434696,-0.0066228886134922504,0.5555113554000854
1665697344.16182899,59104562,1,0.8313418626785278,0.010835844092071056,-0.006622849963605404,0.5556161999702454
1665697344.26182103,59204554,1,0.8313219547271729,0.01071424875408411,-0.006567339412868023,0.5556490421295166
1665697344.36182094,59304554,1,0.831449031829834,0.010527367703616619,-0.00652721431106329,0.5554628968238831
1665697344.46186495,59404598,1,0.8315913677215576,0.010361291468143463,-0.006477693095803261,0.5552535057067871
1665697344.56186795,59504601,1,0.8316348791122437,0.010416454635560513,-0.006423117592930794,0.555188000202179
1665697344.66185284,59604586,1,0.8313618302345276,0.010258975438773632,-0.006439193617552519,0.5555995106697083
1665697344.76185489,59704588,1,0.8308603167533875,0.010202895849943161,-0.0064019556157290936,0.5563506484031677
1665697344.86184692,59804580,1,0.8305578827857971,0.010372600518167019,-0.006241247057914734,0.5568007230758667
1665697344.96184802,59904581,1,0.8304919004440308,0.010284926742315292,-0.006358438637107611,0.5568994283676147
1665697345.06186604,60004599,1,0.8299930691719055,0.010247474536299706,-0.006318279076367617,0.5576437711715698
1665697345.16183400,60104567,1,0.829546332359314,0.010325364768505096,-0.006212321575731039,0.5583078265190125
1665697345.26186085,60204594,1,0.8293341994285583,0.010307075455784798,-0.006302602589130402,0.5586222410202026
1665697345.36182785,60304561,1,0.828815758228302,0.010725925676524639,-0.006215737201273441,0.5593842267990112
1665697345.46179891,60404532,1,0.8283635377883911,0.010530893690884113,-0.00640620244666934,0.5600552558898926
1665697345.56182504,60504558,1,0.8281538486480713,0.010518436320126057,-0.006273232400417328,0.5603670477867126
1665697345.66182590,60604559,1,0.8277608156204224,0.010600375942885876,-0.006147877313196659,0.5609472990036011
1665697345.76182890,60704562,1,0.8274775743484497,0.01046743243932724,-0.006326963193714619,0.5613654851913452
1665697345.86182785,60804561,1,0.8274297118186951,0.010695085860788822,-0.006225574761629105,0.561432957649231
1665697345.96182299,60904556,1,0.8272191286087036,0.010483392514288425,-0.00627549272030592,0.5617465376853943
1665697346.06186986,61004603,1,0.8269721269607544,0.010531837120652199,-0.006215504836291075,0.5621098875999451
1665697346.16185784,61104591,1,0.8270131945610046,0.01062480267137289,-0.0062211607582867146,0.5620476603507996
1665697346.26185083,61204584,1,0.8270696997642517,0.010415419936180115,-0.0063675884157419205,0.5619667768478394
1665697346.36182904,61304562,1,0.8270816802978516,0.010613161139190197,-0.006181403994560242,0.5619475841522217
1665697346.46184993,61404583,1,0.8272952437400818,0.010522503405809402,-0.00628185598179698,0.5616336464881897
1665697346.56184506,61504578,1,0.8274875283241272,0.010532342828810215,-0.006318686529994011,0.5613497495651245
1665697346.66185093,61604584,1,0.8274974822998047,0.010616511106491089,-0.006293493788689375,0.5613337755203247
1665697346.76179695,61704530,1,0.8274683356285095,0.0104935672134161,-0.006308703683316708,0.5613788962364197
1665697346.86182904,61804562,1,0.8272956013679504,0.010665484704077244,-0.006162743084132671,0.5616317987442017
1665697346.96181989,61904553,1,0.827045202255249,0.010595236904919147,-0.006280979141592979,0.5620005130767822
1665697347.06181502,62004548,1,0.8268790245056152,0.010665004141628742,-0.006247034762054682,0.5622439384460449
1665697347.16182804,62104561,1,0.8266726732254028,0.01071165967732668,-0.006150273606181145,0.562547504901886
1665697347.26181889,62204552,1,0.826606035232544,0.010589564219117165,-0.006189910229295492,0.5626473426818848
1665697347.36181784,62304551,1,0.826518177986145,0.010736670345067978,-0.006174634210765362,0.5627737045288086
1665697347.46182489,62404558,1,0.8264463543891907,0.01069450844079256,-0.006168424617499113,0.5628800988197327
1665697347.56184506,62504578,1,0.8263934254646301,0.010677673853933811,-0.006144214887171984,0.5629584193229675
1665697347.66184807,62604581,1,0.8263192176818848,0.010710061527788639,-0.006159456912428141,0.5630664825439453
1665697347.76189184,62704625,1,0.826258659362793,0.010624679736793041,-0.006301993504166603,0.5631554126739502
1665697347.86186004,62804593,1,0.8263393044471741,0.010683891363441944,-0.0062387483194470406,0.5630366206169128
1665697347.96183705,62904570,1,0.8263849020004272,0.010595633648335934,-0.006301381625235081,0.562970757484436
1665697348.06185198,63004585,1,0.8263245820999146,0.010597726330161095,-0.006322766188532114,0.5630589723587036
1665697348.16184497,63104578,1,0.8263603448867798,0.010641614906489849,-0.006343818735331297,0.5630054473876953
1665697348.26182985,63204563,1,0.8263342976570129,0.010481939651072025,-0.006376092787832022,0.5630462765693665
1665697348.36185288,63304586,1,0.8262428045272827,0.010562840849161148,-0.006304982118308544,0.5631797909736633
1665697348.46182489,63404558,1,0.8262147307395935,0.010530122555792332,-0.006329139694571495,0.5632213950157166
1665697348.56182694,63504560,1,0.8261289596557617,0.010511067695915699,-0.006314245518296957,0.5633476972579956
1665697348.66182089,63604554,1,0.8258320093154907,0.0105303805321455,-0.006233172956854105,0.5637834072113037
1665697348.76182795,63704561,1,0.8255035877227783,0.010481924749910831,-0.006251077633351088,0.5642649531364441
1665697348.86182284,63804556,1,0.8252405524253845,0.010571827180683613,-0.006228949408978224,0.5646480917930603
1665697348.96182203,63904555,1,0.8249589204788208,0.010507671162486076,-0.006265929434448481,0.5650602579116821
1665697349.06184101,64004574,1,0.824830949306488,0.010493861511349678,-0.006225943565368652,0.5652477741241455
1665697349.16185284,64104586,1,0.8247889280319214,0.010519403964281082,-0.006195928901433945,0.5653089284896851
1665697349.26186204,64204595,1,0.8247592449188232,0.010454496368765831,-0.006261742673814297,0.5653526782989502
1665697349.36190104,64304634,1,0.8246768712997437,0.010511429980397224,-0.006206310819834471,0.565472424030304
1665697349.46185899,64404592,1,0.8246508240699768,0.01045753713697195,-0.006216812413185835,0.5655112862586975
1665697349.56185102,64504584,1,0.8247125148773193,0.010480018332600594,-0.006191059947013855,0.5654212236404419
1665697349.66185784,64604591,1,0.8248149752616882,0.010520340874791145,-0.006169527769088745,0.5652711987495422
1665697349.76184607,64704579,1,0.8250241279602051,0.010432915762066841,-0.006219856906682253,0.5649669766426086
1665697349.86185503,64804588,1,0.8251751661300659,0.010484293103218079,-0.006163809448480606,0.5647459626197815
1665697349.96182585,64904559,1,0.8252518773078918,0.01045850571244955,-0.006193881388753653,0.5646340250968933
1665697350.06182885,65004562,1,0.8252931833267212,0.010435747914016247,-0.006178508047014475,0.5645742416381836
1665697350.16180491,65104538,1,0.8253052830696106,0.010455675423145294,-0.00614560954272747,0.5645565986633301
1665697350.26182103,65204554,1,0.8253028392791748,0.010429438203573227,-0.006197052542120218,0.5645599961280823
1665697350.36182284,65304556,1,0.8253817558288574,0.010504469275474548,-0.006168645806610584,0.5644436478614807
1665697350.46181703,65404550,1,0.8254769444465637,0.010426299646496773,-0.006188184022903442,0.5643056035041809
1665697350.56181288,65504546,1,0.8255231976509094,0.010410034097731113,-0.006192257162183523,0.5642381906509399
1665697350.66182089,65604554,1,0.8256000876426697,0.010450818575918674,-0.006144802086055279,0.5641254186630249
1665697350.76185799,65704591,1,0.8257176280021667,0.010415507480502129,-0.006207743193954229,0.5639533996582031
1665697350.86185789,65804591,1,0.825806200504303,0.010480154305696487,-0.006177846807986498,0.5638228058815002
1665697350.96184206,65904575,1,0.8258480429649353,0.010439508594572544,-0.00616491911932826,0.5637624263763428
1665697351.06184196,66004575,1,0.8259143233299255,0.010434732772409916,-0.006146083120256662,0.5636655688285828
1665697351.16183686,66104570,1,0.825955867767334,0.01048308052122593,-0.006105106323957443,0.5636042356491089
1665697351.26184297,66204576,1,0.8260049819946289,0.010403736494481564,-0.0061334106139838696,0.5635334253311157
1665697351.36184001,66304573,1,0.8261255025863647,0.010467501357197762,-0.006123855710029602,0.5633556246757507
1665697351.46184492,66404578,1,0.8262548446655273,0.010455719195306301,-0.006128224078565836,0.563166081905365
1665697351.56182194,66504555,1,0.8263756036758423,0.010452770628035069,-0.006143706385046244,0.5629887580871582
1665697351.66181684,66604550,1,0.8265894651412964,0.010480782017111778,-0.006130687892436981,0.5626744031906128
1665697351.76180601,66704539,1,0.8268226385116577,0.010483263991773129,-0.006188828032463789,0.562330961227417
1665697351.86182499,66804558,1,0.8271005153656006,0.010528245009481907,-0.0061822994612157345,0.5619214177131653
1665697351.96181488,66904548,1,0.827349841594696,0.01053905300796032,-0.006212790496647358,0.5615537166595459
1665697352.06182098,67004554,1,0.8274982571601868,0.010511429980397224,-0.006233732216060162,0.5613353252410889
1665697352.16182303,67104556,1,0.8275278806686401,0.010564186610281467,-0.006243965122848749,0.5612905025482178
1665697352.26184702,67204580,1,0.8274756073951721,0.010504559613764286,-0.0062520792707800865,0.5613685250282288
1665697352.36184907,67304582,1,0.8274203538894653,0.010516490787267685,-0.006216601002961397,0.561450183391571
1665697352.46185088,67404584,1,0.8273741602897644,0.01048199087381363,-0.006189481355249882,0.561519205570221
1665697352.56185198,67504585,1,0.8273817300796509,0.010428228415548801,-0.006227181293070316,0.5615086555480957
1665697352.66183090,67604564,1,0.8274081349372864,0.010441749356687069,-0.00621052086353302,0.5614696741104126
1665697352.76183987,67704573,1,0.8274868726730347,0.01041347999125719,-0.006253397092223167,0.5613536834716797
1665697352.86184001,67804573,1,0.8275357484817505,0.010427073575556278,-0.006203795317560434,0.5612818598747253
1665697352.96183586,67904569,1,0.8276366591453552,0.010412533767521381,-0.006262440234422684,0.5611327290534973
1665697353.06185484,68004588,1,0.8277449011802673,0.010429220274090767,-0.006317411083728075,0.5609720945358276
1665697353.16181087,68104544,1,0.8278156518936157,0.010472799651324749,-0.006335638463497162,0.56086665391922
1665697353.26183391,68204567,1,0.827913761138916,0.010449548251926899,-0.006390441674739122,0.5607216358184814
1665697353.36181307,68304546,1,0.827928900718689,0.010481011122465134,-0.00635752035304904,0.5606990456581116
1665697353.46181393,68404547,1,0.8279474973678589,0.010461482219398022,-0.006351237650960684,0.5606720447540283
1665697353.56181598,68504549,1,0.8279772996902466,0.010470612905919552,-0.006368395406752825,0.5606276392936707
1665697353.66181302,68604546,1,0.8280470371246338,0.010497726500034332,-0.006348100490868092,0.5605244040489197
1665697353.76181197,68704545,1,0.8280511498451233,0.010472046211361885,-0.006381938233971596,0.5605184435844421
1665697353.86186004,68804593,1,0.827895998954773,0.010532602667808533,-0.006352854892611504,0.5607467889785767
1665697353.96184492,68904578,1,0.8277087211608887,0.010494163259863853,-0.006327588576823473,0.5610241889953613
1665697354.06185198,69004585,1,0.827519953250885,0.010488834232091904,-0.0062989224679768085,0.5613030195236206
1665697354.16182399,69104557,1,0.8274060487747192,0.010508943349123001,-0.006259456276893616,0.5614709854125977
1665697354.26183796,69204571,1,0.8272687196731567,0.010477684438228607,-0.00624493882060051,0.5616739988327026
1665697354.36185002,69304583,1,0.8271049857139587,0.010510480962693691,-0.0062090568244457245,0.56191486120224
1665697354.46182489,69404558,1,0.8270683884620667,0.010492569766938686,-0.006201782263815403,0.5619691610336304
1665697354.56185484,69504588,1,0.8271289467811584,0.010461312718689442,-0.006215364672243595,0.5618804693222046
1665697354.66181302,69604546,1,0.827134370803833,0.010468412190675735,-0.006212726701050997,0.5618724226951599
1665697354.76182103,69704554,1,0.8270781636238098,0.010458214208483696,-0.006287632044404745,0.5619544386863708
1665697354.86179900,69804532,1,0.8270049095153809,0.010476856492459774,-0.006297324318438768,0.5620617866516113
1665697354.96181583,69904549,1,0.8268511891365051,0.010432074777781963,-0.006338389124721289,0.5622882843017578
1665697355.06182289,70004556,1,0.8267115950584412,0.010415762662887573,-0.0063035390339791775,0.562494158744812
1665697355.16181302,70104546,1,0.8265883326530457,0.010414816439151764,-0.006273325067013502,0.5626757144927979
1665697355.26181102,70204544,1,0.826522707939148,0.010358053259551525,-0.006305748131126165,0.5627726912498474
1665697355.36181188,70304545,1,0.826490044593811,0.01037567388266325,-0.006296867970377207,0.5628204941749573
1665697355.46184397,70404577,1,0.8264923691749573,0.010327676311135292,-0.0063252258114516735,0.5628176331520081
1665697355.56184697,70504580,1,0.826502799987793,0.010338762775063515,-0.0063301995396614075,0.5628020763397217
1665697355.66184807,70604581,1,0.8264442682266235,0.010355082340538502,-0.006349359173327684,0.5628874897956848
1665697355.76182890,70704562,1,0.8263859152793884,0.010344847105443478,-0.006365758832544088,0.562973141670227
1665697355.86184406,70804577,1,0.8263473510742188,0.010382791981101036,-0.006376007106155157,0.5630289912223816
1665697355.96183991,70904573,1,0.8263276219367981,0.0103710126131773,-0.006385464686900377,0.5630580186843872
1665697356.06185985,71004593,1,0.8263447284698486,0.01037637796252966,-0.006388628855347633,0.5630328059196472
1665697356.16186404,71104597,1,0.8263996243476868,0.010395687073469162,-0.0063902633264660835,0.5629518032073975
1665697356.26182103,71204554,1,0.8264148235321045,0.010346869006752968,-0.006378502119332552,0.5629305243492126
1665697356.36181307,71304546,1,0.8263304233551025,0.010339356027543545,-0.006378914229571819,0.5630545020103455
1665697356.46181393,71404547,1,0.8262119293212891,0.010353858582675457,-0.0063773710280656815,0.563228189945221
1665697356.56182194,71504555,1,0.8261127471923828,0.010366632603108883,-0.006357446778565645,0.5633736252784729
1665697356.66181207,71604545,1,0.8261013031005859,0.010393848642706871,-0.006362512242048979,0.5633898377418518
1665697356.76181793,71704551,1,0.8262027502059937,0.010395912453532219,-0.006401115097105503,0.5632405877113342
1665697356.86181307,71804546,1,0.8263114094734192,0.010435136966407299,-0.006373396143317223,0.5630807280540466
1665697356.96184206,71904575,1,0.8263859152793884,0.010443245060741901,-0.006398397963494062,0.5629709959030151
1665697357.06185603,72004589,1,0.826469361782074,0.010464207269251347,-0.006400479935109615,0.5628480315208435
1665697357.16184807,72104581,1,0.8265683054924011,0.010496464557945728,-0.006427581887692213,0.5627018213272095
1665697357.26184893,72204582,1,0.8266826868057251,0.010480542667210102,-0.006467269267886877,0.5625336170196533
1665697357.36184287,72304576,1,0.8267427682876587,0.010511280968785286,-0.006465142592787743,0.562444806098938
1665697357.46183801,72404571,1,0.8267577290534973,0.010519052855670452,-0.0065236203372478485,0.562421977519989
1665697357.56183887,72504572,1,0.8267293572425842,0.010517561808228493,-0.006491980981081724,0.5624640583992004
1665697357.66183686,72604570,1,0.8267013430595398,0.010553053580224514,-0.006483391858637333,0.5625045895576477
1665697357.76181984,72704553,1,0.8267090916633606,0.010515054687857628,-0.006490647327154875,0.5624938607215881
1665697357.86182499,72804558,1,0.8267634510993958,0.010507945902645588,-0.006476173643022776,0.5624143481254578
1665697357.96179795,72904531,1,0.8268241882324219,0.010491074994206429,-0.006488839630037546,0.5623251795768738
1665697358.06183100,73004564,1,0.8269514441490173,0.010488930158317089,-0.006485496181994677,0.5621381402015686
1665697358.16181898,73104552,1,0.8271148800849915,0.01049412414431572,-0.006509655155241489,0.5618972182273865
1665697358.26182294,73204556,1,0.8272120356559753,0.010488498024642467,-0.006507389713078737,0.5617542862892151
1665697358.36183000,73304563,1,0.8272262811660767,0.010447947308421135,-0.006500566378235817,0.5617341995239258
1665697358.46184397,73404577,1,0.8272751569747925,0.010442094877362251,-0.00649351766332984,0.5616623759269714
1665697358.56185389,73504587,1,0.8273463249206543,0.010437141172587872,-0.0064664119854569435,0.561557948589325
1665697358.66185594,73604589,1,0.8274240493774414,0.010455385781824589,-0.006491452921181917,0.5614427328109741
1665697358.76184797,73704581,1,0.8274257183074951,0.010444573126733303,-0.006458555348217487,0.5614408850669861
1665697358.86182904,73804562,1,0.8274147510528564,0.010449953377246857,-0.00641702301800251,0.5614573955535889
1665697358.96183801,73904571,1,0.8274648189544678,0.010432020761072636,-0.006409068126231432,0.5613840818405151
1665697359.06184602,74004579,1,0.8275484442710876,0.010458922944962978,-0.006403629668056965,0.5612603425979614
1665697359.16184998,74104583,1,0.8276712894439697,0.010472091846168041,-0.00640117796137929,0.5610789656639099
1665697359.26185203,74204585,1,0.827794075012207,0.010492399334907532,-0.0064223045483231544,0.560897171497345
1665697359.36181998,74304553,1,0.8279628753662109,0.010523027740418911,-0.006400148384273052,0.5606476664543152
1665697359.46181583,74404549,1,0.828050434589386,0.010500142350792885,-0.006402452476322651,0.5605186820030212
1665697359.56180787,74504541,1,0.8281354308128357,0.010498951189219952,-0.006378460675477982,0.5603934526443481
1665697359.66181302,74604546,1,0.8282073140144348,0.010481570847332478,-0.006346527487039566,0.5602878332138062
1665697359.76181483,74704548,1,0.8282522559165955,0.01045907475054264,-0.006340562831610441,0.5602219104766846
1665697359.86181688,74804550,1,0.8283066749572754,0.010471424087882042,-0.0063137998804450035,0.5601415634155273
1665697359.96181297,74904546,1,0.8283378481864929,0.010487713851034641,-0.006306180730462074,0.5600952506065369
1665697360.06185794,75004591,1,0.8282994627952576,0.010478876531124115,-0.0063026053830981255,0.5601521730422974
1665697360.16184902,75104582,1,0.8281959891319275,0.010481257922947407,-0.0062665753066539764,0.5603054761886597
1665697360.26184297,75204576,1,0.8281434774398804,0.01044469978660345,-0.006247208919376135,0.5603840351104736
1665697360.36188984,75304623,1,0.8280816674232483,0.010449876077473164,-0.006201848853379488,0.560475766658783
1665697360.46183896,75404572,1,0.8279487490653992,0.010437658987939358,-0.006184875499457121,0.5606724619865417
1665697360.56183791,75504571,1,0.8278037905693054,0.010418308898806572,-0.006160283461213112,0.5608870983123779
1665697360.66183591,75604569,1,0.8276580572128296,0.010460794903337955,-0.006124534644186497,0.5611017346382141
1665697360.76184106,75704574,1,0.8274862766265869,0.010450175032019615,-0.006102342624217272,0.561355471611023
1665697360.86188293,75804616,1,0.8273403644561768,0.010465072467923164,-0.006106238346546888,0.5615702271461487
1665697360.96181583,75904549,1,0.8272409439086914,0.010448005050420761,-0.006117703393101692,0.5617169141769409
1665697361.06181407,76004547,1,0.8272277116775513,0.010453006252646446,-0.006103629246354103,0.5617364048957825
1665697361.16181397,76104547,1,0.8273102045059204,0.010466848500072956,-0.006080158986151218,0.5616148710250854
1665697361.26182604,76204559,1,0.8273960947990417,0.010478165000677109,-0.006049052346497774,0.5614884495735168
1665697361.36181784,76304551,1,0.8274881839752197,0.010484682396054268,-0.006039173807948828,0.5613527297973633
1665697361.46181393,76404547,1,0.827589750289917,0.010487993247807026,-0.006042849738150835,0.5612029433250427
1665697361.56181598,76504549,1,0.8276745676994324,0.010495779104530811,-0.006076928228139877,0.5610772371292114
1665697361.66185403,76604587,1,0.8277192115783691,0.010526352562010288,-0.00606910977512598,0.5610108971595764
1665697361.76185203,76704585,1,0.8277038335800171,0.010509591549634933,-0.006078914273530245,0.5610338449478149
1665697361.86184788,76804581,1,0.8276460766792297,0.010547498241066933,-0.0060785249806940556,0.5611183643341064
1665697361.96181893,76904552,1,0.827570915222168,0.010570092126727104,-0.006065936293452978,0.56122887134552
1665697362.06185389,77004587,1,0.827488124370575,0.010543670505285263,-0.00606883829459548,0.5613514184951782
1665697362.16184497,77104578,1,0.8273375034332275,0.010544618591666222,-0.006072065327316523,0.561573326587677
1665697362.26183987,77204573,1,0.8271289467811584,0.01056584157049656,-0.0061121475882828236,0.5618796348571777
1665697362.36184001,77304573,1,0.8269443511962891,0.010601367801427841,-0.006079608108848333,0.5621509552001953
1665697362.46187592,77404609,1,0.8268677592277527,0.010563045740127563,-0.0060829222202301025,0.5622643232345581
1665697362.56181407,77504547,1,0.826863706111908,0.01057404838502407,-0.006108250468969345,0.5622698068618774
1665697362.66179800,77604531,1,0.8268738985061646,0.010575435124337673,-0.006114048417657614,0.5622546672821045
1665697362.76181293,77704546,1,0.8268604278564453,0.01054762676358223,-0.006088574882596731,0.5622752904891968
1665697362.86181498,77804548,1,0.82684326171875,0.01058090291917324,-0.006096289027482271,0.5622997879981995
1665697362.96181297,77904546,1,0.8268320560455322,0.010596606880426407,-0.006076666992157698,0.5623162388801575
1665697363.06182003,78004553,1,0.8268020153045654,0.01062776055186987,-0.0060507082380354404,0.5623601078987122
1665697363.16181397,78104547,1,0.8267570734024048,0.010645908303558826,-0.006024166475981474,0.5624260902404785
1665697363.26186991,78204603,1,0.8267168402671814,0.010684141889214516,-0.006014947779476643,0.562484622001648
1665697363.36185098,78304584,1,0.8266997337341309,0.010689910501241684,-0.006006199866533279,0.5625097155570984
1665697363.46185184,78404585,1,0.8266809582710266,0.01066661812365055,-0.005991872400045395,0.5625379085540771
1665697363.56183195,78504565,1,0.8266251087188721,0.010678651742637157,-0.005969478748738766,0.5626199841499329
1665697363.66185498,78604588,1,0.8265689611434937,0.01071809884160757,-0.005940557923167944,0.5627020001411438
1665697363.76183701,78704570,1,0.8265267014503479,0.010732501745223999,-0.005928950849920511,0.5627639293670654
1665697363.86185002,78804583,1,0.8265212774276733,0.010733908042311668,-0.005903379991650581,0.5627721548080444
1665697363.96180391,78904537,1,0.8264769911766052,0.01073482260107994,-0.005884018260985613,0.5628373622894287
1665697364.06182504,79004558,1,0.8265219926834106,0.01078147254884243,-0.005888409446924925,0.5627703666687012
1665697364.16179585,79104529,1,0.8266404271125793,0.010782857425510883,-0.005867482163012028,0.5625966191291809
1665697364.26180887,79204542,1,0.8267583847045898,0.010823671706020832,-0.0058323354460299015,0.5624228119850159
1665697364.36182594,79304559,1,0.8268833756446838,0.01082506962120533,-0.00584937259554863,0.5622387528419495
1665697364.46181703,79404550,1,0.8269302845001221,0.010819083079695702,-0.005857283249497414,0.5621698498725891
1665697364.56181192,79504545,1,0.8268873691558838,0.010811510495841503,-0.005872630048543215,0.5622329711914062
1665697364.66181207,79604545,1,0.8267789483070374,0.01082854624837637,-0.005875104106962681,0.562391996383667
1665697364.76184392,79704577,1,0.8266217708587646,0.010792520828545094,-0.005869589280337095,0.5626237988471985
1665697364.86185288,79804586,1,0.826415479183197,0.010796580463647842,-0.005878640338778496,0.5629265308380127
1665697364.96188402,79904617,1,0.8262304067611694,0.010795283131301403,-0.005855421535670757,0.563198447227478
1665697365.06185699,80004590,1,0.8261111974716187,0.010799253359436989,-0.005824706517159939,0.5633735656738281
1665697365.16184497,80104578,1,0.8260852694511414,0.010810598731040955,-0.00581161305308342,0.5634114742279053
1665697365.26184106,80204574,1,0.8261222243309021,0.01080592256039381,-0.005812153220176697,0.5633573532104492
1665697365.36184287,80304576,1,0.8261919617652893,0.01081839855760336,-0.005771127995103598,0.563255250453949
1665697405.16181493,120104548,1,0.828078031539917,0.0111743388697505,-0.0057971240021288395,0.5604714751243591
1665697405.26182604,120204559,1,0.8281175494194031,0.011165294796228409,-0.005803113803267479,0.5604131817817688
1665697405.36183286,120304566,1,0.828155517578125,0.011182994581758976,-0.005820516496896744,0.5603565573692322
1665697405.46184492,120404578,1,0.8281970024108887,0.011216090992093086,-0.005832808557897806,0.560294508934021
1665697405.56185603,120504589,1,0.82818204164505,0.011225719004869461,-0.005867586471140385,0.5603160858154297
1665697405.66186500,120604598,1,0.8281832337379456,0.011221709661185741,-0.005904722027480602,0.5603139996528625
1665697405.76183987,120704573,1,0.8281759023666382,0.011226245202124119,-0.005893349647521973,0.5603247880935669
1665697405.86185002,120804583,1,0.828186571598053,0.011197936721146107,-0.005863463971763849,0.5603099465370178
1665697405.96182489,120904558,1,0.8282304406166077,0.011176016181707382,-0.005838064011186361,0.5602458119392395
1665697406.06184983,121004583,1,0.8282300233840942,0.011201725341379642,-0.005865833722054958,0.5602456331253052
1665697406.16184092,121104574,1,0.828248143196106,0.011190123856067657,-0.00587821751832962,0.5602189302444458
1665697406.26182294,121204556,1,0.8282204866409302,0.011223796755075455,-0.005878247320652008,0.5602591633796692
1665697406.36179686,121304530,1,0.8281349539756775,0.011232496239244938,-0.0059083690866827965,0.5603851079940796
1665697406.46182203,121404555,1,0.8280051350593567,0.011237068101763725,-0.005897019058465958,0.5605769157409668
1665697406.56181598,121504549,1,0.8278772234916687,0.011255793273448944,-0.005884846206754446,0.5607655048370361
1665697406.66181588,121604549,1,0.82778400182724,0.011270343326032162,-0.005888428073376417,0.5609027743339539
1665697406.76181388,121704547,1,0.8277297616004944,0.011271807365119457,-0.005849239882081747,0.5609831809997559
1665697406.86182189,121804555,1,0.8276417851448059,0.011285276152193546,-0.005854929331690073,0.561112642288208
1665697406.96185684,121904590,1,0.827546238899231,0.011292414739727974,-0.005848141387104988,0.5612534880638123
1665697407.06185985,122004593,1,0.8274290561676025,0.011302316561341286,-0.005851007532328367,0.561426043510437
1665697407.16185284,122104586,1,0.8273293375968933,0.011277412064373493,-0.005827535409480333,0.5615736842155457
1665697407.26183486,122204568,1,0.827193021774292,0.011279943399131298,-0.005807554814964533,0.5617746114730835
1665697407.36184287,122304576,1,0.8270524740219116,0.011280838400125504,-0.005819591693580151,0.5619813799858093
1665697407.46184707,122404580,1,0.8269246816635132,0.011244752444326878,-0.005799510050565004,0.5621703267097473
1665697407.56184506,122504578,1,0.8267740607261658,0.011243673972785473,-0.0057873912155628204,0.562391996383667
1665697407.66182995,122604563,1,0.8266106247901917,0.01125287264585495,-0.005762534216046333,0.5626322627067566
1665697407.76183796,122704571,1,0.8264464139938354,0.011224404908716679,-0.005759419873356819,0.5628740787506104
1665697407.86182594,122804559,1,0.8263044953346252,0.011220206506550312,-0.005744877737015486,0.5630825757980347
1665697407.96181297,122904546,1,0.8261559009552002,0.011209581978619099,-0.0057378849014639854,0.5633008480072021
1665697408.06183791,123004571,1,0.825965940952301,0.011236369609832764,-0.0056950789876282215,0.5635793209075928
1665697408.16182089,123104554,1,0.8257935643196106,0.011248360387980938,-0.0057009621523320675,0.5638314485549927
1665697408.26181698,123204550,1,0.8256537318229675,0.011251913383603096,-0.00574825145304203,0.5640356540679932
1665697408.36181903,123304552,1,0.8255780935287476,0.011258890852332115,-0.005755769554525614,0.5641461610794067
1665697408.46184707,123404580,1,0.825588047504425,0.011254015378654003,-0.005778668448328972,0.564131498336792
1665697408.56185889,123504592,1,0.8256193399429321,0.011278500780463219,-0.005804747808724642,0.5640848875045776
1665697408.66185498,123604588,1,0.8256884813308716,0.011302740313112736,-0.0058158463798463345,0.563983142375946
1665697408.76184702,123704580,1,0.8257651925086975,0.011321056634187698,-0.005812600255012512,0.5638704895973206
1665697408.86184406,123804577,1,0.825826108455658,0.011350393295288086,-0.005842853337526321,0.5637803673744202
1665697408.96185684,123904590,1,0.8258700370788574,0.011352618224918842,-0.005848397500813007,0.5637158751487732
1665697409.06184983,124004583,1,0.8258772492408752,0.011349981650710106,-0.005862829275429249,0.5637052655220032
1665697409.16185188,124104585,1,0.8259181976318359,0.011362449266016483,-0.005822552368044853,0.5636453628540039
1665697409.26185489,124204588,1,0.8259528875350952,0.011378330178558826,-0.0058219111524522305,0.5635942816734314
1665697409.36182785,124304561,1,0.8259366154670715,0.011353115551173687,-0.0058110980316996574,0.5636187195777893
1665697409.46180487,124404538,1,0.8258809447288513,0.011333854869008064,-0.005815485492348671,0.5637006163597107
1665697409.56183100,124504564,1,0.8258190751075745,0.011365103535354137,-0.005820168647915125,0.5637905597686768
1665697409.66182184,124604555,1,0.8257393836975098,0.011361955665051937,-0.005823968909680843,0.5639073252677917
1665697409.76182199,124704555,1,0.8256959319114685,0.011331138201057911,-0.005793204065412283,0.5639718770980835
1665697409.86183095,124804564,1,0.8256925940513611,0.011332519352436066,-0.005793960299342871,0.5639767646789551
1665697409.96182299,124904556,1,0.8257148861885071,0.011319030076265335,-0.005773765500634909,0.5639445185661316
1665697410.06187105,125004604,1,0.8257685899734497,0.011311229318380356,-0.0057985312305390835,0.5638658404350281
1665697410.16185999,125104593,1,0.8258110880851746,0.011309565044939518,-0.0057828389108181,0.5638037323951721
1665697410.26185298,125204586,1,0.8258510828018188,0.0113138472661376,-0.005776223726570606,0.5637451410293579
1665697410.36183786,125304571,1,0.8259196281433105,0.011321157217025757,-0.005750578828155994,0.5636448860168457
1665697410.46184993,125404583,1,0.8259720802307129,0.011327041313052177,-0.005732567049562931,0.563568115234375
1665697410.56184506,125504578,1,0.8260326385498047,0.011369780637323856,-0.005706401541829109,0.5634787082672119
1665697410.66185904,125604592,1,0.8261110186576843,0.01136418990790844,-0.005703350994735956,0.5633639693260193
1665697410.76185298,125704586,1,0.8261717557907104,0.011359764263033867,-0.0056681884452700615,0.5632753372192383
1665697410.86182094,125804554,1,0.826198160648346,0.011352043598890305,-0.005660617258399725,0.5632368326187134
1665697410.96182704,125904560,1,0.8262040615081787,0.011320315301418304,-0.005637866444885731,0.5632290244102478
1665697411.06182003,126004553,1,0.8261536359786987,0.011324245482683182,-0.005602451507002115,0.5633032917976379
1665697411.16182089,126104554,1,0.8260873556137085,0.01137011032551527,-0.005605969578027725,0.5633994936943054
1665697411.26182485,126204558,1,0.8260489106178284,0.01135322917252779,-0.005607575178146362,0.5634562373161316
1665697411.36183405,126304567,1,0.8260323405265808,0.011364979669451714,-0.0056116352789103985,0.5634801983833313
1665697411.46182299,126404556,1,0.8260313272476196,0.011377864517271519,-0.00561486603692174,0.5634813904762268
1665697411.56182504,126504558,1,0.8260675072669983,0.011380000971257687,-0.005581693723797798,0.5634286403656006
1665697411.66185284,126604586,1,0.8260859847068787,0.01138643641024828,-0.005623042583465576,0.56340092420578
1665697411.76185584,126704589,1,0.8260753154754639,0.011384328827261925,-0.005661601200699806,0.5634162425994873
1665697411.86186099,126804594,1,0.8260946869850159,0.011415934190154076,-0.005663748364895582,0.5633872151374817
1665697411.96184897,126904582,1,0.8261340260505676,0.011447099037468433,-0.005696742795407772,0.5633285045623779
1665697412.06184793,127004581,1,0.8262075781822205,0.011462008580565453,-0.005689859390258789,0.5632204413414001
1665697412.16185284,127104586,1,0.8262194991111755,0.011443347670137882,-0.005688370671123266,0.5632033348083496
1665697412.26183796,127204571,1,0.8261644244194031,0.011448449455201626,-0.005648378748446703,0.5632843971252441
1665697412.36185503,127304588,1,0.8260202407836914,0.011471603065729141,-0.0056412722915410995,0.5634954571723938
1665697412.46180391,127404537,1,0.8258513808250427,0.011437802575528622,-0.005611065775156021,0.5637439489364624
1665697412.56182194,127504555,1,0.8257544040679932,0.01145628746598959,-0.00558298546820879,0.5638858675956726
1665697412.66181087,127604544,1,0.8256940841674805,0.011465426534414291,-0.005599652417004108,0.5639737844467163
1665697412.76181293,127704546,1,0.8256723880767822,0.011492394842207432,-0.005596700124442577,0.5640050768852234
1665697412.86181593,127804549,1,0.8256795406341553,0.011494544334709644,-0.005586118437349796,0.5639947056770325
1665697412.96182799,127904561,1,0.8257675170898438,0.011504845693707466,-0.005584494676440954,0.5638656616210938
1665697413.06182194,128004555,1,0.8258870244026184,0.01145373098552227,-0.005578866694122553,0.5636916756629944
1665697413.16184306,128104576,1,0.8260244727134705,0.011476704850792885,-0.005616371054202318,0.5634894371032715
1665697413.26185203,128204585,1,0.8261564373970032,0.01146732084453106,-0.005655260756611824,0.5632957220077515
1665697413.36185503,128304588,1,0.8262600302696228,0.0114681925624609,-0.00567957479506731,0.5631434917449951
1665697413.46184397,128404577,1,0.8262951374053955,0.011485181748867035,-0.0056653209030628204,0.5630917549133301
1665697413.56184602,128504579,1,0.8263084888458252,0.011472460813820362,-0.005652876570820808,0.5630725026130676
1665697413.66183591,128604569,1,0.826273500919342,0.0114679466933012,-0.005647942889481783,0.5631240010261536
1665697413.76184797,128704581,1,0.8262733221054077,0.011439952068030834,-0.005657273810356855,0.5631247758865356
1665697413.86184692,128804580,1,0.8262680768966675,0.01143607683479786,-0.005691382568329573,0.5631322264671326
1665697413.96181393,128904547,1,0.8262057900428772,0.011441342532634735,-0.00573398731648922,0.5632230639457703
1665697414.06182098,129004554,1,0.8261495232582092,0.01140851154923439,-0.005740633234381676,0.5633061528205872
1665697414.16182303,129104556,1,0.8261309266090393,0.011403714306652546,-0.005759344436228275,0.5633333921432495
1665697414.26182294,129204556,1,0.826130211353302,0.01133039966225624,-0.005767240189015865,0.5633358359336853
1665697414.36181498,129304548,1,0.8261025547981262,0.011333865113556385,-0.005756777711212635,0.5633763670921326
1665697414.46181583,129404549,1,0.8260636329650879,0.011298654600977898,-0.005732635967433453,0.563434362411499
1665697414.56182289,129504556,1,0.8260385394096375,0.011268301866948605,-0.005693305749446154,0.5634722113609314
1665697414.66181302,129604546,1,0.8259806036949158,0.011234487406909466,-0.0056755212135612965,0.5635579824447632
1665697414.76185298,129704586,1,0.8259590268135071,0.01119182351976633,-0.005686220247298479,0.563590407371521
1665697414.86184287,129804576,1,0.8259702324867249,0.011205160059034824,-0.005678091663867235,0.5635737776756287
1665697414.96184707,129904580,1,0.8259748220443726,0.011166001670062542,-0.005650457460433245,0.5635680556297302
1665697415.06183696,130004570,1,0.8259750604629517,0.0111604705452919,-0.005616293754428625,0.5635681748390198
1665697415.16183686,130104570,1,0.8259363174438477,0.011144067160785198,-0.005618997383862734,0.5636252760887146
1665697415.26184392,130204577,1,0.8259024620056152,0.011157933622598648,-0.005601168144494295,0.5636747479438782
1665697415.36184907,130304582,1,0.8258294463157654,0.01113344356417656,-0.005601146258413792,0.563782274723053
1665697415.46185184,130404585,1,0.8257723450660706,0.011124157346785069,-0.005577425938099623,0.5638662576675415
1665697415.56182599,130504559,1,0.8257339596748352,0.011126860044896603,-0.005573381669819355,0.5639225244522095
1665697415.66181302,130604546,1,0.8256604075431824,0.011074976995587349,-0.005559188313782215,0.5640313029289246
1665697415.76180506,130704538,1,0.8255538940429688,0.011075683869421482,-0.00553029403090477,0.5641874670982361
1665697415.86181998,130804553,1,0.8254263401031494,0.011095033027231693,-0.005543239880353212,0.5643735527992249
1665697415.96182203,130904555,1,0.8252646327018738,0.01114081684499979,-0.0055345469154417515,0.5646092295646667
1665697416.06182194,131004555,1,0.8250794410705566,0.01113115530461073,-0.005521513056010008,0.5648801326751709
1665697416.16181397,131104547,1,0.8249304294586182,0.011136924847960472,-0.0055126892402768135,0.5650976896286011
1665697416.26181293,131204546,1,0.8248468041419983,0.011137562803924084,-0.005555865820497274,0.5652192234992981
1665697416.36184788,131304581,1,0.824760377407074,0.011136730201542377,-0.00556521862745285,0.5653453469276428
1665697416.46185803,131404591,1,0.824717104434967,0.011128406040370464,-0.005560866557061672,0.5654086470603943
1665697416.56189394,131504627,1,0.8246964812278748,0.011114261113107204,-0.005566062405705452,0.565438985824585
1665697416.66184187,131604575,1,0.8246948719024658,0.011111516505479813,-0.00556649174541235,0.565441370010376
1665697416.76184392,131704577,1,0.8246966004371643,0.011066354811191559,-0.005581489764153957,0.5654395222663879
1665697416.86183786,131804571,1,0.8246899843215942,0.011073893867433071,-0.005610583815723658,0.5654487609863281
1665697416.96183896,131904572,1,0.8246875405311584,0.011069961823523045,-0.005619766190648079,0.5654523372650146
1665697417.06186104,132004594,1,0.8246937990188599,0.011072336696088314,-0.00563082005828619,0.5654430389404297
1665697417.16181898,132104552,1,0.8247163891792297,0.011125359684228897,-0.005633564665913582,0.5654090642929077
1665697417.26179099,132204524,1,0.824768602848053,0.011134061962366104,-0.005617855116724968,0.56533282995224
1665697417.36181498,132304548,1,0.8248340487480164,0.011140292510390282,-0.005635338835418224,0.5652370452880859
1665697417.46181393,132404547,1,0.824883222579956,0.011145747266709805,-0.005608394276350737,0.5651654005050659
1665697417.56181598,132504549,1,0.8249437808990479,0.011145155876874924,-0.005607368424534798,0.5650770664215088
1665697417.66182494,132604558,1,0.8249830007553101,0.011142302304506302,-0.005623682402074337,0.5650197267532349
