timestamp,TimeUS,C,Roll,Pitch,Yaw,VN,VE,VD,dPD,PN,PE,PD,GX,GY,GZ,OH
1665697324.46191406,39404647,1,0.56,-1.33,67.6,-0.025159917771816254,-0.024491962045431137,-0.03577977418899536,-0.015503735281527042,-0.12245073169469833,-0.8755059838294983,-0.008983438834547997,0.01,0.01,0.05,268.22
1665697324.56184506,39504578,1,0.56,-1.33,67.57000000000001,-0.02494034916162491,-0.024960428476333618,-0.0352725088596344,-0.020792869850993156,-0.12245073169469833,-0.8755059838294983,-0.01182982511818409,0.01,0.01,0.05,268.22
1665697324.66183591,39604569,1,0.56,-1.33,67.55,-0.024282490834593773,-0.026407385244965553,-0.03558342531323433,-0.033816348761320114,-0.11131884157657623,-0.8836882710456848,-0.015309000387787819,0.01,0.01,0.05,268.22
1665697324.76184702,39704580,1,0.56,-1.33,67.52,-0.024405792355537415,-0.02782272733747959,-0.03540199249982834,-0.048740606755018234,-0.11131884157657623,-0.8836882710456848,-0.01992163620889187,0.01,0.01,0.06,268.22
1665697324.86183500,39804568,1,0.56,-1.33,67.48,-0.024570556357502937,-0.027568964287638664,-0.03547239676117897,-0.05317452922463417,-0.11131884157657623,-0.8918705582618713,-0.024691704660654068,0.01,0.01,0.05,268.22
1665697324.96181488,39904548,1,0.56,-1.32,67.43,-0.02504926733672619,-0.028828125447034836,-0.03564100340008736,-0.05336395278573036,-0.11131884157657623,-0.8918705582618713,-0.029577089473605156,0.01,0.01,0.06,268.22
1665697325.06184602,40004579,1,0.56,-1.32,67.36,-0.024828540161252022,-0.030533118173480034,-0.03618105500936508,-0.049974530935287476,-0.11131884157657623,-0.9000529050827026,-0.034200455993413925,0.01,0.01,0.07,268.22
1665697325.16183591,40104569,1,0.55,-1.32,67.27,-0.025185419246554375,-0.031752876937389374,-0.03645995259284973,-0.04637749120593071,-0.11131884157657623,-0.9000529050827026,-0.038749102503061295,0.01,0.01,0.07,268.22
1665697325.26181483,40204548,1,0.55,-1.32,67.2,-0.025768226012587547,-0.032844509929418564,-0.036564625799655914,-0.040807098150253296,-0.10018695890903473,-0.9164174795150757,-0.04272417724132538,0.01,0.01,0.07,268.22
1665697325.36181688,40304550,1,0.55,-1.33,67.16,-0.026253333315253258,-0.033760469406843185,-0.03688199818134308,-0.0288006030023098,-0.10018695890903473,-0.9164174795150757,-0.04559971019625664,0.01,0.01,0.07,268.22
1665697325.46182394,40404557,1,0.55,-1.32,67.15,-0.0268363319337368,-0.03474927321076393,-0.03591884672641754,-0.01697099581360817,-0.10018695890903473,-0.9245997667312622,-0.04771218076348305,0.01,0.01,0.07,268.22
1665697325.56181407,40504547,1,0.55,-1.33,67.15,-0.026813047006726265,-0.035533301532268524,-0.0350058488547802,-0.020510654896497726,-0.10018695890903473,-0.9245997667312622,-0.0504782497882843,0.01,0.01,0.07,268.22
1665697325.66181397,40604547,1,0.55,-1.33,67.18,-0.027805732563138008,-0.03685767948627472,-0.03533191978931427,-0.030202258378267288,-0.10018695890903473,-0.94096440076828,-0.05363496392965317,0.01,0.01,0.06,268.22
1665697325.76185203,40704585,1,0.55,-1.33,67.26,-0.027882050722837448,-0.037050239741802216,-0.034874219447374344,-0.026067938655614853,-0.10018695890903473,-0.94096440076828,-0.05605456605553627,0.01,0.01,0.05,268.22
1665697325.86185098,40804584,1,0.55,-1.33,67.36,-0.028394607827067375,-0.038061585277318954,-0.03437413275241852,-0.020498640835285187,-0.10018695890903473,-0.9491466879844666,-0.05823584645986557,0.01,0.01,0.04,268.22
1665697325.96185303,40904586,1,0.55,-1.33,67.44,-0.028586827218532562,-0.039217907935380936,-0.03376380726695061,-0.021415909752249718,-0.10018695890903473,-0.9491466879844666,-0.06058283522725105,0.01,0.01,0.05,268.22
1665697326.06184793,41004581,1,0.55,-1.33,67.48,-0.02828950807452202,-0.04077533632516861,-0.03304041177034378,-0.03146498650312424,-0.08905507624149323,-0.9573289752006531,-0.06400595605373383,0.01,0.01,0.05,268.22
1665697326.16184306,41104576,1,0.55,-1.32,67.49,-0.02883095107972622,-0.04155801236629486,-0.03331141173839569,-0.03876667097210884,-0.08905507624149323,-0.9573289752006531,-0.06751800328493118,0.01,0.01,0.05,268.22
1665697326.26183891,41204572,1,0.56,-1.33,67.46000000000001,-0.028720673173666,-0.04287274181842804,-0.033199492841959,-0.035630565136671066,-0.08905507624149323,-0.9573289752006531,-0.07081397622823715,0.01,0.01,0.06,268.22
1665697326.36186004,41304593,1,0.56,-1.33,67.42,-0.02918185666203499,-0.044128742069005966,-0.032698582857847214,-0.02578154020011425,-0.08905507624149323,-0.9573289752006531,-0.07313435524702072,0.01,0.01,0.06,268.22
1665697326.46185184,41404585,1,0.56,-1.33,67.38,-0.02919894829392433,-0.045800864696502686,-0.032606709748506546,-0.01380385272204876,-0.07792319357395172,-0.9655112624168396,-0.07461955398321152,0.01,0.01,0.06,268.22
1665697326.56182289,41504556,1,0.56,-1.33,67.33,-0.029990119859576225,-0.04722919687628746,-0.032326165586709976,-0.003504002932459116,-0.07792319357395172,-0.9655112624168396,-0.07524493336677551,0.01,0.01,0.07,268.22
1665697326.66182184,41604555,1,0.56,-1.33,67.26,-0.0311408843845129,-0.04753982648253441,-0.03194694221019745,-0.0010205707512795925,-0.07792319357395172,-0.9736935496330261,-0.07594899088144302,0.01,0.01,0.07,268.22
1665697326.76180792,41704541,1,0.56,-1.33,67.17,-0.031994421035051346,-0.0486798919737339,-0.03126663714647293,-0.0010580660309642553,-0.07792319357395172,-0.9736935496330261,-0.07634126394987106,0.01,0.01,0.08,268.22
1665697326.86181784,41804551,1,0.55,-1.32,67.1,-0.0329548716545105,-0.04938112199306488,-0.030873239040374756,-0.002750191604718566,-0.06679131090641022,-0.9818758964538574,-0.07697387784719467,0.01,0.01,0.07,268.22
1665697326.96183205,41904565,1,0.55,-1.32,67.06,-0.03377527743577957,-0.05028500780463219,-0.02939736843109131,0.0014515201328322291,-0.06679131090641022,-0.9818758964538574,-0.07682874798774719,0.01,0.01,0.07,268.22
1665697327.06192303,42004656,1,0.55,-1.32,67.05,-0.034460388123989105,-0.05193264037370682,-0.02813912183046341,0.008163082413375378,-0.06679131090641022,-0.9818758964538574,-0.07632531225681305,0.01,0.01,0.07,268.22
1665697327.16181588,42104549,1,0.54,-1.31,67.05,-0.03481212630867958,-0.05345766991376877,-0.027232635766267776,0.012660312466323376,-0.06679131090641022,-0.9818758964538574,-0.07524256408214569,0.01,0.01,0.07,268.22
1665697327.26181984,42204553,1,0.54,-1.31,67.07000000000001,-0.03565569967031479,-0.05459129437804222,-0.02586527168750763,0.015146797522902489,-0.06679131090641022,-0.990058183670044,-0.074141725897789,0.01,0.01,0.07,268.22
1665697327.36184692,42304580,1,0.54,-1.31,67.08,-0.03609195351600647,-0.05631363019347191,-0.024922050535678864,0.012542261742055416,-0.06679131090641022,-0.990058183670044,-0.07310953736305237,0.01,0.01,0.07,268.22
1665697327.46186590,42404599,1,0.54,-1.3,67.08,-0.035933833569288254,-0.05700318142771721,-0.02363554574549198,0.005341050680726767,-0.06679131090641022,-0.990058183670044,-0.07286703586578369,0.01,0.01,0.07,268.22
1665697327.56186604,42504599,1,0.53,-1.3,67.07000000000001,-0.035980768501758575,-0.05873512104153633,-0.02311820536851883,-0.00983362179249525,-0.06679131090641022,-0.990058183670044,-0.07384295016527176,0.01,0.01,0.07,268.22
1665697327.66183400,42604567,1,0.54,-1.3,67.07000000000001,-0.0364343523979187,-0.059838954359292984,-0.021825917065143585,-0.01716124825179577,-0.06679131090641022,-0.990058183670044,-0.07509642839431763,0.01,0.01,0.07,268.22
1665697327.76184201,42704575,1,0.54,-1.3,67.08,-0.03696238249540329,-0.06117292866110802,-0.02097538858652115,-0.005921278148889542,-0.06679131090641022,-0.990058183670044,-0.07504335045814514,0.01,0.01,0.07,268.22
1665697327.86184692,42804580,1,0.54,-1.3,67.1,-0.03625363111495972,-0.062044333666563034,-0.02003227360546589,0.016663381829857826,-0.055659420788288116,-0.9982404708862305,-0.0732637345790863,0.01,0.01,0.06,268.22
1665697327.96184301,42904576,1,0.54,-1.29,67.12,-0.036160003393888474,-0.06354022026062012,-0.018663033843040466,0.02936500310897827,-0.055659420788288116,-0.9982404708862305,-0.07098828256130219,0.01,0.01,0.06,268.22
1665697328.06186986,43004603,1,0.54,-1.29,67.16,-0.036652836948633194,-0.06462011486291885,-0.01772022806107998,0.005968775600194931,-0.055659420788288116,-1.006422758102417,-0.07152868062257767,0.01,0.01,0.06,268.22
1665697328.16182995,43104563,1,0.53,-1.29,67.22,-0.03634408488869667,-0.06557376682758331,-0.016892699524760246,-0.014559376053512096,-0.055659420788288116,-1.006422758102417,-0.07250356674194336,0.01,0.01,0.05,268.22
1665697328.26182294,43204556,1,0.53,-1.29,67.28,-0.036406584084033966,-0.0671282559633255,-0.01637406460940838,-0.008137227036058903,-0.055659420788288116,-1.006422758102417,-0.07269531488418579,0.01,0.01,0.05,268.22
1665697328.36181498,43304548,1,0.53,-1.29,67.35,-0.03674349561333656,-0.0688677653670311,-0.015492814593017101,-0.001278937910683453,-0.055659420788288116,-1.006422758102417,-0.07266922295093536,0.01,0.01,0.05,268.22
1665697328.46182203,43404555,1,0.53,-1.3,67.41,-0.03708064183592796,-0.07002293318510056,-0.014480968937277794,0.008585715666413307,-0.055659420788288116,-1.0146050453186035,-0.07173941284418106,0.01,0.01,0.05,268.22
1665697328.56182003,43504553,1,0.54,-1.29,67.41,-0.03686299920082092,-0.07069851458072662,-0.012985690496861935,0.03017370216548443,-0.055659420788288116,-1.0146050453186035,-0.06876684725284576,0.01,0.01,0.06,268.22
1665697328.66181684,43604550,1,0.54,-1.3,67.39,-0.03748878464102745,-0.07235828042030334,-0.01174279022961855,0.03840677812695503,-0.055659420788288116,-1.0146050453186035,-0.06587003171443939,0.01,0.01,0.06,268.22
1665697328.76181602,43704549,1,0.54,-1.3,67.34,-0.03732595965266228,-0.07267998158931732,-0.010503427125513554,0.035650596022605896,-0.055659420788288116,-1.0146050453186035,-0.0628093034029007,0.01,0.01,0.06,268.22
1665697328.86185884,43804592,1,0.54,-1.3,67.29,-0.026311682537198067,-0.05902997404336929,-0.00917886570096016,0.04051254317164421,-0.055659420788288116,-1.02278733253479,-0.059034720063209534,0.01,0.02,0.06,268.22
1665697328.96184301,43904576,1,0.54,-1.3,67.23,-0.013576475903391838,-0.04185337945818901,-0.006914685480296612,0.05062437802553177,-0.055659420788288116,-1.02278733253479,-0.0542648509144783,0.01,0.02,0.06,268.22
1665697329.06186104,44004594,1,0.54,-1.31,67.16,-0.004381048958748579,-0.029541140422225,-0.005037627182900906,0.037552520632743835,-0.055659420788288116,-1.02278733253479,-0.05146435648202896,0.01,0.02,0.07,268.22
1665697329.16184592,44104579,1,0.54,-1.31,67.12,0.0024006287567317486,-0.021652037277817726,-0.003446450922638178,0.004339378327131271,-0.055659420788288116,-1.02278733253479,-0.05115684121847153,0.01,0.02,0.06,268.22
1665697329.26184392,44204577,1,0.54,-1.31,67.12,0.0068445149809122086,-0.015974992886185646,-0.0022507579997181892,0.016674945130944252,-0.06679131090641022,-1.0309696197509766,-0.04799025505781174,0.01,0.02,0.06,268.22
1665697329.36183786,44304571,1,0.53,-1.31,67.12,0.009960990399122238,-0.01291098166257143,-0.0001126431452576071,0.06952732801437378,-0.06679131090641022,-1.0309696197509766,-0.04062531515955925,0.01,0.02,0.06,268.22
1665697329.46183991,44404573,1,0.54,-1.31,67.11,0.012132051400840282,-0.010353533551096916,0.0012204614467918873,0.06377588957548141,-0.055659420788288116,-1.0309696197509766,-0.03631463274359703,0.01,0.02,0.06,268.22
1665697329.56184983,44504583,1,0.54,-1.31,67.1,0.012836814858019352,-0.009244783781468868,0.00221875193528831,0.046044882386922836,-0.055659420788288116,-1.0309696197509766,-0.0316132977604866,0.01,0.02,0.06,268.22
1665697329.66181898,44604552,1,0.54,-1.31,67.09,0.013923916965723038,-0.009103568270802498,0.0036371860187500715,0.04751789942383766,-0.06679131090641022,-1.0309696197509766,-0.0271604061126709,0.01,0.02,0.06,268.22
1665697329.76181293,44704546,1,0.53,-1.3,67.08,0.01324410829693079,-0.010349271818995476,0.004907382186502218,0.03981218487024307,-0.06679131090641022,-1.0309696197509766,-0.0231254231184721,0.01,0.02,0.06,268.22
1665697329.86181307,44804546,1,0.53,-1.3,67.09,0.013117166236042976,-0.01083017885684967,0.005904748570173979,0.04478169605135918,-0.06679131090641022,-1.039151906967163,-0.01840192824602127,0.01,0.02,0.06,268.22
1665697329.96182203,44904555,1,0.53,-1.3,67.09,0.013396352529525757,-0.011597437784075737,0.007347299251705408,0.05736203491687775,-0.06679131090641022,-1.039151906967163,-0.012651251628994942,0.01,0.02,0.06,268.22
1665697330.06182098,45004554,1,0.53,-1.3,67.08,0.012435298413038254,-0.013380038551986217,0.008985675871372223,0.06670349091291428,-0.07792319357395172,-1.0473343133926392,-0.006382901221513748,0.01,0.02,0.06,268.22
1665697330.16181588,45104549,1,0.53,-1.3,67.07000000000001,0.012191039510071278,-0.01459534838795662,0.009167471900582314,0.03840702772140503,-0.07792319357395172,-1.0473343133926392,-0.0035243513993918896,0.01,0.02,0.06,268.22
1665697330.26181197,45204545,1,0.54,-1.3,67.04,0.010906771756708622,-0.01665775291621685,0.009916321374475956,-0.012424646876752377,-0.07792319357395172,-1.0473343133926392,-0.004603154491633177,0.01,0.02,0.07,268.22
1665697330.36181498,45304548,1,0.54,-1.3,67.02,0.010299581103026867,-0.0176379531621933,0.010947362519800663,-0.0072648306377232075,-0.07792319357395172,-1.0473343133926392,-0.003137520980089903,0.01,0.02,0.06,268.22
1665697330.46184587,45404579,1,0.54,-1.29,67.02,0.009411891922354698,-0.01879534311592579,0.011417335830628872,0.020879646763205528,-0.07792319357395172,-1.0473343133926392,-0.0005621991003863513,0.01,0.02,0.06,268.22
1665697330.56184793,45504581,1,0.54,-1.29,67.03,0.00871795043349266,-0.020542869344353676,0.01254158653318882,0.03519359230995178,-0.07792319357395172,-1.0473343133926392,0.0029243393801152706,0.01,0.02,0.06,268.22
1665697330.66185403,45604587,1,0.54,-1.29,67.03,0.007100903894752264,-0.021564211696386337,0.013878990896046162,0.05650957301259041,-0.07792319357395172,-1.0473343133926392,0.008276750333607197,0.01,0.02,0.06,268.22
1665697330.76182604,45704559,1,0.54,-1.28,67.02,0.006085309199988842,-0.023485399782657623,0.015324044972658157,0.06133391335606575,-0.07792319357395172,-1.0473343133926392,0.013394799083471298,0.01,0.02,0.06,268.22
1665697330.86183906,45804572,1,0.53,-1.28,66.99,0.004618675448000431,-0.025081293657422066,0.017671769484877586,0.06455977261066437,-0.07792319357395172,-1.0555166006088257,0.019459489732980728,0.01,0.02,0.07,268.22
1665697330.96183801,45904571,1,0.53,-1.28,66.92,0.003411662532016635,-0.027727976441383362,0.018704131245613098,0.0687808021903038,-0.07792319357395172,-1.0555166006088257,0.02579115331172943,0.01,0.02,0.08,268.22
1665697331.06184292,46004576,1,0.53,-1.28,66.83,0.0029221386648714542,-0.029302390292286873,0.02040252462029457,0.07209908217191696,-0.07792319357395172,-1.0473343133926392,0.032728176563978195,0.01,0.02,0.08,268.22
1665697331.16184807,46104581,1,0.53,-1.28,66.74,0.0017534270882606506,-0.031237147748470306,0.02180992066860199,0.05687178671360016,-0.07792319357395172,-1.0473343133926392,0.03755287826061249,0.01,0.02,0.08,268.22
1665697331.26181483,46204548,1,0.53,-1.28,66.65,0.00025128532433882356,-0.03348979726433754,0.02195701375603676,0.012627298943698406,-0.07792319357395172,-1.0555166006088257,0.03867373242974281,0.01,0.02,0.08,268.22
1665697331.36182189,46304555,1,0.53,-1.28,66.59,-0.0011646095663309097,-0.035500623285770416,0.02099030651152134,-0.03271916136145592,-0.07792319357395172,-1.0555166006088257,0.03634937107563019,0.01,0.02,0.08,268.22
1665697331.46180487,46404538,1,0.54,-1.27,66.58,-0.0026452939491719007,-0.03604466840624809,0.020693622529506683,-0.038303058594465256,-0.08905507624149323,-1.0555166006088257,0.034761007875204086,0.01,0.02,0.08,268.22
1665697331.56181788,46504551,1,0.54,-1.27,66.58,-0.0034035425633192062,-0.03715791180729866,0.02140360325574875,-0.003283142112195492,-0.08905507624149323,-1.0555166006088257,0.03587103635072708,0.01,0.02,0.08,268.22
1665697331.66181397,46604547,1,0.54,-1.28,66.58,-0.0037767309695482254,-0.03874492272734642,0.022549735382199287,0.043846264481544495,-0.08905507624149323,-1.0636988878250122,0.04052655026316643,0.01,0.02,0.08,268.22
1665697331.76181197,46704545,1,0.54,-1.28,66.56,-0.005316684953868389,-0.04032166302204132,0.023305295035243034,0.03934374824166298,-0.08905507624149323,-1.0636988878250122,0.042474716901779175,0.01,0.02,0.09,268.22
1665697331.86181784,46804551,1,0.54,-1.28,66.53,-0.006615848280489445,-0.04170127213001251,0.024103626608848572,0.013203675858676434,-0.08905507624149323,-1.0636988878250122,0.04365454241633415,0.01,0.02,0.08,268.22
1665697331.96181393,46904547,1,0.54,-1.28,66.51,-0.008244085125625134,-0.04347853735089302,0.02512044459581375,0.02497456967830658,-0.08905507624149323,-1.0636988878250122,0.04660937190055847,0.01,0.02,0.08,268.22
1665697332.06186604,47004599,1,0.54,-1.28,66.49,-0.009938275441527367,-0.044166870415210724,0.026436619460582733,0.025912631303071976,-0.10018695890903473,-1.0636988878250122,0.04872189089655876,0.01,0.02,0.09,268.22
1665697332.16185284,47104586,1,0.54,-1.28,66.45,-0.011970981024205685,-0.04568830132484436,0.02674402855336666,0.00470205070450902,-0.10018695890903473,-1.0636988878250122,0.04900384321808815,0.01,0.02,0.09,268.22
1665697332.26188684,47204620,1,0.54,-1.29,66.4,-0.013404910452663898,-0.046213697642087936,0.026898697018623352,-0.01998225599527359,-0.10018695890903473,-1.0718811750411987,0.04730468988418579,0.01,0.02,0.09,268.22
1665697332.36184406,47304577,1,0.55,-1.29,66.36,-0.013967142440378666,-0.04717850312590599,0.025812022387981415,-0.036461152136325836,-0.10018695890903473,-1.0718811750411987,0.044644683599472046,0.01,0.02,0.09,268.22
1665697332.46184206,47404575,1,0.55,-1.29,66.32000000000001,-0.014709869399666786,-0.0477130226790905,0.026038821786642075,-0.0171273872256279,-0.11131884157657623,-1.0718811750411987,0.04428544268012047,0.01,0.02,0.09,268.22
1665697332.56184006,47504573,1,0.55,-1.3,66.31,-0.015050970017910004,-0.04768601059913635,0.026660943403840065,0.023570062592625618,-0.11131884157657623,-1.0718811750411987,0.046946290880441666,0.01,0.02,0.09,268.22
1665697332.66183686,47604570,1,0.55,-1.3,66.3,-0.015492037869989872,-0.04769677668809891,0.028041090816259384,0.03496131673455238,-0.11131884157657623,-1.0718811750411987,0.049229227006435394,0.01,0.02,0.09,268.22
1665697332.76182795,47704561,1,0.56,-1.3,66.32000000000001,-0.016343602910637856,-0.04792550578713417,0.028324488550424576,0.01686270534992218,-0.11131884157657623,-1.0718811750411987,0.050070252269506454,0.01,0.02,0.08,268.22
1665697332.86181903,47804552,1,0.55,-1.3,66.35,-0.016803329810500145,-0.04747569188475609,0.027922628447413445,0.00014681527682114393,-0.11131884157657623,-1.0718811750411987,0.050105463713407516,0.01,0.02,0.08,268.22
1665697332.96181393,47904547,1,0.56,-1.31,66.37,-0.017199235036969185,-0.04648381844162941,0.02750198170542717,-0.009285397827625275,-0.11131884157657623,-1.0718811750411987,0.04952066019177437,0.01,0.02,0.09,268.22
1665697333.06182289,48004556,1,0.56,-1.31,66.39,-0.018220925703644753,-0.04599467292428017,0.0281025730073452,0.022627394646406174,-0.11131884157657623,-1.0718811750411987,0.05296296626329422,0.01,0.02,0.08,268.22
1665697333.16181684,48104550,1,0.56,-1.31,66.43,-0.018627602607011795,-0.04534400254487991,0.028642360121011734,0.052930817008018494,-0.11131884157657623,-1.0718811750411987,0.057346589863300323,0.01,0.02,0.08,268.22
1665697333.26181483,48204548,1,0.56,-1.31,66.5,-0.019655633717775345,-0.044933196157217026,0.02948794513940811,0.048894718289375305,-0.11131884157657623,-1.0718811750411987,0.06123945862054825,0.01,0.02,0.07,268.22
1665697333.36181593,48304549,1,0.5700000000000001,-1.31,66.57000000000001,-0.020002136006951332,-0.04543999582529068,0.030511153861880302,0.04325670748949051,-0.11131884157657623,-1.0718811750411987,0.06504498422145844,0.01,0.02,0.07,268.22
1665697333.46181893,48404552,1,0.5700000000000001,-1.31,66.61,-0.020787402987480164,-0.045593347400426865,0.031498659402132034,0.03731817379593849,-0.12245073169469833,-1.0718811750411987,0.06853906065225601,0.01,0.02,0.07,268.22
1665697333.56186199,48504595,1,0.5700000000000001,-1.31,66.63,-0.021795300766825676,-0.047148801386356354,0.0321846641600132,0.0353490374982357,-0.12245073169469833,-1.0718811750411987,0.07212335616350174,0.01,0.02,0.07,268.22
1665697333.66185093,48604584,1,0.5700000000000001,-1.31,66.64,-0.022547969594597816,-0.04809132590889931,0.03243161737918854,0.03184213116765022,-0.12245073169469833,-1.0800634622573853,0.07528064399957657,0.01,0.02,0.07,268.22
1665697333.76181602,48704549,1,0.58,-1.32,66.66,-0.023976095020771027,-0.04935590177774429,0.03333333134651184,0.032981324940919876,-0.12245073169469833,-1.0800634622573853,0.07881463319063187,0.01,0.02,0.07,268.22
1665697333.86182284,48804556,1,0.5700000000000001,-1.32,66.67,-0.025547446683049202,-0.050646569579839706,0.03376193717122078,0.039311058819293976,-0.12245073169469833,-1.0800634622573853,0.08278706669807434,0.01,0.02,0.07,268.22
1665697333.96184301,48904576,1,0.58,-1.31,66.7,-0.026616981253027916,-0.05221829190850258,0.03451954573392868,0.03657003119587898,-0.12245073169469833,-1.0800634622573853,0.0861770510673523,0.01,0.02,0.07,268.22
1665697334.06185484,49004588,1,0.58,-1.31,66.73,-0.02886216528713703,-0.0544971227645874,0.03536949306726456,0.032366301864385605,-0.13358262181282043,-1.0800634622573853,0.08944420516490936,0.01,0.02,0.06,268.22
1665697334.16184998,49104583,1,0.58,-1.3,66.77,-0.030775701627135277,-0.05574824661016464,0.03700146824121475,0.031242500990629196,-0.13358262181282043,-1.0800634622573853,0.09255237877368927,0.01,0.02,0.06,268.22
1665697334.26179004,49204523,1,0.5700000000000001,-1.3,66.8,-0.023131506517529488,0.0031477147713303566,0.03768085315823555,0.030459733679890633,-0.1013021245598793,-0.9722788333892822,0.09574472159147263,0.01,0.02,0.06,268.22
1665697334.36181688,49304550,1,0.58,-1.3,66.84,-0.025653351098299026,0.0015750101301819086,0.0386267825961113,0.0392884835600853,-0.10406819730997086,-0.9702313542366028,0.09987736493349075,0.01,0.02,0.06,268.22
1665697334.46182799,49404561,1,0.58,-1.3,66.9,-0.02478543482720852,-0.0018073196988552809,0.04026911035180092,0.03540435805916786,-0.10660629719495773,-0.9693168997764587,0.10289137810468674,0.01,0.02,0.05,268.22
1665697334.56180096,49504534,1,0.5700000000000001,-1.3,66.96000000000001,-0.02411312237381935,-0.005658815149217844,0.04009360447525978,0.023547988384962082,-0.10860631614923477,-0.9695015549659729,0.10538621991872787,0.01,0.02,0.05,268.22
1665697334.66181684,49604550,1,0.5700000000000001,-1.3,67.01,-0.02286243438720703,-0.008109252899885178,0.040577083826065063,0.022408274933695793,-0.1106794998049736,-0.9700431227684021,0.10798711329698563,0.01,0.02,0.05,268.22
1665697334.76181984,49704553,1,0.58,-1.3,67.03,-0.021823884919285774,-0.008532896637916565,0.040746040642261505,0.02746761403977871,-0.11248407512903214,-0.9707043170928955,0.11100592464208603,0.01,0.02,0.06,268.22
1665697334.86185098,49804584,1,0.58,-1.3,67.01,-0.019534138962626457,-0.007263381499797106,0.041701801121234894,0.02954770438373089,-0.1136874407529831,-0.9710265398025513,0.11388547718524933,0.01,0.02,0.06,268.22
1665697334.96181703,49904550,1,0.5700000000000001,-1.3,66.98,-0.017005175352096558,-0.006881476379930973,0.04177885875105858,0.03236161917448044,-0.11431875079870224,-0.9710665345191956,0.11725552380084991,0.01,0.02,0.06,268.22
1665697335.06182885,50004562,1,0.5700000000000001,-1.3,66.95,-0.01629559136927128,-0.007028331980109215,0.041773028671741486,0.026605982333421707,-0.11532121151685715,-0.9712563753128052,0.11960528790950775,0.01,0.02,0.06,268.22
1665697335.16186500,50104598,1,0.5700000000000001,-1.3,66.93,-0.015417260117828846,-0.007213394623249769,0.042081087827682495,0.0205489881336689,-0.11641775071620941,-0.9716305136680603,0.12190143764019012,0.01,0.02,0.06,268.22
1665697335.26185083,50204584,1,0.5700000000000001,-1.3,66.95,-0.01415923424065113,-0.00811760127544403,0.042520973831415176,0.020653748884797096,-0.11714227497577667,-0.9724174737930298,0.12405993789434433,0.01,0.02,0.05,268.22
1665697335.36185002,50304583,1,0.5700000000000001,-1.31,67.0,-0.01191550400108099,-0.009510337375104427,0.04243696480989456,0.020345095545053482,-0.11747542768716812,-0.973466157913208,0.1263313591480255,0.01,0.02,0.05,268.22
1665697335.46184397,50404577,1,0.56,-1.3,67.04,-0.009093995206058025,-0.01024808268994093,0.04164648428559303,0.008007328025996685,-0.11729873716831207,-0.9746202826499939,0.12696504592895508,0.01,0.02,0.05,268.22
1665697335.56184506,50504578,1,0.56,-1.31,67.08,-0.006110892165452242,-0.010758117772638798,0.04125311225652695,-0.005928921978920698,-0.1166517361998558,-0.975781261920929,0.12683866918087006,0.01,0.02,0.05,268.22
1665697335.66184187,50604575,1,0.56,-1.3,67.09,-0.002377198776230216,-0.010724029503762722,0.041222210973501205,0.0073387413285672665,-0.11570516228675842,-0.9768044948577881,0.12842459976673126,0.01,0.02,0.05,268.22
1665697335.76186585,50704599,1,0.55,-1.3,67.08,0.002109867287799716,-0.01058194600045681,0.041940122842788696,0.025599641725420952,-0.11428441852331161,-0.9776831269264221,0.1309361755847931,0.01,0.02,0.05,268.22
1665697335.86185193,50804585,1,0.55,-1.3,67.06,0.0034385938197374344,-0.012183818966150284,0.04103434458374977,0.004008523654192686,-0.1139969453215599,-0.9795531630516052,0.13043701648712158,0.01,0.02,0.05,268.22
1665697335.96182203,50904555,1,0.55,-1.3,67.02,0.002492001047357917,-0.014944471418857574,0.040370769798755646,-0.01653134822845459,-0.1143694818019867,-0.9820427894592285,0.12943467497825623,0.01,0.02,0.06,268.22
1665697336.06182289,51004556,1,0.55,-1.3,66.97,0.0029875130858272314,-0.01626919023692608,0.040251996368169785,-0.00582347484305501,-0.1148436889052391,-0.9841541051864624,0.12964968383312225,0.01,0.02,0.06,268.22
1665697336.16181397,51104547,1,0.55,-1.3,66.91,0.004393379669636488,-0.016902964562177658,0.04112152382731438,0.017748232930898666,-0.11510853469371796,-0.9860213994979858,0.1317807137966156,0.01,0.02,0.06,268.22
1665697336.26181293,51204546,1,0.55,-1.3,66.86,0.004359694197773933,-0.016871144995093346,0.04096907004714012,-0.008395961485803127,-0.11628323048353195,-0.9872080087661743,0.12949016690254211,0.01,0.02,0.06,268.22
1665697336.36181593,51304549,1,0.55,-1.3,66.81,0.002975227078422904,-0.017260897904634476,0.03984454646706581,-0.042117856442928314,-0.11775723844766617,-0.9881051182746887,0.12629036605358124,0.01,0.02,0.06,268.22
1665697336.46181583,51404549,1,0.55,-1.31,66.76,0.00222905189730227,-0.017354261130094528,0.039428699761629105,-0.033847399055957794,-0.1197006031870842,-0.989659309387207,0.12398415058851242,0.01,0.02,0.06,268.22
1665697336.56182098,51504554,1,0.55,-1.31,66.73,0.0013673880603164434,-0.01792900450527668,0.03916206955909729,-0.024963682517409325,-0.12163049727678299,-0.9915199875831604,0.1220012903213501,0.01,0.02,0.06,268.22
1665697336.66184402,51604577,1,0.56,-1.3,66.7,0.0007686534663662314,-0.018368834629654884,0.038956284523010254,-0.012883108109235764,-0.1239202693104744,-0.9930446147918701,0.12096831947565079,0.01,0.02,0.06,268.22
1665697336.76184487,51704578,1,0.56,-1.3,66.69,0.00017164221208076924,-0.019295768812298775,0.04023510962724686,0.021909574046730995,-0.12610456347465515,-0.9944968819618225,0.1234092265367508,0.01,0.02,0.06,268.22
1665697336.86184597,51804579,1,0.56,-1.3,66.65,-0.0001472957374062389,-0.01867939904332161,0.04158170893788338,0.06952277570962906,-0.12887534499168396,-0.9950579404830933,0.12964941561222076,0.01,0.02,0.07,268.22
1665697336.96185088,51904584,1,0.56,-1.3,66.6,-0.001982485642656684,-0.016712365671992302,0.04306868836283684,0.09051836282014847,-0.13166283071041107,-0.9951849579811096,0.1368417739868164,0.01,0.02,0.07,268.22
1665697337.06184793,52004581,1,0.56,-1.3,66.55,-0.0032901717349886894,-0.01684659719467163,0.043987300246953964,0.08701492100954056,-0.13516855239868164,-0.9963762164115906,0.14402888715267181,0.01,0.02,0.07,268.22
1665697337.16184807,52104581,1,0.5700000000000001,-1.3,66.55,-0.004698087926954031,-0.01858503557741642,0.04467490687966347,0.08381165564060211,-0.13868163526058197,-0.9982438087463379,0.15160022675991058,0.01,0.02,0.07,268.22
1665697337.26183605,52204569,1,0.5700000000000001,-1.3,66.55,-0.005711219273507595,-0.019166624173521996,0.04470056667923927,0.05967186763882637,-0.14255183935165405,-0.9999846816062927,0.15660110116004944,0.01,0.02,0.07,268.22
1665697337.36183786,52304571,1,0.5700000000000001,-1.3,66.55,-0.006785723380744457,-0.019394410774111748,0.04422159865498543,0.0350707545876503,-0.14620396494865417,-1.0016802549362183,0.16052104532718658,0.01,0.02,0.07,268.22
1665697337.46181798,52404551,1,0.58,-1.3,66.53,-0.008239573799073696,-0.017837584018707275,0.04372135549783707,0.01190237607806921,-0.15074193477630615,-1.002466082572937,0.16194655001163483,0.01,0.02,0.07,268.22
1665697337.56182384,52504557,1,0.59,-1.3,66.51,-0.009711463004350662,-0.016930049285292625,0.04244740307331085,-0.014350716955959797,-0.1552925854921341,-1.0027939081192017,0.16154728829860687,0.01,0.02,0.07,268.22
1665697337.66178894,52604522,1,0.59,-1.3,66.5,-0.010418504476547241,-0.015834957361221313,0.04195065423846245,0.004633383359760046,-0.15966354310512543,-1.0032882690429688,0.16383816301822662,0.01,0.02,0.07,268.22
1665697337.76182604,52704559,1,0.6,-1.31,66.52,-0.010854705236852169,-0.015373335219919682,0.041326459497213364,0.019090428948402405,-0.16352015733718872,-1.0038882493972778,0.1656259000301361,0.01,0.02,0.06,268.22
1665697337.86181903,52804552,1,0.6,-1.31,66.55,-0.01078665442764759,-0.01452008169144392,0.04101710394024849,0.00833213422447443,-0.1671583354473114,-1.0041848421096802,0.16641315817832947,0.01,0.02,0.06,268.22
1665697337.96181583,52904549,1,0.59,-1.32,66.61,-0.010983206331729889,-0.014069948345422745,0.04063799977302551,-0.005396013148128986,-0.17031046748161316,-1.0044236183166504,0.16594737768173218,0.01,0.02,0.06,268.22
1665697338.06182694,53004560,1,0.6,-1.32,66.67,-0.00992827769368887,-0.013440416194498539,0.03893975168466568,-0.032470110803842545,-0.17336603999137878,-1.0055145025253296,0.16297538578510284,0.01,0.02,0.06,268.22
1665697338.16181493,53104548,1,0.59,-1.32,66.72,-0.008979188278317451,-0.015137126669287682,0.03739233314990997,-0.033851198852062225,-0.1759275496006012,-1.007086157798767,0.1610274314880371,0.01,0.02,0.06,268.22
1665697338.26184201,53204575,1,0.59,-1.32,66.77,-0.00849409680813551,-0.01627388782799244,0.035655345767736435,-0.026580533012747765,-0.17840276658535004,-1.009324312210083,0.1587228775024414,0.01,0.02,0.05,268.22
1665697338.36184788,53304581,1,0.59,-1.32,66.83,-0.007979460060596466,-0.017137782648205757,0.03431766852736473,-0.02149432711303234,-0.18046997487545013,-1.0118412971496582,0.15709726512432098,0.01,0.02,0.05,268.22
1665697338.46185303,53404586,1,0.58,-1.33,66.89,-0.006544075906276703,-0.01692996546626091,0.03372805193066597,0.002407559659332037,-0.18179573118686676,-1.0134696960449219,0.1575956642627716,0.01,0.02,0.05,268.22
1665697338.56182194,53504555,1,0.58,-1.34,66.94,-0.0050655873492360115,-0.016498355194926262,0.033193159848451614,0.025172727182507515,-0.18244393169879913,-1.0146641731262207,0.15968193113803864,0.01,0.02,0.05,268.22
1665697338.66183090,53604564,1,0.58,-1.35,66.95,-0.0035122160334140062,-0.01565135084092617,0.03308772295713425,0.03362677991390228,-0.18362469971179962,-1.0154874324798584,0.1621149182319641,0.01,0.02,0.05,268.22
1665697338.76184607,53704579,1,0.5700000000000001,-1.35,66.94,-0.0021727478597313166,-0.01522228866815567,0.03302660956978798,0.049658436328172684,-0.18469227850437164,-1.0161625146865845,0.16674861311912537,0.01,0.02,0.05,268.22
1665697338.86188602,53804619,1,0.5700000000000001,-1.35,66.94,-0.00046418874990195036,-0.013082536868751049,0.03335754945874214,0.06066122278571129,-0.18532231450080872,-1.0161105394363403,0.17174573242664337,0.01,0.02,0.05,268.22
1665697338.96184897,53904582,1,0.5700000000000001,-1.36,66.99,0.0018513663671910763,-0.011933487839996815,0.034126900136470795,0.039656173437833786,-0.1854018121957779,-1.015769600868225,0.17459993064403534,0.01,0.02,0.04,268.22
1665697339.06182289,54004556,1,0.5700000000000001,-1.36,67.04,0.002846024464815855,-0.010417576879262924,0.03306800127029419,-0.003446742659434676,-0.18644921481609344,-1.0154122114181519,0.17395591735839844,0.01,0.02,0.04,268.22
1665697339.16181803,54104551,1,0.5700000000000001,-1.36,67.09,0.003642415627837181,-0.009807051159441471,0.031820595264434814,-0.02678436040878296,-0.18760725855827332,-1.0151184797286987,0.17256006598472595,0.01,0.02,0.04,268.22
1665697339.26180792,54204541,1,0.5700000000000001,-1.37,67.12,0.002876343671232462,-0.007513643242418766,0.0300417710095644,-0.02594839222729206,-0.19054631888866425,-1.014086365699768,0.17111940681934357,0.01,0.02,0.04,268.22
1665697339.36181402,54304547,1,0.5700000000000001,-1.37,67.13,0.0020875753834843636,-0.00653448048979044,0.029043368995189667,-0.005201457068324089,-0.19385094940662384,-1.012797236442566,0.17169754207134247,0.01,0.02,0.04,268.22
1665697339.46181297,54404546,1,0.58,-1.36,67.11,0.0010514733148738742,-0.005563715472817421,0.02789657935500145,2.0628413039958104e-06,-0.1980709433555603,-1.012229561805725,0.17120735347270966,0.01,0.02,0.05,268.22
1665697339.56182003,54504553,1,0.59,-1.36,67.07000000000001,0.000132243731059134,-0.004882607609033585,0.026399163529276848,-0.02395566925406456,-0.20218081772327423,-1.0120575428009033,0.1686735302209854,0.01,0.02,0.05,268.22
1665697339.66181302,54604546,1,0.59,-1.36,67.02,2.4105542252073064e-05,-0.00526388781145215,0.02600831538438797,-0.018864993005990982,-0.20600073039531708,-1.012574315071106,0.1677113026380539,0.01,0.02,0.05,268.22
1665697339.76181102,54704544,1,0.59,-1.36,66.97,-0.0010041239438578486,-0.005720115732401609,0.025417566299438477,-0.01278204470872879,-0.2092321515083313,-1.0134772062301636,0.16631361842155457,0.01,0.02,0.05,268.22
1665697339.86185002,54804583,1,0.59,-1.36,66.92,-0.00027541391318663955,-0.0054437629878520966,0.024358049035072327,-0.01286858320236206,-0.21233195066452026,-1.0141996145248413,0.1652960628271103,0.01,0.02,0.05,268.22
1665697339.96184897,54904582,1,0.59,-1.36,66.89,0.0012840726412832737,-0.005645855329930782,0.02425704337656498,0.010389608331024647,-0.21455276012420654,-1.014891505241394,0.1666104644536972,0.01,0.02,0.05,268.22
1665697340.06185699,55004590,1,0.58,-1.36,66.86,0.002090476918965578,-0.004610349889844656,0.02493422105908394,0.03179026022553444,-0.21664884686470032,-1.0151877403259277,0.1691877394914627,0.01,0.02,0.05,268.22
1665697340.16183901,55104572,1,0.58,-1.35,66.86,0.002758725080639124,-0.004527087323367596,0.02546861208975315,0.03257209435105324,-0.21824048459529877,-1.0152478218078613,0.1715032458305359,0.01,0.02,0.05,268.22
1665697340.26183605,55204569,1,0.58,-1.36,66.86,0.003308401443064213,-0.004482389893382788,0.02531404234468937,0.01844746246933937,-0.22001229226589203,-1.0161432027816772,0.17274826765060425,0.01,0.02,0.05,268.22
1665697340.36184096,55304574,1,0.58,-1.36,66.87,0.004242242779582739,-0.005472549237310886,0.025514360517263412,0.008966670371592045,-0.22143571078777313,-1.0173929929733276,0.17374061048030853,0.01,0.02,0.05,268.22
1665697340.46185589,55404589,1,0.58,-1.35,66.88,0.004502537660300732,-0.005531236529350281,0.026428911834955215,0.01456859428435564,-0.22358255088329315,-1.0183049440383911,0.17547348141670227,0.01,0.02,0.05,268.22
1665697340.56182790,55504561,1,0.58,-1.35,66.89,0.004328248091042042,-0.005055357236415148,0.02653229422867298,0.023010794073343277,-0.22563466429710388,-1.019005298614502,0.1778084635734558,0.01,0.02,0.05,268.22
1665697340.66184187,55604575,1,0.58,-1.35,66.91,0.003842021105811,-0.004393715877085924,0.02643524669110775,0.021578574553132057,-0.2284734696149826,-1.018655776977539,0.17966021597385406,0.01,0.02,0.05,268.22
1665697340.76182103,55704554,1,0.58,-1.36,66.93,0.004018090199679136,-0.002247591270133853,0.026202812790870667,0.015820570290088654,-0.23116813600063324,-1.0177916288375854,0.1812136471271515,0.01,0.02,0.05,268.22
1665697340.86181784,55804551,1,0.59,-1.35,66.96000000000001,0.0031506826635450125,-0.001266029546968639,0.025821596384048462,0.018641533330082893,-0.2344769537448883,-1.0172690153121948,0.18330469727516174,0.01,0.02,0.05,268.22
1665697340.96181703,55904550,1,0.59,-1.36,66.96000000000001,0.002573707140982151,0.0004765144840348512,0.026252906769514084,0.023424973711371422,-0.23755677044391632,-1.0168911218643188,0.18556812405586243,0.01,0.02,0.05,268.22
1665697341.06183195,56004565,1,0.6,-1.35,66.94,0.0005435983766801655,0.00026437078486196697,0.026536470279097557,0.01625555008649826,-0.24181140959262848,-1.017737865447998,0.1868901252746582,0.01,0.02,0.05,268.22
1665697341.16181493,56104548,1,0.6,-1.34,66.91,-0.0019772069063037634,-0.0011959258699789643,0.026381559669971466,0.008585975505411625,-0.24616795778274536,-1.0192018747329712,0.1879553198814392,0.01,0.02,0.05,268.22
1665697341.26182103,56204554,1,0.61,-1.34,66.89,-0.001763294916599989,-0.0015822877176105976,0.02568366378545761,0.0018360126996412873,-0.2500511705875397,-1.0204132795333862,0.1882748156785965,0.01,0.02,0.05,268.22
1665697341.36184406,56304577,1,0.6,-1.34,66.91,-0.002717080060392618,-0.0021935238037258387,0.025281444191932678,0.0013983016833662987,-0.25298625230789185,-1.0214672088623047,0.18884339928627014,0.01,0.02,0.04,268.22
1665697341.46185303,56404586,1,0.6,-1.34,66.95,-0.003569898894056678,-0.001988070085644722,0.025118937715888023,0.005555977579206228,-0.25677233934402466,-1.0220272541046143,0.18958629667758942,0.01,0.02,0.04,268.22
1665697341.56185198,56504585,1,0.61,-1.34,66.99,-0.005136788822710514,-0.002332458272576332,0.025442665442824364,0.013313408941030502,-0.2604602873325348,-1.0222651958465576,0.19107367098331451,0.01,0.02,0.04,268.22
1665697341.66181803,56604551,1,0.61,-1.34,67.02,-0.006243469659239054,-0.0015196148306131363,0.025945616886019707,0.03487098962068558,-0.2642443776130676,-1.0224913358688354,0.19467751681804657,0.01,0.02,0.04,268.22
1665697341.76184106,56704574,1,0.61,-1.34,67.07000000000001,-0.007112517487257719,-0.000311752111883834,0.027136800810694695,0.04842491075396538,-0.26756802201271057,-1.022565484046936,0.19872352480888367,0.01,0.02,0.04,268.22
1665697341.86184597,56804579,1,0.61,-1.34,67.11,-0.01047108881175518,-0.0014998310944065452,0.027356445789337158,0.04096926376223564,-0.27316775918006897,-1.023945927619934,0.20208710432052612,0.01,0.02,0.04,268.22
1665697341.96186304,56904596,1,0.61,-1.34,67.16,-0.015202822163701057,-0.0037748091854155064,0.026886597275733948,0.034393567591905594,-0.27951836585998535,-1.0260035991668701,0.2053546905517578,0.01,0.02,0.04,268.22
1665697342.06184793,57004581,1,0.61,-1.34,67.18,-0.019885221496224403,-0.005807722453027964,0.027174903079867363,0.021243248134851456,-0.2867039740085602,-1.027837872505188,0.20719966292381287,0.01,0.02,0.04,268.22
1665697342.16182685,57104560,1,0.61,-1.33,67.19,-0.02353200502693653,-0.006289660930633545,0.027329618111252785,0.009806977584958076,-0.29375457763671875,-1.0294630527496338,0.20859086513519287,0.01,0.02,0.04,268.22
1665697342.26181793,57204551,1,0.61,-1.33,67.18,-0.024620071053504944,-0.005394849460572004,0.027257507666945457,0.0029321513138711452,-0.29931405186653137,-1.0305079221725464,0.20916767418384552,0.01,0.02,0.04,268.22
1665697342.36180186,57304535,1,0.61,-1.33,67.17,-0.023359138518571854,-0.004268321208655834,0.02647778019309044,-0.007560248952358961,-0.3034909963607788,-1.0311206579208374,0.20891055464744568,0.01,0.02,0.04,268.22
1665697342.46184087,57404574,1,0.6,-1.33,67.17,-0.02188021130859852,-0.0039414893835783005,0.02601863257586956,-0.013680453412234783,-0.3069846034049988,-1.031548023223877,0.20802992582321167,0.01,0.02,0.04,268.22
1665697342.56181693,57504550,1,0.6,-1.33,67.18,-0.020108019933104515,-0.003917172085493803,0.0252291951328516,-0.01420533936470747,-0.309637188911438,-1.0318665504455566,0.20721833407878876,0.01,0.02,0.04,268.22
1665697342.66181803,57604551,1,0.6,-1.33,67.19,-0.01809958927333355,-0.002831830643117428,0.02499864250421524,0.007353766821324825,-0.3125321865081787,-1.0317423343658447,0.20861907303333282,0.01,0.02,0.04,268.22
1665697342.76181889,57704552,1,0.6,-1.32,67.2,-0.016438180580735207,-0.0017517070518806577,0.02503632940351963,0.027091747149825096,-0.31484806537628174,-1.0314074754714966,0.21101444959640503,0.01,0.02,0.04,268.22
1665697342.86182785,57804561,1,0.6,-1.32,67.21000000000001,-0.01446134690195322,-0.002205713652074337,0.0244184210896492,0.01757931336760521,-0.317111998796463,-1.0324740409851074,0.21183595061302185,0.01,0.02,0.04,268.22
1665697342.96186304,57904596,1,0.6,-1.32,67.22,-0.013216660358011723,-0.003655035048723221,0.02420992963016033,0.0036674179136753082,-0.3190026879310608,-1.0341391563415527,0.2122001051902771,0.01,0.02,0.04,268.22
1665697343.06186390,58004597,1,0.6,-1.32,67.23,-0.011654002591967583,-0.0053322394378483295,0.0230571161955595,-0.019283922389149666,-0.3214063048362732,-1.0364407300949097,0.2100648432970047,0.01,0.02,0.03,268.22
1665697343.16185188,58104585,1,0.6,-1.32,67.25,-0.01053975336253643,-0.00751509191468358,0.021827787160873413,-0.04164028912782669,-0.32368001341819763,-1.0389509201049805,0.2067710906267166,0.01,0.02,0.04,268.22
1665697343.26184297,58204576,1,0.6,-1.32,67.27,-0.010402179323136806,-0.008987659588456154,0.020395714789628983,-0.04307016730308533,-0.32682809233665466,-1.0412018299102783,0.2034635990858078,0.01,0.02,0.03,268.22
1665697343.36185598,58304589,1,0.6,-1.32,67.32000000000001,-0.010810642503201962,-0.010430672205984592,0.019831456243991852,-0.03629831597208977,-0.33004534244537354,-1.0432411432266235,0.20053474605083466,0.01,0.02,0.03,268.22
1665697343.46184707,58404580,1,0.61,-1.31,67.35,-0.010504771955311298,-0.010959168896079063,0.01937810704112053,-0.02357637882232666,-0.3331822156906128,-1.0452258586883545,0.19854819774627686,0.01,0.02,0.03,268.22
1665697343.56185198,58504585,1,0.61,-1.32,67.37,-0.010187125764787197,-0.011078130453824997,0.019495246931910515,-0.006643781438469887,-0.3358595073223114,-1.0470253229141235,0.19787997007369995,0.01,0.02,0.03,268.22
1665697343.66182089,58604554,1,0.61,-1.32,67.41,-0.01011430099606514,-0.01157462503761053,0.019430024549365044,0.011832386255264282,-0.33916154503822327,-1.0489017963409424,0.19877856969833374,0.01,0.02,0.03,268.22
1665697343.76181102,58704544,1,0.61,-1.32,67.44,-0.010640237480401993,-0.012262344360351562,0.020121337845921516,0.018844349309802055,-0.34237581491470337,-1.050740122795105,0.19979366660118103,0.01,0.02,0.03,268.22
1665697343.86184096,58804574,1,0.61,-1.32,67.46000000000001,-0.011126757599413395,-0.012432067655026913,0.020683500915765762,0.028269734233617783,-0.3454750180244446,-1.0524168014526367,0.2023477852344513,0.01,0.02,0.03,268.22
1665697343.96181583,58904549,1,0.61,-1.32,67.48,-0.011628272011876106,-0.012216359376907349,0.021212652325630188,0.036061324179172516,-0.3481610417366028,-1.053926706314087,0.205178901553154,0.01,0.02,0.03,268.22
1665697344.06183004,59004563,1,0.61,-1.32,67.49,-0.011072087101638317,-0.012583366595208645,0.021628690883517265,0.02702271193265915,-0.3510896861553192,-1.0559054613113403,0.20725440979003906,0.01,0.02,0.03,268.22
1665697344.16182899,59104562,1,0.61,-1.32,67.5,-0.01130699086934328,-0.013371673412621021,0.022052893415093422,0.021460218355059624,-0.35376155376434326,-1.0580300092697144,0.20933306217193604,0.01,0.02,0.03,268.22
1665697344.26182103,59204554,1,0.6,-1.3,67.51,-0.00982713233679533,-0.014989866875112057,0.02232002280652523,0.0346938893198967,-0.3558112382888794,-1.0602067708969116,0.21310274302959442,0.01,0.02,0.03,268.22
1665697344.36182094,59304554,1,0.58,-1.29,67.48,-0.009738205932080746,-0.016025561839342117,0.022648535668849945,0.03655332699418068,-0.3573441803455353,-1.0623750686645508,0.21608084440231323,0.01,0.02,0.03,268.22
1665697344.46186495,59404598,1,0.5700000000000001,-1.27,67.45,-0.008662517182528973,-0.016507698222994804,0.02221117913722992,0.021739324554800987,-0.3603295385837555,-1.064422369003296,0.21809616684913635,0.01,0.02,0.03,268.22
1665697344.56186795,59504601,1,0.58,-1.27,67.44,-0.009324034675955772,-0.014613321982324123,0.02241172082722187,0.01624380052089691,-0.36355963349342346,-1.0662927627563477,0.21997666358947754,0.01,0.02,0.02,268.22
1665697344.66185284,59604586,1,0.56,-1.26,67.5,-0.010512208566069603,-0.01623399183154106,0.0240697730332613,0.017770949751138687,-0.3683246970176697,-1.0672557353973389,0.22197039425373077,0.01,0.02,0.02,268.22
1665697344.76185489,59704588,1,0.56,-1.26,67.6,-0.011210538446903229,-0.0180553887039423,0.02460240200161934,0.017950385808944702,-0.3733704686164856,-1.0680155754089355,0.223868265748024,0.01,0.02,0.02,268.22
1665697344.86184692,59804580,1,0.58,-1.25,67.66,-0.012678657658398151,-0.015569210052490234,0.024934738874435425,0.02660694532096386,-0.37821677327156067,-1.0689713954925537,0.22688919305801392,0.01,0.02,0.02,268.22
1665697344.96184802,59904581,1,0.5700000000000001,-1.26,67.68,-0.016069477424025536,-0.013950738124549389,0.026818376034498215,0.03597637638449669,-0.3827376961708069,-1.0698554515838623,0.2301282286643982,0.01,0.02,0.02,268.22
1665697345.06186604,60004599,1,0.5700000000000001,-1.25,67.78,-0.012974553741514683,-0.01611928641796112,0.02507263608276844,0.021155990660190582,-0.38682714104652405,-1.0701415538787842,0.2318437695503235,0.01,0.02,0.01,268.22
1665697345.16183400,60104567,1,0.58,-1.25,67.87,-0.015628641471266747,-0.015965398401021957,0.024529539048671722,0.008180206641554832,-0.39036041498184204,-1.070420265197754,0.23307906091213226,0.01,0.02,0.01,268.22
1665697345.26186085,60204594,1,0.5700000000000001,-1.25,67.92,-0.014377647079527378,-0.012532192282378674,0.025880305096507072,-0.01109958253800869,-0.3945474624633789,-1.069806694984436,0.23193436861038208,0.01,0.02,0.01,268.22
1665697345.36182785,60304561,1,0.62,-1.27,68.02,-0.012931989505887032,-0.007133353967219591,0.024935530498623848,-0.01884632185101509,-0.39779648184776306,-1.0689371824264526,0.23105551302433014,0.01,0.02,0.0,268.22
1665697345.46179891,60404532,1,0.58,-1.28,68.11,-0.017530225217342377,-0.010659273713827133,0.024389244616031647,0.0013199152890592813,-0.40066811442375183,-1.0678025484085083,0.2320612221956253,0.01,0.02,0.0,268.22
1665697345.56182504,60504558,1,0.59,-1.27,68.16,-0.01216505840420723,-0.01616630144417286,0.023395096883177757,0.011764965020120144,-0.4029655158519745,-1.0672775506973267,0.23298847675323486,0.01,0.02,0.0,268.22
1665697345.66182590,60604559,1,0.61,-1.26,68.24,-0.014347217977046967,-0.008423136547207832,0.023902570828795433,0.009002051316201687,-0.40537190437316895,-1.0674291849136353,0.2336464822292328,0.01,0.02,0.0,268.22
1665697345.76182890,60704562,1,0.58,-1.27,68.29,-0.012714487500488758,-0.007284090388566256,0.02425987459719181,0.006813024636358023,-0.40763622522354126,-1.0676652193069458,0.234172061085701,0.01,0.02,0.0,268.22
1665697345.86182785,60804561,1,0.61,-1.27,68.3,-0.013906331732869148,-0.010429971851408482,0.02356823720037937,-0.011372420936822891,-0.40992745757102966,-1.067289113998413,0.23270215094089508,0.01,0.02,0.0,268.22
1665697345.96182299,60904556,1,0.58,-1.26,68.35000000000001,-0.01352430135011673,-0.011743041686713696,0.023000089451670647,-0.018781183287501335,-0.4124923348426819,-1.0667712688446045,0.2315920889377594,0.01,0.02,0.0,268.22
1665697346.06186986,61004603,1,0.59,-1.26,68.4,-0.010319271124899387,-0.008550716564059258,0.022603483870625496,0.003696123603731394,-0.4149295389652252,-1.0658717155456543,0.2326592653989792,0.01,0.02,0.0,268.22
1665697346.16185784,61104591,1,0.6,-1.27,68.39,-0.013605676591396332,-0.0053251804783940315,0.022668370977044106,0.022966261953115463,-0.4169468879699707,-1.0649040937423706,0.2346046268939972,0.01,0.02,0.0,268.22
1665697346.26185083,61204584,1,0.5700000000000001,-1.27,68.38,-0.010444825515151024,-0.008505036123096943,0.02311936393380165,0.028927607461810112,-0.41918280720710754,-1.0646580457687378,0.23687759041786194,0.01,0.02,0.0,268.22
1665697346.36182904,61304562,1,0.6,-1.26,68.38,-0.007512088865041733,-0.010238672606647015,0.02322356030344963,0.029314106330275536,-0.4209820330142975,-1.064980149269104,0.23931553959846497,0.01,0.02,0.0,268.22
1665697346.46184993,61404583,1,0.59,-1.27,68.33,-0.011782906018197536,-0.005314384121447802,0.023601794615387917,0.022004181519150734,-0.422885537147522,-1.0648082494735718,0.24111831188201904,0.01,0.02,0.0,268.22
1665697346.56184506,61504578,1,0.59,-1.27,68.29,-0.008052688091993332,-0.006242726929485798,0.022882701829075813,0.012593168765306473,-0.4243868887424469,-1.064613938331604,0.24241836369037628,0.01,0.02,0.0,268.22
1665697346.66185093,61604584,1,0.6,-1.27,68.29,-0.010028648190200329,-0.00891125202178955,0.02227996475994587,-0.006498532369732857,-0.42737939953804016,-1.0646942853927612,0.24168968200683594,0.01,0.02,0.0,268.22
1665697346.76179695,61704530,1,0.58,-1.27,68.3,-0.008590427227318287,-0.008191277272999287,0.021860647946596146,-0.025998257100582123,-0.4305121600627899,-1.0648984909057617,0.2396123856306076,0.01,0.02,0.0,268.22
1665697346.86182904,61804562,1,0.61,-1.27,68.33,-0.009569299407303333,-0.006208417471498251,0.020367035642266273,-0.04773867502808571,-0.4332423806190491,-1.064990520477295,0.2354738414287567,0.01,0.02,0.0,268.22
1665697346.96181989,61904553,1,0.59,-1.27,68.38,-0.011534404940903187,-0.006445351056754589,0.01930549554526806,-0.056433022022247314,-0.435899555683136,-1.06510329246521,0.23108573257923126,0.01,0.02,0.0,268.22
1665697347.06181502,62004548,1,0.6,-1.27,68.42,-0.0071641672402620316,-0.009278630837798119,0.01736043579876423,-0.05149533972144127,-0.43832242488861084,-1.0638996362686157,0.22682836651802063,0.01,0.02,0.0,268.22
1665697347.16182804,62104561,1,0.61,-1.27,68.46000000000001,-0.010217227041721344,-0.0061594159342348576,0.01659422740340233,-0.045247938483953476,-0.44023001194000244,-1.0623732805252075,0.2227964550256729,0.01,0.02,0.0,268.22
1665697347.26181889,62204552,1,0.6,-1.26,68.47,-0.008014955557882786,-0.0037951876875013113,0.015153956599533558,-0.04341917112469673,-0.44184792041778564,-1.059205174446106,0.21858862042427063,0.01,0.02,0.0,268.22
1665697347.36181784,62304551,1,0.61,-1.27,68.49,-0.006948435679078102,-0.002615914912894368,0.013993374072015285,-0.039242587983608246,-0.44298291206359863,-1.0557852983474731,0.21489845216274261,0.01,0.02,0.0,268.22
1665697347.46182489,62404558,1,0.61,-1.27,68.5,-0.008533314801752567,-0.0022900840267539024,0.013160085305571556,-0.022002851590514183,-0.4445752799510956,-1.0527749061584473,0.21285206079483032,0.01,0.02,0.0,268.22
1665697347.56184506,62504578,1,0.61,-1.27,68.52,-0.006980677600950003,-0.0008985514286905527,0.01185672078281641,-0.0031124278903007507,-0.44608059525489807,-1.0502865314483643,0.21225236356258392,0.01,0.02,0.0,268.22
1665697347.66184807,62604581,1,0.61,-1.27,68.53,-0.005149206146597862,0.0011259082239121199,0.01179357711225748,0.0017142969882115722,-0.44665583968162537,-1.0483465194702148,0.2115492820739746,0.01,0.02,0.0,268.22
1665697347.76189184,62704625,1,0.59,-1.28,68.54,-0.0046945069916546345,-0.0002896933874581009,0.010236040689051151,-0.005419944878667593,-0.4468165338039398,-1.0469849109649658,0.21054363250732422,0.01,0.02,0.0,268.22
1665697347.86186004,62804593,1,0.6,-1.28,68.53,1.9474835426080972e-05,-0.0005486109293997288,0.009615100920200348,-0.009705896489322186,-0.4463796317577362,-1.0464977025985718,0.2093678116798401,0.01,0.02,0.0,268.22
1665697347.96183705,62904570,1,0.59,-1.28,68.52,0.0006877853884361684,-0.0002187711652368307,0.008710882626473904,-0.013584913685917854,-0.4456970989704132,-1.0463621616363525,0.2079528272151947,0.01,0.02,0.0,268.22
1665697348.06185198,63004585,1,0.59,-1.28,68.53,0.005136049818247557,-0.0012675424804911017,0.009153326041996479,0.01626887172460556,-0.4446231424808502,-1.0455018281936646,0.21020938456058502,0.01,0.02,0.0,268.22
1665697348.16184497,63104578,1,0.59,-1.28,68.52,0.002955717733129859,-0.0027784814592450857,0.009696719236671925,0.03395753726363182,-0.44339340925216675,-1.0449243783950806,0.21256083250045776,0.01,0.02,0.0,268.22
1665697348.26182985,63204563,1,0.58,-1.28,68.53,0.004649230279028416,-0.0033419611863791943,0.009792149066925049,0.014750747010111809,-0.44312068819999695,-1.0438828468322754,0.21298493444919586,0.01,0.02,0.0,268.22
1665697348.36185288,63304586,1,0.59,-1.27,68.55,0.006198877468705177,-0.0013507315889000893,0.00968992244452238,-0.009536618366837502,-0.4429592490196228,-1.0427733659744263,0.21194346249103546,0.01,0.02,0.0,268.22
1665697348.46182489,63404558,1,0.58,-1.27,68.55,0.005891452077776194,-0.0025456862058490515,0.007797961588948965,-0.026247046887874603,-0.44369274377822876,-1.0413508415222168,0.20990510284900665,0.01,0.02,0.0,268.22
1665697348.56182694,63504560,1,0.58,-1.27,68.57000000000001,0.006411238107830286,-0.002621936844661832,0.007127439137548208,-0.024094700813293457,-0.4445839822292328,-1.040177583694458,0.20840543508529663,0.01,0.02,0.0,268.22
1665697348.66182089,63604554,1,0.59,-1.27,68.63,0.006626862101256847,-0.002768599661067128,0.005983599927276373,-0.01971426047384739,-0.4451313316822052,-1.0390076637268066,0.20668239891529083,0.01,0.02,0.0,268.22
1665697348.76182795,63704561,1,0.58,-1.26,68.7,0.006721658632159233,-0.0007140169618651271,0.005389710888266563,-0.022737449035048485,-0.44544970989227295,-1.0379444360733032,0.20458254218101501,0.01,0.02,0.0,268.22
1665697348.86182284,63804556,1,0.59,-1.27,68.75,0.009105491451919079,-0.0030165857169777155,0.0045010983012616634,-0.020313255488872528,-0.44545719027519226,-1.0361169576644897,0.20287024974822998,0.01,0.02,0.0,268.22
1665697348.96182203,63904555,1,0.58,-1.27,68.81,0.007972910068929195,-0.0015591050032526255,0.0038956988137215376,-0.013851415365934372,-0.44522717595100403,-1.034285545349121,0.20157656073570251,0.01,0.02,0.0,268.22
1665697349.06184101,64004574,1,0.58,-1.26,68.83,0.010106576606631279,-0.002615167060866952,0.0036491111386567354,0.004863877780735493,-0.44516870379447937,-1.032596468925476,0.20227794349193573,0.01,0.02,0.0,268.22
1665697349.16185284,64104586,1,0.59,-1.26,68.84,0.009311487898230553,-0.0018905223114416003,0.0038759801536798477,0.01624632626771927,-0.44500264525413513,-1.0313138961791992,0.20316269993782043,0.01,0.02,0.0,268.22
1665697349.26186204,64204595,1,0.58,-1.26,68.85000000000001,0.010181518271565437,-0.0019045316148549318,0.005020922981202602,0.023983456194400787,-0.4457179307937622,-1.0290383100509644,0.20522429049015045,0.01,0.02,0.0,268.22
1665697349.36190104,64304634,1,0.59,-1.26,68.86,0.00838566105812788,-0.0031893805135041475,0.005730079486966133,0.03782522305846214,-0.4465171694755554,-1.0268234014511108,0.20845261216163635,0.01,0.02,-0.01,268.22
1665697349.46185899,64404592,1,0.58,-1.26,68.87,0.00743092130869627,-0.0021054339595139027,0.006981275975704193,0.044118642807006836,-0.4479137063026428,-1.0246737003326416,0.21216130256652832,0.01,0.02,0.0,268.22
1665697349.56185102,64504584,1,0.58,-1.26,68.86,0.007196902297437191,-0.0032656793482601643,0.007578050717711449,0.049172140657901764,-0.4492228031158447,-1.0229136943817139,0.2165878862142563,0.01,0.02,0.0,268.22
1665697349.66185784,64604591,1,0.59,-1.26,68.84,0.005844336003065109,-0.0031266575679183006,0.008265024982392788,0.038066521286964417,-0.4510543942451477,-1.0207228660583496,0.21954244375228882,0.01,0.02,0.0,268.22
1665697349.76184607,64704579,1,0.58,-1.26,68.79,0.004315949510782957,-0.004241247661411762,0.008653000928461552,0.01516837626695633,-0.45292675495147705,-1.0187318325042725,0.22097906470298767,0.01,0.02,0.0,268.22
1665697349.86185503,64804588,1,0.59,-1.26,68.76,0.005558348260819912,-0.0037307541351765394,0.00901369284838438,0.014828435145318508,-0.45467308163642883,-1.016890048980713,0.2231963723897934,0.01,0.02,0.0,268.22
1665697349.96182585,64904559,1,0.58,-1.26,68.75,0.0034027635119855404,-0.003930126316845417,0.008910217322409153,0.01290002092719078,-0.4561519920825958,-1.015437364578247,0.2244991809129715,0.01,0.02,0.0,268.22
1665697350.06182885,65004562,1,0.58,-1.25,68.74,0.005547703709453344,-0.005424827802926302,0.008623235858976841,-0.00844015646725893,-0.45737728476524353,-1.0142123699188232,0.22364817559719086,0.01,0.02,0.0,268.22
1665697350.16180491,65104538,1,0.59,-1.25,68.74,0.004621777683496475,-0.004857618361711502,0.007872660644352436,-0.02730151079595089,-0.45845210552215576,-1.012966275215149,0.2217492014169693,0.01,0.02,0.0,268.22
1665697350.26182103,65204554,1,0.58,-1.26,68.74,0.005611606873571873,-0.00526848528534174,0.008684980683028698,-0.00643019936978817,-0.45956090092658997,-1.0109018087387085,0.22234784066677094,0.01,0.02,0.0,268.22
1665697350.36182284,65304556,1,0.59,-1.26,68.72,0.006806209683418274,-0.005254275165498257,0.008767674677073956,0.010296616703271866,-0.46024665236473083,-1.0089442729949951,0.22313804924488068,0.01,0.02,0.0,268.22
1665697350.46181703,65404550,1,0.58,-1.25,68.7,0.0058046323247253895,-0.005018840543925762,0.008737086318433285,0.012023896910250187,-0.46220362186431885,-1.007123351097107,0.2241891473531723,0.01,0.02,0.0,268.22
1665697350.56181288,65504546,1,0.58,-1.25,68.69,0.0061435578390955925,-0.005018876399844885,0.009161405265331268,0.03395251929759979,-0.4643053412437439,-1.0057246685028076,0.22764739394187927,0.01,0.02,0.0,268.22
1665697350.66182089,65604554,1,0.59,-1.25,68.68,0.005964496172964573,-0.005484575871378183,0.00962033774703741,0.04617562144994736,-0.4656055271625519,-1.003288745880127,0.23132199048995972,0.01,0.02,0.0,268.22
1665697350.76185799,65704591,1,0.58,-1.26,68.65,0.006540551781654358,-0.004657760728150606,0.009358447045087814,-0.006677912548184395,-0.46629855036735535,-1.0008480548858643,0.2290554791688919,0.01,0.02,0.0,268.22
1665697350.86185789,65804591,1,0.59,-1.26,68.64,0.006784177850931883,-0.005074820946902037,0.009043173864483833,-0.0561797097325325,-0.4677594304084778,-0.9985426068305969,0.22470398247241974,0.01,0.02,0.0,268.22
1665697350.96184206,65904575,1,0.58,-1.25,68.63,0.006161967292428017,-0.004178698640316725,0.00890858843922615,-0.05255115404725075,-0.4693077504634857,-0.9966704845428467,0.22122913599014282,0.01,0.02,0.0,268.22
1665697351.06184196,66004575,1,0.59,-1.25,68.61,0.006886377930641174,-0.005174515303224325,0.008285165764391422,-0.042188022285699844,-0.47129884362220764,-0.9942083954811096,0.21787981688976288,0.01,0.02,0.0,268.22
1665697351.16183686,66104570,1,0.59,-1.25,68.61,0.00467111449688673,-0.004854290746152401,0.007878554053604603,-0.03242982178926468,-0.4731507897377014,-0.9920223355293274,0.21509483456611633,0.01,0.02,0.0,268.22
1665697351.26184297,66204576,1,0.58,-1.25,68.60000000000001,0.0032840431667864323,-0.004846501164138317,0.007351940032094717,-0.02812804840505123,-0.475816935300827,-0.9893829822540283,0.21223655343055725,0.01,0.02,0.0,268.22
1665697351.36184001,66304573,1,0.59,-1.25,68.57000000000001,0.002559248125180602,-0.005035098176449537,0.006879306863993406,-0.03789084777235985,-0.4783897399902344,-0.9871068596839905,0.2082483321428299,0.01,0.02,0.0,268.22
1665697351.46184492,66404578,1,0.59,-1.25,68.54,0.0016698691761121154,-0.004226248245686293,0.0055083902552723885,-0.04557708650827408,-0.480528324842453,-0.9841060042381287,0.20410007238388062,0.01,0.02,0.0,268.22
1665697351.56182194,66504555,1,0.59,-1.25,68.52,0.0032169795595109463,-0.004061837214976549,0.005239933263510466,-0.04034626856446266,-0.48199567198753357,-0.9813461899757385,0.20044395327568054,0.01,0.02,0.0,268.22
1665697351.66181684,66604550,1,0.59,-1.25,68.48,0.0036306369584053755,-0.002018124796450138,0.005408319644629955,-0.017918428406119347,-0.4831983149051666,-0.9774404764175415,0.19905763864517212,0.01,0.02,0.0,268.22
1665697351.76180601,66704539,1,0.59,-1.26,68.43,0.004168420098721981,-0.0012162994826212525,0.005465163383632898,0.010244316421449184,-0.4839661717414856,-0.973514199256897,0.19967356324195862,0.01,0.02,0.0,268.22
1665697351.86182499,66804558,1,0.59,-1.26,68.37,0.005090807564556599,-0.0005683008348569274,0.005718166008591652,0.017764607444405556,-0.48498255014419556,-0.9692894220352173,0.200376495718956,0.01,0.02,0.01,268.22
