timestamp,TimeUS,I,Status,GMS,GWk,NSats,HDop,Lat,Lng,Alt,Spd,GCrs,VZ,Yaw,U
1671115432.00000000,59231491,0,3,398650000,2240,13,0.77,42.728612999999996,-84.48478329999999,262.46,0.03544009104371071,286.3895568847656,0.03100000135600567,0.0,1
1671115432.20000887,59431500,0,3,398650200,2240,13,0.77,42.7286127,-84.48478349999999,262.5,0.018681542947888374,164.4758758544922,0.10600000619888306,0.0,1
1671115432.39996600,59631457,0,3,398650400,2240,13,0.77,42.728612399999996,-84.4847837,262.53000000000003,0.04318564757704735,174.68544006347656,0.010000000707805157,0.0,1
1671115432.59988284,59831374,0,3,398650600,2240,13,0.77,42.7286121,-84.4847838,262.57,0.033941127359867096,225.0,0.09400000423192978,0.0,1
1671115432.79993892,60031430,0,3,398650800,2240,13,0.77,42.7286116,-84.4847843,262.64,0.028178006410598755,27.474430084228516,0.10500000417232513,0.0,1
1671115432.97990298,60211394,0,3,398651000,2240,13,0.77,42.7286113,-84.48478449999999,262.72,0.05491812154650688,10.491476058959961,0.07600000500679016,0.0,1
1671115433.19994283,60431434,0,3,398651200,2240,13,0.77,42.728611,-84.4847849,262.81,0.04000000283122063,233.13009643554688,0.10300000756978989,0.0,1
1671115433.39991498,60631406,0,3,398651400,2240,13,0.77,42.728610599999996,-84.4847853,262.89,0.018973667174577713,341.5650634765625,0.0860000029206276,0.0,1
1671115433.60001588,60831507,0,3,398651600,2240,13,0.77,42.7286102,-84.4847856,262.97,0.015620499849319458,230.19442749023438,0.10300000756978989,0.0,1
1671115433.79995894,61031450,0,3,398651800,2240,13,0.77,42.7286098,-84.484786,263.06,0.02376973070204258,22.249021530151367,0.1300000101327896,0.0,1
1671115433.99998784,61231479,0,3,398652000,2240,13,0.77,42.7286095,-84.48478639999999,263.14,0.04104875400662422,357.2073059082031,0.03200000151991844,0.0,1
1671115434.19992495,61431416,0,3,398652200,2240,13,0.77,42.728609,-84.4847868,263.24,0.02408318966627121,175.23634338378906,0.0990000069141388,0.0,1
1671115434.39997292,61631464,0,3,398652400,2240,13,0.77,42.7286085,-84.48478709999999,263.31,0.02941088378429413,107.81887817382812,0.05300000309944153,0.0,1
1671115434.59995985,61831451,0,3,398652600,2240,13,0.77,42.728608099999995,-84.48478759999999,263.38,0.03101612627506256,268.15240478515625,0.05400000140070915,0.0,1
1671115434.79994988,62031441,0,3,398652800,2240,13,0.77,42.7286076,-84.484788,263.46,0.008544004522264004,200.55606079101562,0.05100000277161598,0.0,1
1671115434.99990392,62231395,0,3,398653000,2240,13,0.77,42.7286073,-84.4847882,263.56,0.013892443850636482,120.25643157958984,0.06400000303983688,0.0,1
1671115435.19989300,62431384,0,3,398653200,2240,12,0.77,42.7286076,-84.48478759999999,263.52,0.02906888537108898,49.184913635253906,0.049000002443790436,0.0,1
1671115435.39992285,62631414,0,3,398653400,2240,12,0.77,42.7286079,-84.484787,263.47,0.026019224897027016,272.2026062011719,0.02200000174343586,0.0,1
1671115435.59996796,62831459,0,3,398653600,2240,12,0.79,42.7286083,-84.48478639999999,263.44,0.005000000353902578,53.13010025024414,0.04800000041723251,0.0,1
1671115435.79998899,63031480,0,3,398653800,2240,12,0.79,42.7286086,-84.4847858,263.41,0.012041594833135605,228.36647033691406,0.05000000074505806,0.0,1
1671115435.99997997,63231471,0,3,398654000,2240,12,0.79,42.728609,-84.48478519999999,263.36,0.03623534366488457,27.979473114013672,0.0690000057220459,0.0,1
1671115436.19994998,63431441,0,3,398654200,2240,12,0.79,42.728609399999996,-84.48478449999999,263.32,0.03420526534318924,322.1250305175781,0.052000001072883606,0.0,1
1671115436.39997983,63631471,0,3,398654400,2240,12,0.79,42.7286097,-84.4847839,263.29,0.012206556275486946,145.00796508789062,0.164000004529953,0.0,1
1671115436.59997582,63831467,0,3,398654600,2240,12,0.79,42.728609999999996,-84.48478329999999,263.26,0.003162277629598975,341.5650634765625,0.25300002098083496,0.0,1
1671115436.79984784,64031339,0,3,398654800,2240,12,0.79,42.7286103,-84.4847827,263.21,0.012206556275486946,214.99203491210938,0.1720000058412552,0.0,1
1671115436.99986792,64231359,0,3,398655000,2240,12,0.79,42.7286107,-84.48478209999999,263.17,0.003162277629598975,18.434947967529297,0.16600000858306885,0.0,1
1671115437.19997787,64431469,0,3,398655200,2240,12,0.79,42.728611,-84.4847815,263.14,0.010295630432665348,240.94540405273438,0.1120000034570694,0.0,1
1671115437.39998984,64631481,0,3,398655400,2240,12,0.79,42.7286113,-84.48478089999999,263.11,0.0152970589697361,168.6900634765625,0.07100000232458115,0.0,1
1671115437.59998393,64831475,0,3,398655600,2240,12,0.79,42.7286115,-84.48478039999999,263.07,0.011180340312421322,259.6951599121094,0.07900000363588333,0.0,1
1671115437.79998684,65031478,0,3,398655800,2240,12,0.79,42.7286119,-84.48477969999999,263.05,0.01726267673075199,79.99201202392578,0.1469999998807907,0.0,1
1671115437.99997592,65231467,0,3,398656000,2240,12,0.79,42.7286122,-84.4847791,263.01,0.018110770732164383,353.6598205566406,0.0820000022649765,0.0,1
1671115438.20003390,65431525,0,3,398656200,2240,13,0.79,42.7286125,-84.4847786,262.98,0.06140033155679703,196.07357788085938,0.07200000435113907,0.0,1
1671115438.37998581,65611477,0,3,398656400,2240,13,0.79,42.7286127,-84.4847781,262.99,0.025495098903775215,205.5599822998047,-0.11400000751018524,0.0,1
1671115438.59993696,65831428,0,3,398656600,2240,13,0.77,42.728612899999995,-84.4847776,263.06,0.03996248543262482,211.70143127441406,-0.4410000145435333,0.0,1
1671115438.80001283,66031504,0,3,398656800,2240,13,0.77,42.7286127,-84.4847776,263.14,0.05255473777651787,201.19406127929688,-0.5550000071525574,0.0,1
1671115438.99996686,66231458,0,3,398657000,2240,12,0.77,42.728612,-84.48477779999999,263.25,0.26900744438171387,180.42599487304688,-0.6630000472068787,0.0,1
1671115439.19999695,66431488,0,3,398657200,2240,12,0.77,42.728611,-84.4847783,263.36,0.3803156912326813,202.2490234375,-0.6370000243186951,0.0,1
1671115439.40000391,66631495,0,3,398657400,2240,12,0.77,42.728609999999996,-84.4847788,263.5,0.1941777616739273,188.58912658691406,-0.7230000495910645,0.0,1
1671115439.60000086,66831492,0,3,398657600,2240,12,0.87,42.7286092,-84.4847794,263.65,0.07102112472057343,170.2724151611328,-0.6810000538825989,0.0,1
1671115439.79998779,67031479,0,3,398657800,2240,11,0.87,42.728608699999995,-84.4847793,263.73,0.24547302722930908,193.1870574951172,-0.675000011920929,0.0,1
1671115440.00001597,67231507,0,3,398658000,2240,11,0.87,42.7286083,-84.4847793,263.77,0.08895505219697952,188.40338134765625,-0.44600000977516174,0.0,1
1671115440.19993496,67431426,0,3,398658200,2240,11,0.87,42.7286079,-84.48477919999999,263.81,0.23802731931209564,172.51669311523438,-0.2980000078678131,0.0,1
1671115440.39988279,67631374,0,3,398658400,2240,11,0.87,42.728607499999995,-84.484779,263.82,0.06603030115365982,144.86578369140625,0.014000000432133675,0.0,1
1671115440.59996080,67831452,0,3,398658600,2240,11,0.87,42.7286073,-84.4847788,263.76,0.0686221569776535,161.30099487304688,-0.1469999998807907,0.0,1
1671115440.79996181,68031453,0,3,398658800,2240,11,0.87,42.7286071,-84.48477869999999,263.72,0.06300793588161469,179.09060668945312,0.012000000104308128,0.0,1
1671115441.00002193,68231513,0,3,398659000,2240,11,0.87,42.728607,-84.48477849999999,263.67,0.06741661578416824,147.72434997558594,0.08100000023841858,0.0,1
1671115441.19998693,68431478,0,3,398659200,2240,11,0.87,42.728606899999996,-84.4847783,263.61,0.033837851136922836,124.1596908569336,0.11100000888109207,0.0,1
1671115441.39999700,68631488,0,3,398659400,2240,11,0.87,42.7286068,-84.4847782,263.54,0.028071338310837746,85.91437530517578,0.1210000067949295,0.0,1
1671115441.60002780,68831519,0,3,398659600,2240,11,0.89,42.7286068,-84.48477799999999,263.48,0.0660681501030922,50.52753829956055,0.1720000058412552,0.0,1
1671115441.79999590,69031487,0,3,398659800,2240,11,0.89,42.728606899999996,-84.4847776,263.41,0.16177144646644592,67.0804443359375,0.12300000339746475,0.0,1
1671115441.99989891,69231390,0,3,398660000,2240,11,0.89,42.728606899999996,-84.4847771,263.33,0.22896507382392883,84.73759460449219,0.16900001466274261,0.0,1
1671115442.19997096,69431462,0,3,398660200,2240,11,0.89,42.7286068,-84.4847765,263.26,0.23247581720352173,109.60408020019531,0.1510000079870224,0.0,1
1671115442.39994097,69631432,0,3,398660400,2240,11,0.89,42.7286066,-84.4847758,263.18,0.27322152256965637,92.30736541748047,0.28600001335144043,0.0,1
1671115442.59996700,69831458,0,3,398660600,2240,11,0.89,42.7286065,-84.4847752,263.09000000000003,0.23477011919021606,85.35795593261719,0.1990000158548355,0.0,1
1671115442.79998088,70031472,0,3,398660800,2240,11,0.89,42.7286065,-84.4847746,263.01,0.24233242869377136,74.93151092529297,0.14000000059604645,0.0,1
1671115443.00002885,70231520,0,3,398661000,2240,11,0.89,42.7286065,-84.484774,262.96,0.19991248846054077,80.20784759521484,0.14400000870227814,0.0,1
1671115443.19999194,70431483,0,3,398661200,2240,11,0.89,42.7286064,-84.4847735,262.91,0.19509229063987732,91.76238250732422,0.13600000739097595,0.0,1
1671115443.39999294,70631484,0,3,398661400,2240,11,0.89,42.7286064,-84.48477299999999,262.84000000000003,0.2159838080406189,71.64893341064453,0.07500000298023224,0.0,1
1671115443.59993887,70831430,0,3,398661600,2240,11,0.89,42.7286062,-84.4847726,262.8,0.2424953728914261,144.7369842529297,0.04200000315904617,0.0,1
1671115443.78001380,71011505,0,3,398661800,2240,12,0.89,42.7286054,-84.4847727,262.85,0.23086793720722198,109.21976470947266,0.14300000667572021,0.0,1
1671115443.99997187,71231463,0,3,398662000,2240,11,0.89,42.7286049,-84.4847724,262.77,0.3475356101989746,161.721435546875,0.18900001049041748,0.0,1
1671115444.19996500,71431456,0,3,398662200,2240,11,0.89,42.728604399999995,-84.4847721,262.74,0.20840346813201904,142.8001708984375,0.13300000131130219,0.0,1
1671115444.39996290,71631454,0,3,398662400,2240,11,0.89,42.728603799999995,-84.48477179999999,262.66,0.3981281518936157,169.1416473388672,0.08800000697374344,0.0,1
1671115444.60004282,71831534,0,3,398662600,2240,11,0.89,42.7286031,-84.4847716,262.57,0.2618587613105774,155.88198852539062,0.45900002121925354,0.0,1
1671115444.79994583,72031437,0,3,398662800,2240,11,0.89,42.728602599999995,-84.4847714,262.43,0.2786916196346283,160.069580078125,0.5070000290870667,0.0,1
1671115444.99995995,72231451,0,3,398663000,2240,11,0.89,42.728602099999996,-84.4847711,262.26,0.22638463973999023,149.4702911376953,0.612000048160553,0.0,1
1671115445.17998099,72411472,0,3,398663200,2240,11,0.89,42.7286017,-84.4847709,262.1,0.20761744678020477,165.49520874023438,0.5250000357627869,0.0,1
1671115445.39996600,72631457,0,3,398663400,2240,11,0.89,42.7286012,-84.4847707,261.99,0.18571485579013824,155.50497436523438,0.4350000321865082,0.0,1
1671115445.59994292,72831434,0,3,398663600,2240,11,0.89,42.728600899999996,-84.4847705,261.86,0.16154874861240387,155.49732971191406,0.42500001192092896,0.0,1
1671115445.79991293,73031404,0,3,398663800,2240,11,0.89,42.7286005,-84.4847702,261.75,0.20321664214134216,142.3970184326172,0.3490000069141388,0.0,1
1671115445.99998403,73231475,0,3,398664000,2240,11,0.89,42.7286001,-84.4847698,261.66,0.2506392002105713,132.0891571044922,0.37800002098083496,0.0,1
1671115446.19991302,73431404,0,3,398664200,2240,11,0.89,42.7285997,-84.4847692,261.57,0.3041052520275116,125.36245727539062,0.4540000259876251,0.0,1
1671115446.39999580,73631487,0,3,398664400,2240,11,0.89,42.7285995,-84.4847685,261.48,0.30019327998161316,99.58782958984375,0.445000022649765,0.0,1
1671115446.58001590,73811507,0,3,398664600,2240,11,0.89,42.7285992,-84.4847678,261.35,0.3253321349620819,114.5168228149414,0.4520000219345093,0.0,1
1671115446.79998493,74031476,0,3,398664800,2240,11,0.89,42.728598999999996,-84.4847672,261.26,0.15108276903629303,99.524658203125,0.4750000238418579,0.0,1
1671115446.99998093,74231472,0,3,398665000,2240,11,0.89,42.7285989,-84.48476699999999,261.15,0.08765843510627747,55.222164154052734,0.4280000329017639,0.0,1
1671115447.19997287,74431464,0,3,398665200,2240,11,0.89,42.7285989,-84.48476699999999,261.04,0.10987721383571625,319.0593566894531,0.453000009059906,0.0,1
1671115447.39994788,74631439,0,3,398665400,2240,12,0.89,42.7285991,-84.4847669,260.96,0.0860232561826706,1.3322198390960693,0.36100003123283386,0.0,1
1671115447.59991598,74831407,0,3,398665600,2240,12,0.79,42.7285994,-84.4847668,260.86,0.12303658574819565,315.0,0.3800000250339508,0.0,1
1671115447.79991794,75031409,0,3,398665800,2240,12,0.79,42.728599599999995,-84.4847667,260.76,0.0967729315161705,23.120847702026367,0.5160000324249268,0.0,1
1671115447.99992800,75231419,0,3,398666000,2240,13,0.79,42.728599599999995,-84.48476699999999,260.75,0.1514892727136612,340.7278137207031,0.4350000321865082,0.0,1
1671115448.19991994,75431411,0,3,398666200,2240,13,0.79,42.7285994,-84.48476769999999,260.78000000000003,0.15559563040733337,289.1336669921875,0.1980000138282776,0.0,1
1671115448.39996386,75631455,0,3,398666400,2240,13,0.79,42.728598999999996,-84.4847684,260.84000000000003,0.11583609879016876,207.2286834716797,0.06100000441074371,0.0,1
1671115448.59999681,75831488,0,3,398666600,2240,13,0.79,42.7285986,-84.4847688,260.93,0.17425556480884552,54.57698440551758,0.04100000113248825,0.0,1
1671115448.79998493,76031476,0,3,398666800,2240,13,0.79,42.7285982,-84.4847692,261.0,0.08134494721889496,200.88580322265625,0.04400000348687172,0.0,1
1671115448.99997783,76231469,0,3,398667000,2240,13,0.79,42.7285979,-84.4847697,261.06,0.05277309939265251,350.1806945800781,0.05700000375509262,0.0,1
1671115449.19992495,76431416,0,3,398667200,2240,13,0.79,42.7285975,-84.48477009999999,261.13,0.018110770732164383,186.34019470214844,0.12200000882148743,0.0,1
1671115449.39989781,76631389,0,3,398667400,2240,13,0.79,42.728597199999996,-84.4847705,261.18,0.03448187932372093,343.1416015625,0.006000000052154064,0.0,1
1671115449.59996295,76831454,0,3,398667600,2240,13,0.77,42.728597,-84.4847709,261.24,0.04876474291086197,208.14161682128906,0.00800000037997961,0.0,1
1671115449.79989886,77031390,0,3,398667800,2240,13,0.77,42.728596599999996,-84.4847714,261.32,0.01910497434437275,317.12109375,0.1850000023841858,0.0,1
1671115449.99995685,77231448,0,3,398668000,2240,13,0.77,42.7285964,-84.48477179999999,261.37,0.014317821711301804,192.0947723388672,0.04800000041723251,0.0,1
1671115450.19991779,77431409,0,3,398668200,2240,13,0.77,42.728595999999996,-84.4847722,261.44,0.02617250569164753,186.5819549560547,0.1210000067949295,0.0,1
1671115450.39998102,77631472,0,3,398668400,2240,13,0.77,42.7285957,-84.48477249999999,261.49,0.03534119576215744,205.11483764648438,0.11900000274181366,0.0,1
1671115450.57995892,77811450,0,3,398668600,2240,13,0.77,42.7285955,-84.4847729,261.55,0.015556350350379944,45.0,0.04700000211596489,0.0,1
1671115450.79991102,78031402,0,3,398668800,2240,13,0.77,42.728595299999995,-84.4847731,261.6,0.02500000037252903,343.73980712890625,0.07400000095367432,0.0,1
1671115450.99990702,78231398,0,3,398669000,2240,13,0.77,42.7285952,-84.4847734,261.65,0.021931713446974754,46.84761047363281,0.036000002175569534,0.0,1
1671115451.19989491,78431386,0,3,398669200,2240,13,0.77,42.728595,-84.4847736,261.69,0.0430116280913353,252.40757751464844,0.06200000271201134,0.0,1
1671115451.39990997,78631401,0,3,398669400,2240,13,0.77,42.7285949,-84.4847738,261.73,0.02745906077325344,100.49147033691406,0.0010000000474974513,0.0,1
1671115451.59989691,78831388,0,3,398669600,2240,13,0.77,42.728594699999995,-84.4847741,261.79,0.048083264380693436,286.9275207519531,0.14500001072883606,0.0,1
1671115451.79991889,79031410,0,3,398669800,2240,13,0.77,42.7285946,-84.4847743,261.86,0.041109610348939896,138.94517517089844,0.08100000023841858,0.0,1
1671115451.97990084,79211392,0,3,398670000,2240,13,0.77,42.7285944,-84.4847745,261.93,0.02640075795352459,245.37643432617188,0.09600000083446503,0.0,1
1671115452.19999099,79431482,0,3,398670200,2240,13,0.77,42.728594099999995,-84.48477489999999,262.0,0.00632455525919795,108.43494415283203,0.08500000089406967,0.0,1
1671115452.40002298,79631514,0,3,398670400,2240,12,0.77,42.7285944,-84.4847746,261.98,0.027018513530492783,272.12109375,0.023000001907348633,0.0,1
1671115452.59988594,79831377,0,3,398670600,2240,12,0.79,42.7285946,-84.4847743,261.95,0.02831960655748844,227.86239624023438,0.0950000062584877,0.0,1
1671115452.79987502,80031366,0,3,398670800,2240,12,0.79,42.728594799999996,-84.4847739,261.95,0.029017237946391106,91.97492980957031,0.030000001192092896,0.0,1
1671115452.99989080,80231382,0,3,398671000,2240,12,0.79,42.728595,-84.4847736,261.93,0.0698927789926529,56.08256912231445,0.07100000232458115,0.0,1
1671115453.19989085,80431382,0,3,398671200,2240,12,0.79,42.7285952,-84.48477319999999,261.9,0.029698487371206284,45.0,0.07900000363588333,0.0,1
1671115453.37986684,80611358,0,3,398671400,2240,12,0.79,42.728595399999996,-84.4847728,261.89,0.04981967806816101,218.48020935058594,0.14800000190734863,0.0,1
1671115453.59996700,80831458,0,3,398671600,2240,12,0.79,42.7285955,-84.4847726,261.87,0.0389101542532444,25.90650749206543,0.22500000894069672,0.0,1
1671115453.79991794,81031409,0,3,398671800,2240,12,0.79,42.7285957,-84.4847723,261.85,0.02927456423640251,262.1466979980469,0.09600000083446503,0.0,1
1671115453.99990392,81231395,0,3,398672000,2240,12,0.79,42.728595899999995,-84.48477199999999,261.84000000000003,0.029120439663529396,74.05460357666016,0.06800000369548798,0.0,1
1671115454.19993496,81431426,0,3,398672200,2240,11,0.79,42.7285961,-84.4847719,261.76,0.17410342395305634,1.9749339818954468,0.17600001394748688,0.0,1
1671115454.39987803,81631369,0,3,398672400,2240,12,0.79,42.7285962,-84.48477179999999,261.72,0.1217949166893959,212.2547149658203,0.16100001335144043,0.0,1
1671115454.59993291,81831424,0,3,398672600,2240,12,0.79,42.7285964,-84.4847717,261.71,0.08845903724431992,42.70938491821289,0.14800000190734863,0.0,1
1671115454.79989386,82031385,0,3,398672800,2240,12,0.79,42.728596599999996,-84.4847715,261.66,0.051478154957294464,155.92449951171875,0.04800000041723251,0.0,1
1671115455.02021980,82251711,0,3,398673000,2240,12,0.79,42.7285968,-84.4847715,261.64,0.0720277801156044,358.40887451171875,0.0430000014603138,0.0,1
1671115455.19987583,82431367,0,3,398673200,2240,12,0.79,42.7285969,-84.4847714,261.59000000000003,0.004000000189989805,270.0,0.15400001406669617,0.0,1
1671115455.39998293,82631474,0,3,398673400,2240,13,0.79,42.7285968,-84.4847716,261.59000000000003,0.048877399414777756,149.23727416992188,-0.004000000189989805,0.0,1
1671115455.60001588,82831507,0,3,398673600,2240,13,0.77,42.7285967,-84.4847719,261.6,0.022203605622053146,262.2348327636719,0.058000002056360245,0.0,1
1671115455.79992700,83031418,0,3,398673800,2240,13,0.77,42.728596599999996,-84.4847724,261.61,0.04318564757704735,317.8155517578125,0.04000000283122063,0.0,1
1671115455.99989080,83231382,0,3,398674000,2240,13,0.77,42.7285964,-84.4847729,261.62,0.013601471669971943,233.97262573242188,0.12200000882148743,0.0,1
1671115456.19992590,83431417,0,3,398674200,2240,13,0.77,42.7285962,-84.4847733,261.63,0.026000000536441803,90.0,0.18900001049041748,0.0,1
1671115456.39990902,83631400,0,3,398674400,2240,13,0.77,42.728595899999995,-84.4847739,261.66,0.0152970589697361,101.30992126464844,0.16100001335144043,0.0,1
1671115456.59993696,83831428,0,3,398674600,2240,13,0.77,42.7285956,-84.4847746,261.73,0.054037027060985565,308.9909973144531,0.16300000250339508,0.0,1
1671115456.79988885,84031380,0,3,398674800,2240,13,0.77,42.728595399999996,-84.4847753,261.78000000000003,0.04257934167981148,260.5376892089844,0.0650000050663948,0.0,1
1671115456.99990201,84231393,0,3,398675000,2240,13,0.77,42.7285952,-84.4847758,261.81,0.011401754803955555,105.25511169433594,0.125,0.0,1
1671115457.19993997,84431431,0,3,398675200,2240,13,0.77,42.7285949,-84.4847764,261.87,0.004472136031836271,206.56504821777344,0.04500000178813934,0.0,1
1671115457.37997103,84611462,0,3,398675400,2240,13,0.77,42.728594699999995,-84.4847769,261.91,0.009899495169520378,225.0,0.0690000057220459,0.0,1
1671115457.59991384,84831405,0,3,398675600,2240,13,0.77,42.7285944,-84.4847774,261.93,0.07531268149614334,190.713134765625,0.14400000870227814,0.0,1
1671115457.79993296,85031424,0,3,398675800,2240,13,0.77,42.7285943,-84.4847777,261.93,0.07810249924659729,50.194427490234375,0.0990000069141388,0.0,1
1671115457.99993491,85231426,0,3,398676000,2240,13,0.77,42.728594,-84.4847781,261.95,0.07100704312324524,179.1930694580078,0.10400000214576721,0.0,1
1671115458.19992280,85431414,0,3,398676200,2240,13,0.77,42.7285938,-84.4847786,262.01,0.03224903345108032,7.125016212463379,0.10900000482797623,0.0,1
1671115458.39988899,85631380,0,3,398676400,2240,13,0.77,42.7285937,-84.4847788,262.0,0.0516236387193203,21.59531021118164,0.01100000087171793,0.0,1
1671115458.59983802,85831329,0,3,398676600,2240,13,0.77,42.728593499999995,-84.4847789,261.99,0.07527283579111099,199.3978271484375,0.13100001215934753,0.0,1
1671115458.77992892,86011420,0,3,398676800,2240,13,0.77,42.7285934,-84.484779,261.96,0.04560701921582222,37.87498092651367,0.0690000057220459,0.0,1
1671115458.99995899,86231450,0,3,398677000,2240,13,0.77,42.7285933,-84.484779,261.94,0.028160257264971733,16.50436019897461,0.06100000441074371,0.0,1
1671115459.19988990,86431381,0,3,398677200,2240,12,0.77,42.7285932,-84.4847789,261.88,0.046690475195646286,189.86581420898438,0.11600000411272049,0.0,1
1671115459.39994884,86631440,0,3,398677400,2240,13,0.77,42.7285928,-84.4847794,261.93,0.021095024421811104,328.5704345703125,0.09300000220537186,0.0,1
1671115459.59991693,86831408,0,3,398677600,2240,13,0.77,42.7285925,-84.48477989999999,261.97,0.006403124425560236,308.6598205566406,0.07700000703334808,0.0,1
1671115459.79995084,87031442,0,3,398677800,2240,13,0.77,42.7285921,-84.4847805,262.02,0.029154760763049126,275.9061584472656,0.15600000321865082,0.0,1
1671115459.99993682,87231428,0,3,398678000,2240,12,0.77,42.7285918,-84.484781,262.05,0.05842088907957077,6.881722927093506,0.0820000022649765,0.0,1
1671115460.17994094,87411432,0,3,398678200,2240,12,0.77,42.7285914,-84.4847815,262.1,0.04386342689394951,136.84759521484375,0.11700000613927841,0.0,1
1671115460.39989400,87631385,0,3,398678400,2240,11,0.77,42.7285914,-84.4847813,262.03000000000003,0.013152946718037128,171.2538299560547,0.11000000685453415,0.0,1
1671115460.59988499,87831376,0,3,398678600,2240,11,0.77,42.7285914,-84.4847812,261.97,0.015620499849319458,39.805572509765625,0.05000000074505806,0.0,1
1671115460.79991984,88031411,0,3,398678800,2240,11,0.77,42.7285914,-84.48478089999999,261.92,0.03832753747701645,97.495849609375,0.04000000283122063,0.0,1
1671115460.99995899,88231450,0,3,398679000,2240,11,0.77,42.7285914,-84.4847807,261.87,0.027784887701272964,30.256439208984375,0.07600000500679016,0.0,1
1671115461.19995594,88431447,0,3,398679200,2240,11,0.77,42.7285915,-84.48478039999999,261.82,0.006082762498408556,99.46231842041016,0.13100001215934753,0.0,1
1671115461.39997101,88631462,0,3,398679400,2240,11,0.77,42.7285915,-84.4847802,261.75,0.02385372295975685,56.976131439208984,0.0010000000474974513,0.0,1
1671115461.59997082,88831462,0,3,398679600,2240,11,0.89,42.7285915,-84.4847801,261.71,0.03465544804930687,226.1691436767578,0.1120000034570694,0.0,1
1671115461.79987001,89031361,0,3,398679800,2240,11,0.89,42.7285916,-84.48478,261.66,0.030016662552952766,178.09083557128906,0.07400000095367432,0.0,1
1671115461.99989080,89231382,0,3,398680000,2240,11,0.89,42.7285916,-84.48477989999999,261.62,0.017464250326156616,283.24053955078125,0.0650000050663948,0.0,1
1671115462.19987082,89431362,0,3,398680200,2240,11,0.89,42.728591699999996,-84.4847798,261.58,0.059439048171043396,12.63336181640625,0.09300000220537186,0.0,1
1671115462.39991593,89631407,0,3,398680400,2240,11,0.89,42.7285919,-84.48477969999999,261.54,0.01969771645963192,156.03750610351562,0.1550000011920929,0.0,1
1671115462.59993386,89831425,0,3,398680600,2240,11,0.89,42.728592,-84.4847796,261.49,0.03661966696381569,34.99201965332031,0.13100001215934753,0.0,1
1671115462.77996302,90011454,0,3,398680800,2240,11,0.89,42.7285921,-84.4847795,261.44,0.014317821711301804,204.775146484375,0.06400000303983688,0.0,1
1671115462.99995279,90231444,0,3,398681000,2240,12,0.89,42.728592,-84.4847798,261.46,0.027313001453876495,23.749494552612305,0.05700000375509262,0.0,1
1671115463.19990396,90431395,0,3,398681200,2240,12,0.89,42.7285918,-84.4847802,261.5,0.018439089879393578,12.528807640075684,0.07700000703334808,0.0,1
1671115463.39994597,90631437,0,3,398681400,2240,12,0.89,42.7285915,-84.4847808,261.54,0.07874643057584763,229.63546752929688,0.046000003814697266,0.0,1
1671115463.59989882,90831390,0,3,398681600,2240,11,0.89,42.7285916,-84.4847808,261.5,0.015231546945869923,66.80140686035156,0.07200000435113907,0.0,1
1671115463.79985499,91031346,0,3,398681800,2240,11,0.89,42.728591699999996,-84.4847806,261.47,0.09426028281450272,48.871253967285156,0.09700000286102295,0.0,1
1671115464.02018499,91251676,0,3,398682000,2240,11,0.89,42.7285918,-84.48478039999999,261.42,0.028861740604043007,14.036242485046387,0.13199999928474426,0.0,1
1671115464.17991686,91411408,0,3,398682200,2240,11,0.89,42.7285919,-84.4847802,261.35,0.00707106851041317,135.0,0.07000000029802322,0.0,1
1671115464.39998102,91631472,0,3,398682400,2240,11,0.89,42.7285918,-84.48478,261.3,0.027730850502848625,205.64100646972656,0.14300000667572021,0.0,1
1671115464.59995699,91831448,0,3,398682600,2240,11,0.89,42.7285918,-84.48477989999999,261.22,0.03962322697043419,312.95458984375,0.11600000411272049,0.0,1
1671115478.59994602,105831437,0,3,398696600,2240,13,0.77,42.72859,-84.4847781,261.29,0.007810249924659729,309.8055725097656,0.026000000536441803,0.0,1
1671115478.79992580,106031417,0,3,398696800,2240,13,0.77,42.728589899999996,-84.4847783,261.33,0.0344093032181263,35.53767776489258,0.030000001192092896,0.0,1
1671115479.00000596,106231497,0,3,398697000,2240,13,0.77,42.7285896,-84.48477869999999,261.37,0.005000000353902578,270.0,0.08800000697374344,0.0,1
1671115479.18025589,106411747,0,3,398697200,2240,13,0.77,42.728589299999996,-84.4847791,261.43,0.03178049996495247,24.145540237426758,0.0560000017285347,0.0,1
1671115479.39994097,106631432,0,3,398697400,2240,13,0.77,42.728589,-84.4847796,261.49,0.03935733810067177,207.21612548828125,0.006000000052154064,0.0,1
1671115479.59997487,106831466,0,3,398697600,2240,13,0.77,42.7285888,-84.48478,261.54,0.033837851136922836,235.84030151367188,-0.010000000707805157,0.0,1
1671115479.79995799,107031449,0,3,398697800,2240,13,0.77,42.7285885,-84.48478039999999,261.61,0.011661904864013195,239.0362548828125,0.017000000923871994,0.0,1
1671115479.99994683,107231438,0,3,398698000,2240,13,0.77,42.7285882,-84.48478089999999,261.67,0.01910497434437275,276.0090026855469,0.08400000631809235,0.0,1
1671115480.19993997,107431431,0,3,398698200,2240,12,0.77,42.7285884,-84.4847805,261.62,0.01612451672554016,150.25511169433594,0.0560000017285347,0.0,1
1671115480.39989901,107631390,0,3,398698400,2240,12,0.77,42.728588599999995,-84.48478,261.57,0.023537207394838333,77.73522186279297,0.07100000232458115,0.0,1
1671115480.58023691,107811728,0,3,398698600,2240,12,0.79,42.7285888,-84.4847796,261.52,0.015652475878596306,333.4349365234375,0.0560000017285347,0.0,1
1671115480.80004883,108031540,0,3,398698800,2240,12,0.79,42.7285891,-84.48477919999999,261.47,0.009899495169520378,135.0,0.10000000149011612,0.0,1
1671115480.99993896,108231430,0,3,398699000,2240,12,0.79,42.728589299999996,-84.4847789,261.42,0.038639359176158905,280.4374694824219,0.04800000041723251,0.0,1
1671115481.19996786,108431459,0,3,398699200,2240,12,0.79,42.7285895,-84.4847786,261.38,0.02080865204334259,54.782405853271484,0.0990000069141388,0.0,1
1671115481.39994502,108631436,0,3,398699400,2240,12,0.79,42.7285897,-84.4847783,261.34000000000003,0.024596748873591423,26.56505012512207,0.052000001072883606,0.0,1
1671115481.59994483,108831436,0,3,398699600,2240,12,0.79,42.72859,-84.4847779,261.3,0.014212671667337418,219.28941345214844,0.13700000941753387,0.0,1
1671115481.79997301,109031464,0,3,398699800,2240,12,0.79,42.7285902,-84.4847776,261.25,0.0213775597512722,259.2156982421875,0.02800000086426735,0.0,1
1671115481.99985194,109231343,0,3,398700000,2240,12,0.79,42.728590399999995,-84.48477729999999,261.21,0.036055512726306915,19.440032958984375,0.013000000268220901,0.0,1
1671115482.19991994,109431411,0,3,398700200,2240,12,0.79,42.7285907,-84.484777,261.19,0.021095024421811104,5.44033145904541,0.10200000554323196,0.0,1
1671115482.39998102,109631472,0,3,398700400,2240,12,0.79,42.7285909,-84.48477659999999,261.13,0.004472136031836271,116.5650405883789,0.04700000211596489,0.0,1
1671115482.59997988,109831471,0,3,398700600,2240,12,0.79,42.728591099999996,-84.4847763,261.1,0.018973667174577713,161.56504821777344,0.021000001579523087,0.0,1
1671115482.79997683,110031468,0,3,398700800,2240,13,0.79,42.7285909,-84.4847765,261.15,0.019416488707065582,78.11133575439453,0.07500000298023224,0.0,1
1671115482.99998283,110231474,0,3,398701000,2240,13,0.79,42.7285906,-84.484777,261.22,0.004242640919983387,45.0,0.08400000631809235,0.0,1
1671115483.19996786,110431459,0,3,398701200,2240,12,0.79,42.7285909,-84.48477659999999,261.18,0.02284732088446617,156.8013916015625,0.06200000271201134,0.0,1
1671115483.39997602,110631467,0,3,398701400,2240,12,0.79,42.728591099999996,-84.4847763,261.16,0.0022360680159181356,243.43496704101562,0.09300000220537186,0.0,1
1671115483.59991598,110831407,0,3,398701600,2240,12,0.79,42.7285914,-84.4847759,261.13,0.04085339978337288,21.540973663330078,0.05400000140070915,0.0,1
1671115483.79992485,111031416,0,3,398701800,2240,12,0.79,42.728591699999996,-84.4847755,261.1,0.01649242267012596,345.9637451171875,0.06400000303983688,0.0,1
1671115483.99993396,111231425,0,3,398702000,2240,12,0.79,42.728592,-84.4847752,261.08,0.04176122695207596,16.699243545532227,0.15000000596046448,0.0,1
1671115484.20000291,111431494,0,3,398702200,2240,12,0.79,42.728592299999995,-84.4847748,261.05,0.02900000289082527,46.397178649902344,0.04000000283122063,0.0,1
1671115484.39997387,111631465,0,3,398702400,2240,12,0.79,42.7285924,-84.4847745,261.07,0.015231546945869923,66.80140686035156,0.01900000125169754,0.0,1
1671115484.58039880,111811890,0,3,398702600,2240,12,0.79,42.7285926,-84.48477419999999,261.11,0.03534119576215744,154.88516235351562,-0.4050000309944153,0.0,1
1671115484.79998589,112031477,0,3,398702800,2240,12,0.79,42.7285927,-84.48477369999999,261.21,0.1283160150051117,130.89187622070312,-0.5720000267028809,0.0,1
1671115485.00002193,112231513,0,3,398703000,2240,12,0.79,42.7285927,-84.48477319999999,261.34000000000003,0.17487424612045288,161.6686553955078,-0.784000039100647,0.0,1
1671115485.20000982,112431501,0,3,398703200,2240,12,0.79,42.7285926,-84.4847728,261.5,0.36266377568244934,195.18585205078125,-0.9980000257492065,0.0,1
1671115485.39990902,112631400,0,3,398703400,2240,12,0.79,42.7285924,-84.4847727,261.68,0.07213875651359558,133.87669372558594,-1.0230000019073486,0.0,1
1671115485.59991288,112831404,0,3,398703600,2240,11,0.89,42.7285924,-84.4847724,261.85,0.11569356173276901,165.48329162597656,-0.9640000462532043,0.0,1
1671115485.79991198,113031403,0,3,398703800,2240,11,0.89,42.728592299999995,-84.4847722,261.99,0.20503903925418854,181.11782836914062,-0.7600000500679016,0.0,1
1671115485.99999499,113231486,0,3,398704000,2240,12,0.89,42.7285922,-84.48477179999999,262.08,0.31019508838653564,177.9677734375,-0.6430000066757202,0.0,1
1671115486.19998789,113431479,0,3,398704200,2240,12,0.89,42.728592,-84.4847716,262.17,0.1799805611371994,197.1261444091797,-0.4130000174045563,0.0,1
1671115486.39998603,113631477,0,3,398704400,2240,12,0.89,42.728591699999996,-84.4847716,262.2,0.4632796347141266,194.75616455078125,-0.3530000150203705,0.0,1
1671115486.60001087,113831502,0,3,398704600,2240,12,0.79,42.728591099999996,-84.4847715,262.26,0.44745728373527527,188.09388732910156,-0.4140000343322754,0.0,1
1671115486.79989886,114031390,0,3,398704800,2240,12,0.79,42.728590499999996,-84.4847714,262.35,0.4227398931980133,183.39035034179688,-0.38100001215934753,0.0,1
1671115486.99995279,114231444,0,3,398705000,2240,11,0.79,42.7285897,-84.4847714,262.42,0.6916278600692749,189.5712890625,-0.5060000419616699,0.0,1
1671115487.19990182,114431393,0,3,398705200,2240,12,0.79,42.7285888,-84.4847715,262.51,0.5642171502113342,194.99684143066406,-0.4390000104904175,0.0,1
1671115487.38027287,114611764,0,3,398705400,2240,13,0.79,42.728587499999996,-84.4847722,262.67,0.7448557019233704,191.06857299804688,-0.5730000138282776,0.0,1
1671115487.59999681,114831488,0,3,398705600,2240,12,0.79,42.728586199999995,-84.4847723,262.8,0.861539363861084,188.0736846923828,-0.6070000529289246,0.0,1
1671115487.79998994,115031481,0,3,398705800,2240,12,0.79,42.7285849,-84.4847726,262.88,0.8572403788566589,193.0797882080078,-0.6060000061988831,0.0,1
1671115487.99997997,115231471,0,3,398706000,2240,11,0.79,42.7285835,-84.48477299999999,262.98,0.9554318785667419,196.72796630859375,-0.5180000066757202,0.0,1
1671115488.20004702,115431538,0,3,398706200,2240,11,0.79,42.7285822,-84.4847735,263.05,0.7422412633895874,201.4143829345703,-0.527999997138977,0.0,1
1671115488.40000796,115631499,0,3,398706400,2240,11,0.79,42.728581,-84.48477439999999,263.14,0.8658915162086487,213.5065460205078,-0.51500004529953,0.0,1
1671115488.59995794,115831449,0,3,398706600,2240,11,0.89,42.7285799,-84.4847753,263.19,0.7198236584663391,208.0959014892578,-0.45000001788139343,0.0,1
1671115488.79989982,116031391,0,3,398706800,2240,11,0.89,42.728578899999995,-84.48477609999999,263.25,0.7484090328216553,212.67083740234375,-0.3450000286102295,0.0,1
1671115488.99997187,116231463,0,3,398707000,2240,11,0.89,42.7285781,-84.48477679999999,263.41,0.5517726540565491,218.30303955078125,-0.5100000500679016,0.0,1
1671115489.19999099,116431482,0,3,398707200,2240,11,0.89,42.7285773,-84.48477749999999,263.46,0.5818746089935303,207.31369018554688,-0.42000001668930054,0.0,1
1671115489.39997482,116631466,0,3,398707400,2240,12,0.89,42.7285764,-84.4847779,263.51,0.5970594882965088,197.9494171142578,-0.13900001347064972,0.0,1
1671115489.59998393,116831475,0,3,398707600,2240,12,0.79,42.7285758,-84.4847781,263.57,0.3424222767353058,201.7703399658203,-0.19700001180171967,0.0,1
1671115489.80003691,117031528,0,3,398707800,2240,11,0.79,42.7285751,-84.4847784,263.57,0.4958155155181885,193.0552520751953,-0.013000000268220901,0.0,1
1671115490.00003386,117231525,0,3,398708000,2240,12,0.79,42.7285744,-84.4847783,263.58,0.6488451361656189,192.27980041503906,0.0650000050663948,0.0,1
1671115490.19996285,117431454,0,3,398708200,2240,12,0.79,42.728573499999996,-84.48477849999999,263.58,0.49356865882873535,187.80177307128906,-0.01100000087171793,0.0,1
1671115490.39993691,117631428,0,3,398708400,2240,12,0.79,42.728572799999995,-84.4847784,263.56,0.5090628862380981,180.90045166015625,0.026000000536441803,0.0,1
1671115490.59997082,117831462,0,3,398708600,2240,13,0.77,42.7285721,-84.4847782,263.58,0.5381338596343994,178.72222900390625,0.16500000655651093,0.0,1
1671115490.79992294,118031414,0,3,398708800,2240,13,0.77,42.7285712,-84.4847779,263.58,0.5914702415466309,174.76170349121094,0.15200001001358032,0.0,1
1671115490.99995589,118231447,0,3,398709000,2240,13,0.77,42.7285702,-84.48477779999999,263.56,0.6320198178291321,179.54672241210938,0.22600001096725464,0.0,1
1671115491.19996285,118431454,0,3,398709200,2240,13,0.77,42.7285691,-84.4847776,263.56,0.6114941239356995,173.04930114746094,0.09600000083446503,0.0,1
1671115491.38030982,118611801,0,3,398709400,2240,12,0.77,42.7285682,-84.48477749999999,263.55,0.5088438391685486,169.92677307128906,0.09600000083446503,0.0,1
1671115491.60003686,118831528,0,3,398709600,2240,12,0.87,42.728567299999995,-84.4847774,263.56,0.442831814289093,173.5169219970703,0.01100000087171793,0.0,1
1671115491.79997587,119031467,0,3,398709800,2240,12,0.87,42.7285666,-84.4847772,263.6,0.3410528004169464,168.32763671875,-0.04800000041723251,0.0,1
1671115491.99995494,119231446,0,3,398710000,2240,12,0.87,42.728566099999995,-84.4847771,263.62,0.2302086055278778,150.3168487548828,-0.11000000685453415,0.0,1
1671115492.19998693,119431478,0,3,398710200,2240,12,0.87,42.7285657,-84.48477679999999,263.66,0.30602288246154785,138.44419860839844,-0.08900000154972076,0.0,1
1671115492.39994097,119631432,0,3,398710400,2240,12,0.87,42.7285651,-84.4847764,263.66,0.4338110387325287,147.04257202148438,-0.04700000211596489,0.0,1
1671115492.59996986,119831461,0,3,398710600,2240,12,0.87,42.728564299999995,-84.4847759,263.64,0.514315128326416,152.9367218017578,0.05300000309944153,0.0,1
1671115492.78033781,120011829,0,3,398710800,2240,13,0.87,42.728563799999996,-84.4847753,263.64,0.3376462757587433,116.5650405883789,0.09200000762939453,0.0,1
1671115492.99992394,120231415,0,3,398711000,2240,13,0.87,42.728563699999995,-84.4847747,263.68,0.23913386464118958,91.91712951660156,0.05000000074505806,0.0,1
1671115493.19994998,120431441,0,3,398711200,2240,13,0.87,42.7285636,-84.48477419999999,263.68,0.2424953728914261,114.8741455078125,0.10000000149011612,0.0,1
1671115493.40006399,120631555,0,3,398711400,2240,12,0.87,42.7285634,-84.484774,263.68,0.15316005051136017,73.69490051269531,0.02200000174343586,0.0,1
1671115493.59994793,120831439,0,3,398711600,2240,12,0.87,42.7285636,-84.4847738,263.68,0.22306278347969055,48.08915710449219,0.06800000369548798,0.0,1
1671115493.79998088,121031472,0,3,398711800,2240,12,0.87,42.7285639,-84.4847733,263.66,0.21333542466163635,38.911468505859375,0.05000000074505806,0.0,1
1671115493.99998498,121231476,0,3,398712000,2240,12,0.87,42.728564399999996,-84.48477299999999,263.64,0.2783612906932831,21.495630264282227,0.06400000303983688,0.0,1
1671115494.18033695,121411828,0,3,398712200,2240,12,0.87,42.7285648,-84.4847728,263.64,0.20664946734905243,14.574213981628418,0.11600000411272049,0.0,1
1671115494.39998603,121631477,0,3,398712400,2240,11,0.87,42.7285654,-84.4847727,263.6,0.40052467584609985,10.356025695800781,0.06700000166893005,0.0,1
1671115494.59998488,121831476,0,3,398712600,2240,11,0.87,42.728566,-84.4847727,263.56,0.2466617226600647,345.68206787109375,0.1600000113248825,0.0,1
1671115494.79992700,122031418,0,3,398712800,2240,12,0.87,42.7285666,-84.4847729,263.52,0.4438062906265259,354.8289489746094,0.4690000116825104,0.0,1
1671115494.99997687,122231468,0,3,398713000,2240,12,0.87,42.7285676,-84.48477299999999,263.42,0.6325765252113342,2.446274995803833,0.5350000262260437,0.0,1
1671115495.20001698,122431508,0,3,398713200,2240,13,0.87,42.728568599999996,-84.4847728,263.35,0.41119584441185,12.785737991333008,0.5830000042915344,0.0,1
1671115495.39998603,122631477,0,3,398713400,2240,12,0.87,42.728569199999995,-84.4847726,263.18,0.29330700635910034,20.35027503967285,0.6840000152587891,0.0,1
1671115495.59999084,122831482,0,3,398713600,2240,12,0.87,42.728569799999995,-84.48477249999999,263.02,0.524618923664093,22.409835815429688,0.843000054359436,0.0,1
1671115495.79998493,123031476,0,3,398713800,2240,12,0.87,42.7285706,-84.4847721,262.86,0.518568217754364,16.58283042907715,0.8080000281333923,0.0,1
1671115495.99994183,123231433,0,3,398714000,2240,13,0.87,42.7285714,-84.48477179999999,262.76,0.388692706823349,22.540491104125977,0.8730000257492065,0.0,1
1671115496.20001292,123431504,0,3,398714200,2240,13,0.87,42.7285721,-84.4847715,262.61,0.6395506262779236,27.166032791137695,0.7500000596046448,0.0,1
1671115496.39994287,123631434,0,3,398714400,2240,11,0.87,42.728573399999995,-84.48477059999999,262.49,0.816213846206665,25.937177658081055,0.7390000224113464,0.0,1
1671115496.59992480,123831416,0,3,398714600,2240,11,0.87,42.7285744,-84.48476989999999,262.33,0.5092592835426331,28.62841796875,0.6080000400543213,0.0,1
1671115496.80000186,124031493,0,3,398714800,2240,12,0.87,42.728575299999996,-84.4847692,262.19,0.45311036705970764,29.337087631225586,0.7780000567436218,0.0,1
1671115496.99999094,124231482,0,3,398715000,2240,12,0.87,42.728575899999996,-84.4847688,262.13,0.5594658851623535,26.427650451660156,0.5550000071525574,0.0,1
1671115497.19999599,124431487,0,3,398715200,2240,12,0.87,42.7285766,-84.48476819999999,262.0,0.21850401163101196,66.25049591064453,0.593000054359436,0.0,1
1671115497.39999294,124631484,0,3,398715400,2240,12,0.87,42.728576499999996,-84.4847681,262.02,0.2726059556007385,52.751773834228516,0.42600002884864807,0.0,1
1671115497.60001802,124831509,0,3,398715600,2240,11,0.89,42.7285767,-84.4847676,261.95,0.19795960187911987,71.74810028076172,0.30400002002716064,0.0,1
1671115497.79991889,125031410,0,3,398715800,2240,11,0.89,42.7285767,-84.48476699999999,261.89,0.23760893940925598,85.89720153808594,0.1469999998807907,0.0,1
1671115498.00002003,125231511,0,3,398716000,2240,11,0.89,42.7285767,-84.48476649999999,261.85,0.18564751744270325,107.5565414428711,0.09100000560283661,0.0,1
1671115498.18032885,125411820,0,3,398716200,2240,11,0.89,42.728576499999996,-84.4847661,261.81,0.28231191635131836,157.06790161132812,0.039000000804662704,0.0,1
1671115498.39994192,125631433,0,3,398716400,2240,11,0.89,42.7285761,-84.4847657,261.81,0.23889119923114777,125.2867431640625,0.03400000184774399,0.0,1
1671115498.60001588,125831507,0,3,398716600,2240,11,0.89,42.7285755,-84.4847655,261.77,0.5730558633804321,180.79989624023438,0.0860000029206276,0.0,1
1671115498.79999900,126031490,0,3,398716800,2240,11,0.89,42.728574599999995,-84.4847654,261.76,0.5589168667793274,176.71780395507812,0.09600000083446503,0.0,1
1671115498.99998879,126231480,0,3,398717000,2240,11,0.89,42.728573499999996,-84.4847654,261.74,0.6487410664558411,182.73892211914062,-0.01100000087171793,0.0,1
1671115499.19995689,126431448,0,3,398717200,2240,11,0.89,42.7285721,-84.4847657,261.7,1.0333737134933472,190.82061767578125,0.11900000274181366,0.0,1
1671115499.39997792,126631469,0,3,398717400,2240,11,0.89,42.7285703,-84.4847662,261.67,1.0767865180969238,195.62380981445312,0.04200000315904617,0.0,1
1671115499.58038902,126811880,0,3,398717600,2240,12,0.87,42.7285679,-84.4847674,261.73,1.3497616052627563,192.84190368652344,-0.027000000700354576,0.0,1
1671115499.79989386,127031385,0,3,398717800,2240,11,0.87,42.728565499999995,-84.48476819999999,261.74,1.4466158151626587,196.91928100585938,0.07500000298023224,0.0,1
1671115499.99995089,127231442,0,3,398718000,2240,11,0.87,42.728563099999995,-84.4847691,261.76,1.4337660074234009,194.83103942871094,-0.08300000429153442,0.0,1
1671115500.19998598,127431477,0,3,398718200,2240,11,0.87,42.7285604,-84.48477009999999,261.75,1.6687061786651611,195.50205993652344,-0.25699999928474426,0.0,1
1671115500.39999199,127631483,0,3,398718400,2240,11,0.87,42.7285575,-84.4847712,261.79,1.7596641778945923,197.6317901611328,-0.33800002932548523,0.0,1
1671115500.60000300,127831494,0,3,398718600,2240,11,0.89,42.7285544,-84.4847727,261.83,1.8533759117126465,200.23402404785156,-0.34800001978874207,0.0,1
1671115500.80002594,128031517,0,3,398718800,2240,11,0.89,42.7285513,-84.48477419999999,261.91,1.8512401580810547,200.58865356445312,-0.4660000205039978,0.0,1
1671115500.98026180,128211753,0,3,398719000,2240,11,0.89,42.728547899999995,-84.4847759,262.01,2.2317440509796143,200.45689392089844,-0.5840000510215759,0.0,1
1671115501.19995189,128431443,0,3,398719200,2240,11,0.89,42.728544,-84.48477779999999,262.12,2.2974579334259033,199.47601318359375,-0.7500000596046448,0.0,1
1671115501.39993382,128631425,0,3,398719400,2240,11,0.89,42.7285402,-84.4847796,262.24,2.244866371154785,200.33201599121094,-0.6780000329017639,0.0,1
1671115501.59995389,128831445,0,3,398719600,2240,12,0.79,42.7285365,-84.4847813,262.39,2.2636213302612305,199.4835662841797,-0.7020000219345093,0.0,1
1671115501.80000091,129031492,0,3,398719800,2240,11,0.79,42.728532799999996,-84.4847831,262.51,2.208726644515991,199.18966674804688,-0.5080000162124634,0.0,1
1671115502.00002003,129231511,0,3,398720000,2240,11,0.79,42.7285289,-84.4847848,262.63,2.310460329055786,198.9682159423828,-0.5040000081062317,0.0,1
1671115502.20000482,129431496,0,3,398720200,2240,12,0.79,42.7285252,-84.4847867,262.72,2.172456979751587,201.94833374023438,-0.36100003123283386,0.0,1
1671115502.40000391,129631495,0,3,398720400,2240,11,0.79,42.7285214,-84.4847889,262.8,2.360495090484619,206.03314208984375,-0.32500001788139343,0.0,1
1671115502.59991288,129831404,0,3,398720600,2240,11,0.89,42.7285177,-84.48479139999999,262.86,2.2982330322265625,206.4870147705078,-0.33400002121925354,0.0,1
1671115502.79997492,130031466,0,3,398720800,2240,11,0.89,42.728513899999996,-84.484794,262.92,2.346579074859619,206.9363250732422,-0.2840000092983246,0.0,1
1671115502.99996400,130231455,0,3,398721000,2240,11,0.89,42.72851,-84.48479669999999,262.95,2.5351333618164062,207.48486328125,-0.1940000057220459,0.0,1
1671115503.19996595,130431457,0,3,398721200,2240,12,0.89,42.728505899999995,-84.4847997,262.98,2.6666269302368164,209.84349060058594,-0.0690000057220459,0.0,1
1671115503.39997387,130631465,0,3,398721400,2240,11,0.89,42.7285018,-84.4848031,262.98,2.670501232147217,212.35107421875,-0.027000000700354576,0.0,1
1671115503.59995794,130831449,0,3,398721600,2240,11,0.89,42.7284978,-84.4848067,262.98,2.6227853298187256,215.6595916748047,-0.05400000140070915,0.0,1
1671115503.79992986,131031421,0,3,398721800,2240,11,0.89,42.7284939,-84.4848107,262.97,2.7719337940216064,218.77603149414062,-0.04500000178813934,0.0,1
1671115503.99993801,131231429,0,3,398722000,2240,11,0.89,42.728490199999996,-84.48481489999999,262.98,2.631336212158203,220.15963745117188,-0.06000000238418579,0.0,1
1671115504.20004296,131431534,0,3,398722200,2240,11,0.89,42.7284867,-84.48481919999999,262.99,2.565385103225708,225.06317138671875,-0.08300000429153442,0.0,1
1671115504.39991784,131631409,0,3,398722400,2240,12,0.89,42.7284832,-84.48482419999999,263.03000000000003,2.571951389312744,227.03248596191406,0.07300000637769699,0.0,1
1671115504.59998584,131831477,0,3,398722600,2240,11,0.89,42.7284803,-84.4848288,262.99,2.3870201110839844,232.35238647460938,0.2150000035762787,0.0,1
1671115504.79999495,132031486,0,3,398722800,2240,11,0.89,42.7284781,-84.4848334,262.97,2.197148561477661,240.85675048828125,0.11400000751018524,0.0,1
1671115504.99998879,132231480,0,3,398723000,2240,11,0.89,42.7284763,-84.48483809999999,262.96,2.200833797454834,246.9415740966797,0.05900000408291817,0.0,1
1671115505.19990492,132431396,0,3,398723200,2240,11,0.89,42.7284748,-84.48484309999999,262.92,2.2289507389068604,248.58047485351562,-0.02800000086426735,0.0,1
1671115505.39996600,132631457,0,3,398723400,2240,11,0.89,42.7284736,-84.4848482,262.92,2.111456871032715,256.72064208984375,0.05300000309944153,0.0,1
1671115505.59989095,132831382,0,3,398723600,2240,12,0.87,42.7284727,-84.4848536,262.94,1.9142258167266846,263.52099609375,0.203000009059906,0.0,1
1671115505.79997396,133031465,0,3,398723800,2240,12,0.87,42.728472,-84.48485889999999,262.95,1.9856196641921997,265.32025146484375,0.28700000047683716,0.0,1
1671115506.00001192,133231503,0,3,398724000,2240,11,0.87,42.7284716,-84.4848641,262.89,2.309476613998413,264.8078308105469,0.3570000231266022,0.0,1
1671115506.19999599,133431487,0,3,398724200,2240,11,0.87,42.7284715,-84.4848696,262.89,2.2560110092163086,269.8222351074219,0.2639999985694885,0.0,1
1671115506.37998796,133611479,0,3,398724400,2240,11,0.87,42.7284715,-84.4848751,262.83,2.283696174621582,272.2083740234375,0.320000022649765,0.0,1
1671115506.59997892,133831470,0,3,398724600,2240,11,0.89,42.728471899999995,-84.4848805,262.82,2.2562625408172607,279.0782470703125,0.20800000429153442,0.0,1
1671115506.79996395,134031455,0,3,398724800,2240,11,0.89,42.728472599999996,-84.4848859,262.8,2.249027729034424,282.5840759277344,0.07200000435113907,0.0,1
1671115506.99986291,134231354,0,3,398725000,2240,12,0.89,42.728473699999995,-84.48489119999999,262.81,2.274092674255371,287.901123046875,0.03200000151991844,0.0,1
1671115507.19992399,134431415,0,3,398725200,2240,12,0.89,42.728474899999995,-84.48489649999999,262.79,2.2411277294158936,288.6855773925781,0.19500000774860382,0.0,1
1671115507.39996290,134631454,0,3,398725400,2240,12,0.89,42.7284764,-84.48490149999999,262.79,2.275951385498047,297.0491638183594,0.17100000381469727,0.0,1
1671115507.59995580,134831447,0,3,398725600,2240,12,0.87,42.7284783,-84.48490629999999,262.77,2.199549674987793,300.0970458984375,0.06700000166893005,0.0,1
1671115507.78003883,135011530,0,3,398725800,2240,12,0.87,42.728480399999995,-84.4849109,262.77,2.20215106010437,304.58489990234375,0.10600000619888306,0.0,1
1671115507.99995589,135231447,0,3,398726000,2240,12,0.87,42.728482799999995,-84.484915,262.75,2.1018972396850586,310.175537109375,0.07400000095367432,0.0,1
1671115508.19998598,135431477,0,3,398726200,2240,12,0.87,42.728485299999996,-84.4849187,262.76,2.0690529346466064,315.4307861328125,0.10400000214576721,0.0,1
1671115508.40000081,135631492,0,3,398726400,2240,12,0.87,42.728488,-84.48492189999999,262.76,1.9638862609863281,322.5932922363281,-0.004000000189989805,0.0,1
1671115508.59992194,135831413,0,3,398726600,2240,12,0.87,42.7284909,-84.4849246,262.75,1.9492063522338867,330.29156494140625,0.039000000804662704,0.0,1
1671115508.79992700,136031418,0,3,398726800,2240,12,0.87,42.728494,-84.4849268,262.73,1.9527379274368286,334.26165771484375,0.16500000655651093,0.0,1
1671115508.99995899,136231450,0,3,398727000,2240,12,0.87,42.7284973,-84.4849287,262.71,2.0382959842681885,339.164306640625,0.10500000417232513,0.0,1
1671115509.19990683,136431398,0,3,398727200,2240,12,0.87,42.7285008,-84.4849301,262.69,2.075880765914917,346.2047424316406,0.1980000138282776,0.0,1
1671115509.39998603,136631477,0,3,398727400,2240,12,0.87,42.7285046,-84.4849309,262.69,2.1717379093170166,352.6720886230469,0.11500000208616257,0.0,1
1671115509.59995699,136831448,0,3,398727600,2240,12,0.87,42.7285085,-84.4849315,262.66,2.1352922916412354,354.94891357421875,0.05000000074505806,0.0,1
1671115509.80000591,137031497,0,3,398727800,2240,12,0.87,42.7285124,-84.4849316,262.64,2.2302281856536865,1.90144944190979,0.049000002443790436,0.0,1
1671115509.99998498,137231476,0,3,398728000,2240,12,0.87,42.7285165,-84.484931,262.64,2.3149309158325195,8.245610237121582,0.0990000069141388,0.0,1
1671115510.19987202,137431363,0,3,398728200,2240,12,0.87,42.7285208,-84.48492979999999,262.64,2.537748098373413,12.031681060791016,0.023000001907348633,0.0,1
1671115510.39994693,137631438,0,3,398728400,2240,12,0.87,42.7285252,-84.4849282,262.59000000000003,2.519622325897217,17.651107788085938,0.06599999964237213,0.0,1
1671115510.59989786,137831389,0,3,398728600,2240,12,0.87,42.7285295,-84.4849261,262.52,2.531402826309204,21.700536727905273,0.13500000536441803,0.0,1
1671115510.79996490,138031456,0,3,398728800,2240,12,0.87,42.728533999999996,-84.48492329999999,262.48,2.851135015487671,25.980876922607422,0.20600001513957977,0.0,1
1671115510.99997282,138231464,0,3,398729000,2240,12,0.87,42.7285386,-84.48492,262.45,2.9321823120117188,28.45294952392578,0.10100000351667404,0.0,1
1671115511.19997597,138431467,0,3,398729200,2240,12,0.87,42.7285432,-84.4849163,262.44,2.909130811691284,30.94686508178711,0.07700000703334808,0.0,1
1671115511.39999294,138631484,0,3,398729400,2240,12,0.87,42.7285478,-84.4849124,262.41,2.993516445159912,32.8088264465332,0.09200000762939453,0.0,1
1671115511.59994197,138831433,0,3,398729600,2240,12,0.87,42.7285523,-84.4849083,262.39,2.950106143951416,33.00595474243164,0.12600000202655792,0.0,1
1671115511.77999282,139011484,0,3,398729800,2240,12,0.87,42.7285567,-84.4849042,262.37,2.8168282508850098,36.61360168457031,0.10500000417232513,0.0,1
1671115512.00003099,139231522,0,3,398730000,2240,12,0.87,42.7285608,-84.4849,262.36,2.8676578998565674,36.50625991821289,0.10400000214576721,0.0,1
1671115512.19991493,139431406,0,3,398730200,2240,12,0.87,42.7285648,-84.4848955,262.34000000000003,2.792771100997925,42.56211471557617,0.13900001347064972,0.0,1
1671115512.39992785,139631419,0,3,398730400,2240,12,0.87,42.7285685,-84.4848906,262.33,2.8037593364715576,46.35842514038086,0.1469999998807907,0.0,1
1671115512.59993386,139831425,0,3,398730600,2240,12,0.87,42.728572,-84.4848852,262.34000000000003,2.946904182434082,48.879913330078125,-0.08700000494718552,0.0,1
1671115512.79998589,140031477,0,3,398730800,2240,12,0.87,42.728575199999995,-84.4848796,262.34000000000003,2.8118529319763184,55.09477996826172,0.04200000315904617,0.0,1
1671115512.99998498,140231476,0,3,398731000,2240,12,0.87,42.728578,-84.4848739,262.48,2.4316067695617676,57.290252685546875,-0.30100002884864807,0.0,1
1671115513.19994092,140431432,0,3,398731200,2240,13,0.87,42.7285803,-84.4848683,262.46,2.8119637966156006,64.78369140625,-0.09800000488758087,0.0,1
1671115513.40003181,140631523,0,3,398731400,2240,13,0.87,42.7285824,-84.48486199999999,262.48,2.789219617843628,66.66114807128906,-0.04200000315904617,0.0,1
1671115513.59998393,140831475,0,3,398731600,2240,12,0.87,42.7285842,-84.4848555,262.49,2.794718027114868,72.68021392822266,-0.0010000000474974513,0.0,1
1671115513.79996300,141031454,0,3,398731800,2240,12,0.87,42.7285855,-84.4848489,262.46,2.729977607727051,77.66924285888672,0.14800000190734863,0.0,1
1671115513.99993801,141231429,0,3,398732000,2240,12,0.87,42.7285865,-84.4848423,262.45,2.7515265941619873,79.67839050292969,0.08800000697374344,0.0,1
1671115514.19994688,141431438,0,3,398732200,2240,12,0.87,42.728587399999995,-84.4848354,262.47,2.849531650543213,80.44511413574219,0.07000000029802322,0.0,1
1671115514.39999986,141631491,0,3,398732400,2240,12,0.87,42.728587999999995,-84.4848284,262.47,2.8100969791412354,85.14153289794922,0.003000000026077032,0.0,1
1671115514.59997988,141831471,0,3,398732600,2240,12,0.87,42.7285883,-84.4848214,262.48,2.888504981994629,88.92879486083984,-0.07800000160932541,0.0,1
1671115514.79995489,142031446,0,3,398732800,2240,12,0.87,42.7285882,-84.4848143,262.47,2.8901548385620117,92.6772689819336,0.015000000596046448,0.0,1
1671115514.99993491,142231426,0,3,398733000,2240,12,0.87,42.7285878,-84.48480719999999,262.47,2.8915579319000244,96.1344985961914,0.036000002175569534,0.0,1
1671115515.19997287,142431464,0,3,398733200,2240,12,0.87,42.7285872,-84.4848001,262.48,2.846247434616089,98.078857421875,-0.02800000086426735,0.0,1
1671115515.39994097,142631432,0,3,398733400,2240,12,0.87,42.7285864,-84.48479329999999,262.47,2.8434903621673584,101.23484802246094,-0.015000000596046448,0.0,1
1671115515.59997487,142831466,0,3,398733600,2240,12,0.87,42.7285853,-84.48478659999999,262.46,2.746758460998535,104.35496520996094,0.08000000566244125,0.0,1
1671115515.79993987,143031431,0,3,398733800,2240,12,0.87,42.7285839,-84.4847801,262.45,2.736544132232666,107.69999694824219,0.09700000286102295,0.0,1
1671115515.99997902,143231470,0,3,398734000,2240,12,0.87,42.7285823,-84.4847738,262.45,2.7254559993743896,110.84883117675781,0.07900000363588333,0.0,1
1671115516.19998789,143431479,0,3,398734200,2240,12,0.87,42.7285804,-84.4847676,262.44,2.759202003479004,115.6642074584961,0.09000000357627869,0.0,1
1671115516.40000701,143631498,0,3,398734400,2240,13,0.87,42.7285781,-84.48476149999999,262.44,2.786525011062622,122.08165740966797,0.20000000298023224,0.0,1
1671115516.60004282,143831534,0,3,398734600,2240,13,0.87,42.7285754,-84.4847556,262.42,2.8456645011901855,125.83493041992188,0.18200001120567322,0.0,1
1671115516.79998779,144031479,0,3,398734800,2240,13,0.87,42.7285724,-84.4847499,262.4,2.879209280014038,129.48960876464844,0.33900001645088196,0.0,1
1671115516.99994397,144231435,0,3,398735000,2240,12,0.87,42.728569,-84.4847444,262.4,2.9475810527801514,132.64895629882812,0.1550000011920929,0.0,1
1671115517.19997382,144431465,0,3,398735200,2240,12,0.87,42.7285652,-84.48473899999999,262.4,3.1075685024261475,133.93087768554688,0.1300000101327896,0.0,1
1671115517.39995885,144631450,0,3,398735400,2240,11,0.87,42.7285612,-84.4847336,262.38,3.0972070693969727,136.77928161621094,0.24400001764297485,0.0,1
1671115517.59998798,144831479,0,3,398735600,2240,12,0.79,42.728557099999996,-84.4847284,262.37,3.1489484310150146,140.33421325683594,0.19200000166893005,0.0,1
1671115517.79992580,145031417,0,3,398735800,2240,12,0.79,42.728552799999996,-84.4847234,262.34000000000003,3.135530710220337,141.59132385253906,0.19500000774860382,0.0,1
1671115517.99992394,145231415,0,3,398736000,2240,11,0.79,42.7285483,-84.4847188,262.33,3.113417863845825,144.0686798095703,0.16500000655651093,0.0,1
1671115518.19993401,145431425,0,3,398736200,2240,11,0.79,42.7285439,-84.4847143,262.32,3.0266315937042236,142.8688507080078,0.05400000140070915,0.0,1
1671115518.39997792,145631469,0,3,398736400,2240,11,0.79,42.7285395,-84.48470999999999,262.31,2.935783863067627,146.03929138183594,0.04800000041723251,0.0,1
1671115518.60004282,145831534,0,3,398736600,2240,12,0.87,42.728535099999995,-84.48470619999999,262.37,2.814408302307129,146.8745574951172,-0.08400000631809235,0.0,1
1671115518.79998398,146031475,0,3,398736800,2240,12,0.87,42.728531,-84.4847025,262.41,2.565589666366577,144.3584747314453,-0.09000000357627869,0.0,1
1671115518.99997783,146231469,0,3,398737000,2240,11,0.87,42.7285274,-84.4846989,262.4,2.4572651386260986,141.6096649169922,-0.03100000135600567,0.0,1
1671115519.19999480,146431486,0,3,398737200,2240,11,0.87,42.7285241,-84.4846953,262.38,2.1878082752227783,139.8389892578125,0.004000000189989805,0.0,1
1671115519.39997983,146631471,0,3,398737400,2240,11,0.87,42.728521199999996,-84.48469209999999,262.35,1.982170581817627,142.3785400390625,0.09400000423192978,0.0,1
1671115519.59991193,146831403,0,3,398737600,2240,11,0.89,42.7285185,-84.4846893,262.31,1.7429163455963135,144.22157287597656,0.10200000554323196,0.0,1
1671115519.79996800,147031459,0,3,398737800,2240,11,0.89,42.7285162,-84.4846871,262.28000000000003,1.4117975234985352,145.67958068847656,0.19600000977516174,0.0,1
1671115519.97996593,147211457,0,3,398738000,2240,11,0.89,42.7285142,-84.48468539999999,262.25,1.1710987091064453,148.26426696777344,0.2200000137090683,0.0,1
1671115520.20004392,147431535,0,3,398738200,2240,11,0.89,42.7285124,-84.48468419999999,262.21,1.0585519075393677,159.88739013671875,0.20800000429153442,0.0,1
1671115520.39997983,147631471,0,3,398738400,2240,11,0.89,42.728510799999995,-84.4846836,262.18,0.8134549856185913,170.80398559570312,0.18800000846385956,0.0,1
1671115520.59998798,147831479,0,3,398738600,2240,12,0.87,42.7285093,-84.4846835,262.15,0.7718912363052368,184.0115966796875,0.1990000158548355,0.0,1
1671115520.79998302,148031474,0,3,398738800,2240,11,0.87,42.728508,-84.4846839,262.12,0.7479318380355835,202.89683532714844,0.24300001561641693,0.0,1
1671115520.99999881,148231490,0,3,398739000,2240,11,0.87,42.728507,-84.4846848,262.11,0.6779410243034363,227.27151489257812,0.16100001335144043,0.0,1
1671115521.19992900,148431420,0,3,398739200,2240,12,0.87,42.7285062,-84.4846862,262.1,0.6427356004714966,242.47813415527344,0.16200000047683716,0.0,1
1671115521.39993286,148631424,0,3,398739400,2240,11,0.87,42.7285058,-84.4846878,262.06,0.7405471801757812,259.0238952636719,0.1120000034570694,0.0,1
1671115521.59996796,148831459,0,3,398739600,2240,11,0.89,42.7285058,-84.48468969999999,262.05,0.8449308276176453,277.34368896484375,0.05700000375509262,0.0,1
1671115521.79996681,149031458,0,3,398739800,2240,11,0.89,42.7285062,-84.4846918,262.06,0.9638921618461609,288.8860778808594,0.023000001907348633,0.0,1
1671115521.99998879,149231480,0,3,398740000,2240,11,0.89,42.7285069,-84.4846941,262.05,1.130494236946106,295.0689392089844,0.03800000250339508,0.0,1
1671115522.19997191,149431463,0,3,398740200,2240,11,0.89,42.728507799999996,-84.4846967,262.05,1.294542908668518,297.8121337890625,-0.00800000037997961,0.0,1
1671115522.39995885,149631450,0,3,398740400,2240,11,0.89,42.7285091,-84.48469949999999,262.07,1.406785488128662,303.1365661621094,-0.04400000348687172,0.0,1
1671115522.59994197,149831433,0,3,398740600,2240,11,0.89,42.7285104,-84.48470239999999,262.04,1.4114195108413696,300.107421875,-0.020000001415610313,0.0,1
1671115522.79992580,150031417,0,3,398740800,2240,12,0.89,42.7285117,-84.4847054,262.04,1.4521983861923218,305.9229431152344,0.05000000074505806,0.0,1
1671115522.99996781,150231459,0,3,398741000,2240,11,0.89,42.728513199999995,-84.4847082,262.03000000000003,1.4166051149368286,307.0235900878906,0.00800000037997961,0.0,1
1671115523.19990492,150431396,0,3,398741200,2240,11,0.89,42.7285149,-84.4847109,262.04,1.4910701513290405,313.5325927734375,0.05300000309944153,0.0,1
