timestamp,TimeUS,Lat,Lng,Alt,RelHomeAlt,RelOriginAlt
1671115432.00026703,59231758,42.7286143,-84.4847872,267.0899963378906,0.01135246828198433,-4.008647441864014
1671115432.02147293,59252964,42.7286143,-84.4847872,267.0899963378906,0.014785218983888626,-4.005214691162109
1671115432.04026794,59271759,42.7286143,-84.4847872,267.0899963378906,0.016669679433107376,-4.003330230712891
1671115432.08034396,59311835,42.7286143,-84.4847872,267.1000061035156,0.021716047078371048,-3.998283863067627
1671115432.12084293,59352334,42.7286143,-84.4847872,267.1000061035156,0.02719419077038765,-3.9928057193756104
1671115432.12091398,59352405,42.7286143,-84.4847872,267.1000061035156,0.02719419077038765,-3.9928057193756104
1671115432.16061902,59392110,42.7286143,-84.4847872,267.1099853515625,0.031136203557252884,-3.988863706588745
1671115432.20027280,59431764,42.7286143,-84.4847872,267.1099853515625,0.03535645082592964,-3.9846434593200684
1671115432.22077489,59452266,42.7286143,-84.4847872,267.1099853515625,0.03631298616528511,-3.983686923980713
1671115432.24029779,59471789,42.728614199999996,-84.4847872,267.1099853515625,0.03707568719983101,-3.982924222946167
1671115432.28032303,59511814,42.728614199999996,-84.4847872,267.1099853515625,0.038864780217409134,-3.981135129928589
1671115432.32073402,59552225,42.728614199999996,-84.4847872,267.1199951171875,0.040705133229494095,-3.979294776916504
1671115432.32085586,59552347,42.728614199999996,-84.4847872,267.1199951171875,0.040705133229494095,-3.979294776916504
1671115432.36089396,59592385,42.728614199999996,-84.4847872,267.1199951171875,0.042416978627443314,-3.9775829315185547
1671115432.40032291,59631814,42.728614199999996,-84.4847872,267.1199951171875,0.044304538518190384,-3.9756953716278076
1671115432.42084193,59652333,42.728614199999996,-84.4847872,267.1199951171875,0.04485004022717476,-3.9751498699188232
1671115432.44015503,59671646,42.728614199999996,-84.4847872,267.1199951171875,0.0454205758869648,-3.974579334259033
1671115432.48017383,59711665,42.7286141,-84.48478709999999,267.1199951171875,0.046703506261110306,-3.9732964038848877
1671115432.52078700,59752278,42.7286141,-84.48478709999999,267.1199951171875,0.04798739030957222,-3.972012519836426
1671115432.52091599,59752407,42.7286141,-84.48478709999999,267.1199951171875,0.04798739030957222,-3.972012519836426
1671115432.56089091,59792382,42.7286141,-84.48478709999999,267.1199951171875,0.04929821565747261,-3.9707016944885254
1671115432.60029197,59831783,42.7286141,-84.48478709999999,267.1300048828125,0.050792146474123,-3.969207763671875
1671115432.62076092,59852252,42.7286141,-84.48478709999999,267.1300048828125,0.05020468309521675,-3.9697952270507812
1671115432.64017487,59871666,42.7286141,-84.48478709999999,267.1300048828125,0.05021565034985542,-3.9697842597961426
1671115432.68016481,59911656,42.728614,-84.48478709999999,267.1199951171875,0.04992954805493355,-3.9700703620910645
1671115432.72072697,59952218,42.728614,-84.48478709999999,267.1199951171875,0.049382854253053665,-3.9706170558929443
1671115432.72086596,59952357,42.728614,-84.48478709999999,267.1199951171875,0.049382854253053665,-3.9706170558929443
1671115432.76087999,59992371,42.728614,-84.48478709999999,267.1199951171875,0.049460817128419876,-3.970539093017578
1671115432.80032182,60031813,42.728614,-84.48478709999999,267.1199951171875,0.04984777048230171,-3.9701521396636963
1671115432.82068896,60052180,42.7286139,-84.48478709999999,267.1199951171875,0.04849689081311226,-3.9715030193328857
1671115432.84019089,60071682,42.7286139,-84.48478709999999,267.1199951171875,0.04809873178601265,-3.9719011783599854
1671115432.88022900,60111720,42.7286139,-84.48478709999999,267.1199951171875,0.04690759256482124,-3.9730923175811768
1671115432.92088699,60152378,42.7286139,-84.48478709999999,267.1199951171875,0.045470643788576126,-3.974529266357422
1671115432.92095780,60152449,42.7286139,-84.48478709999999,267.1199951171875,0.045470643788576126,-3.974529266357422
1671115432.96085191,60192343,42.7286139,-84.48478709999999,267.1199951171875,0.04489748552441597,-3.975102424621582
1671115433.00030398,60231795,42.7286139,-84.48478709999999,267.1199951171875,0.04364650323987007,-3.976353406906128
1671115433.02077198,60252263,42.7286139,-84.484787,267.1199951171875,0.042405057698488235,-3.9775948524475098
1671115433.04026890,60271760,42.7286139,-84.484787,267.1199951171875,0.04200475290417671,-3.9779951572418213
1671115433.08026481,60311756,42.7286139,-84.484787,267.1199951171875,0.040717292577028275,-3.9792826175689697
1671115433.12081599,60352307,42.7286139,-84.484787,267.1099853515625,0.0390736348927021,-3.980926275253296
1671115433.12094593,60352437,42.7286139,-84.484787,267.1099853515625,0.0390736348927021,-3.980926275253296
1671115433.16074586,60392237,42.7286139,-84.484787,267.1099853515625,0.038341689854860306,-3.9816582202911377
1671115433.20030785,60431799,42.7286139,-84.484787,267.1099853515625,0.03804748132824898,-3.981952428817749
1671115433.22074986,60452241,42.7286139,-84.484787,267.1099853515625,0.036394763737916946,-3.983605146408081
1671115433.24033880,60471830,42.7286139,-84.484787,267.1099853515625,0.03574793413281441,-3.9842519760131836
1671115433.28024101,60511732,42.7286139,-84.484787,267.1099853515625,0.033946443349123,-3.986053466796875
1671115433.32081485,60552306,42.7286139,-84.484787,267.1099853515625,0.03182189539074898,-3.988178014755249
1671115433.32093287,60552424,42.7286139,-84.484787,267.1099853515625,0.03182189539074898,-3.988178014755249
1671115433.36080194,60592293,42.7286139,-84.484787,267.1099853515625,0.030589748173952103,-3.989410161972046
1671115433.40023685,60631728,42.7286139,-84.484787,267.1000061035156,0.029653001576662064,-3.990346908569336
1671115433.42074180,60652233,42.7286139,-84.484787,267.1000061035156,0.027876783162355423,-3.9921231269836426
1671115433.44030881,60671800,42.7286139,-84.484787,267.1000061035156,0.02711670473217964,-3.9928832054138184
1671115433.48036289,60711854,42.7286139,-84.484787,267.1000061035156,0.02492230013012886,-3.995077610015869
1671115433.52079582,60752287,42.7286139,-84.484787,267.1000061035156,0.02229492738842964,-3.9977049827575684
1671115433.52086902,60752360,42.7286139,-84.484787,267.1000061035156,0.02229492738842964,-3.9977049827575684
1671115433.56079888,60792290,42.7286139,-84.484787,267.1000061035156,0.020783353596925735,-3.9992165565490723
1671115433.60026789,60831759,42.7286139,-84.484787,267.0899963378906,0.019772935658693314,-4.000226974487305
1671115433.62082696,60852318,42.7286138,-84.484787,267.0899963378906,0.01779930666089058,-4.002200603485107
1671115433.64028502,60871776,42.7286138,-84.484787,267.0899963378906,0.01688091829419136,-4.003118991851807
1671115433.68031383,60911805,42.7286138,-84.484787,267.0899963378906,0.014616895467042923,-4.005383014678955
1671115433.72081494,60952306,42.7286138,-84.484787,267.0899963378906,0.012115884572267532,-4.0078840255737305
1671115433.72093487,60952426,42.7286138,-84.484787,267.0899963378906,0.012115884572267532,-4.0078840255737305
1671115433.76094389,60992435,42.7286138,-84.484787,267.0899963378906,0.010515142232179642,-4.009484767913818
1671115433.80024886,61031740,42.7286138,-84.484787,267.0799865722656,0.009215284138917923,-4.01078462600708
1671115433.82080102,61052292,42.7286138,-84.484787,267.0799865722656,0.006800580769777298,-4.013199329376221
1671115433.84033585,61071827,42.7286138,-84.484787,267.0799865722656,0.005613256245851517,-4.0143866539001465
1671115433.88025403,61111745,42.7286138,-84.484787,267.0799865722656,0.0026606805622577667,-4.01733922958374
1671115433.92073798,61152229,42.7286138,-84.484787,267.07000732421875,-0.0006185285747051239,-4.020618438720703
1671115433.92085481,61152346,42.7286138,-84.484787,267.07000732421875,-0.0006185285747051239,-4.020618438720703
1671115433.96089602,61192387,42.7286138,-84.484787,267.07000732421875,-0.002762865275144577,-4.022762775421143
1671115434.00030899,61231800,42.7286138,-84.484787,267.07000732421875,-0.004461836069822311,-4.02446174621582
1671115434.02075601,61252247,42.7286138,-84.484787,267.07000732421875,-0.005773138254880905,-4.025773048400879
1671115434.04025602,61271747,42.7286138,-84.484787,267.07000732421875,-0.00649411603808403,-4.026494026184082
1671115434.08022881,61311720,42.7286138,-84.484787,267.07000732421875,-0.008106302469968796,-4.028106212615967
1671115434.12087798,61352369,42.7286137,-84.484787,267.07000732421875,-0.009813379496335983,-4.029813289642334
1671115434.12099099,61352482,42.7286137,-84.484787,267.07000732421875,-0.009813379496335983,-4.029813289642334
1671115434.16086888,61392360,42.7286137,-84.484787,267.05999755859375,-0.010805200785398483,-4.0308051109313965
1671115434.20027494,61431766,42.7286137,-84.484787,267.05999755859375,-0.011159967631101608,-4.0311598777771
1671115434.22072601,61452217,42.7286137,-84.484787,267.05999755859375,-0.012514661997556686,-4.032514572143555
1671115434.24029899,61471790,42.7286137,-84.484787,267.05999755859375,-0.013302873820066452,-4.0333027839660645
1671115434.28015590,61511647,42.7286137,-84.484787,267.05999755859375,-0.015004228800535202,-4.035004138946533
1671115434.32069683,61552188,42.7286137,-84.484787,267.05999755859375,-0.016750406473875046,-4.036750316619873
1671115434.32085800,61552349,42.7286137,-84.484787,267.05999755859375,-0.016750406473875046,-4.036750316619873
1671115434.36088085,61592372,42.7286137,-84.484787,267.05999755859375,-0.017854761332273483,-4.0378546714782715
1671115434.40030479,61631796,42.7286137,-84.484787,267.05999755859375,-0.01842315122485161,-4.03842306137085
1671115434.42075801,61652249,42.7286137,-84.484787,267.05999755859375,-0.019228529185056686,-4.039228439331055
1671115434.44021988,61671711,42.7286137,-84.484787,267.05999755859375,-0.019797872751951218,-4.039797782897949
1671115434.48025584,61711747,42.728613599999996,-84.484787,267.04998779296875,-0.020824026316404343,-4.040823936462402
1671115434.52077699,61752268,42.728613599999996,-84.4847869,267.04998779296875,-0.02178628370165825,-4.041786193847656
1671115434.52090192,61752393,42.728613599999996,-84.4847869,267.04998779296875,-0.02178628370165825,-4.041786193847656
1671115434.56082892,61792320,42.728613599999996,-84.4847869,267.04998779296875,-0.02250678464770317,-4.042506694793701
1671115434.60036993,61831861,42.728613599999996,-84.4847869,267.04998779296875,-0.022878240793943405,-4.042878150939941
1671115434.62070584,61852197,42.728613599999996,-84.4847869,267.04998779296875,-0.023529600352048874,-4.043529510498047
1671115434.64025688,61871748,42.728613599999996,-84.4847869,267.04998779296875,-0.02407224103808403,-4.044072151184082
1671115434.68023300,61911724,42.7286135,-84.4847869,267.04998779296875,-0.02503974363207817,-4.045039653778076
1671115434.72080088,61952292,42.7286135,-84.4847869,267.04998779296875,-0.025931905955076218,-4.045931816101074
1671115434.72090101,61952392,42.7286135,-84.4847869,267.04998779296875,-0.025931905955076218,-4.045931816101074
1671115434.76089001,61992381,42.7286135,-84.484787,267.04998779296875,-0.026669573038816452,-4.0466694831848145
1671115434.80024791,62031739,42.7286135,-84.484787,267.04998779296875,-0.027104448527097702,-4.047104358673096
1671115434.82071400,62052205,42.7286135,-84.484787,267.04998779296875,-0.02770669385790825,-4.047706604003906
1671115434.84027195,62071763,42.7286134,-84.484787,267.04998779296875,-0.02825601026415825,-4.048255920410156
1671115434.88028383,62111775,42.7286134,-84.484787,267.04998779296875,-0.029294084757566452,-4.0492939949035645
1671115434.92076588,62152257,42.7286134,-84.484787,267.0400085449219,-0.03031022474169731,-4.050310134887695
1671115434.92088199,62152373,42.7286134,-84.484787,267.0400085449219,-0.03031022474169731,-4.050310134887695
1671115434.96083784,62192329,42.7286134,-84.484787,267.0400085449219,-0.03125102445483208,-4.05125093460083
1671115435.00018287,62231674,42.7286133,-84.484787,267.0400085449219,-0.032051634043455124,-4.052051544189453
1671115435.02086902,62252360,42.7286133,-84.484787,267.0400085449219,-0.03302915021777153,-4.0530290603637695
1671115435.04030085,62271792,42.7286133,-84.484787,267.0400085449219,-0.033765386790037155,-4.053765296936035
1671115435.08029389,62311785,42.7286133,-84.484787,267.0400085449219,-0.03498227521777153,-4.0549821853637695
1671115435.12081885,62352310,42.7286132,-84.484787,267.0400085449219,-0.03597552701830864,-4.055975437164307
1671115435.12093997,62352431,42.7286132,-84.484787,267.0400085449219,-0.03597552701830864,-4.055975437164307
1671115435.16080880,62392300,42.7286132,-84.484787,267.0400085449219,-0.0367170087993145,-4.0567169189453125
1671115435.20023799,62431729,42.7286132,-84.484787,267.0400085449219,-0.036926817148923874,-4.056926727294922
1671115435.22075987,62452251,42.7286132,-84.484787,267.0400085449219,-0.037305425852537155,-4.057305335998535
1671115435.24023390,62471725,42.7286132,-84.484787,267.0400085449219,-0.03777129575610161,-4.0577712059021
1671115435.28033400,62511825,42.7286132,-84.484787,267.0400085449219,-0.038197111338377,-4.058197021484375
1671115435.32084298,62552334,42.7286131,-84.484787,267.0400085449219,-0.038220953196287155,-4.058220863342285
1671115435.32095599,62552447,42.7286131,-84.484787,267.0400085449219,-0.038220953196287155,-4.058220863342285
1671115435.36082101,62592312,42.7286131,-84.484787,267.0400085449219,-0.03856093809008598,-4.058560848236084
1671115435.40024495,62631736,42.7286131,-84.484787,267.0400085449219,-0.038739752024412155,-4.05873966217041
1671115435.42081189,62652303,42.7286131,-84.484787,267.0400085449219,-0.038732122629880905,-4.058732032775879
1671115435.44035482,62671846,42.7286131,-84.484787,267.0400085449219,-0.039029669016599655,-4.059029579162598
1671115435.48028588,62711777,42.7286131,-84.484787,267.0400085449219,-0.03894669935107231,-4.05894660949707
1671115435.52072191,62752213,42.728612999999996,-84.484787,267.0400085449219,-0.038404058665037155,-4.058403968811035
1671115435.52085400,62752345,42.728612999999996,-84.484787,267.0400085449219,-0.038404058665037155,-4.058403968811035
1671115435.56086397,62792355,42.728612999999996,-84.484787,267.0400085449219,-0.038147520273923874,-4.058147430419922
1671115435.60027981,62831771,42.728612999999996,-84.484787,267.0400085449219,-0.03750283643603325,-4.057502746582031
1671115435.62089682,62852388,42.728612999999996,-84.484787,267.0400085449219,-0.03728921338915825,-4.057289123535156
1671115435.64026380,62871755,42.728612999999996,-84.484787,267.0400085449219,-0.03746373578906059,-4.057463645935059
1671115435.68022895,62911720,42.728612899999995,-84.484787,267.0400085449219,-0.03697068616747856,-4.056970596313477
1671115435.72079682,62952288,42.728612899999995,-84.484787,267.0400085449219,-0.03577907010912895,-4.055778980255127
1671115435.72093701,62952428,42.728612899999995,-84.484787,267.0400085449219,-0.03577907010912895,-4.055778980255127
1671115435.76085281,62992344,42.728612899999995,-84.484787,267.0400085449219,-0.035131048411130905,-4.055130958557129
1671115435.80027986,63031771,42.728612899999995,-84.484787,267.0400085449219,-0.03412778303027153,-4.0541276931762695
1671115435.82073188,63052223,42.7286128,-84.484787,267.0400085449219,-0.03373439237475395,-4.053734302520752
1671115435.84030700,63071798,42.7286128,-84.484787,267.0400085449219,-0.03388221189379692,-4.053882122039795
1671115435.88024282,63111734,42.7286128,-84.484787,267.0400085449219,-0.033057283610105515,-4.0530571937561035
1671115435.92072582,63152217,42.7286128,-84.484787,267.0400085449219,-0.03150041028857231,-4.05150032043457
1671115435.92085886,63152350,42.7286128,-84.484787,267.0400085449219,-0.03150041028857231,-4.05150032043457
1671115435.96087694,63192368,42.7286127,-84.484787,267.0400085449219,-0.03075272962450981,-4.050752639770508
1671115436.00034285,63231834,42.7286127,-84.484787,267.04998779296875,-0.029841016978025436,-4.049840927124023
1671115436.02078295,63252274,42.7286127,-84.484787,267.04998779296875,-0.029811453074216843,-4.049811363220215
1671115436.04029298,63271784,42.7286127,-84.484787,267.0400085449219,-0.030117105692625046,-4.050117015838623
1671115436.08021784,63311709,42.7286127,-84.484787,267.04998779296875,-0.029728960245847702,-4.049728870391846
1671115436.12076783,63352259,42.7286126,-84.484787,267.04998779296875,-0.02859027311205864,-4.048590183258057
1671115436.12089992,63352391,42.7286126,-84.484787,267.04998779296875,-0.02859027311205864,-4.048590183258057
1671115436.16083503,63392326,42.7286126,-84.484787,267.04998779296875,-0.028098654001951218,-4.048098564147949
1671115436.20033288,63431824,42.7286126,-84.484787,267.04998779296875,-0.027358602732419968,-4.047358512878418
1671115436.22076702,63452258,42.7286126,-84.484787,267.04998779296875,-0.02716691419482231,-4.04716682434082
1671115436.24026990,63471761,42.7286126,-84.484787,267.04998779296875,-0.02747638151049614,-4.047476291656494
1671115436.28027582,63511767,42.7286126,-84.484787,267.04998779296875,-0.027032922953367233,-4.047032833099365
1671115436.32077289,63552264,42.7286126,-84.484787,267.04998779296875,-0.02596576139330864,-4.045965671539307
1671115436.32084394,63552335,42.7286126,-84.484787,267.04998779296875,-0.02596576139330864,-4.045965671539307
1671115436.36080384,63592295,42.7286126,-84.484787,267.04998779296875,-0.02556140348315239,-4.04556131362915
1671115436.40037084,63631862,42.7286126,-84.484787,267.04998779296875,-0.024800848215818405,-4.044800758361816
1671115436.42073083,63652222,42.7286125,-84.484787,267.04998779296875,-0.02620227262377739,-4.046202182769775
1671115436.44024086,63671732,42.7286125,-84.484787,267.04998779296875,-0.027236532419919968,-4.047236442565918
1671115436.48032498,63711816,42.7286125,-84.484787,267.04998779296875,-0.02911527082324028,-4.049115180969238
1671115436.52078080,63752272,42.7286125,-84.484787,267.0400085449219,-0.030915331095457077,-4.050915241241455
1671115436.52085090,63752342,42.7286125,-84.484787,267.0400085449219,-0.030915331095457077,-4.050915241241455
1671115436.56080985,63792301,42.7286125,-84.484787,267.0400085449219,-0.03259856626391411,-4.052598476409912
1671115436.60020185,63831693,42.7286125,-84.484787,267.0400085449219,-0.03429229184985161,-4.05429220199585
1671115436.62075496,63852246,42.728612399999996,-84.484787,267.0400085449219,-0.03823430463671684,-4.058234214782715
1671115436.64024997,63871741,42.728612399999996,-84.484787,267.0299987792969,-0.040546488016843796,-4.060546398162842
1671115436.68032479,63911816,42.728612399999996,-84.484787,267.0299987792969,-0.04601294919848442,-4.066012859344482
1671115436.72078085,63952272,42.728612399999996,-84.4847869,267.0199890136719,-0.05193955823779106,-4.071939468383789
1671115436.72089291,63952384,42.728612399999996,-84.4847869,267.0199890136719,-0.05193955823779106,-4.071939468383789
1671115436.76088381,63992375,42.728612399999996,-84.4847869,267.0199890136719,-0.056172918528318405,-4.076172828674316
1671115436.80017090,64031662,42.728612399999996,-84.4847869,267.0199890136719,-0.059490274637937546,-4.0794901847839355
1671115436.82079697,64052288,42.728612299999995,-84.4847869,267.0099792480469,-0.0631147176027298,-4.0831146240234375
1671115436.84019279,64071684,42.728612299999995,-84.4847869,267.0099792480469,-0.0653587132692337,-4.085358619689941
1671115436.88027596,64111767,42.728612299999995,-84.4847868,267.0,-0.07012613117694855,-4.090126037597656
1671115436.92082191,64152313,42.728612299999995,-84.4847868,267.0,-0.07504518330097198,-4.09504508972168
1671115436.92093492,64152426,42.728612299999995,-84.4847868,267.0,-0.07504518330097198,-4.09504508972168
1671115436.96080184,64192293,42.7286122,-84.4847868,267.0,-0.0787087231874466,-4.098708629608154
1671115437.00023890,64231730,42.7286122,-84.4847868,266.989990234375,-0.08155877888202667,-4.101558685302734
1671115437.02083182,64252323,42.7286122,-84.4847868,266.989990234375,-0.08473308384418488,-4.104732990264893
1671115437.04027700,64271768,42.7286122,-84.4847868,266.989990234375,-0.08679063618183136,-4.106790542602539
1671115437.08028698,64311778,42.7286122,-84.4847867,266.97998046875,-0.0910239964723587,-4.111023902893066
1671115437.12104297,64352534,42.7286121,-84.48478659999999,266.97998046875,-0.09515674412250519,-4.115156650543213
1671115437.12111282,64352604,42.7286121,-84.48478659999999,266.97998046875,-0.09515674412250519,-4.115156650543213
1671115437.16082692,64392318,42.7286121,-84.48478659999999,266.97998046875,-0.09842737019062042,-4.118427276611328
1671115437.20028901,64431780,42.7286121,-84.48478659999999,266.9700012207031,-0.10117967426776886,-4.121179580688477
1671115437.22080302,64452294,42.7286121,-84.48478659999999,266.9700012207031,-0.10330350697040558,-4.123303413391113
1671115437.24024200,64471733,42.7286121,-84.48478659999999,266.9700012207031,-0.104985311627388,-4.124985218048096
1671115437.28021979,64511711,42.728612,-84.48478659999999,266.9700012207031,-0.10774286091327667,-4.127742767333984
1671115437.32071781,64552209,42.728612,-84.4847865,266.9599914550781,-0.11004407703876495,-4.130043983459473
1671115437.32093883,64552430,42.728612,-84.4847865,266.9599914550781,-0.11004407703876495,-4.130043983459473
1671115437.36084390,64592335,42.728612,-84.4847865,266.9599914550781,-0.11211736500263214,-4.13211727142334
1671115437.40034795,64631839,42.728612,-84.4847865,266.9599914550781,-0.11373670399188995,-4.133736610412598
1671115437.42072701,64652218,42.7286119,-84.4847865,266.9599914550781,-0.11457927525043488,-4.134579181671143
1671115437.44028902,64671780,42.7286119,-84.4847865,266.9599914550781,-0.1156674176454544,-4.135667324066162
1671115437.48029280,64711784,42.7286119,-84.48478639999999,266.9599914550781,-0.11719854176044464,-4.137198448181152
1671115437.52076697,64752258,42.7286119,-84.48478639999999,266.9599914550781,-0.118382528424263,-4.138382434844971
1671115437.52089286,64752384,42.7286119,-84.48478639999999,266.9599914550781,-0.118382528424263,-4.138382434844971
1671115437.56090093,64792392,42.7286119,-84.4847863,266.9599914550781,-0.11986453831195831,-4.139864444732666
1671115437.60035682,64831848,42.7286119,-84.4847863,266.9499816894531,-0.1210981160402298,-4.1410980224609375
1671115437.62078381,64852275,42.728611799999996,-84.4847863,266.9499816894531,-0.12190969288349152,-4.141909599304199
1671115437.64027691,64871768,42.728611799999996,-84.4847863,266.9499816894531,-0.12304694950580597,-4.143046855926514
1671115437.68029094,64911782,42.728611799999996,-84.4847862,266.9499816894531,-0.1241493970155716,-4.144149303436279
1671115437.72074986,64952241,42.728611799999996,-84.4847862,266.9499816894531,-0.12449605762958527,-4.144495964050293
1671115437.72082090,64952312,42.728611799999996,-84.4847862,266.9499816894531,-0.12449605762958527,-4.144495964050293
1671115437.76086593,64992357,42.728611799999996,-84.4847862,266.9499816894531,-0.12526758015155792,-4.145267486572266
1671115437.80033684,65031828,42.728611799999996,-84.4847862,266.9499816894531,-0.12559516727924347,-4.145595073699951
1671115437.82079387,65052285,42.728611799999996,-84.4847861,266.9499816894531,-0.1266361027956009,-4.146636009216309
1671115437.84038687,65071878,42.728611799999996,-84.4847861,266.9499816894531,-0.12786252796649933,-4.147862434387207
1671115437.88023782,65111729,42.728611699999995,-84.484786,266.9499816894531,-0.1294594556093216,-4.149459362030029
1671115437.92074180,65152233,42.728611699999995,-84.484786,266.94000244140625,-0.13044936954975128,-4.150449275970459
1671115437.92086601,65152357,42.728611699999995,-84.484786,266.94000244140625,-0.13044936954975128,-4.150449275970459
1671115437.96093392,65192425,42.728611699999995,-84.48478589999999,266.94000244140625,-0.13169677555561066,-4.151696681976318
1671115438.00029182,65231783,42.728611699999995,-84.48478589999999,266.94000244140625,-0.13212020695209503,-4.152120113372803
1671115438.02079701,65252288,42.728611699999995,-84.48478589999999,266.94000244140625,-0.13212068378925323,-4.152120590209961
1671115438.04030991,65271801,42.728611699999995,-84.4847858,266.94000244140625,-0.13279969990253448,-4.152799606323242
1671115438.08026886,65311760,42.728611699999995,-84.4847858,266.94000244140625,-0.13258321583271027,-4.152583122253418
1671115438.12087393,65352365,42.7286116,-84.4847856,266.94000244140625,-0.13081033527851105,-4.150810241699219
1671115438.12095594,65352447,42.7286116,-84.4847856,266.94000244140625,-0.13081033527851105,-4.150810241699219
1671115438.16086698,65392358,42.7286116,-84.4847856,266.9499816894531,-0.1282401829957962,-4.148240089416504
1671115438.20042300,65431914,42.7286116,-84.4847855,266.9499816894531,-0.12321145832538605,-4.143211364746094
1671115438.22074890,65452240,42.7286116,-84.4847855,266.9599914550781,-0.1199703961610794,-4.139970302581787
1671115438.24024701,65471738,42.7286116,-84.4847855,266.9599914550781,-0.1174360066652298,-4.1374359130859375
1671115438.28027987,65511771,42.7286116,-84.4847855,266.9700012207031,-0.10947568714618683,-4.1294755935668945
1671115438.32079887,65552290,42.7286116,-84.48478539999999,266.97998046875,-0.09877355396747589,-4.118773460388184
1671115438.32091403,65552405,42.7286116,-84.48478539999999,266.97998046875,-0.09877355396747589,-4.118773460388184
1671115438.36087799,65592369,42.7286116,-84.48478539999999,266.989990234375,-0.08705432713031769,-4.107054233551025
1671115438.40024185,65631733,42.7286115,-84.4847853,267.0,-0.07125003635883331,-4.091249942779541
1671115438.42084384,65652335,42.7286115,-84.4847853,267.0099792480469,-0.061655592173337936,-4.081655502319336
1671115438.44022083,65671712,42.7286115,-84.4847853,267.0199890136719,-0.05359227582812309,-4.073592185974121
1671115438.48026681,65711758,42.7286115,-84.48478519999999,267.0400085449219,-0.034238409250974655,-4.054238319396973
1671115438.52080202,65752293,42.7286115,-84.4847851,267.05999755859375,-0.012060713022947311,-4.032060623168945
1671115438.52090883,65752400,42.7286115,-84.4847851,267.05999755859375,-0.012060713022947311,-4.032060623168945
1671115438.56090498,65792396,42.7286115,-84.4847851,267.0799865722656,0.00954287126660347,-4.0104570388793945
1671115438.60026693,65831758,42.7286114,-84.4847851,267.1099853515625,0.03284876421093941,-3.9871511459350586
1671115438.62079787,65852289,42.7286114,-84.4847851,267.1199951171875,0.04704277589917183,-3.972957134246826
1671115438.64019585,65871687,42.7286114,-84.4847851,267.1300048828125,0.059412408620119095,-3.960587501525879
1671115438.68027902,65911770,42.7286114,-84.484785,267.1600036621094,0.0871848315000534,-3.9328150749206543
1671115438.72086382,65952355,42.7286113,-84.484785,267.19000244140625,0.11710087954998016,-3.9028990268707275
1671115438.72097588,65952467,42.7286113,-84.484785,267.19000244140625,0.11710087954998016,-3.9028990268707275
1671115438.76084900,65992340,42.7286113,-84.484785,267.2200012207031,0.14642159640789032,-3.8735783100128174
1671115438.80035901,66031850,42.728611199999996,-84.484785,267.25,0.17698733508586884,-3.843012571334839
1671115438.82078791,66052279,42.728611199999996,-84.4847849,267.2699890136719,0.19376103579998016,-3.8262388706207275
1671115438.84024787,66071739,42.728611199999996,-84.4847849,267.2799987792969,0.20877783000469208,-3.8112220764160156
1671115438.88033199,66111823,42.728611099999995,-84.4847849,267.32000732421875,0.24203531444072723,-3.7779645919799805
1671115438.92081594,66152307,42.728611099999995,-84.4847849,267.3500061035156,0.27698153257369995,-3.743018388748169
1671115438.92094493,66152436,42.728611099999995,-84.4847849,267.3500061035156,0.27698153257369995,-3.743018388748169
1671115438.96083188,66192323,42.728611,-84.4847849,267.3899841308594,0.310590922832489,-3.70940899848938
1671115439.00033092,66231822,42.7286109,-84.4847849,267.41998291015625,0.34542006254196167,-3.6745798587799072
1671115439.02085185,66252343,42.7286109,-84.4847849,267.44000244140625,0.36371463537216187,-3.656285285949707
1671115439.04029298,66271784,42.7286108,-84.4847849,267.4599914550781,0.38068240880966187,-3.639317512512207
1671115439.08027387,66311765,42.7286107,-84.4847848,267.489990234375,0.4161779284477234,-3.6038219928741455
1671115439.12076092,66352252,42.728610599999996,-84.4847846,267.5299987792969,0.45308560132980347,-3.5669143199920654
1671115439.12088895,66352380,42.728610599999996,-84.4847846,267.5299987792969,0.45308560132980347,-3.5669143199920654
1671115439.16080379,66392295,42.728610499999995,-84.4847846,267.57000732421875,0.4900047183036804,-3.5299952030181885
1671115439.20036697,66431858,42.7286104,-84.4847846,267.6000061035156,0.5285422205924988,-3.49145770072937
1671115439.22090387,66452395,42.7286103,-84.48478449999999,267.6199951171875,0.5464364886283875,-3.4735634326934814
1671115439.24032903,66471820,42.7286102,-84.48478449999999,267.6399841308594,0.5634893774986267,-3.456510543823242
1671115439.28030586,66511797,42.7286101,-84.48478449999999,267.67999267578125,0.6007837653160095,-3.4192161560058594
1671115439.32070994,66552201,42.728609999999996,-84.4847844,267.7200012207031,0.6404868960380554,-3.3795130252838135
1671115439.32082391,66552315,42.728609999999996,-84.4847844,267.7200012207031,0.6404868960380554,-3.3795130252838135
1671115439.36096692,66592458,42.7286098,-84.4847844,267.75,0.6794621348381042,-3.3405377864837646
1671115439.40035295,66631844,42.7286097,-84.4847843,267.7900085449219,0.7197327017784119,-3.300267219543457
1671115439.42077494,66652266,42.7286097,-84.4847843,267.80999755859375,0.7391044497489929,-3.280895471572876
1671115439.44034791,66671839,42.7286096,-84.4847843,267.8299865722656,0.7570013403892517,-3.262998580932617
1671115439.48027492,66711766,42.7286095,-84.48478419999999,267.8699951171875,0.7957884669303894,-3.2242114543914795
1671115439.52075481,66752246,42.728609399999996,-84.4847841,267.9100036621094,0.8376008868217468,-3.182399034500122
1671115439.52086902,66752360,42.728609399999996,-84.4847841,267.9100036621094,0.8376008868217468,-3.182399034500122
1671115439.56082702,66792318,42.728609399999996,-84.4847841,267.9499816894531,0.8767923712730408,-3.143207550048828
1671115439.60028481,66831776,42.728609299999995,-84.48478399999999,267.989990234375,0.9176380038261414,-3.1023619174957275
1671115439.62079191,66852283,42.728609299999995,-84.48478399999999,268.0099792480469,0.9377710223197937,-3.082228899002075
1671115439.64038587,66871877,42.7286092,-84.48478399999999,268.0299987792969,0.9551424384117126,-3.0648574829101562
1671115439.68028092,66911772,42.7286092,-84.48478399999999,268.07000732421875,0.9934813380241394,-3.0265185832977295
1671115439.72074986,66952241,42.7286092,-84.4847839,268.1099853515625,1.0343490839004517,-2.9856507778167725
1671115439.72083783,66952329,42.7286092,-84.4847839,268.1099853515625,1.0343490839004517,-2.9856507778167725
1671115439.76084995,66992341,42.7286091,-84.4847839,268.1499938964844,1.0709487199783325,-2.9490511417388916
1671115439.80023694,67031728,42.7286091,-84.4847838,268.17999267578125,1.108331561088562,-2.911668300628662
1671115439.82079887,67052290,42.728609,-84.4847838,268.1999816894531,1.1259883642196655,-2.8940114974975586
1671115439.84023190,67071723,42.728609,-84.4847838,268.2200012207031,1.14041006565094,-2.879589796066284
1671115439.88029385,67111785,42.7286089,-84.4847838,268.25,1.1733123064041138,-2.8466875553131104
1671115439.92083192,67152323,42.7286089,-84.4847837,268.2799987792969,1.2073768377304077,-2.8126230239868164
1671115439.92094493,67152436,42.7286089,-84.4847837,268.2799987792969,1.2073768377304077,-2.8126230239868164
1671115439.96085596,67192347,42.728608799999996,-84.4847837,268.30999755859375,1.2362333536148071,-2.783766508102417
1671115440.00032187,67231813,42.728608699999995,-84.4847837,268.3399963378906,1.2637320756912231,-2.756267786026001
1671115440.02082682,67252318,42.728608699999995,-84.4847837,268.3500061035156,1.2754422426223755,-2.7445576190948486
1671115440.04019499,67271686,42.728608699999995,-84.4847837,268.3599853515625,1.285420298576355,-2.734579563140869
1671115440.08027482,67311766,42.7286086,-84.4847836,268.3800048828125,1.3068801164627075,-2.7131197452545166
1671115440.12084699,67352338,42.7286086,-84.4847836,268.3999938964844,1.3291422128677368,-2.6908576488494873
1671115440.12096095,67352452,42.7286086,-84.4847836,268.3999938964844,1.3291422128677368,-2.6908576488494873
1671115440.16088986,67392381,42.7286085,-84.4847836,268.41998291015625,1.348256230354309,-2.671743631362915
1671115440.20028687,67431778,42.7286085,-84.4847836,268.44000244140625,1.3675252199172974,-2.6524746417999268
1671115440.22073388,67452225,42.7286084,-84.4847836,268.4499816894531,1.3762019872665405,-2.6437978744506836
1671115440.24024200,67471733,42.7286084,-84.48478349999999,268.4599914550781,1.382635474205017,-2.637364387512207
1671115440.28027892,67511770,42.7286083,-84.48478349999999,268.4700012207031,1.3974498510360718,-2.6225500106811523
1671115440.32077289,67552264,42.7286082,-84.48478349999999,268.489990234375,1.4129382371902466,-2.6070616245269775
1671115440.32095385,67552445,42.7286082,-84.48478349999999,268.489990234375,1.4129382371902466,-2.6070616245269775
1671115440.36095190,67592443,42.7286082,-84.4847834,268.5,1.4252516031265259,-2.5947482585906982
1671115440.40025401,67631745,42.728608099999995,-84.4847834,268.5099792480469,1.4373093843460083,-2.582690477371216
1671115440.42075801,67652249,42.728608099999995,-84.4847834,268.5199890136719,1.440877079963684,-2.57912278175354
1671115440.44019794,67671689,42.728608099999995,-84.48478329999999,268.5199890136719,1.4434725046157837,-2.5765273571014404
1671115440.48028994,67711781,42.728608,-84.48478329999999,268.5299987792969,1.4512282609939575,-2.5687716007232666
1671115440.52082896,67752320,42.728608,-84.4847832,268.5400085449219,1.4602235555648804,-2.5597763061523438
1671115440.52099395,67752485,42.728608,-84.4847832,268.5400085449219,1.4602235555648804,-2.5597763061523438
1671115440.56086802,67792359,42.728608,-84.4847832,268.5400085449219,1.4669915437698364,-2.5530083179473877
1671115440.60033298,67831824,42.7286079,-84.4847831,268.54998779296875,1.474331021308899,-2.545668840408325
1671115440.62073302,67852224,42.7286079,-84.4847831,268.54998779296875,1.4786735773086548,-2.5413262844085693
1671115440.64025402,67871745,42.7286079,-84.4847831,268.55999755859375,1.4807480573654175,-2.5392518043518066
1671115440.68028188,67911773,42.7286079,-84.484783,268.55999755859375,1.4874495267868042,-2.53255033493042
1671115440.72079086,67952282,42.7286078,-84.4847829,268.57000732421875,1.495505452156067,-2.5244944095611572
1671115440.72091579,67952407,42.7286078,-84.4847829,268.57000732421875,1.495505452156067,-2.5244944095611572
1671115440.76078486,67992276,42.7286078,-84.4847829,268.5799865722656,1.5014220476150513,-2.518577814102173
1671115440.80029798,68031789,42.7286078,-84.4847829,268.5799865722656,1.5084398984909058,-2.5115599632263184
1671115440.82074881,68052240,42.7286078,-84.48478279999999,268.5899963378906,1.5123025178909302,-2.507697343826294
1671115440.84032393,68071815,42.7286077,-84.48478279999999,268.5899963378906,1.5135711431503296,-2.5064287185668945
1671115440.88027692,68111768,42.7286077,-84.4847827,268.5899963378906,1.5188676118850708,-2.5011322498321533
1671115440.92073703,68152228,42.7286077,-84.4847826,268.6000061035156,1.5256654024124146,-2.4943344593048096
1671115440.92085981,68152351,42.7286077,-84.4847826,268.6000061035156,1.5256654024124146,-2.4943344593048096
1671115440.96079588,68192287,42.7286077,-84.4847826,268.6000061035156,1.5293124914169312,-2.490687370300293
1671115441.00034380,68231835,42.7286076,-84.4847825,268.6099853515625,1.5330089330673218,-2.4869909286499023
1671115441.02077985,68252271,42.7286076,-84.4847825,268.6099853515625,1.5350638628005981,-2.484935998916626
1671115441.04031301,68271804,42.7286076,-84.4847824,268.6099853515625,1.5351165533065796,-2.4848833084106445
1671115441.08030081,68311792,42.7286076,-84.4847824,268.6099853515625,1.5370043516159058,-2.4829955101013184
1671115441.12077999,68352271,42.7286076,-84.4847822,268.6099853515625,1.5397592782974243,-2.4802405834198
1671115441.12089396,68352385,42.7286076,-84.4847822,268.6099853515625,1.5397592782974243,-2.4802405834198
1671115441.16080999,68392301,42.7286076,-84.4847822,268.6199951171875,1.5403062105178833,-2.479693651199341
1671115441.20027280,68431764,42.728607499999995,-84.4847822,268.6199951171875,1.5409349203109741,-2.47906494140625
1671115441.22078681,68452278,42.728607499999995,-84.48478209999999,268.6199951171875,1.541152834892273,-2.478847026824951
1671115441.24033380,68471825,42.728607499999995,-84.48478209999999,268.6199951171875,1.540040373802185,-2.479959487915039
1671115441.28034592,68511837,42.728607499999995,-84.484782,268.6199951171875,1.540523886680603,-2.479475975036621
1671115441.32083797,68552329,42.728607499999995,-84.4847819,268.6199951171875,1.542817234992981,-2.477182626724243
1671115441.32094002,68552431,42.728607499999995,-84.4847819,268.6199951171875,1.542817234992981,-2.477182626724243
1671115441.36083388,68592325,42.728607499999995,-84.4847818,268.6199951171875,1.5431097745895386,-2.4768900871276855
1671115441.40027595,68631767,42.728607499999995,-84.4847817,268.6199951171875,1.5440233945846558,-2.4759764671325684
1671115441.42079902,68652290,42.728607499999995,-84.4847817,268.6199951171875,1.5449079275131226,-2.4750919342041016
1671115441.44030094,68671792,42.728607499999995,-84.4847817,268.6199951171875,1.5440138578414917,-2.4759860038757324
1671115441.48027587,68711767,42.728607499999995,-84.48478159999999,268.6199951171875,1.5450636148452759,-2.4749362468719482
1671115441.52078080,68752272,42.7286074,-84.4847815,268.6199951171875,1.548016905784607,-2.471982955932617
1671115441.52088785,68752379,42.7286074,-84.4847815,268.6199951171875,1.548016905784607,-2.471982955932617
1671115441.56089091,68792382,42.7286074,-84.4847814,268.6199951171875,1.5485843420028687,-2.4714155197143555
1671115441.60029483,68831786,42.7286074,-84.4847814,268.6199951171875,1.5496302843093872,-2.470369577407837
1671115441.62084985,68852341,42.7286074,-84.4847813,268.6300048828125,1.5502609014511108,-2.4697389602661133
1671115441.64021993,68871711,42.7286074,-84.4847813,268.6199951171875,1.5493425130844116,-2.4706573486328125
1671115441.68025589,68911747,42.7286074,-84.4847812,268.6300048828125,1.5505527257919312,-2.469447135925293
1671115441.72081685,68952308,42.7286074,-84.48478109999999,268.6300048828125,1.553622841835022,-2.466377019882202
1671115441.72094083,68952432,42.7286074,-84.48478109999999,268.6300048828125,1.553622841835022,-2.466377019882202
1671115441.76089287,68992384,42.7286074,-84.484781,268.6300048828125,1.5548614263534546,-2.4651384353637695
1671115441.80032587,69031817,42.7286074,-84.48478089999999,268.6300048828125,1.55724036693573,-2.462759494781494
1671115441.82076502,69052256,42.7286074,-84.4847808,268.6300048828125,1.5589123964309692,-2.461087465286255
1671115441.84026885,69071760,42.7286074,-84.4847807,268.6300048828125,1.5586446523666382,-2.461355209350586
1671115441.88021088,69111702,42.7286074,-84.4847805,268.6399841308594,1.5619069337844849,-2.4580929279327393
1671115441.92079496,69152286,42.7286074,-84.4847803,268.6399841308594,1.5678883790969849,-2.4521114826202393
1671115441.92093301,69152424,42.7286074,-84.4847803,268.6399841308594,1.5678883790969849,-2.4521114826202393
1671115441.96087384,69192365,42.7286073,-84.4847801,268.6499938964844,1.5708421468734741,-2.44915771484375
1671115442.00025702,69231748,42.7286073,-84.48477989999999,268.6499938964844,1.5740364789962769,-2.4459633827209473
1671115442.02071595,69252207,42.7286073,-84.4847798,268.6499938964844,1.5755552053451538,-2.4444446563720703
1671115442.04025197,69271743,42.7286073,-84.48477969999999,268.6499938964844,1.5750442743301392,-2.444955587387085
1671115442.08024001,69311731,42.7286073,-84.4847794,268.6499938964844,1.5761746168136597,-2.4438252449035645
1671115442.12085295,69352344,42.7286072,-84.48477919999999,268.6499938964844,1.5786012411117554,-2.4413986206054688
1671115442.12099695,69352488,42.7286072,-84.48477919999999,268.6499938964844,1.5786012411117554,-2.4413986206054688
1671115442.16103792,69392529,42.7286072,-84.4847789,268.6499938964844,1.5786412954330444,-2.4413585662841797
1671115442.20034981,69431841,42.7286072,-84.48477869999999,268.6499938964844,1.5785280466079712,-2.441471815109253
1671115442.22072697,69452218,42.7286071,-84.4847786,268.6499938964844,1.5785001516342163,-2.441499710083008
1671115442.24025798,69471749,42.7286071,-84.48477849999999,268.6499938964844,1.5771225690841675,-2.4428772926330566
1671115442.28029299,69511784,42.7286071,-84.4847783,268.6499938964844,1.5763376951217651,-2.443662166595459
1671115442.32076597,69552257,42.7286071,-84.48477799999999,268.6499938964844,1.5767930746078491,-2.443206787109375
1671115442.32083797,69552329,42.7286071,-84.48477799999999,268.6499938964844,1.5767930746078491,-2.443206787109375
1671115442.36080480,69592296,42.7286071,-84.4847779,268.6499938964844,1.5749977827072144,-2.4450020790100098
1671115442.40030694,69631798,42.7286071,-84.4847777,268.6499938964844,1.5729769468307495,-2.4470229148864746
1671115442.42073083,69652222,42.728607,-84.4847776,268.6499938964844,1.5710891485214233,-2.448910713195801
1671115442.44029284,69671784,42.728607,-84.48477749999999,268.6399841308594,1.5686193704605103,-2.451380491256714
1671115442.48035288,69711844,42.728607,-84.48477729999999,268.6399841308594,1.5652323961257935,-2.4547674655914307
1671115442.52081394,69752305,42.728606899999996,-84.4847772,268.6399841308594,1.5627273321151733,-2.457272529602051
1671115442.52089000,69752381,42.728606899999996,-84.4847772,268.6399841308594,1.5627273321151733,-2.457272529602051
1671115442.56079197,69792283,42.728606899999996,-84.484777,268.6300048828125,1.559585452079773,-2.460414409637451
1671115442.60026383,69831755,42.728606899999996,-84.4847769,268.6300048828125,1.557271122932434,-2.46272873878479
1671115442.62082481,69852316,42.728606899999996,-84.48477679999999,268.6300048828125,1.5560160875320435,-2.4639837741851807
1671115442.64031291,69871804,42.728606899999996,-84.4847767,268.6300048828125,1.5541235208511353,-2.465876340866089
1671115442.68030190,69911793,42.7286068,-84.48477659999999,268.6300048828125,1.5519307851791382,-2.468069076538086
1671115442.72077084,69952262,42.7286068,-84.4847765,268.6300048828125,1.550782322883606,-2.469217538833618
1671115442.72088289,69952374,42.7286068,-84.4847765,268.6300048828125,1.550782322883606,-2.469217538833618
1671115442.76080990,69992301,42.7286068,-84.4847763,268.6199951171875,1.549331784248352,-2.470668077468872
1671115442.80027699,70031768,42.7286067,-84.4847762,268.6199951171875,1.548796534538269,-2.471203327178955
1671115442.82079887,70052290,42.7286067,-84.48477609999999,268.6199951171875,1.5486444234848022,-2.471355438232422
1671115442.84027600,70071767,42.7286067,-84.484776,268.6199951171875,1.547587513923645,-2.472412347793579
1671115442.88036990,70111861,42.7286067,-84.4847759,268.6199951171875,1.546592116355896,-2.473407745361328
1671115442.92078185,70152273,42.7286067,-84.4847757,268.6199951171875,1.5464519262313843,-2.47354793548584
1671115442.92089701,70152388,42.7286067,-84.4847757,268.6199951171875,1.5464519262313843,-2.47354793548584
1671115442.96083188,70192323,42.7286067,-84.48477559999999,268.6199951171875,1.5453382730484009,-2.4746615886688232
1671115443.00039291,70231884,42.7286066,-84.4847755,268.6199951171875,1.5441526174545288,-2.4758472442626953
1671115443.02082801,70252319,42.7286066,-84.48477539999999,268.6199951171875,1.5432175397872925,-2.4767823219299316
1671115443.04028082,70271772,42.7286066,-84.4847753,268.6199951171875,1.542052149772644,-2.47794771194458
1671115443.08031392,70311805,42.7286066,-84.4847751,268.6199951171875,1.5404826402664185,-2.4795172214508057
1671115443.12081695,70352308,42.7286066,-84.484775,268.6099853515625,1.5393165349960327,-2.4806833267211914
1671115443.12093401,70352425,42.7286066,-84.484775,268.6099853515625,1.5393165349960327,-2.4806833267211914
1671115443.16084790,70392339,42.7286066,-84.4847748,268.6099853515625,1.5372151136398315,-2.4827847480773926
1671115443.20027399,70431765,42.7286066,-84.4847747,268.6099853515625,1.534544825553894,-2.48545503616333
1671115443.22082996,70452321,42.7286065,-84.4847746,268.6099853515625,1.5328501462936401,-2.487149715423584
1671115443.24031591,70471807,42.7286065,-84.4847745,268.6099853515625,1.5313459634780884,-2.4886538982391357
1671115443.28025293,70511744,42.7286065,-84.48477439999999,268.6000061035156,1.5285192728042603,-2.491480588912964
1671115443.32073879,70552230,42.7286065,-84.48477419999999,268.6000061035156,1.52595055103302,-2.494049310684204
1671115443.32091498,70552406,42.7286065,-84.48477419999999,268.6000061035156,1.52595055103302,-2.494049310684204
1671115443.36090899,70592400,42.7286065,-84.4847741,268.6000061035156,1.52395761013031,-2.496042251586914
1671115443.40030384,70631795,42.7286064,-84.4847739,268.6000061035156,1.522706389427185,-2.497293472290039
1671115443.42097783,70652469,42.7286064,-84.4847739,268.6000061035156,1.5220578908920288,-2.4979419708251953
1671115443.44023895,70671730,42.7286064,-84.4847738,268.6000061035156,1.521445870399475,-2.498553991317749
1671115443.48028398,70711775,42.7286064,-84.48477369999999,268.6000061035156,1.5204120874404907,-2.4995877742767334
1671115443.52082801,70752319,42.728606299999996,-84.4847735,268.5899963378906,1.5196853876113892,-2.500314474105835
1671115443.52095699,70752448,42.728606299999996,-84.4847735,268.5899963378906,1.5196853876113892,-2.500314474105835
1671115443.56089282,70792384,42.728606299999996,-84.4847734,268.5899963378906,1.5190104246139526,-2.5009894371032715
1671115443.60031891,70831810,42.7286062,-84.48477319999999,268.5899963378906,1.518853783607483,-2.501146078109741
1671115443.62071085,70852202,42.7286061,-84.48477319999999,268.5899963378906,1.5181964635849,-2.501803398132324
1671115443.64024591,70871737,42.7286061,-84.4847731,268.5899963378906,1.5177446603775024,-2.5022552013397217
1671115443.68025684,70911748,42.7286059,-84.48477299999999,268.5899963378906,1.5178970098495483,-2.502102851867676
1671115443.72072887,70952220,42.7286058,-84.4847728,268.5899963378906,1.5185290575027466,-2.5014708042144775
1671115443.72088385,70952375,42.7286058,-84.4847728,268.5899963378906,1.5185290575027466,-2.5014708042144775
1671115443.76089287,70992384,42.728605599999995,-84.4847727,268.5899963378906,1.5186105966567993,-2.501389265060425
1671115443.80027890,71031770,42.7286054,-84.4847726,268.5899963378906,1.5178982019424438,-2.5021016597747803
1671115443.82075286,71052244,42.7286053,-84.48477249999999,268.5899963378906,1.5170270204544067,-2.5029728412628174
1671115443.84029198,71071783,42.7286053,-84.48477249999999,268.5899963378906,1.516109824180603,-2.503890037536621
1671115443.88024092,71111732,42.728605099999996,-84.4847723,268.5899963378906,1.5143054723739624,-2.5056943893432617
1671115443.92069483,71152186,42.7286049,-84.4847722,268.5899963378906,1.5122705698013306,-2.5077292919158936
1671115443.92081380,71152305,42.7286049,-84.4847722,268.5899963378906,1.5122705698013306,-2.5077292919158936
1671115443.96084189,71192333,42.7286047,-84.4847721,268.5799865722656,1.5099269151687622,-2.510072946548462
1671115444.00034094,71231832,42.7286046,-84.48477199999999,268.5799865722656,1.5075358152389526,-2.5124640464782715
1671115444.02069902,71252190,42.728604499999996,-84.48477199999999,268.5799865722656,1.5055676698684692,-2.514432191848755
1671115444.04025793,71271749,42.728604399999995,-84.4847719,268.5799865722656,1.5035980939865112,-2.516401767730713
1671115444.08025789,71311749,42.7286042,-84.4847719,268.57000732421875,1.4997626543045044,-2.5202372074127197
1671115444.12080383,71352295,42.7286041,-84.48477179999999,268.57000732421875,1.4959653615951538,-2.5240345001220703
1671115444.12091684,71352408,42.7286041,-84.48477179999999,268.57000732421875,1.4959653615951538,-2.5240345001220703
1671115444.16076899,71392260,42.728603899999996,-84.4847717,268.57000732421875,1.4916168451309204,-2.5283830165863037
1671115444.20024991,71431741,42.728603799999995,-84.4847717,268.55999755859375,1.487157940864563,-2.532841920852661
1671115444.22074580,71452237,42.7286037,-84.4847716,268.55999755859375,1.4845160245895386,-2.5354838371276855
1671115444.24032402,71471815,42.7286036,-84.4847716,268.55999755859375,1.4816588163375854,-2.5383410453796387
1671115444.28027201,71511763,42.7286035,-84.4847716,268.54998779296875,1.475673794746399,-2.544326066970825
1671115444.32085991,71552351,42.7286034,-84.4847715,268.5400085449219,1.4691027402877808,-2.5508971214294434
1671115444.32096791,71552459,42.7286034,-84.4847715,268.5400085449219,1.4691027402877808,-2.5508971214294434
1671115444.36080384,71592295,42.728603299999996,-84.4847715,268.5400085449219,1.461159110069275,-2.558840751647949
1671115444.40023685,71631728,42.728603199999995,-84.4847714,268.5299987792969,1.4521313905715942,-2.56786847114563
1671115444.42077398,71652265,42.728603199999995,-84.4847714,268.5199890136719,1.4474416971206665,-2.5725581645965576
1671115444.44031000,71671801,42.7286031,-84.4847714,268.5199890136719,1.441877007484436,-2.578122854232788
1671115444.48034501,71711836,42.728603,-84.48477129999999,268.5099792480469,1.4301012754440308,-2.5898985862731934
1671115444.52076793,71752259,42.7286029,-84.48477129999999,268.489990234375,1.417232871055603,-2.602766990661621
1671115444.52086782,71752359,42.7286029,-84.48477129999999,268.489990234375,1.417232871055603,-2.602766990661621
1671115444.56089902,71792390,42.7286028,-84.48477129999999,268.47998046875,1.4021517038345337,-2.6178481578826904
1671115444.60030389,71831795,42.728602599999995,-84.4847712,268.4599914550781,1.3859213590621948,-2.6340785026550293
1671115444.62085199,71852343,42.728602599999995,-84.4847712,268.4499816894531,1.3751996755599976,-2.6448001861572266
1671115444.64027882,71871770,42.7286025,-84.4847712,268.44000244140625,1.3649166822433472,-2.655083179473877
1671115444.68033695,71911828,42.7286024,-84.4847712,268.41998291015625,1.3433171510696411,-2.676682710647583
1671115444.72084379,71952335,42.7286023,-84.4847711,268.3999938964844,1.3208853006362915,-2.6991145610809326
1671115444.72091579,71952407,42.7286023,-84.4847711,268.3999938964844,1.3208853006362915,-2.6991145610809326
1671115444.76082993,71992321,42.7286022,-84.4847711,268.3699951171875,1.297566294670105,-2.722433567047119
1671115444.80025697,72031748,42.728602099999996,-84.4847711,268.3500061035156,1.2741588354110718,-2.7458410263061523
1671115444.82081079,72052302,42.728602099999996,-84.4847711,268.3399963378906,1.2614344358444214,-2.7585654258728027
1671115444.84025788,72071749,42.728601999999995,-84.484771,268.32000732421875,1.2490824460983276,-2.7709174156188965
1671115444.88030386,72111795,42.7286019,-84.484771,268.29998779296875,1.2243903875350952,-2.795609474182129
1671115444.92072201,72152213,42.7286018,-84.484771,268.2799987792969,1.200041651725769,-2.819958209991455
1671115444.92086101,72152352,42.7286018,-84.484771,268.2799987792969,1.200041651725769,-2.819958209991455
1671115444.96089697,72192388,42.7286017,-84.484771,268.25,1.175327181816101,-2.844672679901123
1671115445.00026989,72231761,42.7286016,-84.4847709,268.22998046875,1.1511057615280151,-2.868894100189209
1671115445.02079296,72252284,42.7286016,-84.4847709,268.2099914550781,1.138886570930481,-2.881113290786743
1671115445.04030490,72271796,42.7286016,-84.4847709,268.1999816894531,1.1269956827163696,-2.8930041790008545
1671115445.08017397,72311665,42.728601499999996,-84.4847709,268.17999267578125,1.1031726598739624,-2.9168272018432617
1671115445.12081385,72352305,42.728601399999995,-84.4847709,268.1600036621094,1.0808378458023071,-2.939162015914917
1671115445.12095284,72352444,42.728601399999995,-84.4847709,268.1600036621094,1.0808378458023071,-2.939162015914917
1671115445.16086483,72392356,42.7286013,-84.48477079999999,268.1300048828125,1.0586110353469849,-2.9613888263702393
1671115445.20034790,72431839,42.7286012,-84.48477079999999,268.1099853515625,1.0381451845169067,-2.9818546772003174
1671115445.22073388,72452225,42.7286012,-84.48477079999999,268.1000061035156,1.0286442041397095,-2.9913556575775146
1671115445.24025702,72471748,42.7286011,-84.48477079999999,268.0899963378906,1.0185855627059937,-3.0014142990112305
1671115445.28019881,72511690,42.728601,-84.48477079999999,268.07000732421875,0.9998237490653992,-3.0201761722564697
1671115445.32073689,72552228,42.728601,-84.48477079999999,268.05999755859375,0.9819208979606628,-3.038079023361206
1671115445.32088780,72552379,42.728601,-84.48477079999999,268.05999755859375,0.9819208979606628,-3.038079023361206
1671115445.36083698,72592328,42.728600899999996,-84.48477079999999,268.0400085449219,0.9641782641410828,-3.055821657180786
1671115445.40034294,72631834,42.728600799999995,-84.48477079999999,268.0199890136719,0.9474098086357117,-3.0725901126861572
1671115445.42075086,72652242,42.7286007,-84.48477079999999,268.0199890136719,0.9407269358634949,-3.079272985458374
1671115445.44022393,72671715,42.7286007,-84.4847707,268.0099792480469,0.9335595965385437,-3.086440324783325
1671115445.48029280,72711784,42.7286006,-84.4847707,268.0,0.9204978346824646,-3.0995020866394043
1671115445.52092195,72752413,42.7286005,-84.4847707,267.97998046875,0.9088765978813171,-3.1111233234405518
1671115445.52099490,72752486,42.7286005,-84.4847707,267.97998046875,0.9088765978813171,-3.1111233234405518
1671115445.56083393,72792325,42.7286004,-84.4847707,267.9700012207031,0.8970457911491394,-3.1229541301727295
1671115445.60028481,72831776,42.7286004,-84.48477059999999,267.9599914550781,0.8859140276908875,-3.1340858936309814
1671115445.62072301,72852214,42.7286003,-84.48477059999999,267.9599914550781,0.8809742331504822,-3.1390256881713867
1671115445.64026880,72871760,42.7286003,-84.48477059999999,267.9499816894531,0.8751992583274841,-3.1448006629943848
1671115445.68026280,72911754,42.728600199999995,-84.4847705,267.94000244140625,0.86481112241745,-3.155188798904419
1671115445.72082496,72952316,42.7286001,-84.4847705,267.92999267578125,0.8552646040916443,-3.1647353172302246
1671115445.72093582,72952427,42.7286001,-84.4847705,267.92999267578125,0.8552646040916443,-3.1647353172302246
1671115445.76081800,72992309,42.7286,-84.4847704,267.91998291015625,0.844653308391571,-3.175346612930298
1671115445.80026388,73031755,42.7286,-84.4847704,267.9100036621094,0.8344444632530212,-3.1855554580688477
1671115445.82078481,73052276,42.7285999,-84.4847703,267.8999938964844,0.8296501040458679,-3.190349817276001
1671115445.84027600,73071767,42.7285999,-84.4847703,267.8999938964844,0.8240217566490173,-3.1959781646728516
1671115445.88029981,73111791,42.7285998,-84.4847702,267.8899841308594,0.8139116168022156,-3.2060883045196533
1671115445.92077303,73152264,42.7285997,-84.48477009999999,267.8800048828125,0.8043336272239685,-3.2156662940979004
1671115445.92088580,73152377,42.7285997,-84.48477009999999,267.8800048828125,0.8043336272239685,-3.2156662940979004
1671115445.96081090,73192302,42.7285997,-84.48477009999999,267.8699951171875,0.794209897518158,-3.225790023803711
1671115446.00021195,73231703,42.728599599999995,-84.48477,267.8599853515625,0.7842139601707458,-3.235785961151123
1671115446.02075481,73252246,42.7285995,-84.48476989999999,267.8500061035156,0.779272735118866,-3.240727186203003
1671115446.04027987,73271771,42.7285995,-84.48476989999999,267.8500061035156,0.7735874056816101,-3.246412515640259
1671115446.08036900,73311860,42.7285994,-84.4847698,267.8399963378906,0.7629839777946472,-3.2570159435272217
1671115446.12086201,73352353,42.7285994,-84.48476959999999,267.8299865722656,0.7527102828025818,-3.267289638519287
1671115446.12097502,73352466,42.7285994,-84.48476959999999,267.8299865722656,0.7527102828025818,-3.267289638519287
1671115446.16088700,73392378,42.7285993,-84.4847695,267.82000732421875,0.7414342761039734,-3.2785656452178955
1671115446.20025682,73431748,42.7285992,-84.48476939999999,267.80999755859375,0.7300786375999451,-3.289921283721924
1671115446.22080684,73452298,42.7285992,-84.4847693,267.79998779296875,0.7227217555046082,-3.2972781658172607
1671115446.24028182,73471773,42.7285991,-84.4847693,267.7900085449219,0.7156669497489929,-3.304332971572876
1671115446.28027391,73511765,42.7285991,-84.4847691,267.7799987792969,0.7011730074882507,-3.318826913833618
1671115446.32078981,73552281,42.728598999999996,-84.48476889999999,267.7599792480469,0.6865355372428894,-3.3334643840789795
1671115446.32089281,73552384,42.728598999999996,-84.48476889999999,267.7599792480469,0.6865355372428894,-3.3334643840789795
1671115446.36095786,73592449,42.728598999999996,-84.4847688,267.75,0.672243058681488,-3.347756862640381
1671115446.40026784,73631759,42.7285989,-84.4847686,267.72998046875,0.6581713557243347,-3.361828565597534
1671115446.42084479,73652336,42.7285989,-84.4847685,267.7200012207031,0.6494964957237244,-3.3705034255981445
1671115446.44026089,73671752,42.7285989,-84.4847684,267.7200012207031,0.6415566802024841,-3.3784432411193848
1671115446.48030782,73711799,42.7285989,-84.4847683,267.6999816894531,0.6253346800804138,-3.394665241241455
1671115446.52083993,73752331,42.7285989,-84.4847681,267.67999267578125,0.6088771224021912,-3.4111227989196777
1671115446.52095485,73752446,42.7285989,-84.4847681,267.67999267578125,0.6088771224021912,-3.4111227989196777
1671115446.56082702,73792318,42.7285988,-84.4847679,267.66998291015625,0.5932218432426453,-3.4267780780792236
1671115446.60028696,73831778,42.7285988,-84.4847678,267.6499938964844,0.5772096514701843,-3.4427902698516846
1671115446.62080193,73852293,42.7285988,-84.48476769999999,267.6399841308594,0.5685936808586121,-3.451406240463257
1671115446.64027691,73871768,42.7285988,-84.48476769999999,267.6399841308594,0.5607323050498962,-3.4592676162719727
1671115446.68031287,73911804,42.7285988,-84.48476749999999,267.6199951171875,0.5452775359153748,-3.474722385406494
1671115446.72070885,73952200,42.7285987,-84.4847674,267.6099853515625,0.5300976634025574,-3.4899022579193115
1671115446.72086692,73952358,42.7285987,-84.4847674,267.6099853515625,0.5300976634025574,-3.4899022579193115
1671115446.76086187,73992353,42.7285987,-84.4847674,267.5899963378906,0.5154179930686951,-3.504581928253174
1671115446.80036592,74031857,42.7285987,-84.4847673,267.5799865722656,0.5007588267326355,-3.5192410945892334
1671115446.82074594,74052237,42.7285987,-84.4847673,267.57000732421875,0.4926571249961853,-3.5273427963256836
1671115446.84029484,74071786,42.7285987,-84.4847673,267.55999755859375,0.484764039516449,-3.53523588180542
1671115446.88026285,74111754,42.7285987,-84.4847673,267.5400085449219,0.46915167570114136,-3.5508482456207275
1671115446.92068982,74152181,42.7285986,-84.4847673,267.5299987792969,0.45305341482162476,-3.566946506500244
1671115446.92080784,74152299,42.7285986,-84.4847673,267.5299987792969,0.45305341482162476,-3.566946506500244
1671115446.96091795,74192409,42.7285986,-84.4847674,267.5099792480469,0.43753761053085327,-3.5824623107910156
1671115447.00031281,74231804,42.7285986,-84.48476749999999,267.5,0.4221042990684509,-3.597895622253418
1671115447.02075481,74252246,42.7285986,-84.48476749999999,267.489990234375,0.4138492941856384,-3.6061506271362305
1671115447.04024982,74271741,42.7285986,-84.48476749999999,267.47998046875,0.4056774973869324,-3.6143224239349365
1671115447.08029294,74311784,42.7285986,-84.4847676,267.4599914550781,0.3899080157279968,-3.630091905593872
1671115447.12077785,74352269,42.7285986,-84.4847676,267.4499816894531,0.3747040629386902,-3.6452958583831787
1671115447.12084985,74352341,42.7285986,-84.4847676,267.4499816894531,0.3747040629386902,-3.6452958583831787
1671115447.16085482,74392346,42.7285986,-84.48476769999999,267.42999267578125,0.3597516417503357,-3.660248279571533
1671115447.20040083,74431892,42.7285986,-84.4847678,267.41998291015625,0.34468692541122437,-3.6753129959106445
1671115447.22077489,74452266,42.7285986,-84.4847678,267.4100036621094,0.33676689863204956,-3.6832330226898193
1671115447.24027586,74471767,42.7285986,-84.4847678,267.3999938964844,0.3283378481864929,-3.691662073135376
