timestamp,TimeUS,C,Q1,Q2,Q3,Q4
1671115431.99956894,59231060,1,0.21388530731201172,-0.005066158715635538,0.006274480372667313,-0.976825475692749
1671115432.01959085,59251082,1,0.21390105783939362,-0.00508893234655261,0.006267610937356949,-0.9768219590187073
1671115432.03955197,59271043,1,0.21392591297626495,-0.0050916546024382114,0.006257957778871059,-0.9768165946006775
1671115432.07956290,59311054,1,0.21398745477199554,-0.005083292257040739,0.006271198391914368,-0.9768030643463135
1671115432.11958790,59351079,1,0.21404989063739777,-0.005089958664029837,0.006250375881791115,-0.9767894744873047
1671115432.15959501,59391086,1,0.2141256332397461,-0.005098722409456968,0.006241167895495892,-0.9767729043960571
1671115432.19957089,59431062,1,0.21417787671089172,-0.005092807114124298,0.006231156177818775,-0.976761519908905
1671115432.21956491,59451056,1,0.21421308815479279,-0.005067779216915369,0.006231924053281546,-0.9767539501190186
1671115432.23955584,59471047,1,0.2142297476530075,-0.00506808003410697,0.00622151605784893,-0.9767503142356873
1671115432.27955389,59511045,1,0.21427704393863678,-0.005091418512165546,0.006216835230588913,-0.9767398834228516
1671115432.31958199,59551073,1,0.2143145501613617,-0.005104389041662216,0.00620304374024272,-0.9767316579818726
1671115432.35956788,59591059,1,0.21435806155204773,-0.0051027936860919,0.006205248646438122,-0.9767221212387085
1671115432.39959788,59631089,1,0.2144341617822647,-0.005116343963891268,0.006204727105796337,-0.9767053127288818
1671115432.41958499,59651076,1,0.2144859880208969,-0.005134763661772013,0.006204132456332445,-0.976693868637085
1671115432.43953395,59671025,1,0.21452604234218597,-0.0051233163103461266,0.006215094588696957,-0.9766850471496582
1671115432.47955799,59711049,1,0.214599609375,-0.005130361765623093,0.006210110615938902,-0.9766688942909241
1671115432.51954484,59751036,1,0.2146383821964264,-0.005136449821293354,0.006231263279914856,-0.9766601920127869
1671115432.55958390,59791075,1,0.21464936435222626,-0.005164894741028547,0.006230121944099665,-0.9766576290130615
1671115432.59958482,59831076,1,0.2146628051996231,-0.0051744356751441956,0.006230325438082218,-0.9766546487808228
1671115432.61956096,59851052,1,0.21468578279018402,-0.005177347920835018,0.006228566635400057,-0.9766495823860168
1671115432.63953590,59871027,1,0.2146940380334854,-0.005174916237592697,0.00623314268887043,-0.9766477346420288
1671115432.67952681,59911018,1,0.21471816301345825,-0.005177908111363649,0.0062160007655620575,-0.9766425490379333
1671115432.71955991,59951051,1,0.21476811170578003,-0.005174919962882996,0.006212237756699324,-0.9766315817832947
1671115432.75957394,59991065,1,0.2147946059703827,-0.0051995436660945415,0.0062007177621126175,-0.9766257405281067
1671115432.79958487,60031076,1,0.214846670627594,-0.00521903857588768,0.006176568567752838,-0.9766142964363098
1671115432.81955385,60051045,1,0.2148546576499939,-0.005234505515545607,0.006166111212223768,-0.9766125679016113
1671115432.83959198,60071083,1,0.21484802663326263,-0.005238039419054985,0.006170798093080521,-0.9766139388084412
1671115432.87956381,60111055,1,0.2148645669221878,-0.0052294861525297165,0.00615713931620121,-0.9766104221343994
1671115432.91952491,60151016,1,0.21488386392593384,-0.005244456697255373,0.006146788131445646,-0.9766061902046204
1671115432.95955586,60191047,1,0.21488258242607117,-0.00524998689070344,0.006140571553260088,-0.9766064882278442
1671115432.99961185,60231103,1,0.2148965746164322,-0.005255850497633219,0.0061448258347809315,-0.9766033291816711
1671115433.01956797,60251059,1,0.21490763127803802,-0.0052429502829909325,0.0061509073711931705,-0.9766009449958801
1671115433.03957987,60271071,1,0.21491752564907074,-0.0052467272616922855,0.006139419507235289,-0.9765987992286682
1671115433.07958603,60311077,1,0.2149566411972046,-0.005243305582553148,0.006114085204899311,-0.9765903949737549
1671115433.11957288,60351064,1,0.21498312056064606,-0.0052370307967066765,0.00610976992174983,-0.9765846133232117
1671115433.15953779,60391029,1,0.21499459445476532,-0.005230283364653587,0.006083911284804344,-0.9765822887420654
1671115433.19955397,60431045,1,0.21501889824867249,-0.005239906255155802,0.0060637700371444225,-0.9765769839286804
1671115433.21957302,60451064,1,0.21502718329429626,-0.005228694994002581,0.0060625760816037655,-0.9765752553939819
1671115433.23958993,60471081,1,0.21504130959510803,-0.005230098497122526,0.006055097095668316,-0.9765721559524536
1671115433.27957988,60511071,1,0.21507060527801514,-0.005239272955805063,0.006038094870746136,-0.9765657782554626
1671115433.31960082,60551092,1,0.21511320769786835,-0.00527020962908864,0.006021793931722641,-0.9765563607215881
1671115433.35956693,60591058,1,0.21517184376716614,-0.005269122309982777,0.005986886098980904,-0.976543664932251
1671115433.39955401,60631045,1,0.21520715951919556,-0.005294423084706068,0.005974343977868557,-0.9765357971191406
1671115433.41959596,60651087,1,0.21523630619049072,-0.005293650086969137,0.005961070768535137,-0.9765294790267944
1671115433.43955183,60671043,1,0.21524417400360107,-0.00530815776437521,0.005945167038589716,-0.976527750492096
1671115433.47958899,60711080,1,0.21526387333869934,-0.005297664552927017,0.005940171889960766,-0.9765234589576721
1671115433.51960588,60751097,1,0.21523942053318024,-0.005294815171509981,0.005913253407925367,-0.976529061794281
1671115433.55958700,60791078,1,0.21526238322257996,-0.0052876765839755535,0.005908108316361904,-0.9765240550041199
1671115433.59956384,60831055,1,0.21527965366840363,-0.0053076851181685925,0.00588608905673027,-0.976520299911499
1671115433.61956191,60851053,1,0.2153070569038391,-0.005329099949449301,0.005871064029633999,-0.9765142202377319
1671115433.63955688,60871048,1,0.2153211086988449,-0.0053238761611282825,0.005868940148502588,-0.9765111804008484
1671115433.67958188,60911073,1,0.2153809666633606,-0.0053250547498464584,0.005852028261870146,-0.9764980673789978
1671115433.71959400,60951085,1,0.21545365452766418,-0.005350450053811073,0.005824701860547066,-0.9764820337295532
1671115433.75958586,60991077,1,0.21547889709472656,-0.005387496203184128,0.005800805054605007,-0.9764764308929443
1671115433.79956579,61031057,1,0.2154991179704666,-0.005394450854510069,0.00579315098002553,-0.9764719605445862
1671115433.81959486,61051086,1,0.21551436185836792,-0.005416561849415302,0.005765644367784262,-0.9764686226844788
1671115433.83962202,61071113,1,0.21552035212516785,-0.005428074859082699,0.0057500503025949,-0.9764673113822937
1671115433.87955880,61111050,1,0.2155596911907196,-0.005434839986264706,0.005709338933229446,-0.9764588475227356
1671115433.91958380,61151075,1,0.2156195491552353,-0.005454730242490768,0.005678087472915649,-0.9764456748962402
1671115433.95958495,61191076,1,0.21570712327957153,-0.005480501800775528,0.005643266718834639,-0.9764264225959778
1671115433.99961495,61231106,1,0.215778648853302,-0.005506068933755159,0.005614567082375288,-0.9764106273651123
1671115434.01958585,61251077,1,0.21580632030963898,-0.0055175656452775,0.0056023444049060345,-0.9764045476913452
1671115434.03957582,61271067,1,0.2158433496952057,-0.005514401476830244,0.005597440991550684,-0.976396381855011
1671115434.07956982,61311061,1,0.21590584516525269,-0.005533992312848568,0.005571679677814245,-0.9763826131820679
1671115434.11955881,61351050,1,0.21594858169555664,-0.005535489413887262,0.005560013931244612,-0.9763731956481934
1671115434.15956497,61391056,1,0.21599894762039185,-0.005550864618271589,0.005542704835534096,-0.9763621091842651
1671115434.19954085,61431032,1,0.21605844795703888,-0.005558153614401817,0.005512247793376446,-0.9763490557670593
1671115434.21956491,61451056,1,0.21609151363372803,-0.005569804459810257,0.0055119190365076065,-0.9763416647911072
1671115434.23958802,61471079,1,0.2161310911178589,-0.005579975433647633,0.005495833698660135,-0.97633296251297
1671115434.27953100,61511022,1,0.21620716154575348,-0.005585257429629564,0.005482185631990433,-0.9763161540031433
1671115434.31955481,61551046,1,0.2162904590368271,-0.0056020584888756275,0.005473122000694275,-0.9762976765632629
1671115434.35953999,61591031,1,0.21635670959949493,-0.005620052106678486,0.005462354980409145,-0.9762829542160034
1671115434.39958596,61631077,1,0.2164234071969986,-0.005648419260978699,0.005454387981444597,-0.9762679934501648
1671115434.41954303,61651034,1,0.21644456684589386,-0.0056688194163143635,0.00544336624443531,-0.9762632846832275
1671115434.43959093,61671082,1,0.21647970378398895,-0.005684184841811657,0.0054331012070178986,-0.976255476474762
1671115434.47959280,61711084,1,0.2165157049894333,-0.005714333616197109,0.005397957284003496,-0.9762474894523621
1671115434.51953101,61751022,1,0.21656984090805054,-0.005721713416278362,0.005378102418035269,-0.976235568523407
1671115434.55955887,61791050,1,0.21662242710590363,-0.005736153572797775,0.005386536940932274,-0.9762237668037415
1671115434.59957480,61831066,1,0.21670392155647278,-0.005759750492870808,0.0053537688218057156,-0.9762057065963745
1671115434.61957002,61851061,1,0.21673795580863953,-0.005764547735452652,0.00533790560439229,-0.9761981964111328
1671115434.63958883,61871080,1,0.21676723659038544,-0.005771235562860966,0.005320150870829821,-0.9761917591094971
1671115434.67960787,61911099,1,0.2168065309524536,-0.005790891125798225,0.005280942190438509,-0.9761831164360046
1671115434.71955085,61951042,1,0.21683208644390106,-0.005813584662973881,0.005266341846436262,-0.9761773943901062
1671115434.75955987,61991051,1,0.21685783565044403,-0.0058271693997085094,0.005259515251964331,-0.976171612739563
1671115434.79956198,62031053,1,0.21689468622207642,-0.00584268057718873,0.005249030888080597,-0.976163387298584
1671115434.81958485,62051076,1,0.2169686257839203,-0.005850664805620909,0.005232109688222408,-0.9761469960212708
1671115434.83959293,62071084,1,0.21701805293560028,-0.005849448498338461,0.005214013624936342,-0.9761361479759216
1671115434.87957287,62111064,1,0.2171728014945984,-0.005874756257981062,0.005201934836804867,-0.9761016368865967
1671115434.91959786,62151089,1,0.2172679305076599,-0.005873304326087236,0.0051594083197414875,-0.9760807156562805
1671115434.95955300,62191044,1,0.2172444611787796,-0.005899490788578987,0.005107000004500151,-0.9760860204696655
1671115434.99956083,62231052,1,0.21708136796951294,-0.005941413342952728,0.005095495842397213,-0.9761221408843994
1671115435.01960397,62251095,1,0.21700941026210785,-0.0059640309773385525,0.005034012254327536,-0.9761382937431335
1671115435.03955793,62271049,1,0.21691712737083435,-0.0059880842454731464,0.00503411004319787,-0.9761586785316467
1671115435.07960391,62311095,1,0.21689309179782867,-0.005964268464595079,0.004954900126904249,-0.9761645793914795
1671115435.11959100,62351082,1,0.21702907979488373,-0.005997590720653534,0.00493219681084156,-0.9761342406272888
1671115435.15958500,62391076,1,0.21719986200332642,-0.006074856501072645,0.0049703121185302734,-0.9760956168174744
1671115435.19955683,62431048,1,0.2173815220594406,-0.0060937171801924706,0.0049442267045378685,-0.9760551452636719
1671115435.21959591,62451087,1,0.21735191345214844,-0.006084473803639412,0.004933992866426706,-0.9760618805885315
1671115435.23955894,62471050,1,0.21721231937408447,-0.006078530568629503,0.004934737924486399,-0.9760929942131042
1671115435.27959991,62511091,1,0.21693022549152374,-0.006048762705177069,0.004931729752570391,-0.9761559367179871
1671115435.31958890,62551080,1,0.21674206852912903,-0.006030227057635784,0.0049454038962721825,-0.9761977791786194
1671115435.35959291,62591084,1,0.21673808991909027,-0.006057940889149904,0.005127949174493551,-0.9761975407600403
1671115435.39958596,62631077,1,0.21686051785945892,-0.006062813103199005,0.005065483972430229,-0.9761705994606018
1671115435.41959500,62651086,1,0.2169203758239746,-0.006037764251232147,0.005076362285763025,-0.9761574268341064
1671115435.43953085,62671022,1,0.21700656414031982,-0.006078100763261318,0.0050849453546106815,-0.9761379957199097
1671115435.47955799,62711049,1,0.21713005006313324,-0.006079537328332663,0.004843799863010645,-0.9761117100715637
1671115435.51959085,62751082,1,0.21675333380699158,-0.006064563058316708,0.004856893792748451,-0.9761955142021179
1671115435.55958891,62791080,1,0.2165495902299881,-0.006073242984712124,0.004790789447724819,-0.9762409925460815
1671115435.59959698,62831088,1,0.21585042774677277,-0.006194888614118099,0.004991832189261913,-0.9763940572738647
1671115435.61956501,62851056,1,0.21585020422935486,-0.006088889669626951,0.00492624519392848,-0.9763950705528259
1671115435.63957596,62871067,1,0.21590398252010345,-0.006057247519493103,0.004694987554103136,-0.9763845205307007
1671115435.67956591,62911057,1,0.2156577706336975,-0.006094066426157951,0.004716777708381414,-0.976438581943512
1671115435.71956301,62951054,1,0.21590861678123474,-0.006094610318541527,0.004688285291194916,-0.9763832688331604
1671115435.75957680,62991068,1,0.2158038467168808,-0.006113996263593435,0.004665442742407322,-0.976406455039978
1671115435.79958391,63031075,1,0.21556903421878815,-0.006153215188533068,0.0047723171301186085,-0.9764575362205505
1671115435.81956196,63051053,1,0.21550023555755615,-0.006152430549263954,0.004706746898591518,-0.9764730334281921
1671115435.83962989,63071121,1,0.21517257392406464,-0.006244197022169828,0.004716566763818264,-0.9765446782112122
1671115435.87957501,63111066,1,0.2147587090730667,-0.006217477843165398,0.004624515306204557,-0.9766364097595215
1671115435.91956186,63151053,1,0.21460826694965363,-0.006252231542021036,0.0045204865746200085,-0.9766697287559509
1671115435.95955896,63191050,1,0.21452929079532623,-0.006229693070054054,0.004564009606838226,-0.9766870141029358
1671115435.99959087,63231082,1,0.21452409029006958,-0.006247263867408037,0.0046503604389727116,-0.9766876697540283
1671115436.01953483,63251026,1,0.2145920842885971,-0.006331976503133774,0.004551059100776911,-0.9766726493835449
1671115436.03960085,63271092,1,0.21459639072418213,-0.006192086264491081,0.0045453873462975025,-0.9766725897789001
1671115436.07955980,63311051,1,0.21446748077869415,-0.0061550200916826725,0.004593985620886087,-0.9767009615898132
1671115436.11953497,63351026,1,0.21412117779254913,-0.006232375744730234,0.0043966337107121944,-0.9767773151397705
1671115436.15956187,63391053,1,0.21369288861751556,-0.006282619200646877,0.00458802143111825,-0.9768699407577515
1671115436.19957185,63431063,1,0.21349133551120758,-0.006304711569100618,0.004364843480288982,-0.9769148826599121
1671115436.21956587,63451057,1,0.21344518661499023,-0.0063077956438064575,0.0044686924666166306,-0.976924479007721
1671115436.23959088,63471082,1,0.2132742702960968,-0.006318040192127228,0.0044832993298769,-0.9769616723060608
1671115436.27958584,63511077,1,0.21352463960647583,-0.006259514018893242,0.004335723351687193,-0.9769080281257629
1671115436.31958389,63551075,1,0.2134033441543579,-0.006410208065062761,0.004445369355380535,-0.9769330620765686
1671115436.35954094,63591032,1,0.21338793635368347,-0.0063676354475319386,0.004496533423662186,-0.9769364595413208
1671115436.39955902,63631050,1,0.21320968866348267,-0.006398518569767475,0.004438051022589207,-0.9769754409790039
1671115436.41959500,63651086,1,0.21284493803977966,-0.006451962050050497,0.004428452346473932,-0.9770546555519104
1671115436.43958998,63671081,1,0.2126067727804184,-0.006391487549990416,0.004349233582615852,-0.9771072864532471
1671115436.47958493,63711076,1,0.21250765025615692,-0.006380089558660984,0.004302718210965395,-0.9771291017532349
1671115436.51961780,63751109,1,0.21216736733913422,-0.006378088146448135,0.004265953786671162,-0.9772031903266907
1671115436.55956292,63791054,1,0.21233148872852325,-0.006394402589648962,0.004261230118572712,-0.9771674871444702
1671115436.59956002,63831051,1,0.21222200989723206,-0.006439463701099157,0.004231482278555632,-0.9771910905838013
1671115436.61960292,63851094,1,0.21220692992210388,-0.006485996302217245,0.0042885965667665005,-0.9771938323974609
1671115436.63955879,63871050,1,0.21222133934497833,-0.006466019432991743,0.0043042320758104324,-0.9771907329559326
1671115436.67958879,63911080,1,0.21211080253124237,-0.006505132187157869,0.004141685087233782,-0.9772151708602905
1671115436.71959591,63951087,1,0.2117225080728531,-0.006599053740501404,0.004131273832172155,-0.9772987961769104
1671115436.75958896,63991080,1,0.21139372885227203,-0.006607172079384327,0.004179701209068298,-0.9773697257041931
1671115436.79953790,64031029,1,0.2113237977027893,-0.006546615157276392,0.004145402926951647,-0.977385401725769
1671115436.81960082,64051092,1,0.21123550832271576,-0.0065684751607477665,0.004177700728178024,-0.9774041771888733
1671115436.83956194,64071053,1,0.21117232739925385,-0.006578255444765091,0.004298490472137928,-0.9774172306060791
1671115436.87955284,64111044,1,0.2111901193857193,-0.006665767170488834,0.004020950756967068,-0.9774140119552612
1671115436.91959095,64151082,1,0.21108724176883698,-0.006640606559813023,0.004165256395936012,-0.9774357676506042
1671115436.95959496,64191086,1,0.21110062301158905,-0.006708088796585798,0.003823616774752736,-0.9774338603019714
1671115436.99954200,64231033,1,0.21076242625713348,-0.006712853908538818,0.003979971632361412,-0.977506160736084
1671115437.01958799,64251079,1,0.21056847274303436,-0.006698893383145332,0.004027999471873045,-0.9775478839874268
1671115437.03957891,64271070,1,0.21058234572410583,-0.006720930803567171,0.0038804335054010153,-0.9775453209877014
1671115437.07955885,64311050,1,0.21030724048614502,-0.0067076049745082855,0.004064779728651047,-0.9776038527488708
1671115437.11958790,64351079,1,0.21023692190647125,-0.006706133484840393,0.0039907703176140785,-0.9776193499565125
1671115437.15958285,64391074,1,0.21000252664089203,-0.00673460029065609,0.0039352718740701675,-0.9776697158813477
1671115437.19960690,64431098,1,0.20998913049697876,-0.006731604691594839,0.004063085652887821,-0.9776721000671387
1671115437.21955991,64451051,1,0.21002204716205597,-0.006797291338443756,0.003906381782144308,-0.9776652455329895
1671115437.23957086,64471062,1,0.20980605483055115,-0.006795553024858236,0.003739256178960204,-0.9777122735977173
1671115437.27953196,64511023,1,0.20982332527637482,-0.006880141794681549,0.0041352324187755585,-0.9777063727378845
1671115437.31956601,64551057,1,0.2095641791820526,-0.0069384584203362465,0.004104491788893938,-0.9777616858482361
1671115437.35959792,64591089,1,0.209383025765419,-0.0068978494964540005,0.0037807852495461702,-0.977802038192749
1671115437.39958501,64631076,1,0.20898917317390442,-0.006975905038416386,0.003965735901147127,-0.9778850078582764
1671115437.41956091,64651052,1,0.20887793600559235,-0.006908278446644545,0.003931622486561537,-0.9779094457626343
1671115437.43960786,64671099,1,0.20891699194908142,-0.006851671263575554,0.0038648226764053106,-0.9779017567634583
1671115437.47957683,64711068,1,0.20858344435691833,-0.006764835678040981,0.0038473019376397133,-0.9779736399650574
1671115437.51957583,64751067,1,0.20831744372844696,-0.0068177045322954655,0.0039465599693357944,-0.9780295491218567
1671115437.55957198,64791063,1,0.20805417001247406,-0.006808131001889706,0.0037377579137682915,-0.9780864715576172
1671115437.59958792,64831079,1,0.20768438279628754,-0.006862173322588205,0.003781476290896535,-0.9781644940376282
1671115437.61957979,64851071,1,0.2075880616903305,-0.0067832921631634235,0.003799038240686059,-0.9781854152679443
1671115437.63955402,64871045,1,0.2073591649532318,-0.006877205800265074,0.0038517480716109276,-0.9782330989837646
1671115437.67961097,64911102,1,0.20698724687099457,-0.006957293953746557,0.003825422842055559,-0.9783114194869995
1671115437.71953583,64951027,1,0.20658951997756958,-0.007116586435586214,0.0036742459051311016,-0.9783949255943298
1671115437.75956798,64991059,1,0.20621271431446075,-0.007137097418308258,0.0036283195950090885,-0.9784744381904602
1671115437.79958701,65031078,1,0.20569050312042236,-0.007088976446539164,0.0034852612297981977,-0.9785851836204529
1671115437.81958389,65051075,1,0.20557408034801483,-0.007207223679870367,0.0033076214604079723,-0.9786094427108765
1671115437.83959389,65071085,1,0.20544780790805817,-0.007182342931628227,0.003493309486657381,-0.9786354899406433
1671115437.87959099,65111082,1,0.20488673448562622,-0.0074752941727638245,0.003664094489067793,-0.9787502884864807
1671115437.91957283,65151064,1,0.20460519194602966,-0.007885847240686417,0.003392110811546445,-0.9788069128990173
1671115437.95953202,65191023,1,0.20401497185230255,-0.00793704204261303,0.0028151581063866615,-0.9789315462112427
1671115437.99956298,65231054,1,0.2036457359790802,-0.008619604632258415,0.003364414907991886,-0.9790009260177612
1671115438.01956701,65251058,1,0.2033924013376236,-0.008651942946016788,0.0027673200238496065,-0.9790551662445068
1671115438.03957486,65271066,1,0.203290656208992,-0.009166830219328403,0.003479934763163328,-0.9790693521499634
1671115438.07957602,65311067,1,0.20284463465213776,-0.009981253184378147,0.0036232287529855967,-0.9791533350944519
1671115438.11960387,65351095,1,0.20233690738677979,-0.010197680443525314,0.0031967484392225742,-0.9792576432228088
1671115438.15956903,65391060,1,0.20204782485961914,-0.010876261629164219,0.0030329409055411816,-0.9793105721473694
1671115438.19957089,65431062,1,0.20156200230121613,-0.010623354464769363,0.001530771842226386,-0.9794169664382935
1671115438.21959400,65451085,1,0.20136187970638275,-0.01071526575833559,0.0015099740121513605,-0.9794571399688721
1671115438.23956180,65471053,1,0.20116430521011353,-0.011098840273916721,0.001237737014889717,-0.9794938564300537
1671115438.27958679,65511078,1,0.20072831213474274,-0.011696003377437592,0.0007821933249942958,-0.979576826095581
1671115438.31958389,65551075,1,0.2003677934408188,-0.011293768882751465,-0.0011289152316749096,-0.9796550273895264
1671115438.35960197,65591093,1,0.20028379559516907,-0.012129063718020916,-0.001740561448968947,-0.9796612858772278
1671115438.39955902,65631050,1,0.1998022496700287,-0.012785389088094234,-0.0025884853675961494,-0.9797493815422058
1671115438.41960287,65651094,1,0.1997179090976715,-0.013092773035168648,-0.0035012075677514076,-0.979759693145752
1671115438.43956399,65671055,1,0.199563667178154,-0.013539489358663559,-0.0042171175591647625,-0.979782223701477
1671115438.47955990,65711051,1,0.19937486946582794,-0.015150678344070911,-0.00633381400257349,-0.979785680770874
1671115438.51958299,65751074,1,0.19914261996746063,-0.017423115670681,-0.00806537177413702,-0.9797824025154114
1671115438.55960894,65791100,1,0.19911053776741028,-0.019908690825104713,-0.010558441281318665,-0.9797179102897644
1671115438.59960294,65831094,1,0.19895799458026886,-0.023078830912709236,-0.013004763051867485,-0.9796499013900757
1671115438.61959600,65851087,1,0.19882316887378693,-0.025045698508620262,-0.013601076789200306,-0.9796208739280701
1671115438.63954782,65871039,1,0.19889499247074127,-0.0269345510751009,-0.0137828029692173,-0.9795536398887634
1671115438.67955899,65911050,1,0.19864389300346375,-0.030313044786453247,-0.015009159222245216,-0.9794878363609314
1671115438.71955800,65951049,1,0.19861678779125214,-0.03262648731470108,-0.015628870576620102,-0.9794093370437622
1671115438.75959897,65991090,1,0.19875724613666534,-0.033104557543992996,-0.015766333788633347,-0.9793626070022583
1671115438.79961681,66031108,1,0.19856728613376617,-0.03254517912864685,-0.013685924932360649,-0.9794511198997498
1671115438.81955981,66051051,1,0.19862885773181915,-0.031629517674446106,-0.012481488287448883,-0.9794847369194031
1671115438.83957601,66071067,1,0.19864682853221893,-0.030985303223133087,-0.010808533057570457,-0.9795215725898743
1671115438.87953281,66111024,1,0.1986217498779297,-0.029910150915384293,-0.006463295314460993,-0.9795984029769897
1671115438.91955900,66151050,1,0.19846698641777039,-0.029631901532411575,-0.0008853363688103855,-0.9796591401100159
1671115438.95958900,66191080,1,0.19849896430969238,-0.02952255867421627,0.004814408719539642,-0.9796445369720459
1671115438.99960184,66231093,1,0.1983778476715088,-0.028166502714157104,0.009661596268415451,-0.9796732068061829
1671115439.01956201,66251053,1,0.19851204752922058,-0.02639542520046234,0.010367880575358868,-0.9796881079673767
1671115439.03959990,66271091,1,0.19841265678405762,-0.024495970457792282,0.012366200797259808,-0.9797343611717224
1671115439.07957888,66311070,1,0.1985146552324295,-0.01917092688381672,0.012848812155425549,-0.9798261523246765
1671115439.11953092,66351022,1,0.19868874549865723,-0.014111016876995564,0.013644077815115452,-0.979866087436676
1671115439.15955782,66391049,1,0.19874100387096405,-0.009097596630454063,0.012767369858920574,-0.9799266457557678
1671115439.19958687,66431078,1,0.198957160115242,-0.0047174603678286076,0.011474558152258396,-0.9799296259880066
1671115439.21953082,66451022,1,0.1989736706018448,-0.0030017876997590065,0.011147142387926579,-0.9799368381500244
1671115439.23958397,66471075,1,0.19911666214466095,-0.00131457659881562,0.010866092517971992,-0.979914665222168
1671115439.27960396,66511095,1,0.19921433925628662,0.0011075881775468588,0.009887364692986012,-0.9799054265022278
1671115439.31958985,66551081,1,0.19941900670528412,0.002418356714770198,0.010271458886563778,-0.9798575043678284
1671115439.35955882,66591050,1,0.0012064788024872541,-0.0063570463098585606,-0.013879219070076942,0.9998827576637268
1671115439.39955592,66631047,1,0.000876185717061162,-0.006481047719717026,-0.01274852640926838,0.9998973608016968
1671115439.41957188,66651063,1,0.0006261300295591354,-0.006477161310613155,-0.012036570347845554,0.9999063611030579
1671115439.43958592,66671077,1,0.0003703645197674632,-0.006306867580860853,-0.011698231101036072,0.9999116063117981
1671115439.47959185,66711083,1,-0.00013927803956903517,-0.0058667100965976715,-0.008833609521389008,0.9999437928199768
1671115439.51957488,66751066,1,-0.0008544964948669076,-0.004960600286722183,-0.0064252819865942,0.9999666810035706
1671115439.55953097,66791022,1,-0.0015671432483941317,-0.003987092990428209,-0.0034629185684025288,0.9999848008155823
1671115439.59955883,66831050,1,-0.0022736238315701485,-0.0022481258492916822,-0.0017460426315665245,0.9999933838844299
1671115439.61958098,66851072,1,-0.002734451089054346,-0.0010728181805461645,-0.0006987492088228464,0.9999954700469971
1671115439.63959289,66871084,1,-0.0033124962355941534,0.00026895306655205786,-8.563230267100153e-07,0.9999944567680359
1671115439.67958689,66911078,1,-0.0044952817261219025,0.0037980955094099045,0.0003544748469721526,0.9999825954437256
1671115439.71960092,66951092,1,-0.005408111028373241,0.0072606648318469524,0.0006730802124366164,0.9999588131904602
1671115439.75958896,66991080,1,-0.0065127587877213955,0.010180321522057056,0.0007692725048400462,0.9999266862869263
1671115439.79954982,67031041,1,-0.007855456322431564,0.011450094170868397,0.0004502976080402732,0.9999035000801086
1671115439.81954885,67051040,1,-0.008443208411335945,0.011435212567448616,0.0011559112463146448,0.9998983144760132
1671115439.83956599,67071057,1,-0.009118813090026379,0.010895617306232452,0.00113093969412148,0.9998984336853027
1671115439.87958789,67111079,1,-0.010159487836062908,0.009754409082233906,0.0012479089200496674,0.9999000430107117
1671115439.91956782,67151059,1,-0.011372490786015987,0.007692989893257618,0.0007551442831754684,0.9999054670333862
1671115439.95960188,67191093,1,-0.012466411106288433,0.005277020391076803,0.0008766832179389894,0.9999079704284668
1671115439.99957395,67231065,1,-0.013358927331864834,0.003156998660415411,0.001608271268196404,0.9999045133590698
1671115440.01959300,67251084,1,-0.013794831931591034,0.0023750215768814087,0.0009406177559867501,0.9999015927314758
1671115440.03954291,67271034,1,-0.014211317524313927,0.0018766195280477405,0.0007027359097264707,0.9998970031738281
1671115440.07955790,67311049,1,-0.015361461788415909,0.000943657592870295,0.0005796601180918515,0.999881386756897
1671115440.11959100,67351082,1,-0.016440562903881073,0.0007640614057891071,0.0008206205093301833,0.9998642206192017
1671115440.15957785,67391069,1,-0.017368949949741364,0.0009862510487437248,-6.416508404072374e-05,0.9998486638069153
1671115440.19959998,67431091,1,-0.018487941473722458,0.0009508844232186675,-0.0001369144447380677,0.9998286366462708
1671115440.21960783,67451099,1,-0.018929066136479378,0.0009182905778288841,3.5015622415812686e-05,0.9998204112052917
1671115440.23957300,67471064,1,-0.019516224041581154,0.0007166860741563141,0.0003822185390163213,0.999809205532074
1671115440.27956295,67511054,1,-0.020391736179590225,0.0005626028869301081,-5.761627107858658e-05,0.9997919201850891
1671115440.31954885,67551040,1,-0.021291987970471382,1.94793647096958e-05,0.0002534773084335029,0.9997732639312744
1671115440.35961795,67591109,1,-0.02212693728506565,-0.0002327811816940084,-3.776677112909965e-05,0.9997551441192627
1671115440.39958596,67631077,1,-0.022559650242328644,-0.0005206171772442758,0.00010137786011910066,0.9997453689575195
1671115440.41956091,67651052,1,-0.022922838106751442,-0.0004269304918125272,-0.0002288811665493995,0.9997371435165405
1671115440.43956995,67671061,1,-0.02326017990708351,-0.00024915425456129014,-0.0005865283310413361,0.9997292160987854
1671115440.47953296,67711024,1,-0.023932429030537605,8.737000825931318e-06,-0.0004792284162249416,0.9997134804725647
1671115440.51956582,67751057,1,-0.02431456185877323,0.00014816829934716225,-5.0618786190170795e-05,0.9997043609619141
1671115440.55957198,67791063,1,-0.02470124140381813,0.00047003582585603,-0.0009587235981598496,0.999694287776947
1671115440.59959292,67831084,1,-0.024963168427348137,0.00024711666628718376,-0.0009640866192057729,0.9996878504753113
1671115440.61955786,67851049,1,-0.02504372037947178,0.0002533767546992749,-0.0011435325723141432,0.9996856451034546
1671115440.63959384,67871085,1,-0.025271570309996605,0.00018044062016997486,-0.0012030440848320723,0.9996798634529114
1671115440.67957687,67911068,1,-0.02539508230984211,0.0004372992552816868,-0.0020886401180177927,0.9996752142906189
1671115440.71953392,67951025,1,-0.0255458801984787,0.0007536706980317831,-0.0024510682560503483,0.9996703863143921
1671115440.75955796,67991049,1,-0.025465605780482292,0.0009419014095328748,-0.0030095004476606846,0.9996707439422607
1671115440.79959702,68031088,1,-0.02528984658420086,0.0015579817118123174,-0.0035098781809210777,0.9996727705001831
1671115440.81953001,68051021,1,-0.02528061531484127,0.0013848216040059924,-0.0040435162372887135,0.9996712803840637
1671115440.83958697,68071078,1,-0.02527228742837906,0.001663271221332252,-0.004918043501675129,0.9996671080589294
1671115440.87960696,68111098,1,-0.02507530339062214,0.0014367375988513231,-0.005539548583328724,0.9996691942214966
1671115440.91957283,68151064,1,-0.024833135306835175,0.0012645297683775425,-0.0055643003433942795,0.9996753334999084
1671115440.95957184,68191063,1,-0.024576472118496895,0.0007412594277411699,-0.006656277924776077,0.9996755123138428
1671115440.99955797,68231049,1,-0.02439187653362751,0.0001892250875243917,-0.006137705408036709,0.9996836185455322
1671115441.01957798,68251069,1,-0.024196194484829903,1.4657730389444623e-05,-0.006203098688274622,0.9996879696846008
1671115441.03957295,68271064,1,-0.024149587377905846,-0.0002832219179254025,-0.006381661631166935,0.9996879696846008
1671115441.07955694,68311048,1,-0.02387373335659504,-0.0006537602166645229,-0.006203713361173868,0.9996955394744873
1671115441.11959791,68351089,1,-0.023624826222658157,-0.0008398239151574671,-0.005900543183088303,0.9997031092643738
1671115441.15955400,68391045,1,-0.023485762998461723,-0.0009773591300472617,-0.005043765529990196,0.9997109770774841
1671115441.19955802,68431049,1,-0.023364640772342682,-0.001114197657443583,-0.004411917179822922,0.9997166395187378
1671115441.21960497,68451096,1,-0.02327745594084263,-0.0009037658455781639,-0.004661586135625839,0.9997177720069885
1671115441.23958683,68471078,1,-0.023282960057258606,-0.000779596739448607,-0.004700214136391878,0.9997175335884094
1671115441.27959991,68511091,1,-0.02316691353917122,-0.0005885186255909503,-0.0036089771892875433,0.9997249245643616
1671115441.31958795,68551079,1,-0.02320917136967182,-3.458693390712142e-05,-0.0036626283545047045,0.9997239112854004
1671115441.35956597,68591057,1,-0.023344146087765694,0.0005913684144616127,-0.0035576545633375645,0.9997209906578064
1671115441.39955592,68631047,1,-0.023294717073440552,0.0014163581654429436,-0.002367528388276696,0.999724805355072
1671115441.41956902,68651060,1,-0.023443467915058136,0.0017985992599278688,-0.0023417396005243063,0.9997208118438721
1671115441.43955803,68671049,1,-0.023463547229766846,0.0022113050799816847,-0.002149223582819104,0.9997199177742004
1671115441.47959089,68711082,1,-0.02354937233030796,0.0029114943463355303,-0.002361080376431346,0.9997156262397766
1671115441.51960492,68751096,1,-0.023806126788258553,0.0037847915664315224,-0.0017792574362829328,0.999707818031311
1671115441.55960393,68791095,1,-0.024038920179009438,0.004660835023969412,-0.0013712968211621046,0.9996992349624634
1671115441.59958601,68831077,1,-0.024232594296336174,0.005747252609580755,-0.0038968452718108892,0.9996822476387024
1671115441.61958790,68851079,1,-0.02428078092634678,0.006289588287472725,-0.006079425569623709,0.9996669292449951
1671115441.63960099,68871092,1,-0.024451984092593193,0.006669881287962198,-0.008508839644491673,0.999642550945282
1671115441.67956400,68911055,1,-0.024589460343122482,0.007355066481977701,-0.01722097396850586,0.9995222091674805
1671115441.71959591,68951087,1,-0.024700937792658806,0.008351001888513565,-0.027684828266501427,0.9992765784263611
1671115441.75958896,68991080,1,-0.02465258724987507,0.008687838912010193,-0.036600202322006226,0.9989880919456482
1671115441.79961395,69031105,1,-0.024489760398864746,0.009098583832383156,-0.045338455587625504,0.9986299872398376
1671115441.81958985,69051081,1,-0.024599412456154823,0.00886792503297329,-0.04828055948019028,0.9984914660453796
1671115441.83957100,69071062,1,-0.02454710192978382,0.009177264757454395,-0.051093604415655136,0.9983499646186829
1671115441.87954092,69111032,1,-0.024482738226652145,0.008772999048233032,-0.0521930493414402,0.9982982873916626
1671115441.91955900,69151050,1,-0.024408040568232536,0.008497672155499458,-0.04929477721452713,0.9984498023986816
1671115441.95958185,69191073,1,-0.02442515827715397,0.007953569293022156,-0.04156714305281639,0.9988054633140564
1671115441.99960589,69231097,1,-0.024332432076334953,0.007485416252166033,-0.032939665019512177,0.9991330504417419
1671115442.01955891,69251050,1,-0.02420397847890854,0.007376592606306076,-0.027811715379357338,0.9992929100990295
1671115442.03960490,69271096,1,-0.024113908410072327,0.007252376992255449,-0.02301269769668579,0.9994180202484131
1671115442.07955384,69311045,1,-0.02402474544942379,0.0067213596776127815,-0.012250276282429695,0.9996137022972107
1671115442.11956096,69351052,1,-0.0237813089042902,0.006614076439291239,-0.005954375956207514,0.9996775984764099
1671115442.15953898,69391030,1,-0.023370077833533287,0.0062017920427024364,0.00023661923478357494,0.9997076392173767
1671115442.19959903,69431090,1,-0.022783692926168442,0.0057604038156569,0.004134257789701223,0.999715268611908
1671115442.21955299,69451044,1,-0.022369977086782455,0.005335305817425251,0.006190235260874033,0.9997163414955139
1671115442.23960686,69471098,1,-0.022129755467176437,0.005115050822496414,0.007417711429297924,0.9997144937515259
1671115442.27957201,69511063,1,-0.021205715835094452,0.005152079276740551,0.008513789623975754,0.9997255802154541
1671115442.31956983,69551061,1,-0.020252235233783722,0.005215677432715893,0.009072452783584595,0.9997401237487793
1671115442.35956097,69591052,1,-0.018936892971396446,0.00523414509370923,0.009223776869475842,0.9997644424438477
1671115442.39958382,69631075,1,-0.0177037063986063,0.0054044523276388645,0.008878889493644238,0.9997892379760742
1671115442.41957402,69651065,1,-0.016888467594981194,0.005318962037563324,0.008824827149510384,0.9998042583465576
1671115442.43958998,69671081,1,-0.016061553731560707,0.005380868911743164,0.008680691942572594,0.9998188614845276
1671115442.47961092,69711102,1,-0.014547372236847878,0.005256354343146086,0.008047787472605705,0.999847948551178
1671115442.51957893,69751070,1,-0.012740721926093102,0.005485038738697767,0.007751366589218378,0.9998737573623657
1671115442.55953598,69791027,1,-0.010975618846714497,0.005728321615606546,0.006728602107614279,0.9999006986618042
1671115442.59956193,69831053,1,-0.009100645780563354,0.005519754718989134,0.005817064084112644,0.9999264478683472
1671115442.61960387,69851095,1,-0.008067569695413113,0.005708327516913414,0.005444199778139591,0.9999363422393799
1671115442.63958693,69871078,1,-0.006974669173359871,0.005314781796187162,0.004922252614051104,0.9999494552612305
1671115442.67958283,69911074,1,-0.004965607542544603,0.005218076054006815,0.004688267596065998,0.9999630451202393
1671115442.71960282,69951094,1,-0.0026354873552918434,0.005190694238990545,0.003663255600258708,0.9999763369560242
1671115442.75957084,69991062,1,-0.00043221560190431774,0.005182338412851095,0.001809291890822351,0.999984860420227
1671115442.79955792,70031049,1,0.002040101680904627,0.00491600576788187,-0.001043166616000235,0.9999852776527405
1671115442.81961083,70051102,1,0.0032993797212839127,0.004904907662421465,-0.0025191018357872963,0.9999793767929077
1671115442.83955693,70071048,1,0.004488963633775711,0.004632735159248114,-0.004271841142326593,0.9999700784683228
1671115442.87960386,70111095,1,0.007207196205854416,0.004348053131252527,-0.007741364650428295,0.9999346137046814
1671115442.91959500,70151086,1,0.00973614864051342,0.0038641374558210373,-0.009410015307366848,0.9999008774757385
1671115442.95959091,70191082,1,0.012393295764923096,0.003388547571375966,-0.010004846379160881,0.9998673796653748
1671115442.99954700,70231038,1,0.014710312709212303,0.0030477375257760286,-0.009097853675484657,0.9998457431793213
1671115443.01958299,70251074,1,0.015970444306731224,0.002936074510216713,-0.008413533680140972,0.9998327493667603
1671115443.03955698,70271048,1,0.017037605866789818,0.0027670941781252623,-0.0073120263405144215,0.9998242855072021
1671115443.07959580,70311087,1,0.01927090249955654,0.0027737687341868877,-0.00494961766526103,0.9997981786727905
1671115443.11958790,70351079,1,0.0212650615721941,0.0029333271086215973,-0.003680499503389001,0.999762773513794
1671115443.15960002,70391091,1,0.02329150401055813,0.003518602577969432,-0.0016742257867008448,0.999721109867096
1671115443.19957900,70431070,1,0.025351187214255333,0.0037002377212047577,-0.0003258253273088485,0.9996716976165771
1671115443.21959996,70451091,1,0.026280423626303673,0.00387744652107358,-0.000320175604429096,0.9996470212936401
1671115443.23956800,70471059,1,0.027216648682951927,0.004395055118948221,6.69170985929668e-05,0.9996199011802673
1671115443.27955794,70511049,1,0.02906770259141922,0.005631020292639732,0.0005530444905161858,0.9995614290237427
1671115443.31956697,70551058,1,0.030937843024730682,0.007652970030903816,0.0004886697279289365,0.9994918704032898
1671115443.35960984,70591101,1,0.03258993476629257,0.011474879458546638,7.252386421896517e-05,0.9994029402732849
1671115443.39960480,70631096,1,0.034199826419353485,0.01798875257372856,-0.0007779887528158724,0.9992527961730957
1671115443.41959786,70651089,1,0.03491517901420593,0.022951945662498474,-0.0016721725696697831,0.9991253018379211
1671115443.43956995,70671061,1,0.03583640232682228,0.028656886890530586,-0.0020075340289622545,0.9989446997642517
1671115443.47952986,70711021,1,0.03724158555269241,0.04148854687809944,-0.0039511327631771564,0.9984368681907654
1671115443.51956201,70751053,1,0.03850989416241646,0.05429885536432266,-0.004644617438316345,0.9977710247039795
1671115443.55958796,70791079,1,0.03959415853023529,0.06433002650737762,-0.004715683404356241,0.9971317648887634
1671115443.59954786,70831039,1,0.04081721603870392,0.06961952149868011,-0.005111191887408495,0.9967251420021057
1671115443.61956286,70851054,1,0.04126517102122307,0.07004892826080322,-0.005423432681709528,0.9966749548912048
1671115443.63958597,70871077,1,0.04164481908082962,0.06960748881101608,-0.004340161103755236,0.9966953992843628
1671115443.67957783,70911069,1,0.04257483035326004,0.06562046706676483,-0.003249738598242402,0.9969306588172913
1671115443.71955895,70951050,1,0.04347825050354004,0.05843876302242279,-0.002053789561614394,0.9973416328430176
1671115443.75956082,70991052,1,0.04422387853264809,0.04885397106409073,-9.189259435515851e-05,0.9978263974189758
1671115443.79959893,71031090,1,0.045010995119810104,0.03831852599978447,0.0017136093229055405,0.9982498288154602
1671115443.81953382,71051025,1,0.04551755264401436,0.033115219324827194,0.002245074138045311,0.998412013053894
1671115443.83958602,71071077,1,0.04602086544036865,0.028399119153618813,0.0012480256846174598,0.9985359311103821
1671115443.87956285,71111054,1,0.04692734032869339,0.019584449008107185,0.0029250464867800474,0.9987019896507263
1671115443.91953492,71151026,1,0.04760327190160751,0.012346520088613033,0.004507787059992552,0.998779833316803
1671115443.95956492,71191056,1,0.04825926572084427,0.007051709573715925,0.0059168292209506035,0.9987924098968506
1671115443.99956393,71231055,1,0.048706602305173874,0.003386889351531863,0.006496081594377756,0.9987862706184387
1671115444.01955295,71251044,1,0.04898929223418236,0.0019576875492930412,0.00632296409457922,0.9987773895263672
1671115444.03956580,71271057,1,0.0491957850754261,0.0008309578988701105,0.005029580555856228,0.9987761378288269
1671115444.07959294,71311084,1,0.0493941567838192,-0.0009947862708941102,0.004147105384618044,0.9987702369689941
1671115444.11957383,71351065,1,0.04930507019162178,-0.002113077789545059,0.004528827499598265,0.9987712502479553
1671115444.15953183,71391023,1,0.049386151134967804,-0.0028263127896934748,0.003429379314184189,0.9987698793411255
1671115444.19955802,71431049,1,0.049169864505529404,-0.002474184613674879,0.002076788106933236,0.9987851977348328
1671115444.21959686,71451088,1,0.04904691129922867,-0.0024885626044124365,0.001578710856847465,0.9987921118736267
1671115444.23961282,71471104,1,0.04886409640312195,-0.002273805672302842,0.001054213847965002,0.9988023042678833
1671115444.27958894,71511080,1,0.04850998893380165,-0.0019456705776974559,0.00039089994970709085,0.9988207221031189
1671115444.31960082,71551092,1,0.04818548262119293,-0.0014875584747642279,6.019934971845942e-06,0.9988372921943665
1671115444.35957384,71591065,1,0.047834765166044235,-0.0011343328515067697,2.552025398472324e-05,0.9988546371459961
1671115444.39954591,71631037,1,0.04741575941443443,-0.0006148081156425178,-0.00023672747192904353,0.9988750219345093
1671115444.41960096,71651092,1,0.04734617471694946,-0.0005297491443343461,2.6558995159575716e-05,0.9988784193992615
1671115444.43955898,71671050,1,0.047040075063705444,-0.0001917013432830572,0.00033732535666786134,0.9988929033279419
1671115444.47959685,71711088,1,0.04681695997714996,8.578726556152105e-05,0.0008954858058132231,0.9989030957221985
1671115444.51958489,71751076,1,0.04640401154756546,0.0005816943594254553,0.0009378301328979433,0.9989221692085266
1671115444.55960584,71791097,1,0.04631468653678894,0.000986501108855009,0.001589193008840084,0.9989251494407654
1671115444.59958196,71831073,1,0.04598405957221985,0.001266762730665505,0.0017014368204399943,0.9989399313926697
1671115444.61960196,71851093,1,0.04605225473642349,0.001521707628853619,0.002087352331727743,0.9989356994628906
1671115444.63955998,71871051,1,0.045934371650218964,0.0015730420127511024,0.0022846716456115246,0.9989405870437622
1671115444.67954803,71911039,1,0.04583823308348656,0.0016043700743466616,0.002526953350752592,0.9989444017410278
1671115444.71960783,71951099,1,0.04567984491586685,0.0016887905076146126,0.002596168080344796,0.9989513158798218
1671115444.75958681,71991078,1,0.045714281499385834,0.0017216936685144901,0.002835227409377694,0.9989490509033203
1671115444.79957294,72031064,1,0.04566412791609764,0.0008916340884752572,0.0031830095686018467,0.9989513754844666
1671115444.81958890,72051080,1,0.045706506818532944,0.0003650060680229217,0.002772347768768668,0.9989510178565979
1671115444.83955979,72071051,1,0.04569321498274803,-0.00036129599902778864,0.0035903598181903362,0.9989489912986755
1671115444.87956786,72111059,1,0.04582926630973816,-0.0016374343540519476,0.003769831731915474,0.9989408254623413
1671115444.91958594,72151077,1,0.0459630973637104,-0.0017031951574608684,0.004745949059724808,0.9989303946495056
1671115444.95958686,72191078,1,0.046058908104896545,-0.0011878538643941283,0.005049805622547865,0.9989252686500549
1671115444.99958587,72231077,1,0.04637979343533516,0.0001964163384400308,0.004189676605165005,0.9989150762557983
1671115445.01955485,72251046,1,0.04658081755042076,0.0006289244047366083,0.004856748040765524,0.9989024996757507
1671115445.03957200,72271063,1,0.046719130128622055,0.0014660002198070288,0.004562733694911003,0.9988965392112732
1671115445.07953095,72311022,1,0.047070108354091644,0.0022840003948658705,0.005579667165875435,0.9988734126091003
1671115445.11956000,72351051,1,0.04722028970718384,0.0027814966160804033,0.005935121793299913,0.9988629817962646
1671115445.15959787,72391089,1,0.047477610409259796,0.003321813652291894,0.005919159855693579,0.9988492131233215
1671115445.19958496,72431076,1,0.047823287546634674,0.003570130793377757,0.004860274959355593,0.9988375902175903
1671115445.21955895,72451050,1,0.04785018041729927,0.0036980416625738144,0.004378661513328552,0.9988380670547485
1671115445.23960090,72471092,1,0.048035189509391785,0.003861126024276018,0.0041334605775773525,0.9988296031951904
1671115445.27955580,72511047,1,0.04828191176056862,0.004064465872943401,0.0026197589468210936,0.998822033405304
1671115445.31954980,72551041,1,0.04854687303304672,0.004537171218544245,0.0016193914925679564,0.998809278011322
1671115445.35955787,72591049,1,0.04892312362790108,0.0048881033435463905,0.00030602168408222497,0.9987905621528625
1671115445.39959192,72631083,1,0.049234941601753235,0.00512310303747654,-0.0016621220856904984,0.9987726807594299
1671115445.41953492,72651026,1,0.049489449709653854,0.00499988067895174,-0.002175109228119254,0.9987597465515137
1671115445.43958902,72671080,1,0.04952187091112137,0.005000002682209015,-0.0031629677396267653,0.9987555146217346
1671115445.47959089,72711082,1,0.0499781109392643,0.004926290828734636,-0.005628686863929033,0.9987223148345947
1671115445.51953197,72751023,1,0.0502859465777874,0.005440640263259411,-0.007204546593129635,0.9986940622329712
1671115445.55955982,72791051,1,0.05077051743865013,0.005816288758069277,-0.008375220000743866,0.998658299446106
1671115445.59953880,72831030,1,0.051149819046258926,0.006146683357656002,-0.008142391219735146,0.9986388683319092
1671115445.61957288,72851064,1,0.051387764513492584,0.006492940708994865,-0.008616586215794086,0.9986205101013184
1671115445.63957596,72871067,1,0.05155567079782486,0.006639822851866484,-0.009228607639670372,0.9986054301261902
1671115445.67959881,72911090,1,0.05209360271692276,0.007037782110273838,-0.01138531044125557,0.9985525012016296
1671115445.71960282,72951094,1,0.052494969218969345,0.007336954586207867,-0.010981932282447815,0.9985338449478149
1671115445.75953794,72991029,1,0.052870362997055054,0.00787646695971489,-0.012076710350811481,0.9984973073005676
1671115445.79955983,73031051,1,0.05325695872306824,0.007740775588899851,-0.011596092022955418,0.9984834790229797
1671115445.81959987,73051091,1,0.05334882065653801,0.007737085688859224,-0.0120995556935668,0.9984726309776306
1671115445.83959794,73071089,1,0.0533854179084301,0.0077112275175750256,-0.012746328487992287,0.9984628558158875
1671115445.87959599,73111087,1,0.05372293293476105,0.007096228189766407,-0.01230722013860941,0.9984548091888428
1671115445.91959691,73151088,1,0.05399441346526146,0.006550237070769072,-0.013399298302829266,0.9984298348426819
1671115445.95958090,73191072,1,0.0543183907866478,0.005569261498749256,-0.013495884835720062,0.9984169006347656
1671115445.99956489,73231056,1,0.05438258871436119,0.004463292192667723,-0.01331064011901617,0.9984214901924133
1671115446.01958489,73251076,1,0.05445941165089607,0.003926146775484085,-0.013831413350999355,0.9984124898910522
1671115446.03955984,73271051,1,0.05457068607211113,0.003339343937113881,-0.013807790353894234,0.998408854007721
1671115446.07959700,73311088,1,0.054750800132751465,0.0015311873285099864,-0.015202416107058525,0.9983831644058228
1671115446.11955881,73351050,1,0.05509999021887779,-0.0007017636671662331,-0.014740126207470894,0.9983717799186707
1671115446.15960789,73391099,1,0.05525601655244827,-0.003404307411983609,-0.014484616927802563,0.998361349105835
1671115446.19957280,73431064,1,0.05536342412233353,-0.005994575098156929,-0.01573517546057701,0.9983242750167847
1671115446.21958685,73451078,1,0.055419474840164185,-0.007200042251497507,-0.015913421288132668,0.998310387134552
1671115446.23956299,73471054,1,0.05566274747252464,-0.008407115936279297,-0.014600981958210468,0.998307466506958
1671115446.27955794,73511049,1,0.05553547665476799,-0.009745543822646141,-0.014166176319122314,0.9983086585998535
1671115446.31959391,73551085,1,0.05546534061431885,-0.010215909220278263,-0.01492489967495203,0.9982967972755432
1671115446.35963297,73591124,1,0.0554821603000164,-0.010579789988696575,-0.012875351123511791,0.9983205795288086
1671115446.39958882,73631080,1,0.055333543568849564,-0.010145178996026516,-0.010422582738101482,0.9983620047569275
1671115446.41959596,73651087,1,0.05527874827384949,-0.009663769043982029,-0.008705725893378258,0.9983862638473511
1671115446.43956590,73671057,1,0.055212121456861496,-0.00912290159612894,-0.006179193966090679,0.9984138607978821
1671115446.47956300,73711054,1,0.05511399358510971,-0.007531915325671434,0.0005913364002481103,0.9984514713287354
1671115446.51958585,73751077,1,0.05503156781196594,-0.005815811455249786,0.009732180275022984,0.998420238494873
1671115446.55956602,73791057,1,0.0548815056681633,-0.0036446673329919577,0.02016618475317955,0.9982825517654419
1671115446.59958887,73831080,1,0.05466537922620773,-0.0021890555508434772,0.03150102123618126,0.9980053305625916
1671115446.61956191,73851053,1,0.05453004688024521,-0.0015541194006800652,0.03670278936624527,0.9978361129760742
1671115446.63958502,73871076,1,0.05444195121526718,-0.0010964869288727641,0.04069812223315239,0.9976865649223328
1671115446.67956686,73911058,1,0.05412838235497475,-0.00014959713735152036,0.04777674376964569,0.9973903298377991
1671115446.71956587,73951057,1,0.054033081978559494,0.0002443128905724734,0.05214672535657883,0.9971765279769897
1671115446.75958800,73991079,1,0.0535820797085762,0.000516830594278872,0.05520516261458397,0.9970361590385437
1671115446.79958892,74031080,1,0.05336952582001686,0.00038871800643391907,0.05494186282157898,0.9970621466636658
1671115446.81955886,74051050,1,0.05307566002011299,0.0004856438608840108,0.05447537824511528,0.9971033930778503
1671115446.83959579,74071087,1,0.05300337076187134,0.0005677278386428952,0.05402839183807373,0.9971315264701843
1671115446.87957001,74111061,1,0.052621372044086456,0.0012381793931126595,0.050898514688014984,0.9973158240318298
1671115446.91953087,74151022,1,0.05232180282473564,0.0016286879545077682,0.04402393847703934,0.9976580739021301
1671115446.95955896,74191050,1,0.05230459198355675,0.0022097874898463488,0.03692016750574112,0.99794602394104
1671115446.99959493,74231086,1,0.05180451646447182,0.002976075280457735,0.03160083666443825,0.9981527328491211
1671115447.01953197,74251023,1,0.051707882434129715,0.0034468083176761866,0.02893444523215294,0.9982370734214783
1671115447.03956985,74271061,1,0.05152269825339317,0.003818973433226347,0.025330817326903343,0.9983432292938232
1671115447.07962680,74311118,1,0.05124232545495033,0.004204112105071545,0.020628977566957474,0.9984643459320068
1671115447.11953092,74351022,1,0.050857558846473694,0.004636798519641161,0.015372339636087418,0.998576819896698
1671115447.15956092,74391052,1,0.050277769565582275,0.00511261448264122,0.013188689947128296,0.9986351132392883
1671115447.19955993,74431051,1,0.050044115632772446,0.006023970432579517,0.009256547316908836,0.9986859560012817
1671115447.21958780,74451079,1,0.049819592386484146,0.006444350816309452,0.007826610468327999,0.9987067580223083
1671115447.23959684,74471088,1,0.049517903476953506,0.006947999820113182,0.005687395576387644,0.99873286485672
1671115447.27957702,74511068,1,0.04898477718234062,0.00748668797314167,0.003472017589956522,0.9987654089927673
1671115447.31957197,74551063,1,0.0484575517475605,0.007667297497391701,-0.00040035691927187145,0.998795747756958
1671115447.35953093,74591022,1,0.04793628305196762,0.006600419990718365,-0.002927609486505389,0.9988242983818054
1671115447.39956093,74631052,1,0.0474422462284565,0.005431203171610832,-0.004433567635715008,0.9988493919372559
1671115447.41960096,74651092,1,0.04720126464962959,0.0048507521860301495,-0.004850316327065229,0.9988618493080139
1671115447.43953586,74671027,1,0.046913933008909225,0.004615149460732937,-0.005596870556473732,0.9988725781440735
1671115447.47957587,74711067,1,0.04639540985226631,0.004414290189743042,-0.007164712529629469,0.9988877177238464
1671115447.51959586,74751087,1,0.0460975207388401,0.004009724128991365,-0.008595618419349194,0.9988918900489807
1671115447.55958295,74791074,1,0.045664574950933456,0.0034638370852917433,-0.010382147505879402,0.9988968968391418
1671115447.59953499,74831026,1,0.04550661891698837,0.0025732291396707296,-0.012523775920271873,0.9988822340965271
1671115447.61957192,74851063,1,0.04531118646264076,0.0017828367417678237,-0.01296138484030962,0.9988872408866882
1671115447.63957381,74871065,1,0.04502720385789871,0.0012541727628558874,-0.015011340379714966,0.9988721609115601
1671115447.67959094,74911082,1,0.04491271823644638,0.00025431893300265074,-0.01588348299264908,0.9988645911216736
1671115447.71957588,74951067,1,0.04486002400517464,0.000521628768183291,-0.01746046356856823,0.9988405704498291
1671115447.75959897,74991090,1,0.04464074224233627,0.001353434519842267,-0.017371786758303642,0.9988511204719543
1671115447.79957700,75031068,1,0.044681649655103683,0.0022397423163056374,-0.017066586762666702,0.9988529682159424
1671115447.81964493,75051136,1,0.04458913579583168,0.0026192364748567343,-0.01667342521250248,0.9988628029823303
1671115447.83955288,75071044,1,0.04453660547733307,0.0028336779214441776,-0.016167743131518364,0.9988728761672974
1671115447.87957001,75111061,1,0.0445237010717392,0.0025275915395468473,-0.014729203656315804,0.9988965392112732
1671115447.91959190,75151083,1,0.04430967941880226,0.0008223745389841497,-0.009381874464452267,0.9989734292030334
1671115447.95957494,75191066,1,0.04330488294363022,-0.00021594598365481943,-0.0032930460292845964,0.9990564584732056
1671115447.99960184,75231093,1,0.042647767812013626,-0.0022836450953036547,0.0002619690785650164,0.9990875124931335
1671115448.01958895,75251080,1,0.042347874492406845,-0.0031710213515907526,0.001368632772937417,0.9990969300270081
1671115448.03957295,75271064,1,0.04185238853096962,-0.0035476319026201963,0.002282896777614951,0.9991148710250854
1671115448.07954383,75311035,1,0.04074558988213539,-0.002800224581733346,0.0018014966044574976,0.9991639852523804
1671115448.11955380,75351045,1,0.03973453491926193,-0.0026148585602641106,0.0011703489581122994,0.9992061853408813
1671115448.15959597,75391087,1,0.03867243602871895,-0.002570503856986761,0.0009247488342225552,0.999248206615448
1671115448.19959188,75431083,1,0.03799787908792496,-0.0010405705543234944,0.0016138693317770958,0.9992759823799133
1671115448.21956182,75451053,1,0.03785444051027298,-9.859535202849656e-05,0.002027785638347268,0.9992812275886536
1671115448.23958087,75471072,1,0.03802305459976196,0.0007688617915846407,0.0017048275331035256,0.9992750883102417
1671115448.27953887,75511030,1,0.03862237185239792,0.002748896135017276,0.000660923367831856,0.9992498755455017
1671115448.31956196,75551053,1,0.039285432547330856,0.002797032007947564,-0.0008620766457170248,0.9992237687110901
1671115448.35959697,75591088,1,0.039460595697164536,0.0029899957589805126,-0.0013122314121574163,0.9992157816886902
1671115448.39958501,75631076,1,0.03847028687596321,0.003735494799911976,0.00027398380916565657,0.9992527365684509
1671115448.41956997,75651061,1,0.03784359246492386,0.003910754807293415,0.0007513146265409887,0.9992757439613342
1671115448.43960786,75671099,1,0.03714714199304581,0.0035404893569648266,0.0010691359639167786,0.9993029832839966
1671115448.47959089,75711082,1,0.0355183444917202,0.0023100075777620077,0.0008762402576394379,0.9993659853935242
1671115448.51957393,75751065,1,0.03426477685570717,0.001536318683065474,0.0007762477616779506,0.9994112849235535
1671115448.55955887,75791050,1,0.033522382378578186,0.0016593283507972956,0.00012618754408322275,0.9994365572929382
1671115448.59959197,75831083,1,0.03293910250067711,0.0014240180607885122,-7.238564285216853e-05,0.9994563460350037
1671115448.61953187,75851023,1,0.032771091908216476,0.0012941044988110662,-8.286623051390052e-05,0.9994620680809021
1671115448.63959193,75871083,1,0.03258310258388519,0.0011662824545055628,0.00018818317039404064,0.9994683265686035
1671115448.67961502,75911106,1,0.032134149223566055,0.0016753157833591104,0.00046080732136033475,0.9994820356369019
1671115448.71956897,75951060,1,0.031551241874694824,0.002328567672520876,0.0008579022833146155,0.9994990825653076
1671115448.75956082,75991052,1,0.03053058125078678,0.0024117405992001295,0.0008399759535677731,0.999530553817749
1671115448.79955888,76031050,1,0.02941116876900196,0.0023802302312105894,0.00022625310521107167,0.999564528465271
1671115448.81957698,76051068,1,0.02893630973994732,0.002361079677939415,-3.2758824090706185e-05,0.9995784759521484
1671115448.83960199,76071093,1,0.02856574021279812,0.0023638554848730564,-0.00012747710570693016,0.9995890855789185
1671115448.87959290,76111084,1,0.027906376868486404,0.002211094368249178,0.00041111905011348426,0.999608039855957
1671115448.91958594,76151077,1,0.027361003682017326,0.0018076414708048105,0.000812844664324075,0.9996236562728882
1671115448.95953989,76191031,1,0.026876898482441902,0.0016581477830186486,0.0009995694272220135,0.9996368885040283
1671115448.99955893,76231050,1,0.02638247050344944,0.0017114451620727777,0.0005263627972453833,0.9996502995491028
1671115449.01959991,76251091,1,0.02611776627600193,0.0017195855034515262,0.00029698642902076244,0.9996573328971863
1671115449.03963089,76271122,1,0.025910615921020508,0.0017371104331687093,0.0002300956257386133,0.9996627569198608
1671115449.07959986,76311091,1,0.025324760004878044,0.0017412729794159532,-7.210109470179304e-05,0.9996777772903442
1671115449.11960292,76351094,1,0.024674855172634125,0.002013840712606907,0.0003007263003382832,0.9996934533119202
1671115449.15958691,76391078,1,0.024154838174581528,0.0021434486843645573,0.0005966820754110813,0.9997057318687439
1671115449.19953179,76431023,1,0.023559635505080223,0.002051289426162839,0.0006846142932772636,0.9997200965881348
1671115449.21957803,76451069,1,0.02326749637722969,0.0019252445781603456,0.000575732730794698,0.9997272491455078
1671115449.23955798,76471049,1,0.023071588948369026,0.0018242847872897983,0.0003096679865848273,0.9997320771217346
1671115449.27959085,76511082,1,0.02281770668923855,0.0016840414609760046,0.0001262268633581698,0.9997382164001465
1671115449.31958985,76551081,1,0.022661985829472542,0.0015489705838263035,0.00020930175378452986,0.9997419714927673
1671115449.35959387,76591085,1,0.022408736869692802,0.0014889155281707644,0.0005768953124061227,0.999747633934021
1671115449.39957380,76631065,1,0.02187580242753029,0.0015625967644155025,0.0007717778789810836,0.9997591972351074
1671115449.41960382,76651095,1,0.021645933389663696,0.001707257586531341,0.0007332956301979721,0.9997639656066895
1671115449.43953490,76671026,1,0.021337658166885376,0.001736404956318438,0.0007447559619322419,0.9997705221176147
