timestamp,TimeUS,C,Roll,Pitch,Yaw,VN,VE,VD,dPD,PN,PE,PD,GX,GY,GZ,OH
1671115431.99956894,59231060,1,-0.8200000000000001,-0.41000000000000003,204.70000000000002,-0.041351016610860825,-0.07764241099357605,-0.046654827892780304,-0.13865816593170166,4.969518661499023,4.171905040740967,3.991788625717163,0.06,-0.06,-0.17,271.07
1671115432.01959085,59251082,1,-0.8200000000000001,-0.41000000000000003,204.70000000000002,-0.04111752659082413,-0.07742832601070404,-0.04704929143190384,-0.1350410133600235,4.969222545623779,4.172675132751465,3.9883673191070557,0.06,-0.06,-0.17,271.07
1671115432.03955197,59271043,1,-0.8200000000000001,-0.41000000000000003,204.70000000000002,-0.04131435230374336,-0.0781654492020607,-0.04703782498836517,-0.1338399201631546,4.968719959259033,4.1725311279296875,3.9863178730010986,0.06,-0.06,-0.17,271.07
1671115432.07956290,59311054,1,-0.8200000000000001,-0.41000000000000003,204.71,-0.04106567054986954,-0.07876242697238922,-0.04738929495215416,-0.1326472908258438,4.967977046966553,4.173230171203613,3.981064558029175,0.06,-0.06,-0.17,271.07
1671115432.11958790,59351079,1,-0.8200000000000001,-0.41000000000000003,204.72,-0.04093114659190178,-0.07938235998153687,-0.04745931923389435,-0.12948976457118988,4.967132091522217,4.173327922821045,3.97627592086792,0.06,-0.06,-0.17,271.07
1671115432.15959501,59391086,1,-0.8200000000000001,-0.41000000000000003,204.73000000000002,-0.04060835763812065,-0.08000976592302322,-0.047738365828990936,-0.12183752655982971,4.966469764709473,4.17381477355957,3.9712166786193848,0.06,-0.06,-0.17,271.07
1671115432.19957089,59431062,1,-0.8200000000000001,-0.41000000000000003,204.73000000000002,-0.040419284254312515,-0.08163648843765259,-0.04786819964647293,-0.11514938622713089,4.965456485748291,4.172768592834473,3.9666645526885986,0.06,-0.06,-0.17,271.07
1671115432.21956491,59451056,1,-0.8200000000000001,-0.41000000000000003,204.74,-0.040282342582941055,-0.08178463578224182,-0.04733972251415253,-0.1090005487203598,4.964734077453613,4.172881126403809,3.9657604694366455,0.06,-0.06,-0.17,271.07
1671115432.23955584,59471047,1,-0.8200000000000001,-0.41000000000000003,204.74,-0.04008226469159126,-0.08089631795883179,-0.04667218029499054,-0.09558071196079254,4.964045524597168,4.174410343170166,3.9648783206939697,0.06,-0.06,-0.17,271.07
1671115432.27955389,59511045,1,-0.8200000000000001,-0.41000000000000003,204.75,-0.04009810462594032,-0.08053506165742874,-0.04611657187342644,-0.06677163392305374,4.962635517120361,4.175436973571777,3.962984085083008,0.06,-0.06,-0.17,271.07
1671115432.31958199,59551073,1,-0.81,-0.41000000000000003,204.75,-0.04015212506055832,-0.08023922890424728,-0.04575679078698158,-0.04596899077296257,4.961212158203125,4.175911903381348,3.961099863052368,0.06,-0.06,-0.17,271.07
1671115432.35956788,59591059,1,-0.81,-0.41000000000000003,204.75,-0.04059671610593796,-0.08029688894748688,-0.04518800601363182,-0.03293701633810997,4.9598069190979,4.176846504211426,3.9591825008392334,0.06,-0.06,-0.17,271.07
1671115432.39959788,59631089,1,-0.8200000000000001,-0.42,204.76,-0.04090183973312378,-0.08055071532726288,-0.04506504535675049,-0.030026311054825783,4.958315849304199,4.176239967346191,3.957049608230591,0.06,-0.06,-0.17,271.07
1671115432.41958499,59651076,1,-0.8200000000000001,-0.42,204.77,-0.041609637439250946,-0.08020446449518204,-0.04494407773017883,-0.029376480728387833,4.957165241241455,4.1763482093811035,3.9563286304473877,0.06,-0.06,-0.17,271.07
1671115432.43953395,59671025,1,-0.8200000000000001,-0.42,204.77,-0.04167575761675835,-0.07881928235292435,-0.044459640979766846,-0.02652059495449066,4.955753803253174,4.178040504455566,3.955831527709961,0.06,-0.06,-0.17,271.07
1671115432.47955799,59711049,1,-0.8200000000000001,-0.42,204.78,-0.04243215173482895,-0.07715027034282684,-0.04392843693494797,-0.02138764038681984,4.9532880783081055,4.17933988571167,3.9544260501861572,0.06,-0.06,-0.17,271.07
1671115432.51954484,59751036,1,-0.8200000000000001,-0.42,204.79,-0.04312208667397499,-0.0761551782488823,-0.04348055273294449,-0.020501215010881424,4.950876235961914,4.180150032043457,3.952953815460205,0.06,-0.06,-0.17,271.07
1671115432.55958390,59791075,1,-0.8200000000000001,-0.42,204.79,-0.04380115121603012,-0.07469842582941055,-0.043229758739471436,-0.021456126123666763,4.948292255401611,4.181519508361816,3.95149564743042,0.06,-0.06,-0.17,271.07
1671115432.59958482,59831076,1,-0.8200000000000001,-0.42,204.79,-0.04441237449645996,-0.07436788827180862,-0.042579591274261475,-0.025528434664011,4.945974349975586,4.181365966796875,3.9497523307800293,0.06,-0.06,-0.17,271.07
1671115432.61956096,59851052,1,-0.8200000000000001,-0.42,204.79,-0.0447075329720974,-0.07377268373966217,-0.04217921942472458,-0.025047630071640015,4.944770812988281,4.181366443634033,3.94966197013855,0.06,-0.06,-0.17,271.07
1671115432.63953590,59871027,1,-0.8200000000000001,-0.42,204.79,-0.044997092336416245,-0.07195279747247696,-0.041368916630744934,-0.01737956702709198,4.943262100219727,4.182657718658447,3.950253963470459,0.06,-0.06,-0.17,271.07
1671115432.67952681,59911018,1,-0.8200000000000001,-0.42,204.8,-0.044933851808309555,-0.07071124017238617,-0.0403531938791275,3.874710091622546e-05,4.940667152404785,4.183557510375977,3.9504404067993164,0.07,-0.06,-0.17,271.07
1671115432.71955991,59951051,1,-0.8200000000000001,-0.42,204.8,-0.045332565903663635,-0.06984089314937592,-0.03918047994375229,0.010736199095845222,4.938158988952637,4.184055805206299,3.95044207572937,0.07,-0.06,-0.17,271.07
1671115432.75957394,59991065,1,-0.8200000000000001,-0.42,204.81,-0.0457100085914135,-0.06828561425209045,-0.03808644413948059,0.014503316022455692,4.935520172119141,4.18505334854126,3.950685739517212,0.07,-0.06,-0.17,271.07
1671115432.79958487,60031076,1,-0.81,-0.43,204.81,-0.04638874903321266,-0.0680059865117073,-0.03757258877158165,0.010379653424024582,4.933148384094238,4.184723854064941,3.9500904083251953,0.07,-0.06,-0.17,271.07
1671115432.81955385,60051045,1,-0.81,-0.43,204.81,-0.04595896229147911,-0.0669979602098465,-0.036751799285411835,0.010499037802219391,4.93231725692749,4.184925556182861,3.9504306316375732,0.07,-0.06,-0.17,271.07
1671115432.83959198,60071083,1,-0.81,-0.43,204.81,-0.044676221907138824,-0.06472774595022202,-0.03576536849141121,0.017499465495347977,4.931646823883057,4.186591148376465,3.951794147491455,0.07,-0.06,-0.17,271.07
1671115432.87956381,60111055,1,-0.81,-0.43,204.81,-0.042750321328639984,-0.06157541647553444,-0.03461724892258644,0.03182326257228851,4.930271148681641,4.188119888305664,3.9529101848602295,0.07,-0.06,-0.17,271.07
1671115432.91952491,60151016,1,-0.81,-0.43,204.82,-0.040882695466279984,-0.05898425355553627,-0.03378840535879135,0.0367988646030426,4.929001808166504,4.189314842224121,3.953676462173462,0.07,-0.06,-0.17,271.07
1671115432.95955586,60191047,1,-0.81,-0.43,204.82,-0.038829509168863297,-0.0559106171131134,-0.03290540352463722,0.03512623533606529,4.927948951721191,4.191162586212158,3.9547266960144043,0.07,-0.06,-0.17,271.07
1671115432.99961185,60231103,1,-0.81,-0.43,204.82,-0.03552979975938797,-0.0528305359184742,-0.031703341752290726,0.031051162630319595,4.927646636962891,4.192928314208984,3.955904960632324,0.07,-0.06,-0.17,271.07
1671115433.01956797,60251059,1,-0.81,-0.43,204.82,-0.03395472466945648,-0.051661670207977295,-0.031342558562755585,0.03394244983792305,4.927480220794678,4.1933183670043945,3.956244945526123,0.07,-0.06,-0.17,271.07
1671115433.03957987,60271071,1,-0.81,-0.43,204.82,-0.031270287930965424,-0.048739753663539886,-0.030515100806951523,0.038151100277900696,4.927873134613037,4.1950273513793945,3.9574716091156006,0.07,-0.06,-0.17,271.07
1671115433.07958603,60311077,1,-0.81,-0.43,204.82,-0.027712877839803696,-0.04539196938276291,-0.029253479093313217,0.04338898882269859,4.928227424621582,4.196858882904053,3.9586570262908936,0.07,-0.06,-0.17,271.07
1671115433.11957288,60351064,1,-0.81,-0.43,204.83,-0.024260230362415314,-0.04231595620512962,-0.02833518385887146,0.04147174581885338,4.928683280944824,4.198408126831055,3.959576368331909,0.07,-0.06,-0.17,271.07
1671115433.15953779,60391029,1,-0.8,-0.43,204.83,-0.01986713893711567,-0.038969215005636215,-0.027262326329946518,0.03607543185353279,4.929737091064453,4.2006425857543945,3.9607715606689453,0.07,-0.06,-0.17,271.07
1671115433.19955397,60431045,1,-0.8,-0.43,204.83,-0.017078600823879242,-0.037066660821437836,-0.026847800239920616,0.025162501260638237,4.930397033691406,4.20163631439209,3.960843324661255,0.07,-0.06,-0.17,271.07
1671115433.21957302,60451064,1,-0.8,-0.43,204.83,-0.016376594081521034,-0.03636874258518219,-0.02632208727300167,0.02220916748046875,4.93004035949707,4.201797962188721,3.9614386558532715,0.07,-0.06,-0.17,271.07
1671115433.23958993,60471081,1,-0.8,-0.43,204.83,-0.015341744758188725,-0.03509706258773804,-0.02534003183245659,0.026712188497185707,4.929732799530029,4.202812671661377,3.9630908966064453,0.07,-0.06,-0.17,271.07
1671115433.27957988,60511071,1,-0.8,-0.43,204.84,-0.013767305761575699,-0.03390790894627571,-0.023887867107987404,0.03878338634967804,4.92921257019043,4.2037200927734375,3.9648118019104004,0.07,-0.06,-0.17,271.07
1671115433.31960082,60551092,1,-0.8,-0.44,204.84,-0.012686528265476227,-0.032336268573999405,-0.02271190658211708,0.043937310576438904,4.928812503814697,4.204413890838623,3.9662203788757324,0.07,-0.06,-0.17,271.07
1671115433.35956693,60591058,1,-0.79,-0.44,204.85,-0.011707060970366001,-0.031000575050711632,-0.021542787551879883,0.043121833354234695,4.928518295288086,4.205353736877441,3.9679908752441406,0.07,-0.06,-0.17,271.07
1671115433.39955401,60631045,1,-0.79,-0.44,204.85,-0.011326240375638008,-0.030503015965223312,-0.020986812189221382,0.03729512169957161,4.928212642669678,4.205501079559326,3.9687438011169434,0.07,-0.06,-0.17,271.07
1671115433.41959596,60651087,1,-0.79,-0.44,204.86,-0.010810558684170246,-0.029738331213593483,-0.020381057634949684,0.03598589822649956,4.927961826324463,4.205671310424805,3.969492197036743,0.07,-0.06,-0.17,271.07
1671115433.43955183,60671043,1,-0.79,-0.44,204.86,-0.009765387512743473,-0.028633644804358482,-0.019268495962023735,0.040636785328388214,4.927704811096191,4.206486701965332,3.971268892288208,0.07,-0.06,-0.17,271.07
1671115433.47958899,60711080,1,-0.79,-0.44,204.86,-0.0081721106544137,-0.027136027812957764,-0.018090786412358284,0.05153944715857506,4.927317142486572,4.207236289978027,3.973416566848755,0.07,-0.06,-0.17,271.07
1671115433.51960588,60751097,1,-0.79,-0.44,204.86,-0.006588584743440151,-0.025777537375688553,-0.017226776108145714,0.056392885744571686,4.927030086517334,4.20778226852417,3.975277900695801,0.07,-0.06,-0.17,271.07
1671115433.55958700,60791078,1,-0.79,-0.44,204.86,-0.005073730368167162,-0.024456676095724106,-0.016125332564115524,0.05533798411488533,4.926846504211426,4.208526611328125,3.977431297302246,0.07,-0.06,-0.17,271.07
1671115433.59956384,60831055,1,-0.78,-0.44,204.86,-0.0036305508110672235,-0.023576434701681137,-0.015381786972284317,0.0463956743478775,4.926733016967773,4.208637714385986,3.9782626628875732,0.07,-0.06,-0.17,271.07
1671115433.61956191,60851053,1,-0.78,-0.45,204.87,-0.0031500416807830334,-0.023387892171740532,-0.01482018269598484,0.04365607723593712,4.926270961761475,4.208693027496338,3.9791600704193115,0.07,-0.06,-0.17,271.07
1671115433.63955688,60871048,1,-0.78,-0.45,204.87,-0.0028953328728675842,-0.022722410038113594,-0.01382340770214796,0.04741482809185982,4.925473690032959,4.209201335906982,3.981142520904541,0.07,-0.06,-0.17,271.07
1671115433.67958188,60911073,1,-0.78,-0.45,204.87,-0.002492777071893215,-0.021409960463643074,-0.01255445834249258,0.05672613903880119,4.92438268661499,4.209576606750488,3.983351230621338,0.07,-0.06,-0.17,271.07
1671115433.71959400,60951085,1,-0.78,-0.45,204.88,-0.0023042960092425346,-0.02049327827990055,-0.011691386811435223,0.057890865951776505,4.9234299659729,4.209798812866211,3.9851558208465576,0.07,-0.06,-0.17,271.07
1671115433.75958586,60991077,1,-0.78,-0.45,204.89000000000001,-0.0019509131088852882,-0.01937621645629406,-0.010313384234905243,0.054240088909864426,4.92234468460083,4.210127830505371,3.9873194694519043,0.07,-0.06,-0.17,271.07
1671115433.79956579,61031057,1,-0.78,-0.46,204.89000000000001,-0.0015663562808185816,-0.018729308620095253,-0.009896451607346535,0.04589928314089775,4.921616554260254,4.2100043296813965,3.9884355068206787,0.07,-0.06,-0.17,271.07
1671115433.81959486,61051086,1,-0.77,-0.46,204.89000000000001,-0.0010204212740063667,-0.0179824810475111,-0.00927777960896492,0.04506170377135277,4.921231746673584,4.2101640701293945,3.9896163940429688,0.07,-0.06,-0.17,271.07
1671115433.83962202,61071113,1,-0.77,-0.46,204.89000000000001,-0.00045627474901266396,-0.016698624938726425,-0.008255899883806705,0.052018195390701294,4.92055082321167,4.2107977867126465,3.992034912109375,0.07,-0.06,-0.17,271.07
1671115433.87955880,61111050,1,-0.77,-0.46,204.9,0.00015584693755954504,-0.015223364345729351,-0.006628698669373989,0.06826923042535782,4.919656753540039,4.211446762084961,3.9949491024017334,0.07,-0.06,-0.17,271.07
1671115433.91958380,61151075,1,-0.77,-0.47000000000000003,204.9,0.0014095461228862405,-0.013674947433173656,-0.00522668706253171,0.07486824691295624,4.918918609619141,4.21196174621582,3.9974286556243896,0.07,-0.06,-0.18,271.07
1671115433.95958495,61191076,1,-0.76,-0.47000000000000003,204.91,0.0023026359267532825,-0.012353005819022655,-0.004015831742435694,0.07324270904064178,4.918124675750732,4.212618350982666,4.000278472900391,0.07,-0.06,-0.18,271.07
1671115433.99961495,61231106,1,-0.76,-0.47000000000000003,204.92000000000002,0.0024898031260818243,-0.011549035087227821,-0.0033367362339049578,0.06427356600761414,4.917663097381592,4.2128448486328125,4.001810550689697,0.07,-0.06,-0.18,271.07
1671115434.01958585,61251077,1,-0.76,-0.47000000000000003,204.92000000000002,0.0030917376279830933,-0.011045074090361595,-0.0028338716365396976,0.05942355468869209,4.9174933433532715,4.212969779968262,4.002495765686035,0.07,-0.06,-0.18,271.07
1671115434.03957582,61271067,1,-0.76,-0.47000000000000003,204.93,0.004529930185526609,-0.010272395797073841,-0.0024079412687569857,0.05640541389584541,4.917164325714111,4.213405609130859,4.003861427307129,0.07,-0.06,-0.18,271.07
1671115434.07956982,61311061,1,-0.76,-0.48,204.94,0.006921757012605667,-0.008951621130108833,-0.0018878933042287827,0.05065068230032921,4.916883945465088,4.213869571685791,4.005444526672363,0.07,-0.06,-0.18,271.07
1671115434.11955881,61351050,1,-0.75,-0.48,204.94,0.008771143853664398,-0.008209234103560448,-0.0007016802555881441,0.043105658143758774,4.916792869567871,4.2142205238342285,4.006768226623535,0.07,-0.06,-0.18,271.07
1671115434.15956497,61391056,1,-0.75,-0.48,204.95000000000002,0.010574632324278355,-0.007422858849167824,-0.00011250582610955462,0.03531878814101219,4.916772842407227,4.214615821838379,4.008054733276367,0.07,-0.06,-0.18,271.07
1671115434.19954085,61431032,1,-0.75,-0.48,204.95000000000002,0.011763676069676876,-0.006750368978828192,-9.424838935956359e-05,0.021398145705461502,4.916992664337158,4.214718818664551,4.008246421813965,0.07,-0.06,-0.18,271.07
1671115434.21956491,61451056,1,-0.75,-0.48,204.96,0.011637382209300995,-0.006747150328010321,0.00024773116456344724,0.016966771334409714,4.9164042472839355,4.214818954467773,4.008986473083496,0.07,-0.06,-0.18,271.07
1671115434.23958802,61471079,1,-0.75,-0.48,204.96,0.011476881802082062,-0.006103907246142626,0.001010986976325512,0.019496824592351913,4.915078639984131,4.215122699737549,4.0103912353515625,0.07,-0.06,-0.18,271.07
1671115434.27953100,61511022,1,-0.75,-0.48,204.97,0.01134852971881628,-0.00549125112593174,0.002138671698048711,0.028988441452383995,4.9134521484375,4.215420246124268,4.012054920196533,0.07,-0.06,-0.18,271.07
1671115434.31955481,61551046,1,-0.75,-0.49,204.98000000000002,0.011295955628156662,-0.005209220107644796,0.0030311166774481535,0.03356240317225456,4.912047863006592,4.2156171798706055,4.013449192047119,0.07,-0.06,-0.18,271.07
1671115434.35953999,61591031,1,-0.75,-0.49,204.99,0.011077262461185455,-0.004510735161602497,0.003643932519480586,0.03411431238055229,4.910322666168213,4.215795993804932,4.014816761016846,0.07,-0.06,-0.18,271.07
1671115434.39958596,61631077,1,-0.75,-0.49,205.0,0.011494317092001438,-0.003948250785470009,0.0039654504507780075,0.026122260838747025,4.909337997436523,4.215789318084717,4.015207290649414,0.07,-0.06,-0.18,271.07
1671115434.41954303,61651034,1,-0.74,-0.49,205.0,0.011401893571019173,-0.003613413078710437,0.0045383949764072895,0.022764910012483597,4.908517360687256,4.216078281402588,4.015712738037109,0.07,-0.06,-0.18,271.07
1671115434.43959093,61671082,1,-0.74,-0.5,205.0,0.010659133084118366,-0.002303606830537319,0.004881587345153093,0.022346992045640945,4.906746864318848,4.216690540313721,4.0166015625,0.07,-0.06,-0.18,271.07
1671115434.47959280,61711084,1,-0.74,-0.5,205.01,0.009830351918935776,-0.0013651872286573052,0.005857182200998068,0.023960204795002937,4.904457092285156,4.2174906730651855,4.017626762390137,0.07,-0.06,-0.18,271.07
1671115434.51953101,61751022,1,-0.74,-0.5,205.01,0.009335634298622608,-0.0003436445549596101,0.006781769450753927,0.022795405238866806,4.902407646179199,4.21819543838501,4.018472194671631,0.07,-0.06,-0.18,271.07
1671115434.55955887,61791050,1,-0.74,-0.5,205.02,0.00877367053180933,0.000811699079349637,0.007453811354935169,0.02074332721531391,4.899904251098633,4.218975067138672,4.019262313842773,0.07,-0.06,-0.18,271.07
1671115434.59957480,61831066,1,-0.74,-0.51,205.03,0.008108118548989296,0.0013657158706337214,0.00785390567034483,0.014430264011025429,4.898342609405518,4.219468116760254,4.01950216293335,0.07,-0.06,-0.18,271.07
1671115434.61957002,61851061,1,-0.74,-0.51,205.03,0.008046895265579224,0.0013041524216532707,0.007934808731079102,0.012105939909815788,4.897375583648682,4.219308853149414,4.019984245300293,0.07,-0.06,-0.18,271.07
1671115434.63958883,61871080,1,-0.73,-0.51,205.04,0.007655467372387648,0.001112109748646617,0.008448055945336819,0.013541520573198795,4.895394802093506,4.21895694732666,4.020749568939209,0.07,-0.06,-0.18,271.07
1671115434.67960787,61911099,1,-0.73,-0.51,205.04,0.007268994580954313,0.00042478585965000093,0.009333604015409946,0.018424008041620255,4.892787456512451,4.218421459197998,4.021728992462158,0.07,-0.06,-0.18,271.07
1671115434.71955085,61951042,1,-0.73,-0.51,205.05,0.007291747722774744,-0.0002733914298005402,0.010013925842940807,0.020624466240406036,4.890489101409912,4.2178425788879395,4.022589206695557,0.07,-0.06,-0.18,271.07
1671115434.75955987,61991051,1,-0.73,-0.52,205.05,0.007061880547553301,-0.0014376338804140687,0.010728481225669384,0.021269984543323517,4.88773250579834,4.217006206512451,4.023387908935547,0.07,-0.06,-0.18,271.07
1671115434.79956198,62031053,1,-0.73,-0.52,205.05,0.0055035753175616264,-0.0018989198142662644,0.010691173374652863,0.01646764762699604,4.886017799377441,4.216325759887695,4.023717880249023,0.07,-0.06,-0.18,271.07
1671115434.81958485,62051076,1,-0.73,-0.52,205.06,0.004668234381824732,-0.0037766469176858664,0.011326014995574951,0.015372822992503643,4.884871482849121,4.216043472290039,4.024202823638916,0.07,-0.06,-0.18,271.07
1671115434.83959293,62071084,1,-0.72,-0.52,205.07,0.0068643055856227875,-0.0022868879605084658,0.012148581445217133,0.017176223918795586,4.882641792297363,4.2155256271362305,4.024931907653809,0.07,-0.06,-0.18,271.07
1671115434.87957287,62111064,1,-0.72,-0.52,205.09,0.0032821984495967627,-0.003717296989634633,0.012040948495268822,0.021187029778957367,4.879666328430176,4.214751720428467,4.025991439819336,0.07,-0.06,-0.18,271.07
1671115434.91959786,62151089,1,-0.72,-0.52,205.1,0.0059696976095438,-0.003002732992172241,0.013896600343286991,0.02537050098180771,4.877010822296143,4.2138848304748535,4.0269775390625,0.07,-0.06,-0.18,271.07
1671115434.95955300,62191044,1,-0.71,-0.53,205.09,0.0037508748937398195,-0.005819050129503012,0.014336210675537586,0.026371311396360397,4.873880386352539,4.212804794311523,4.028004169464111,0.07,-0.06,-0.18,271.07
1671115434.99956083,62231052,1,-0.71,-0.53,205.07,0.004059687256813049,-0.003198276273906231,0.014554135501384735,0.024422060698270798,4.871887683868408,4.2119245529174805,4.028723239898682,0.07,-0.06,-0.18,271.07
1671115435.01960397,62251095,1,-0.71,-0.54,205.07,0.002273133723065257,-0.0045288726687431335,0.013827666640281677,0.02352917566895485,4.870683193206787,4.211755752563477,4.029426574707031,0.07,-0.06,-0.18,271.07
1671115435.03955793,62271049,1,-0.71,-0.54,205.06,0.0016618403606116772,-0.004905319772660732,0.015134158544242382,0.02788778394460678,4.868340969085693,4.211450576782227,4.030522346496582,0.07,-0.06,-0.18,271.07
1671115435.07960391,62311095,1,-0.7000000000000001,-0.54,205.05,6.49426510790363e-05,-0.004271683283150196,0.015820998698472977,0.034320466220378876,4.865149021148682,4.2109527587890625,4.031782150268555,0.07,-0.06,-0.18,271.07
1671115435.11959100,62351082,1,-0.7000000000000001,-0.54,205.07,0.0011370201827958226,-0.00587008660659194,0.015376724302768707,0.032982293516397476,4.862278461456299,4.210363864898682,4.032791614532471,0.07,-0.06,-0.18,271.07
1671115435.15958500,62391076,1,-0.7000000000000001,-0.55,205.09,-0.0014753012219443917,-0.0033658682368695736,0.016103876754641533,0.03068670444190502,4.859003067016602,4.209691524505615,4.033565521240234,0.07,-0.06,-0.18,271.07
1671115435.19955683,62431048,1,-0.7000000000000001,-0.55,205.11,-0.003050875151529908,-0.006873453967273235,0.016650300472974777,0.02074982412159443,4.856705188751221,4.20911979675293,4.033676624298096,0.07,-0.06,-0.18,271.07
1671115435.21959591,62451087,1,-0.7000000000000001,-0.55,205.11,0.0029934868216514587,-0.009361491538584232,0.015969492495059967,0.01548086293041706,4.855655193328857,4.2090582847595215,4.034081935882568,0.07,-0.06,-0.18,271.07
1671115435.23955894,62471050,1,-0.7000000000000001,-0.55,205.09,0.006359648425132036,-0.005686341784894466,0.01581531949341297,0.013401785865426064,4.853809833526611,4.209051609039307,4.034569263458252,0.07,-0.06,-0.18,271.07
1671115435.27959991,62511091,1,-0.7000000000000001,-0.55,205.06,-0.00881679356098175,0.006847674958407879,0.01742757298052311,0.012954617850482464,4.851104736328125,4.209349155426025,4.0350117683410645,0.07,-0.06,-0.17,271.07
1671115435.31958890,62551080,1,-0.7000000000000001,-0.55,205.03,0.0111113665625453,-0.01783492974936962,0.019274676218628883,0.009794456884264946,4.8487677574157715,4.209207534790039,4.035276889801025,0.07,-0.06,-0.17,271.07
1671115435.35959291,62591084,1,-0.72,-0.55,205.03,-0.005132032558321953,0.01016585249453783,0.02022401988506317,0.007261217571794987,4.846355438232422,4.209132671356201,4.0353827476501465,0.07,-0.06,-0.17,271.07
1671115435.39958596,62631077,1,-0.71,-0.55,205.05,0.002017437480390072,-0.020639978349208832,0.019175805151462555,0.002170583698898554,4.844413757324219,4.209113121032715,4.03545618057251,0.07,-0.06,-0.17,271.07
1671115435.41959500,62651086,1,-0.71,-0.54,205.06,0.006970733869820833,-0.01001408975571394,0.017490271478891373,-0.0008823928073979914,4.8434319496154785,4.208603382110596,4.035694122314453,0.07,-0.06,-0.17,271.07
1671115435.43953085,62671022,1,-0.71,-0.55,205.07,-0.0034877571742981672,0.013997764326632023,0.015643417835235596,-0.0031243814155459404,4.841418743133545,4.2083024978637695,4.035787105560303,0.07,-0.06,-0.17,271.07
1671115435.47955799,62711049,1,-0.6900000000000001,-0.55,205.08,-0.006120711099356413,-0.01640150137245655,0.017589876428246498,-0.002185664139688015,4.838272571563721,4.208047389984131,4.035711765289307,0.07,-0.06,-0.17,271.07
1671115435.51959085,62751082,1,-0.6900000000000001,-0.55,205.04,0.002044311724603176,0.005363198928534985,0.019527513533830643,-0.004172918852418661,4.835937976837158,4.206820487976074,4.035569190979004,0.07,-0.06,-0.17,271.07
1671115435.55958891,62791080,1,-0.68,-0.56,205.01,-0.00584035599604249,-0.010565430857241154,0.022111332044005394,-0.003532631555572152,4.833003997802734,4.206523418426514,4.034956455230713,0.07,-0.06,-0.17,271.07
1671115435.59959698,62831088,1,-0.71,-0.56,204.93,0.0018901933217421174,-0.00942486897110939,0.021113889291882515,-0.011550595983862877,4.8311944007873535,4.205103397369385,4.034188270568848,0.07,-0.06,-0.17,271.07
1671115435.61956501,62851056,1,-0.7000000000000001,-0.55,204.93,0.0009736675419844687,0.014302579686045647,0.01901589147746563,-0.01645461842417717,4.8301472663879395,4.205286026000977,4.034353256225586,0.07,-0.06,-0.17,271.07
1671115435.63957596,62871067,1,-0.67,-0.56,204.94,-0.007287032902240753,0.004235748201608658,0.02079421654343605,-0.01453104056417942,4.8279643058776855,4.205702304840088,4.034265041351318,0.07,-0.06,-0.17,271.07
1671115435.67956591,62911057,1,-0.67,-0.56,204.91,-0.0008633898105472326,-0.01601357012987137,0.022236403077840805,-0.011959430761635303,4.824769496917725,4.205182075500488,4.033810138702393,0.07,-0.06,-0.17,271.07
1671115435.71956301,62951054,1,-0.67,-0.56,204.94,-0.001691025448963046,0.004462354816496372,0.01974528655409813,-0.017225103452801704,4.822490215301514,4.205451965332031,4.033194541931152,0.07,-0.06,-0.17,271.07
1671115435.75957680,62991068,1,-0.67,-0.56,204.92000000000002,-0.012657866813242435,-0.022207362577319145,0.02052982710301876,-0.017256520688533783,4.819082736968994,4.204807758331299,4.032093524932861,0.07,-0.06,-0.17,271.07
1671115435.79958391,63031075,1,-0.68,-0.5700000000000001,204.9,0.007392852567136288,0.00019073113799095154,0.019993014633655548,-0.022936858236789703,4.817485332489014,4.204669952392578,4.031061172485352,0.07,-0.06,-0.17,271.07
1671115435.81956196,63051053,1,-0.67,-0.5700000000000001,204.89000000000001,-0.017716920003294945,-0.01718953438103199,0.019025633111596107,-0.02545163966715336,4.816130638122559,4.204471588134766,4.031151294708252,0.07,-0.06,-0.17,271.07
1671115435.83962989,63071121,1,-0.68,-0.58,204.85,-0.02128761075437069,-0.017598789185285568,0.0206333938986063,-0.02245030179619789,4.81333589553833,4.204031944274902,4.030970096588135,0.07,-0.06,-0.17,271.07
1671115435.87957501,63111066,1,-0.67,-0.58,204.8,0.011189584620296955,0.00046855848631821573,0.0210263654589653,-0.018669743090867996,4.810169219970703,4.2036452293396,4.030291557312012,0.07,-0.06,-0.16,271.07
1671115435.91956186,63151053,1,-0.65,-0.58,204.78,-0.023083219304680824,-0.015489878132939339,0.023746086284518242,-0.01812557503581047,4.807011127471924,4.203044414520264,4.029432773590088,0.07,-0.06,-0.16,271.07
1671115435.95955896,63191050,1,-0.66,-0.58,204.77,0.015726109966635704,-0.012539156712591648,0.0223024170845747,-0.02018914371728897,4.803582191467285,4.20225191116333,4.028165817260742,0.07,-0.06,-0.16,271.07
1671115435.99959087,63231082,1,-0.67,-0.58,204.77,-0.028218192979693413,-0.007209093309938908,0.02002316527068615,-0.025461530312895775,4.801372528076172,4.201533317565918,4.0272040367126465,0.07,-0.06,-0.16,271.07
1671115436.01953483,63251026,1,-0.66,-0.59,204.78,-0.01625034213066101,-0.00684734433889389,0.020594174042344093,-0.024377014487981796,4.80002498626709,4.201709747314453,4.027475833892822,0.07,-0.06,-0.16,271.07
1671115436.03960085,63271092,1,-0.66,-0.58,204.78,0.013034410774707794,-0.01775670237839222,0.02036130800843239,-0.020205846056342125,4.798412799835205,4.20205545425415,4.027590751647949,0.07,-0.06,-0.16,271.07
1671115436.07955980,63311051,1,-0.66,-0.5700000000000001,204.77,-0.02107676863670349,-0.00523605290800333,0.020286057144403458,-0.011407447047531605,4.796447277069092,4.202081203460693,4.027244567871094,0.07,-0.06,-0.16,271.07
1671115436.11953497,63351026,1,-0.64,-0.58,204.73000000000002,-0.002008561510592699,-0.019009359180927277,0.020044442266225815,-0.011432986706495285,4.793853759765625,4.202610492706299,4.02666711807251,0.07,-0.06,-0.16,271.07
1671115436.15956187,63391053,1,-0.66,-0.59,204.68,-0.00629062345251441,-0.013169139623641968,0.022310953587293625,-0.00929424911737442,4.792102813720703,4.202200412750244,4.025659084320068,0.07,-0.06,-0.16,271.07
1671115436.19957185,63431063,1,-0.64,-0.59,204.65,-0.015607321634888649,-0.010913465172052383,0.019641367718577385,-0.016656944528222084,4.790074348449707,4.20269250869751,4.0247883796691895,0.07,-0.06,-0.16,271.07
1671115436.21956587,63451057,1,-0.65,-0.59,204.65,0.004090700764209032,-0.04501088708639145,0.021717634052038193,-0.01582418940961361,4.789422035217285,4.202308654785156,4.024937629699707,0.07,-0.06,-0.16,271.07
1671115436.23959088,63471082,1,-0.65,-0.59,204.63,0.005724854301661253,-0.02622152864933014,0.019604399800300598,-0.016324114054441452,4.788581848144531,4.201900005340576,4.024879455566406,0.07,-0.06,-0.16,271.07
1671115436.27958584,63511077,1,-0.63,-0.59,204.66,-0.018882224336266518,0.0036709937267005444,0.020496433600783348,-0.011723971925675869,4.7869157791137695,4.20254373550415,4.024393081665039,0.07,-0.06,-0.16,271.07
1671115436.31958389,63551075,1,-0.65,-0.6,204.64000000000001,0.007553089875727892,-0.04696246236562729,0.01852472685277462,-0.015517578460276127,4.785604476928711,4.201610565185547,4.023789405822754,0.07,-0.06,-0.16,271.07
1671115436.35954094,63591032,1,-0.65,-0.6,204.64000000000001,-0.012044482864439487,0.009219975210726261,0.020827896893024445,-0.013874709606170654,4.784451007843018,4.201640605926514,4.0227580070495605,0.07,-0.06,-0.16,271.07
1671115436.39955902,63631050,1,-0.65,-0.6,204.62,-0.0012572546256706119,-0.050248607993125916,0.01990535669028759,-0.019892212003469467,4.783421993255615,4.200838088989258,4.021807670593262,0.07,-0.06,-0.16,271.07
1671115436.41959500,63651086,1,-0.65,-0.61,204.58,0.003509780392050743,-0.0224765632301569,0.019124502316117287,-0.018924402073025703,4.782556056976318,4.2007880210876465,4.022782325744629,0.07,-0.06,-0.16,271.07
1671115436.43958998,63671081,1,-0.64,-0.6,204.55,0.0016040016198530793,0.005504971370100975,0.02187424525618553,-0.004354170989245176,4.780997276306152,4.202016353607178,4.024233818054199,0.07,-0.06,-0.16,271.07
1671115436.47958493,63711076,1,-0.63,-0.6,204.54,-0.012233830988407135,-0.042653750628232956,0.018282625824213028,0.02012578770518303,4.7785444259643555,4.203261375427246,4.026090145111084,0.07,-0.06,-0.16,271.07
1671115436.51961780,63751109,1,-0.63,-0.61,204.5,0.007432450074702501,-0.004814309533685446,0.022093331441283226,0.04136986657977104,4.776485443115234,4.203627586364746,4.027723789215088,0.07,-0.06,-0.16,271.07
1671115436.55956292,63791054,1,-0.63,-0.61,204.52,-0.012602291069924831,-0.03519681468605995,0.025180941447615623,0.0526559017598629,4.774480819702148,4.20488977432251,4.029525279998779,0.07,-0.06,-0.15,271.07
1671115436.59956002,63831051,1,-0.63,-0.61,204.5,-0.0009870618814602494,-0.015104301273822784,0.02855612151324749,0.058037638664245605,4.772543430328369,4.2047600746154785,4.031062602996826,0.07,-0.06,-0.15,271.07
1671115436.61960292,63851094,1,-0.63,-0.62,204.5,0.014404043555259705,-0.014182495884597301,0.02362249605357647,0.05921382084488869,4.771762371063232,4.2056803703308105,4.0334343910217285,0.07,-0.06,-0.15,271.07
1671115436.63955879,63871050,1,-0.63,-0.61,204.5,-0.0026634735986590385,-0.027649598196148872,0.026316916570067406,0.08102275431156158,4.7701311111450195,4.207403182983398,4.037436008453369,0.07,-0.06,-0.15,271.07
1671115436.67958879,63911080,1,-0.62,-0.62,204.49,-0.017038948833942413,-0.01584957167506218,0.030673379078507423,0.1273932158946991,4.766944408416748,4.209096908569336,4.042978286743164,0.07,-0.06,-0.15,271.07
1671115436.71959591,63951087,1,-0.62,-0.63,204.45000000000002,0.010053175501525402,-0.02538500353693962,0.03290901333093643,0.15210820734500885,4.765070915222168,4.210942268371582,4.047910690307617,0.07,-0.06,-0.15,271.07
1671115436.75958896,63991080,1,-0.62,-0.63,204.41,-0.025014227256178856,-0.016542768105864525,0.03467560186982155,0.15784886479377747,4.762214660644531,4.212739944458008,4.053211212158203,0.07,-0.06,-0.15,271.07
1671115436.79953790,64031029,1,-0.62,-0.63,204.4,0.014502646401524544,-0.026131104677915573,0.03821217268705368,0.1470455825328827,4.760496616363525,4.213928699493408,4.0564494132995605,0.07,-0.06,-0.15,271.07
1671115436.81960082,64051092,1,-0.62,-0.63,204.39000000000001,0.0026754424907267094,-0.03423452004790306,0.03824811056256294,0.14071641862392426,4.759555816650391,4.214274883270264,4.058742523193359,0.07,-0.06,-0.15,271.07
1671115436.83956194,64071053,1,-0.64,-0.63,204.38,-0.025403833016753197,-0.01398608461022377,0.0391390360891819,0.14261741936206818,4.757132530212402,4.2156782150268555,4.062446117401123,0.07,-0.06,-0.15,271.07
1671115436.87955284,64111044,1,-0.61,-0.64,204.38,0.0024851704947650433,-0.0250559002161026,0.035807669162750244,0.14351578056812286,4.753533840179443,4.217747688293457,4.067278861999512,0.07,-0.06,-0.15,271.07
1671115436.91959095,64151082,1,-0.62,-0.64,204.37,-0.014305781573057175,-0.021107057109475136,0.04365338385105133,0.14357006549835205,4.751123905181885,4.2184977531433105,4.071480751037598,0.07,-0.06,-0.15,271.07
1671115436.95959496,64191086,1,-0.59,-0.65,204.37,-0.013194521889090538,-0.01713358424603939,0.03830606862902641,0.12509335577487946,4.747313022613525,4.220711708068848,4.075814247131348,0.07,-0.06,-0.15,271.07
1671115436.99954200,64231033,1,-0.6,-0.65,204.33,-0.0015906704356893897,-0.03489856421947479,0.0416916199028492,0.1066390797495842,4.745481014251709,4.220609188079834,4.078510761260986,0.07,-0.06,-0.15,271.07
1671115437.01958799,64251079,1,-0.61,-0.65,204.31,-0.02295081503689289,0.002516331383958459,0.04143841192126274,0.09849680960178375,4.744138240814209,4.2216644287109375,4.080599308013916,0.07,-0.06,-0.15,271.07
1671115437.03957891,64271070,1,-0.59,-0.65,204.31,-0.022425087168812752,-0.007588030304759741,0.044935982674360275,0.10264896601438522,4.7415771484375,4.22428560256958,4.0837883949279785,0.07,-0.06,-0.15,271.07
1671115437.07955885,64311050,1,-0.61,-0.65,204.28,-0.001150085125118494,-0.0456690788269043,0.045340169221162796,0.10790280997753143,4.738475799560547,4.226327896118164,4.087940216064453,0.07,-0.06,-0.15,271.07
1671115437.11958790,64351079,1,-0.6,-0.65,204.27,-0.025714373216032982,-0.0017492129700258374,0.0439135804772377,0.10178476572036743,4.735503673553467,4.228640556335449,4.0915422439575195,0.07,-0.06,-0.15,271.07
1671115437.15958285,64391074,1,-0.6,-0.65,204.24,-0.007885724306106567,-0.038679540157318115,0.04570910334587097,0.0951354056596756,4.732089519500732,4.231144905090332,4.09514856338501,0.07,-0.06,-0.15,271.07
1671115437.19960690,64431098,1,-0.61,-0.65,204.24,-0.020433101803064346,-0.019713422283530235,0.0482439287006855,0.08323270827531815,4.729825496673584,4.23211669921875,4.097676753997803,0.07,-0.06,-0.15,271.07
1671115437.21955991,64451051,1,-0.6,-0.66,204.25,-0.026014119386672974,-0.01144601684063673,0.04585660621523857,0.075004942715168,4.728495121002197,4.23330545425415,4.0992207527160645,0.07,-0.06,-0.15,271.07
1671115437.23957086,64471062,1,-0.58,-0.67,204.22,-0.007617652416229248,-0.02409578673541546,0.04960392415523529,0.07738695293664932,4.72653865814209,4.235755920410156,4.101404190063477,0.07,-0.06,-0.15,271.07
1671115437.27953196,64511023,1,-0.62,-0.67,204.22,-0.02889951691031456,-0.02610822208225727,0.054616719484329224,0.07984604686498642,4.7238993644714355,4.238133430480957,4.1040239334106445,0.07,-0.06,-0.14,271.07
1671115437.31956601,64551057,1,-0.62,-0.67,204.19,-0.009312434121966362,-0.02750963345170021,0.0520249605178833,0.06597556173801422,4.721080303192139,4.240612030029297,4.106203079223633,0.07,-0.06,-0.14,271.07
1671115437.35959792,64591089,1,-0.58,-0.68,204.17000000000002,-0.01543636154383421,-0.01672835648059845,0.049209266901016235,0.05306952819228172,4.718336582183838,4.243208408355713,4.108071327209473,0.07,-0.06,-0.14,271.07
1671115437.39958501,64631076,1,-0.61,-0.68,204.13,-0.03001103550195694,-0.015604173764586449,0.06165426969528198,0.051575321704149246,4.71610164642334,4.244421482086182,4.109411716461182,0.07,-0.06,-0.14,271.07
1671115437.41956091,64651052,1,-0.6,-0.68,204.11,-0.015124628320336342,-0.020174037665128708,0.04478378966450691,0.02921161986887455,4.7150397300720215,4.245759010314941,4.110385417938232,0.07,-0.06,-0.14,271.07
1671115437.43960786,64671099,1,-0.59,-0.67,204.12,-0.02079121582210064,-0.030810276046395302,0.04251407831907272,0.024457689374685287,4.713480472564697,4.248371601104736,4.111318588256836,0.07,-0.06,-0.14,271.07
1671115437.47957683,64711068,1,-0.59,-0.66,204.08,-0.01671682670712471,-0.038009144365787506,0.05572884902358055,0.03517014905810356,4.711001396179199,4.251409530639648,4.112869739532471,0.07,-0.06,-0.14,271.07
1671115437.51957583,64751067,1,-0.6,-0.66,204.05,-0.010963765904307365,-0.027596326544880867,0.03773202374577522,0.0133562246337533,4.7088236808776855,4.254018783569336,4.1143107414245605,0.07,-0.06,-0.14,271.07
1671115437.55957198,64791063,1,-0.58,-0.67,204.02,-0.014096597209572792,-0.028992941603064537,0.05573265627026558,0.029791489243507385,4.706267833709717,4.2570672035217285,4.11536979675293,0.07,-0.06,-0.13,271.07
1671115437.59958792,64831079,1,-0.58,-0.67,203.97,-0.013199583627283573,-0.026895960792899132,0.060182422399520874,0.03023066744208336,4.704402446746826,4.25852108001709,4.116389274597168,0.07,-0.06,-0.13,271.07
1671115437.61957979,64851071,1,-0.58,-0.66,203.96,-0.033445172011852264,-0.029388273134827614,0.06310869008302689,0.03232128173112869,4.7034711837768555,4.259771347045898,4.117373466491699,0.07,-0.06,-0.13,271.07
1671115437.63955402,64871045,1,-0.59,-0.67,203.93,-0.021144147962331772,-0.02888653613626957,0.06638205796480179,0.03735785558819771,4.701948642730713,4.2625837326049805,4.1182451248168945,0.07,-0.06,-0.13,271.07
1671115437.67961097,64911102,1,-0.59,-0.68,203.89000000000001,-0.019653985276818275,-0.02973506599664688,0.041427165269851685,0.014842011965811253,4.699759006500244,4.2658305168151855,4.119205474853516,0.07,-0.06,-0.13,271.07
1671115437.71953583,64951027,1,-0.58,-0.71,203.84,-0.025095589458942413,-0.024914903566241264,0.06728404760360718,0.034823402762413025,4.697673797607422,4.268487453460693,4.119895935058594,0.07,-0.06,-0.13,271.07
1671115437.75956798,64991059,1,-0.5700000000000001,-0.71,203.8,-0.02528204768896103,-0.023785071447491646,0.04196044057607651,0.00549504067748785,4.695422649383545,4.2716474533081055,4.1200151443481445,0.07,-0.06,-0.12,271.07
1671115437.79958701,65031078,1,-0.55,-0.71,203.74,-0.021617524325847626,-0.03192619979381561,0.04939483106136322,0.004037758335471153,4.693673610687256,4.27315092086792,4.120122909545898,0.07,-0.06,-0.12,271.07
1671115437.81958389,65051075,1,-0.54,-0.73,203.73000000000002,-0.027182605117559433,-0.032013341784477234,0.06023402512073517,0.01423562876880169,4.692904472351074,4.274757385253906,4.121346473693848,0.07,-0.06,-0.12,271.07
1671115437.83959389,65071085,1,-0.56,-0.72,203.71,-0.026065485551953316,-0.029281621798872948,0.02296854928135872,-0.015896108001470566,4.69203519821167,4.278456687927246,4.122687816619873,0.07,-0.06,-0.12,271.07
1671115437.87959099,65111082,1,-0.58,-0.75,203.65,-0.03152207285165787,-0.04019274562597275,0.045863740146160126,0.024309629574418068,4.690462589263916,4.28283166885376,4.12449836730957,0.07,-0.06,-0.12,271.07
1671115437.91957283,65151064,1,-0.56,-0.8,203.61,-0.03593766689300537,-0.035646408796310425,0.042195599526166916,0.028075242415070534,4.688716411590576,4.286445617675781,4.125972270965576,0.07,-0.06,-0.12,271.07
1671115437.95953202,65191023,1,-0.5,-0.8200000000000001,203.54,-0.038897447288036346,-0.03182565048336983,0.04891994968056679,0.03780270367860794,4.686766624450684,4.290719032287598,4.126815319061279,0.07,-0.06,-0.11,271.07
1671115437.99956298,65231054,1,-0.5700000000000001,-0.88,203.5,-0.051197219640016556,-0.03759056702256203,0.05598858371376991,0.036060087382793427,4.6847920417785645,4.292755126953125,4.1269636154174805,0.07,-0.06,-0.11,271.07
1671115438.01956701,65251058,1,-0.51,-0.9,203.47,-0.041217025369405746,-0.047784529626369476,0.044462744146585464,0.01999809220433235,4.68400239944458,4.294470310211182,4.127486228942871,0.07,-0.06,-0.11,271.07
1671115438.03957486,65271066,1,-0.6,-0.9400000000000001,203.46,-0.04872724041342735,-0.04249577969312668,0.03460577875375748,0.00818786770105362,4.683389663696289,4.2984514236450195,4.127875328063965,0.07,-0.06,-0.11,271.07
1671115438.07957602,65311067,1,-0.63,-1.03,203.41,-0.05028713122010231,-0.04241309314966202,-0.01589858904480934,-0.0451502725481987,4.681893825531006,4.303228855133057,4.127816200256348,0.07,-0.06,-0.11,271.07
1671115438.11960387,65351095,1,-0.59,-1.07,203.35,-0.0388178825378418,-0.062401872128248215,0.05490509793162346,0.018897593021392822,4.680391311645508,4.307283401489258,4.126869201660156,0.07,-0.06,-0.11,271.07
1671115438.15956903,65391060,1,-0.59,-1.1500000000000001,203.32,-0.038679372519254684,-0.052439428865909576,-0.00957406871020794,-0.048006922006607056,4.679050922393799,4.311980724334717,4.1239705085754395,0.07,-0.06,-0.1,271.07
1671115438.19957089,65431062,1,-0.41000000000000003,-1.1500000000000001,203.26,-0.03471120446920395,-0.05263831093907356,-0.05293972045183182,-0.10681811720132828,4.677626132965088,4.314273357391357,4.119187355041504,0.07,-0.06,-0.1,271.07
1671115438.21959400,65451085,1,-0.41000000000000003,-1.16,203.23000000000002,-0.056580208241939545,-0.04348304122686386,-0.1292548030614853,-0.1894015669822693,4.676563262939453,4.31626033782959,4.117245197296143,0.07,-0.06,-0.1,271.07
1671115438.23956180,65471053,1,-0.39,-1.21,203.21,-0.05126028507947922,-0.05745714157819748,-0.13117055594921112,-0.19264312088489532,4.675312042236328,4.3207244873046875,4.114452838897705,0.07,-0.06,-0.1,271.07
1671115438.27958679,65511078,1,-0.35000000000000003,-1.29,203.16,-0.05151449888944626,-0.051132477819919586,-0.1877363622188568,-0.24495340883731842,4.67295503616333,4.326031684875488,4.1075239181518555,0.07,-0.06,-0.1,271.07
1671115438.31958389,65551075,1,-0.13,-1.29,203.11,-0.052031997591257095,-0.05753729119896889,-0.2222500890493393,-0.2779782712459564,4.6706671714782715,4.330411434173584,4.098455429077148,0.07,-0.06,-0.1,271.07
1671115438.35960197,65591093,1,-0.08,-1.4000000000000001,203.1,-0.060835689306259155,-0.048325665295124054,-0.2909177541732788,-0.3438720107078552,4.668070316314697,4.335526943206787,4.0865278244018555,0.07,-0.06,-0.09,271.07
1671115438.39955902,65631050,1,0.0,-1.49,203.05,-0.06559619307518005,-0.05671675503253937,-0.3232494592666626,-0.3880167007446289,4.666075229644775,4.341031551361084,4.072259426116943,0.07,-0.06,-0.09,271.07
1671115438.41960287,65651094,1,0.09,-1.55,203.04,-0.060055043548345566,-0.0658821389079094,-0.33312296867370605,-0.4069089889526367,4.665064811706543,4.342609882354736,4.065034866333008,0.07,-0.06,-0.09,271.07
1671115438.43956399,65671055,1,0.16,-1.61,203.02,-0.08092022687196732,-0.06377876549959183,-0.35461777448654175,-0.4364851415157318,4.664231300354004,4.346737384796143,4.056494235992432,0.07,-0.06,-0.09,271.07
1671115438.47955990,65711051,1,0.36,-1.84,202.99,-0.07525090128183365,-0.075045146048069,-0.3843845725059509,-0.4786253571510315,4.662115097045898,4.351081371307373,4.038821697235107,0.07,-0.06,-0.09,271.07
1671115438.51958299,65751074,1,0.5,-2.14,202.96,-0.07704833894968033,-0.09746220707893372,-0.403720885515213,-0.5079155564308167,4.659642219543457,4.354106903076172,4.019543170928955,0.07,-0.06,-0.09,271.07
1671115438.55960894,65791100,1,0.73,-2.47,202.96,-0.08303016424179077,-0.0913824513554573,-0.4427297115325928,-0.5456618666648865,4.6569437980651855,4.357641696929932,3.997999429702759,0.07,-0.06,-0.08,271.07
1671115438.59960294,65831094,1,0.93,-2.88,202.93,-0.10002628713846207,-0.11519695818424225,-0.46460339426994324,-0.5652900338172913,4.653625011444092,4.358123302459717,3.975897789001465,0.07,-0.06,-0.08,271.07
1671115438.61959600,65851087,1,0.9500000000000001,-3.12,202.91,-0.10272397845983505,-0.11841928958892822,-0.4829414486885071,-0.5847401022911072,4.651973247528076,4.358584880828857,3.9635701179504395,0.07,-0.06,-0.08,271.07
1671115438.63954782,65871039,1,0.93,-3.33,202.92000000000002,-0.11481653153896332,-0.13114188611507416,-0.5028584003448486,-0.6133286356925964,4.650632858276367,4.361406326293945,3.9490880966186523,0.07,-0.06,-0.08,271.07
1671115438.67955899,65911050,1,0.99,-3.74,202.89000000000001,-0.12711313366889954,-0.14885517954826355,-0.5382930636405945,-0.6704316735267639,4.6470232009887695,4.363149166107178,3.9212441444396973,0.07,-0.06,-0.08,271.07
1671115438.71955800,65951049,1,1.01,-4.0200000000000005,202.89000000000001,-0.13928167521953583,-0.15274132788181305,-0.5981985330581665,-0.7454996109008789,4.642803192138672,4.363377571105957,3.8925933837890625,0.07,-0.06,-0.08,271.07
1671115438.75959897,65991090,1,1.01,-4.07,202.9,-0.14961816370487213,-0.17061689496040344,-0.6234128475189209,-0.770940363407135,4.638252258300781,4.3638014793396,3.861483573913574,0.07,-0.06,-0.07,271.07
1671115438.79961681,66031108,1,0.79,-3.96,202.89000000000001,-0.16464495658874512,-0.1810879111289978,-0.6684478521347046,-0.8122138977050781,4.6326751708984375,4.361279487609863,3.830808639526367,0.07,-0.06,-0.07,271.07
1671115438.81955981,66051051,1,0.68,-3.83,202.9,-0.17493271827697754,-0.1834341287612915,-0.6834641695022583,-0.8220445513725281,4.62972354888916,4.360981464385986,3.815762519836426,0.07,-0.06,-0.07,271.07
1671115438.83957601,66071067,1,0.5,-3.72,202.91,-0.17974360287189484,-0.18069209158420563,-0.7274079918861389,-0.8579237461090088,4.627179145812988,4.363720893859863,3.799567461013794,0.07,-0.06,-0.07,271.07
1671115438.87953281,66111024,1,0.04,-3.5,202.92000000000002,-0.20723553001880646,-0.1946660578250885,-0.7701144814491272,-0.8831360340118408,4.620834827423096,4.364760875701904,3.7674529552459717,0.07,-0.06,-0.07,271.07
1671115438.91955900,66151050,1,-0.5700000000000001,-3.34,202.92000000000002,-0.21992070972919464,-0.20058287680149078,-0.787205159664154,-0.8848682045936584,4.613529205322266,4.364401817321777,3.7345285415649414,0.07,-0.06,-0.07,271.07
1671115438.95958900,66191080,1,-1.21,-3.2,202.94,-0.24392691254615784,-0.20024797320365906,-0.8049983978271484,-0.8872998356819153,4.60591459274292,4.365094184875488,3.7004706859588623,0.07,-0.06,-0.06,271.07
1671115438.99960184,66231093,1,-1.72,-2.94,202.93,-0.25864607095718384,-0.20396092534065247,-0.8019582629203796,-0.8787403106689453,4.597094535827637,4.3626627922058105,3.6663477420806885,0.07,-0.06,-0.06,271.07
1671115439.01956201,66251053,1,-1.76,-2.72,202.95000000000002,-0.2745876610279083,-0.18891122937202454,-0.8137622475624084,-0.8883352279663086,4.591509819030762,4.363185882568359,3.6498379707336426,0.07,-0.06,-0.06,271.07
1671115439.03959990,66271091,1,-1.94,-2.46,202.93,-0.25920912623405457,-0.20118427276611328,-0.7831307649612427,-0.8538118600845337,4.5854082107543945,4.3677167892456055,3.6325080394744873,0.07,-0.06,-0.06,271.07
1671115439.07957888,66311070,1,-1.8800000000000001,-1.86,202.93,-0.27663668990135193,-0.1833052784204483,-0.8127599954605103,-0.8751939535140991,4.5732741355896,4.371399879455566,3.597550630569458,0.07,-0.06,-0.06,271.07
1671115439.11953092,66351022,1,-1.85,-1.27,202.94,-0.29186856746673584,-0.17546957731246948,-0.8350078463554382,-0.8954128623008728,4.561002254486084,4.37432336807251,3.562666177749634,0.07,-0.06,-0.06,271.07
1671115439.15955782,66391049,1,-1.6400000000000001,-0.73,202.94,-0.29471126198768616,-0.16923470795154572,-0.7899680137634277,-0.8459174036979675,4.548147201538086,4.379138469696045,3.5259573459625244,0.07,-0.06,-0.05,271.07
1671115439.19958687,66431078,1,-1.3900000000000001,-0.26,202.95000000000002,-0.29668211936950684,-0.15216666460037231,-0.8178689479827881,-0.8945029973983765,4.535524368286133,4.380406856536865,3.488175392150879,0.07,-0.06,-0.05,271.07
1671115439.21953082,66451022,1,-1.32,-0.08,202.95000000000002,-0.3005734980106354,-0.14207005500793457,-0.8218203186988831,-0.9077489376068115,4.528371810913086,4.381217002868652,3.4707536697387695,0.07,-0.06,-0.05,271.07
1671115439.23958397,66471075,1,-1.25,0.1,202.97,-0.3036316931247711,-0.13749095797538757,-0.8162397146224976,-0.9017892479896545,4.520397663116455,4.385551929473877,3.4532532691955566,0.07,-0.06,-0.05,271.07
1671115439.27960396,66511095,1,-1.08,0.35000000000000003,202.97,-0.2919442653656006,-0.12605111300945282,-0.8105593919754028,-0.897009015083313,4.505774974822998,4.390140056610107,3.416231870651245,0.07,-0.06,-0.05,271.07
1671115439.31958985,66551081,1,-1.09,0.5,203.0,-0.30148255825042725,-0.10734271258115768,-0.8035761117935181,-0.9168938398361206,4.491115570068359,4.393858909606934,3.37748646736145,0.07,-0.06,-0.05,271.07
1671115439.35955882,66591050,1,-1.59,0.72,179.85,-0.29339179396629333,-0.10370742529630661,-0.7857645750045776,-0.9165592193603516,4.47628116607666,4.399488925933838,3.3373892307281494,0.07,-0.06,-0.05,271.07
1671115439.39955592,66631047,1,-1.46,0.74,179.89000000000001,-0.283394455909729,-0.08414150029420853,-0.7916472554206848,-0.9620433449745178,4.462749004364014,4.401941776275635,3.2973086833953857,0.07,-0.06,-0.05,271.07
1671115439.41957188,66651063,1,-1.37,0.74,179.91,-0.27422967553138733,-0.09189902245998383,-0.7942740321159363,-0.9804829955101013,4.457214832305908,4.403770923614502,3.279613494873047,0.07,-0.06,-0.04,271.07
1671115439.43958592,66671077,1,-1.34,0.72,179.94,-0.26914581656455994,-0.07907135784626007,-0.8104531168937683,-1.0025556087493896,4.451947212219238,4.408804893493652,3.2603352069854736,0.07,-0.06,-0.04,271.07
1671115439.47959185,66711083,1,-1.01,0.67,180.01,-0.25244140625,-0.0759781002998352,-0.7699161767959595,-0.9682837128639221,4.4417009353637695,4.4147515296936035,3.2213327884674072,0.07,-0.06,-0.04,271.07
1671115439.51957488,66751066,1,-0.73,0.56,180.09,-0.24419265985488892,-0.06682667881250381,-0.7800271511077881,-0.9962714314460754,4.431910037994385,4.419856071472168,3.1818301677703857,0.07,-0.06,-0.04,271.07
1671115439.55953097,66791022,1,-0.39,0.45,180.17000000000002,-0.2301032543182373,-0.07239648699760437,-0.7551353573799133,-0.9756335020065308,4.422985076904297,4.4263014793396,3.140073299407959,0.07,-0.06,-0.04,271.07
1671115439.59955883,66831050,1,-0.19,0.25,180.26,-0.22610065340995789,-0.05987854301929474,-0.7899004220962524,-1.0370762348175049,4.414446830749512,4.429614543914795,3.0992767810821533,0.07,-0.06,-0.04,271.07
1671115439.61958098,66851072,1,-0.07,0.12,180.31,-0.21984094381332397,-0.05351892486214638,-0.7730852961540222,-1.028607726097107,4.411144256591797,4.4316205978393555,3.0813539028167725,0.07,-0.07,-0.04,271.07
1671115439.63959289,66871084,1,0.0,-0.03,180.37,-0.20969730615615845,-0.06249028071761131,-0.7481676340103149,-1.0014845132827759,4.40928840637207,4.436462879180908,3.0621845722198486,0.07,-0.07,-0.04,271.07
1671115439.67958689,66911078,1,0.03,-0.43,180.51,-0.21051092445850372,-0.04915561527013779,-0.7639747262001038,-1.0054346323013306,4.404129505157471,4.442163467407227,3.0235629081726074,0.07,-0.07,-0.04,271.07
1671115439.71960092,66951092,1,0.07,-0.8300000000000001,180.61,-0.20035313069820404,-0.05412496626377106,-0.7057322263717651,-0.9493424296379089,4.399245262145996,4.446753978729248,2.986219882965088,0.07,-0.07,-0.04,271.07
1671115439.75958896,66991080,1,0.08,-1.16,180.74,-0.19715236127376556,-0.05340871214866638,-0.6890028119087219,-0.9233814477920532,4.395097255706787,4.452104568481445,2.946371555328369,0.07,-0.07,-0.04,271.07
1671115439.79954982,67031041,1,0.04,-1.31,180.89000000000001,-0.188490629196167,-0.06573374569416046,-0.6642636060714722,-0.9102007746696472,4.390218734741211,4.454511642456055,2.909567356109619,0.07,-0.07,-0.04,271.07
1671115439.81954885,67051040,1,0.12,-1.31,180.96,-0.18986549973487854,-0.05441700667142868,-0.6207932233810425,-0.8692620992660522,4.386416912078857,4.455530643463135,2.894148349761963,0.07,-0.07,-0.04,271.07
1671115439.83956599,67071057,1,0.11,-1.24,181.04,-0.1820429116487503,-0.07213073968887329,-0.6548776626586914,-0.8984577059745789,4.382692813873291,4.458536624908447,2.87699556350708,0.07,-0.07,-0.04,271.07
1671115439.87958789,67111079,1,0.13,-1.11,181.16,-0.18581637740135193,-0.06525544077157974,-0.5710579752922058,-0.8025009036064148,4.3753509521484375,4.461470127105713,2.843933582305908,0.07,-0.07,-0.04,271.07
1671115439.91956782,67151059,1,0.07,-0.88,181.3,-0.1824750006198883,-0.06628953665494919,-0.5290898680686951,-0.768083393573761,4.368208885192871,4.463465690612793,2.8122966289520264,0.07,-0.07,-0.04,271.07
1671115439.95960188,67191093,1,0.09,-0.6,181.42000000000002,-0.18055903911590576,-0.07603618502616882,-0.49919503927230835,-0.734257698059082,4.361246109008789,4.465770244598389,2.7803001403808594,0.07,-0.07,-0.04,271.07
1671115439.99957395,67231065,1,0.17,-0.36,181.53,-0.17672549188137054,-0.07645764946937561,-0.46661701798439026,-0.7064066529273987,4.354247570037842,4.465841293334961,2.752045154571533,0.07,-0.07,-0.04,271.07
1671115440.01959300,67251084,1,0.1,-0.27,181.58,-0.1752437949180603,-0.07995518296957016,-0.4461260735988617,-0.6808624267578125,4.351023197174072,4.466602802276611,2.7415833473205566,0.07,-0.07,-0.04,271.07
1671115440.03954291,67271034,1,0.07,-0.21,181.62,-0.17507489025592804,-0.07812872529029846,-0.4034270644187927,-0.619989812374115,4.348139762878418,4.469181060791016,2.7301902770996094,0.07,-0.07,-0.04,271.07
1671115440.07955790,67311049,1,0.06,-0.1,181.76,-0.16122688353061676,-0.0826842188835144,-0.395992636680603,-0.5724092125892639,4.342177867889404,4.4715375900268555,2.7080419063568115,0.07,-0.07,-0.04,271.07
1671115440.11959100,67351082,1,0.09,-0.08,181.88,-0.15922632813453674,-0.07774928957223892,-0.3476943373680115,-0.5069200992584229,4.336511135101318,4.472973346710205,2.6873292922973633,0.07,-0.07,-0.04,271.07
1671115440.15957785,67391069,1,0.0,-0.11,181.99,-0.15806478261947632,-0.08106691390275955,-0.2922079563140869,-0.43646618723869324,4.331398010253906,4.474862098693848,2.6660263538360596,0.07,-0.07,-0.04,271.07
1671115440.19959998,67431091,1,-0.01,-0.1,182.11,-0.1381227821111679,-0.08555591851472855,-0.2947266399860382,-0.45454710721969604,4.326269626617432,4.474791049957275,2.6463377475738525,0.07,-0.07,-0.04,271.07
1671115440.21960783,67451099,1,0.0,-0.1,182.16,-0.14596104621887207,-0.08239270001649857,-0.26208949089050293,-0.4294544458389282,4.322661876678467,4.475776672363281,2.639293670654297,0.07,-0.07,-0.04,271.07
1671115440.23957300,67471064,1,0.04,-0.08,182.23,-0.1424700915813446,-0.07164065539836884,-0.2343028336763382,-0.4003406763076782,4.3183979988098145,4.479089260101318,2.6309828758239746,0.07,-0.07,-0.04,271.07
1671115440.27956295,67511054,1,0.0,-0.06,182.33,-0.13562007248401642,-0.08228376507759094,-0.22684651613235474,-0.3836263418197632,4.311110973358154,4.4825286865234375,2.6159579753875732,0.07,-0.07,-0.04,271.07
1671115440.31954885,67551040,1,0.02,0.0,182.44,-0.12871266901493073,-0.07913266867399216,-0.16353096067905426,-0.31934863328933716,4.304253578186035,4.485170841217041,2.602090835571289,0.07,-0.07,-0.04,271.07
1671115440.35961795,67591109,1,0.0,0.02,182.53,-0.12976786494255066,-0.0700930580496788,-0.17713357508182526,-0.3254864513874054,4.297364234924316,4.488618850708008,2.5877139568328857,0.07,-0.07,-0.04,271.07
1671115440.39958596,67631077,1,0.01,0.05,182.58,-0.11912568658590317,-0.07712455838918686,-0.1297503262758255,-0.2838954031467438,4.291260719299316,4.489650249481201,2.5753252506256104,0.07,-0.07,-0.04,271.07
1671115440.41956091,67651052,1,-0.02,0.04,182.62,-0.11721965670585632,-0.07373375445604324,-0.1273215413093567,-0.27862051129341125,4.288722515106201,4.491021156311035,2.572155475616455,0.07,-0.07,-0.04,271.07
1671115440.43956995,67671061,1,-0.06,0.03,182.66,-0.11351827532052994,-0.07556609809398651,-0.09155883640050888,-0.2266264408826828,4.286093711853027,4.494898796081543,2.5685644149780273,0.07,-0.07,-0.04,271.07
1671115440.47953296,67711024,1,-0.05,0.0,182.74,-0.10829339176416397,-0.07187644392251968,-0.09300217777490616,-0.19796307384967804,4.281419277191162,4.499256610870361,2.560304641723633,0.07,-0.07,-0.04,271.07
1671115440.51956582,67751057,1,0.0,-0.01,182.78,-0.09391842037439346,-0.0752461776137352,-0.07904686033725739,-0.18301407992839813,4.2771897315979,4.502782821655273,2.552328586578369,0.07,-0.07,-0.04,271.07
1671115440.55957198,67791063,1,-0.11,-0.05,182.83,-0.08880140632390976,-0.06909377872943878,-0.01944073662161827,-0.12299567461013794,4.273379802703857,4.507349014282227,2.543548345565796,0.07,-0.07,-0.04,271.07
1671115440.59959292,67831084,1,-0.11,-0.02,182.86,-0.0829102024435997,-0.06730727106332779,-0.0031137370970100164,-0.12623968720436096,4.270015716552734,4.509363651275635,2.5356860160827637,0.07,-0.07,-0.04,271.07
1671115440.61955786,67851049,1,-0.13,-0.02,182.87,-0.07520637661218643,-0.0747431293129921,-0.0036021245177835226,-0.13728871941566467,4.268102645874023,4.5111894607543945,2.5329651832580566,0.07,-0.07,-0.04,271.07
1671115440.63959384,67871085,1,-0.13,-0.01,182.89000000000001,-0.07456154376268387,-0.06499035656452179,-0.05450573191046715,-0.19811302423477173,4.266036033630371,4.51583194732666,2.5285286903381348,0.07,-0.07,-0.04,271.07
1671115440.67957687,67911068,1,-0.24,-0.04,182.91,-0.07206004112958908,-0.06358896940946579,0.017798040062189102,-0.14056822657585144,4.262542247772217,4.521426200866699,2.5210962295532227,0.07,-0.07,-0.04,271.07
1671115440.71953392,67951025,1,-0.28,-0.07,182.92000000000002,-0.060304127633571625,-0.05744790658354759,0.004128098953515291,-0.17017890512943268,4.259526252746582,4.526233673095703,2.514315605163574,0.07,-0.07,-0.04,271.07
1671115440.75955796,67991049,1,-0.34,-0.09,182.91,-0.05051076412200928,-0.04232604801654816,0.007513605523854494,-0.16692033410072327,4.256861686706543,4.532198905944824,2.505828619003296,0.07,-0.07,-0.04,271.07
1671115440.79959702,68031088,1,-0.4,-0.16,182.89000000000001,-0.04873104766011238,-0.05944892764091492,0.04653147608041763,-0.1460748016834259,4.254759311676025,4.535477161407471,2.4983084201812744,0.07,-0.07,-0.04,271.07
1671115440.81953001,68051021,1,-0.46,-0.14,182.89000000000001,-0.036396123468875885,-0.04246024414896965,0.022325899451971054,-0.17760471999645233,4.253198146820068,4.53757905960083,2.4966578483581543,0.07,-0.07,-0.04,271.07
1671115440.83958697,68071078,1,-0.56,-0.17,182.89000000000001,-0.041279587894678116,-0.05180255323648453,0.022890517488121986,-0.1779625415802002,4.251214981079102,4.5424885749816895,2.493283987045288,0.07,-0.07,-0.04,271.07
1671115440.87960696,68111098,1,-0.63,-0.14,182.87,-0.029072554782032967,-0.028627779334783554,0.04576398804783821,-0.1482873409986496,4.248266696929932,4.548661231994629,2.488044261932373,0.07,-0.07,-0.04,271.07
1671115440.91957283,68151064,1,-0.64,-0.12,182.84,-0.02545476146042347,-0.032894235104322433,0.04311200603842735,-0.1465071439743042,4.245742321014404,4.554044723510742,2.4835095405578613,0.07,-0.07,-0.04,271.07
1671115440.95957184,68191063,1,-0.76,-0.06,182.81,-0.02627132646739483,-0.033472370356321335,0.07447478175163269,-0.10197293758392334,4.243411064147949,4.56070613861084,2.4778504371643066,0.07,-0.07,-0.04,271.07
1671115440.99955797,68231049,1,-0.7000000000000001,0.0,182.79,-0.010756848379969597,-0.03169228509068489,0.0672796219587326,-0.10312420129776001,4.241817951202393,4.564760208129883,2.474130630493164,0.07,-0.07,-0.04,271.07
1671115441.01957798,68251069,1,-0.71,0.01,182.77,-0.01581813022494316,-0.017270075157284737,0.05545928329229355,-0.10990367084741592,4.240530490875244,4.567551136016846,2.4740302562713623,0.07,-0.07,-0.04,271.07
1671115441.03957295,68271064,1,-0.73,0.05,182.76,-0.010247982107102871,-0.01364720519632101,0.06478278338909149,-0.09179342538118362,4.238434314727783,4.573358058929443,2.4725210666656494,0.07,-0.07,-0.04,271.07
1671115441.07955694,68311048,1,-0.7000000000000001,0.09,182.73,-0.00489234970882535,-0.002906889421865344,0.08680065721273422,-0.048601847141981125,4.235648155212402,4.58112907409668,2.4710073471069336,0.07,-0.07,-0.04,271.07
1671115441.11959791,68351089,1,-0.67,0.11,182.70000000000002,-0.004524671006947756,-0.010883303359150887,0.07137077301740646,-0.047674231231212616,4.2333550453186035,4.588116645812988,2.4701128005981445,0.07,-0.07,-0.04,271.07
