timestamp,TimeUS,I,Status,GMS,GWk,NSats,HDop,Lat,Lng,Alt,Spd,GCrs,VZ,Yaw,U
1666872888.59899998,312860960,0,3,389706599,2233,14,0.81,42.688635399999995,-84.4915773,261.86,0.011180340312421322,280.30487060546875,-0.0020000000949949026,0.0,1
1666872888.79892397,313060884,0,3,389706799,2233,14,0.81,42.688635399999995,-84.4915774,261.86,0.004000000189989805,90.0,-0.03500000014901161,0.0,1
1666872888.97929788,313241258,0,3,389706999,2233,14,0.81,42.688635399999995,-84.4915774,261.86,0.006082762498408556,99.46231842041016,0.014000000432133675,0.0,1
1666872889.19900298,313460963,0,3,389707199,2233,14,0.81,42.6886355,-84.49157749999999,261.85,0.005099019967019558,191.3099365234375,-0.10500000417232513,0.0,1
1666872889.39896989,313660930,0,3,389707399,2233,14,0.81,42.6886355,-84.49157749999999,261.85,0.004472136031836271,206.56504821777344,0.024000000208616257,0.0,1
1666872889.59900093,313860961,0,3,389707599,2233,14,0.81,42.6886355,-84.49157749999999,261.85,0.014422205276787281,146.30992126464844,0.0020000000949949026,0.0,1
1666872889.79899907,314060959,0,3,389707799,2233,14,0.81,42.6886355,-84.4915776,261.85,0.017464250326156616,293.62939453125,0.023000001907348633,0.0,1
1666872889.99900198,314260962,0,3,389707999,2233,14,0.81,42.6886355,-84.4915776,261.86,0.006708203814923763,296.5650634765625,0.06800000369548798,0.0,1
1666872890.19901109,314460971,0,3,389708199,2233,14,0.81,42.6886356,-84.4915776,261.85,0.006403124425560236,128.65980529785156,-0.09600000083446503,0.0,1
1666872890.39893198,314660892,0,3,389708399,2233,14,0.81,42.6886356,-84.4915776,261.86,0.006403124425560236,128.65980529785156,-0.04100000113248825,0.0,1
1666872890.59897900,314860939,0,3,389708599,2233,14,0.81,42.6886356,-84.4915776,261.87,0.020000001415610313,90.0,-0.06700000166893005,0.0,1
1666872890.79899597,315060956,0,3,389708799,2233,14,0.81,42.6886356,-84.4915776,261.87,0.03649657592177391,80.53767395019531,-0.09200000762939453,0.0,1
1666872890.99896097,315260921,0,3,389708999,2233,14,0.81,42.6886356,-84.4915776,261.89,0.006082762498408556,9.462321281433105,0.003000000026077032,0.0,1
1666872891.19898486,315460945,0,3,389709199,2233,14,0.81,42.6886356,-84.49157749999999,261.9,0.012529964558780193,61.3895378112793,0.017000000923871994,0.0,1
1666872891.39910793,315661068,0,3,389709399,2233,14,0.81,42.6886356,-84.49157749999999,261.91,0.03337663784623146,81.38434600830078,0.003000000026077032,0.0,1
1666872891.57943106,315841391,0,3,389709599,2233,14,0.81,42.6886356,-84.49157749999999,261.9,0.013416407629847527,63.4349479675293,-0.09100000560283661,0.0,1
1666872891.79900599,316060966,0,3,389709799,2233,14,0.81,42.6886356,-84.49157749999999,261.93,0.025079872459173203,265.42608642578125,0.0560000017285347,0.0,1
1666872891.99901986,316260980,0,3,389709999,2233,14,0.81,42.6886356,-84.49157749999999,261.93,0.02284732088446617,66.80140686035156,-0.06800000369548798,0.0,1
1666872892.19901109,316460971,0,3,389710199,2233,14,0.81,42.6886356,-84.4915776,261.93,0.012083047069609165,245.55606079101562,-0.0690000057220459,0.0,1
1666872892.39894605,316660906,0,3,389710399,2233,14,0.81,42.6886355,-84.4915776,261.94,0.005000000353902578,126.8698959350586,0.02500000037252903,0.0,1
1666872892.59900308,316860963,0,3,389710599,2233,14,0.81,42.6886355,-84.4915776,261.94,0.013601470738649368,107.10272216796875,0.0,0.0,1
1666872892.79899597,317060956,0,3,389710799,2233,14,0.81,42.688635399999995,-84.4915776,261.94,0.03448187932372093,163.14158630371094,-0.07000000029802322,0.0,1
1666872892.99899602,317260956,0,3,389710999,2233,14,0.81,42.6886353,-84.4915776,261.95,0.007810249924659729,309.8055725097656,-0.02800000086426735,0.0,1
1666872893.19902086,317460981,0,3,389711199,2233,14,0.81,42.6886353,-84.4915776,261.94,0.013416407629847527,206.56504821777344,-0.055000003427267075,0.0,1
1666872893.39902902,317660989,0,3,389711399,2233,14,0.81,42.6886353,-84.4915777,261.94,0.014317821711301804,294.775146484375,-0.017000000923871994,0.0,1
1666872893.59898996,317860950,0,3,389711599,2233,14,0.81,42.6886352,-84.4915777,261.94,0.006708203814923763,116.5650405883789,-0.049000002443790436,0.0,1
1666872893.79902005,318060980,0,3,389711799,2233,14,0.81,42.6886352,-84.4915778,261.94,0.013892443850636482,30.256439208984375,-0.012000000104308128,0.0,1
1666872893.99901009,318260970,0,3,389711999,2233,14,0.81,42.6886352,-84.4915778,261.94,0.011045361869037151,5.194427967071533,-0.07400000095367432,0.0,1
1666872894.19894695,318460907,0,3,389712199,2233,14,0.81,42.6886352,-84.4915778,261.94,0.021931713446974754,133.1523895263672,-0.05900000408291817,0.0,1
1666872894.37940788,318641368,0,3,389712399,2233,14,0.81,42.6886351,-84.4915778,261.95,0.02607681043446064,122.47118377685547,-0.020000001415610313,0.0,1
1666872894.59902000,318860980,0,3,389712599,2233,14,0.81,42.688635,-84.4915777,261.95,0.04477722942829132,113.70263671875,-0.10200000554323196,0.0,1
1666872894.79903102,319060991,0,3,389712799,2233,14,0.81,42.6886349,-84.4915777,261.97,0.09126336127519608,145.26513671875,-0.28300002217292786,0.0,1
1666872894.99905491,319261015,0,3,389712999,2233,14,0.81,42.688634799999996,-84.4915776,262.02,0.06236986815929413,138.90049743652344,-0.2980000078678131,0.0,1
1666872895.19905400,319461014,0,3,389713199,2233,14,0.81,42.6886346,-84.4915774,262.09000000000003,0.16502425074577332,146.11732482910156,-0.4240000247955322,0.0,1
1666872895.39902091,319660981,0,3,389713399,2233,14,0.81,42.6886343,-84.4915773,262.17,0.14601370692253113,166.5347900390625,-0.49400001764297485,0.0,1
1666872895.59899998,319860960,0,3,389713599,2233,14,0.81,42.688634,-84.4915773,262.28000000000003,0.20507805049419403,185.8773956298828,-0.49500003457069397,0.0,1
1666872895.79899001,320060950,0,3,389713799,2233,14,0.81,42.688633599999996,-84.4915774,262.34000000000003,0.21380366384983063,197.41798400878906,-0.39900001883506775,0.0,1
1666872895.99901199,320260972,0,3,389713999,2233,14,0.81,42.6886332,-84.4915776,262.41,0.2008780837059021,215.27243041992188,-0.24300001561641693,0.0,1
1666872896.19892693,320460887,0,3,389714199,2233,14,0.81,42.688632899999995,-84.4915779,262.48,0.22520436346530914,216.5137176513672,-0.3570000231266022,0.0,1
1666872896.39899898,320660959,0,3,389714399,2233,14,0.81,42.6886325,-84.49157799999999,262.55,0.2224072962999344,163.2760772705078,-0.49000000953674316,0.0,1
1666872896.59902096,320860981,0,3,389714599,2233,14,0.81,42.6886322,-84.49157799999999,262.65,0.18964441120624542,191.2506866455078,-0.5750000476837158,0.0,1
1666872896.79900599,321060966,0,3,389714799,2233,14,0.81,42.688631799999996,-84.4915779,262.77,0.19242142140865326,149.03623962402344,-0.5800000429153442,0.0,1
1666872896.99902987,321260990,0,3,389714999,2233,14,0.81,42.6886315,-84.4915777,262.87,0.2213820368051529,152.85621643066406,-0.6530000567436218,0.0,1
1666872897.19901109,321460971,0,3,389715199,2233,14,0.81,42.688631199999996,-84.49157749999999,262.97,0.16762161254882812,136.20858764648438,-0.550000011920929,0.0,1
1666872897.39901400,321660974,0,3,389715399,2233,14,0.81,42.6886309,-84.4915773,263.08,0.13888484239578247,163.26123046875,-0.5220000147819519,0.0,1
1666872897.59903288,321860993,0,3,389715599,2233,14,0.81,42.688630599999996,-84.4915773,263.16,0.22688324749469757,174.9427490234375,-0.5690000057220459,0.0,1
1666872897.79903293,322060993,0,3,389715799,2233,14,0.81,42.6886302,-84.4915773,263.27,0.15867577493190765,188.33438110351562,-0.44200003147125244,0.0,1
1666872897.99906492,322261025,0,3,389715999,2233,14,0.81,42.688629999999996,-84.4915772,263.33,0.11098198592662811,155.5133056640625,-0.34200000762939453,0.0,1
1666872898.19892192,322460882,0,3,389716199,2233,14,0.81,42.6886297,-84.4915772,263.38,0.18406793475151062,181.55657958984375,-0.34300002455711365,0.0,1
1666872898.37930703,322641267,0,3,389716399,2233,14,0.81,42.688629399999996,-84.4915772,263.44,0.1373644918203354,184.17477416992188,-0.24700000882148743,0.0,1
1666872898.59904289,322861003,0,3,389716599,2233,14,0.81,42.6886291,-84.4915773,263.47,0.1661083996295929,177.92996215820312,-0.18800000846385956,0.0,1
1666872898.79900599,323060966,0,3,389716799,2233,14,0.81,42.6886288,-84.4915772,263.49,0.14500001072883606,173.26707458496094,-0.1380000114440918,0.0,1
1666872898.99902797,323260988,0,3,389716999,2233,14,0.81,42.6886285,-84.4915772,263.52,0.15101325511932373,179.24114990234375,-0.12800000607967377,0.0,1
1666872899.19901800,323460978,0,3,389717199,2233,14,0.81,42.6886284,-84.4915772,263.54,0.047518420964479446,8.471144676208496,-0.19100001454353333,0.0,1
1666872899.39902186,323660982,0,3,389717399,2233,14,0.81,42.6886286,-84.4915771,263.56,0.17977765202522278,20.854454040527344,-0.027000000700354576,0.0,1
1666872899.59901190,323860972,0,3,389717599,2233,14,0.81,42.6886292,-84.4915769,263.55,0.4542158246040344,10.914112091064453,0.0,0.0,1
1666872899.79899502,324060955,0,3,389717799,2233,14,0.81,42.6886302,-84.4915766,263.53000000000003,0.6676301956176758,12.016836166381836,0.04800000041723251,0.0,1
1666872900.01927304,324281233,0,3,389717999,2233,14,0.81,42.6886314,-84.49157629999999,263.51,0.7168800830841064,8.503101348876953,0.08800000697374344,0.0,1
1666872900.19897985,324460940,0,3,389718199,2233,14,0.81,42.6886326,-84.4915761,263.49,0.6733796000480652,9.574227333068848,0.0690000057220459,0.0,1
1666872900.39902186,324660982,0,3,389718399,2233,14,0.81,42.6886337,-84.49157579999999,263.47,0.6795446872711182,11.458751678466797,0.058000002056360245,0.0,1
1666872900.59904885,324861009,0,3,389718599,2233,14,0.81,42.6886349,-84.4915755,263.45,0.6750319004058838,11.27663803100586,0.06100000441074371,0.0,1
1666872900.79902387,325060984,0,3,389718799,2233,14,0.81,42.6886361,-84.49157509999999,263.43,0.6602098941802979,14.562456130981445,-0.012000000104308128,0.0,1
1666872900.99900603,325260966,0,3,389718999,2233,14,0.81,42.688637199999995,-84.4915748,263.42,0.6766048073768616,11.509220123291016,0.10500000417232513,0.0,1
1666872901.19901896,325460979,0,3,389719199,2233,14,0.81,42.688638399999995,-84.49157439999999,263.39,0.732902467250824,12.689916610717773,0.09000000357627869,0.0,1
1666872901.39894700,325660907,0,3,389719399,2233,14,0.81,42.688639699999996,-84.491574,263.36,0.7637722492218018,16.584278106689453,0.03800000250339508,0.0,1
1666872901.59903598,325860996,0,3,389719599,2233,14,0.81,42.688641,-84.4915735,263.36,0.7938671112060547,14.666418075561523,0.16100001335144043,0.0,1
1666872901.79898000,326060940,0,3,389719799,2233,14,0.81,42.6886425,-84.4915729,263.33,0.8543635010719299,19.7711124420166,-0.005000000353902578,0.0,1
1666872901.99895692,326260917,0,3,389719999,2233,14,0.81,42.688643899999995,-84.4915722,263.32,0.7972578406333923,15.570274353027344,0.07300000637769699,0.0,1
1666872902.19901586,326460976,0,3,389720199,2233,14,0.81,42.688645199999996,-84.4915718,263.32,0.7107250094413757,11.278312683105469,0.07900000363588333,0.0,1
1666872902.39901900,326660979,0,3,389720399,2233,14,0.81,42.6886465,-84.49157149999999,263.31,0.7283357977867126,6.939625263214111,-0.029000001028180122,0.0,1
1666872902.59904790,326861008,0,3,389720599,2233,14,0.81,42.688647599999996,-84.49157129999999,263.32,0.6143427491188049,5.979715824127197,-0.04800000041723251,0.0,1
1666872902.79901695,327060977,0,3,389720799,2233,14,0.81,42.688648699999995,-84.4915711,263.35,0.5410453081130981,4.983501434326172,-0.04000000283122063,0.0,1
1666872902.99901009,327260970,0,3,389720999,2233,14,0.81,42.6886496,-84.491571,263.35,0.48145824670791626,2.4998910427093506,-0.13700000941753387,0.0,1
1666872903.19898391,327460944,0,3,389721199,2233,14,0.81,42.6886503,-84.491571,263.39,0.36308127641677856,4.422911167144775,-0.11700000613927841,0.0,1
1666872903.39899206,327660952,0,3,389721399,2233,14,0.81,42.6886509,-84.4915709,263.42,0.3240756094455719,1.2376792430877686,-0.16300000250339508,0.0,1
1666872903.59896302,327860923,0,3,389721599,2233,14,0.81,42.6886514,-84.4915709,263.46,0.23248441517353058,3.6993191242218018,-0.242000013589859,0.0,1
1666872903.79900289,328060963,0,3,389721799,2233,14,0.81,42.6886517,-84.4915709,263.5,0.13318033516407013,10.381804466247559,-0.23600001633167267,0.0,1
1666872903.99902487,328260985,0,3,389721999,2233,14,0.81,42.688651899999996,-84.4915709,263.55,0.09208692610263824,357.51043701171875,-0.25200000405311584,0.0,1
1666872904.19905686,328461017,0,3,389722199,2233,14,0.81,42.688652,-84.49157079999999,263.6,0.02906888537108898,93.94517517089844,-0.2850000262260437,0.0,1
1666872904.39902091,328660981,0,3,389722399,2233,14,0.81,42.688651899999996,-84.4915709,263.66,0.08660831302404404,211.3041229248047,-0.22200001776218414,0.0,1
1666872904.59910202,328861062,0,3,389722599,2233,14,0.81,42.688651799999995,-84.491571,263.71,0.05703508108854294,177.9904327392578,-0.36100003123283386,0.0,1
1666872904.79901695,329060977,0,3,389722799,2233,14,0.81,42.6886516,-84.4915711,263.79,0.1526106297969818,204.38182067871094,-0.3330000042915344,0.0,1
1666872904.99900794,329260968,0,3,389722999,2233,14,0.81,42.6886513,-84.49157129999999,263.85,0.1452067494392395,216.31748962402344,-0.34200000762939453,0.0,1
1666872905.17936993,329441330,0,3,389723199,2233,14,0.81,42.6886511,-84.49157149999999,263.92,0.1569840908050537,214.09498596191406,-0.30000001192092896,0.0,1
1666872905.39895988,329660920,0,3,389723399,2233,14,0.81,42.6886508,-84.4915717,264.0,0.13551753759384155,205.8087158203125,-0.398000031709671,0.0,1
1666872905.59894204,329860902,0,3,389723599,2233,14,0.81,42.6886505,-84.4915719,264.08,0.18698664009571075,212.3302001953125,-0.35600000619888306,0.0,1
1666872905.79902506,330060985,0,3,389723799,2233,14,0.81,42.6886503,-84.4915721,264.13,0.16911831498146057,208.23193359375,-0.320000022649765,0.0,1
1666872906.01939487,330281355,0,3,389723999,2233,14,0.81,42.6886499,-84.4915724,264.19,0.27351418137550354,209.09530639648438,-0.21900001168251038,0.0,1
1666872906.19902706,330460987,0,3,389724199,2233,14,0.81,42.6886495,-84.49157269999999,264.23,0.2526756823062897,206.56504821777344,-0.18300001323223114,0.0,1
1666872906.39903307,330660993,0,3,389724399,2233,14,0.81,42.688649,-84.49157319999999,264.25,0.442730188369751,223.90182495117188,-0.10600000619888306,0.0,1
1666872906.57940388,330841364,0,3,389724599,2233,14,0.81,42.6886484,-84.4915742,264.27,0.612209141254425,231.6325225830078,-0.07300000637769699,0.0,1
1666872906.79904199,331061002,0,3,389724799,2233,14,0.81,42.6886477,-84.49157579999999,264.28000000000003,0.9494430422782898,243.67784118652344,0.04800000041723251,0.0,1
1666872906.99901795,331260978,0,3,389724999,2233,14,0.81,42.688646899999995,-84.4915783,264.27,1.2566885948181152,249.74813842773438,0.04500000178813934,0.0,1
1666872907.19892693,331460887,0,3,389725199,2233,14,0.81,42.6886461,-84.4915814,264.26,1.4813727140426636,250.10943603515625,0.08100000023841858,0.0,1
1666872907.39898396,331660944,0,3,389725399,2233,14,0.81,42.688645099999995,-84.491585,264.26,1.6659127473831177,248.59457397460938,0.11000000685453415,0.0,1
1666872907.59908390,331861044,0,3,389725599,2233,14,0.81,42.688644,-84.4915888,264.23,1.6927988529205322,248.22372436523438,0.10600000619888306,0.0,1
1666872907.79908586,332061046,0,3,389725799,2233,14,0.81,42.6886428,-84.4915927,264.21,1.7199280261993408,247.93878173828125,0.23500001430511475,0.0,1
1666872907.99899507,332260955,0,3,389725999,2233,14,0.81,42.6886416,-84.4915966,264.19,1.7788180112838745,247.8038330078125,0.21900001168251038,0.0,1
1666872908.19903302,332460993,0,3,389726199,2233,14,0.81,42.688640299999996,-84.49160049999999,264.18,1.7076654434204102,244.32028198242188,0.05000000074505806,0.0,1
1666872908.39899588,332660956,0,3,389726399,2233,14,0.81,42.6886389,-84.49160409999999,264.18,1.6302276849746704,240.65182495117188,0.08300000429153442,0.0,1
1666872908.59901690,332860977,0,3,389726599,2233,14,0.81,42.6886376,-84.49160739999999,264.17,1.4091132879257202,239.64991760253906,-0.14900000393390656,0.0,1
1666872908.79896998,333060930,0,3,389726799,2233,14,0.81,42.6886364,-84.4916102,264.19,1.2487967014312744,238.25723266601562,-0.1120000034570694,0.0,1
1666872908.99901009,333260970,0,3,389726999,2233,14,0.81,42.6886353,-84.49161269999999,264.18,1.0869301557540894,239.96743774414062,-0.06200000271201134,0.0,1
1666872909.19895792,333460918,0,3,389727199,2233,14,0.81,42.6886344,-84.4916152,264.2,1.1660155057907104,247.08531188964844,-0.15900000929832458,0.0,1
1666872909.39901996,333660980,0,3,389727399,2233,14,0.81,42.688633499999995,-84.491618,264.23,1.3333544731140137,244.45352172851562,-0.08400000631809235,0.0,1
1666872909.59901404,333860974,0,3,389727599,2233,14,0.81,42.688632399999996,-84.4916211,264.24,1.483911395072937,243.93572998046875,-0.11600000411272049,0.0,1
1666872909.79902101,334060981,0,3,389727799,2233,14,0.81,42.688631099999995,-84.4916246,264.27,1.652841567993164,244.67526245117188,-0.08700000494718552,0.0,1
1666872909.99900794,334260968,0,3,389727999,2233,14,0.81,42.688629899999995,-84.4916281,264.28000000000003,1.5567511320114136,243.4843292236328,-0.03200000151991844,0.0,1
1666872910.19900298,334460963,0,3,389728199,2233,14,0.81,42.6886286,-84.4916315,264.29,1.513676404953003,242.28378295898438,0.01900000125169754,0.0,1
1666872910.39895105,334660911,0,3,389728399,2233,14,0.81,42.6886274,-84.4916344,264.29,1.260515809059143,238.95828247070312,-0.10700000822544098,0.0,1
1666872910.59902000,334860980,0,3,389728599,2233,14,0.81,42.688626199999995,-84.4916368,264.31,1.076357364654541,234.10960388183594,-0.08100000023841858,0.0,1
1666872910.79895997,335060920,0,3,389728799,2233,14,0.81,42.688625099999996,-84.49163879999999,264.33,0.9234717488288879,228.16036987304688,-0.11100000888109207,0.0,1
1666872910.99901104,335260971,0,3,389728999,2233,14,0.81,42.6886241,-84.49164019999999,264.35,0.7489526271820068,220.559814453125,-0.11900000274181366,0.0,1
1666872911.19903493,335460995,0,3,389729199,2233,14,0.81,42.6886231,-84.49164119999999,264.39,0.5563973784446716,211.77615356445312,-0.07400000095367432,0.0,1
1666872911.39902902,335660989,0,3,389729399,2233,14,0.81,42.6886223,-84.4916418,264.4,0.43024763464927673,205.90994262695312,-0.08100000023841858,0.0,1
1666872911.59904194,335861002,0,3,389729599,2233,14,0.81,42.6886216,-84.49164209999999,264.43,0.36203455924987793,180.7913360595703,-0.10000000149011612,0.0,1
1666872911.79901385,336060974,0,3,389729799,2233,14,0.81,42.688621,-84.491642,264.47,0.3223491907119751,160.04725646972656,-0.00800000037997961,0.0,1
1666872911.99899197,336260952,0,3,389729999,2233,14,0.81,42.6886204,-84.4916418,264.47,0.3564000725746155,162.0225830078125,-0.024000000208616257,0.0,1
1666872912.19905591,336461016,0,3,389730199,2233,14,0.81,42.6886197,-84.4916417,264.46,0.5060632824897766,179.09420776367188,0.08100000023841858,0.0,1
1666872912.39906001,336661020,0,3,389730399,2233,14,0.81,42.6886186,-84.4916418,264.47,0.6354416012763977,186.7783203125,0.14800000190734863,0.0,1
1666872912.59901690,336860977,0,3,389730599,2233,14,0.81,42.6886173,-84.49164209999999,264.44,0.8293931484222412,189.5077667236328,0.1080000028014183,0.0,1
1666872912.79899192,337060952,0,3,389730799,2233,14,0.81,42.688615899999995,-84.4916425,264.42,0.7685655355453491,189.5113525390625,0.1210000067949295,0.0,1
1666872912.99907494,337261035,0,3,389730999,2233,14,0.81,42.6886146,-84.49164259999999,264.4,0.7273960709571838,178.1092071533203,0.1340000033378601,0.0,1
1666872913.19903588,337460996,0,3,389731199,2233,14,0.81,42.6886134,-84.4916425,264.38,0.5607718229293823,167.74822998046875,0.11900000274181366,0.0,1
1666872913.39900804,337660968,0,3,389731399,2233,14,0.81,42.6886126,-84.491642,264.36,0.43558812141418457,144.8140106201172,0.09000000357627869,0.0,1
1666872913.59909987,337861060,0,3,389731599,2233,14,0.81,42.6886121,-84.49164139999999,264.33,0.4119186997413635,124.61597442626953,0.05300000309944153,0.0,1
1666872913.79895496,338060915,0,3,389731799,2233,14,0.81,42.688611699999996,-84.4916404,264.34000000000003,0.4885949492454529,107.8786849975586,0.026000000536441803,0.0,1
1666872913.99908590,338261046,0,3,389731999,2233,14,0.81,42.6886116,-84.4916391,264.35,0.5957332253456116,95.490478515625,-0.03800000250339508,0.0,1
1666872914.19900203,338460962,0,3,389732199,2233,14,0.81,42.6886116,-84.49163759999999,264.37,0.6275134086608887,82.3993148803711,-0.007000000216066837,0.0,1
1666872914.39898205,338660942,0,3,389732399,2233,14,0.81,42.6886118,-84.4916361,264.38,0.6855669617652893,73.99720001220703,-0.1380000114440918,0.0,1
1666872914.59898186,338860942,0,3,389732599,2233,14,0.81,42.6886122,-84.49163449999999,264.41,0.6899804472923279,69.91046905517578,-0.05100000277161598,0.0,1
1666872914.79900002,339060960,0,3,389732799,2233,14,0.81,42.6886127,-84.491633,264.44,0.6798566579818726,64.37722778320312,-0.16100001335144043,0.0,1
1666872914.99901605,339260976,0,3,389732999,2233,14,0.81,42.6886132,-84.4916315,264.44,0.6871281266212463,66.68096923828125,-0.05300000309944153,0.0,1
1666872915.19899487,339460955,0,3,389733199,2233,14,0.81,42.6886137,-84.49163,264.45,0.6498368978500366,65.64360809326172,-0.055000003427267075,0.0,1
1666872915.39901590,339660976,0,3,389733399,2233,14,0.81,42.688614199999996,-84.4916286,264.47,0.5976796746253967,59.315731048583984,0.02500000037252903,0.0,1
1666872915.59903407,339860994,0,3,389733599,2233,14,0.81,42.688614699999995,-84.4916274,264.46,0.5722910165786743,59.08775329589844,0.020000001415610313,0.0,1
1666872915.79902697,340060987,0,3,389733799,2233,14,0.81,42.6886152,-84.4916262,264.47,0.5615381002426147,61.60940170288086,0.04700000211596489,0.0,1
1666872915.99897504,340260935,0,3,389733999,2233,14,0.81,42.6886157,-84.4916251,264.47,0.4990922212600708,63.58897018432617,-0.06400000303983688,0.0,1
1666872916.19897509,340460935,0,3,389734199,2233,14,0.81,42.688615999999996,-84.491624,264.48,0.4623872935771942,72.50552368164062,-0.12000000476837158,0.0,1
1666872916.39902091,340660981,0,3,389734399,2233,14,0.81,42.6886163,-84.49162299999999,264.49,0.43286606669425964,68.59185791015625,0.0560000017285347,0.0,1
1666872916.59906888,340861029,0,3,389734599,2233,14,0.81,42.688616499999995,-84.4916221,264.47,0.4354032874107361,78.0706787109375,-0.018000001087784767,0.0,1
1666872916.79902387,341060984,0,3,389734799,2233,14,0.81,42.688616599999996,-84.4916211,264.48,0.3876402974128723,82.14163208007812,0.030000001192092896,0.0,1
1666872916.99903107,341260991,0,3,389734999,2233,14,0.81,42.6886167,-84.4916202,264.47,0.38118892908096313,88.19599914550781,-0.01900000125169754,0.0,1
1666872917.19903588,341460996,0,3,389735199,2233,14,0.81,42.6886168,-84.49161939999999,264.49,0.33339768648147583,78.7574691772461,-0.07200000435113907,0.0,1
1666872917.39899492,341660955,0,3,389735399,2233,14,0.81,42.6886169,-84.49161869999999,264.5,0.26299241185188293,78.8182373046875,0.00800000037997961,0.0,1
1666872917.59900808,341860968,0,3,389735599,2233,14,0.81,42.688617099999995,-84.49161819999999,264.5,0.27244266867637634,42.768821716308594,-0.030000001192092896,0.0,1
1666872917.79903507,342060995,0,3,389735799,2233,14,0.81,42.6886175,-84.4916178,264.5,0.2636513113975525,35.739776611328125,0.06100000441074371,0.0,1
1666872918.01937509,342281335,0,3,389735999,2233,14,0.81,42.688618,-84.4916174,264.49,0.29656872153282166,25.355363845825195,-0.007000000216066837,0.0,1
1666872918.19902587,342460986,0,3,389736199,2233,14,0.81,42.688618399999996,-84.4916172,264.48,0.2840598523616791,25.21185874938965,0.036000002175569534,0.0,1
1666872918.39901090,342660971,0,3,389736399,2233,14,0.81,42.6886189,-84.49161699999999,264.48,0.2732270359992981,12.255864143371582,0.06300000101327896,0.0,1
1666872918.59903407,342860994,0,3,389736599,2233,14,0.81,42.6886194,-84.4916169,264.46,0.25330811738967896,17.934246063232422,0.03700000047683716,0.0,1
1666872918.77935386,343041314,0,3,389736799,2233,14,0.81,42.6886198,-84.4916167,264.45,0.23813652992248535,19.119726181030273,0.07600000500679016,0.0,1
1666872918.99902105,343260981,0,3,389736999,2233,14,0.81,42.6886201,-84.49161649999999,264.44,0.20408332347869873,30.96375274658203,-0.029000001028180122,0.0,1
1666872919.19900990,343460970,0,3,389737199,2233,14,0.81,42.6886204,-84.49161629999999,264.45,0.14590750634670258,34.67031478881836,-0.05400000140070915,0.0,1
1666872919.39900494,343660965,0,3,389737399,2233,14,0.81,42.6886206,-84.4916162,264.46,0.12067312002182007,34.875328063964844,-0.1469999998807907,0.0,1
1666872919.59894204,343860902,0,3,389737599,2233,14,0.81,42.688620799999995,-84.4916161,264.5,0.14187318086624146,21.501434326171875,-0.10200000554323196,0.0,1
1666872919.79903197,344060992,0,3,389737799,2233,14,0.81,42.688621,-84.4916161,264.51,0.1605895459651947,344.8387451171875,-0.1980000138282776,0.0,1
1666872919.99894500,344260905,0,3,389737999,2233,14,0.81,42.6886213,-84.4916162,264.55,0.2111516147851944,357.82867431640625,-0.24400001764297485,0.0,1
1666872920.19906902,344461029,0,3,389738199,2233,14,0.81,42.6886217,-84.4916164,264.6,0.2017250657081604,334.451171875,-0.18200001120567322,0.0,1
1666872920.39902401,344660984,0,3,389738399,2233,14,0.81,42.688621999999995,-84.4916167,264.65,0.21350644528865814,340.2920227050781,-0.26100000739097595,0.0,1
1666872920.59899998,344860960,0,3,389738599,2233,14,0.81,42.6886223,-84.4916169,264.7,0.20395343005657196,332.55548095703125,-0.242000013589859,0.0,1
1666872920.79900002,345060960,0,3,389738799,2233,14,0.81,42.688622699999996,-84.4916172,264.74,0.23824778199195862,338.0646057128906,-0.242000013589859,0.0,1
1666872920.99900198,345260962,0,3,389738999,2233,14,0.81,42.688623,-84.49161749999999,264.79,0.1924266219139099,322.17724609375,-0.15200001001358032,0.0,1
1666872921.19900608,345460966,0,3,389739199,2233,14,0.81,42.688623199999995,-84.4916179,264.83,0.18974721431732178,327.48248291015625,-0.16300000250339508,0.0,1
1666872921.39900589,345660966,0,3,389739399,2233,14,0.81,42.6886234,-84.4916181,264.87,0.16026228666305542,330.8759460449219,-0.13700000941753387,0.0,1
1666872921.59903097,345860991,0,3,389739599,2233,14,0.81,42.6886236,-84.4916183,264.9,0.11036757379770279,342.05755615234375,-0.15600000321865082,0.0,1
1666872921.79900002,346060960,0,3,389739799,2233,14,0.81,42.6886237,-84.4916184,264.93,0.10617439448833466,330.0543212890625,-0.07400000095367432,0.0,1
1666872921.99903202,346260992,0,3,389739999,2233,14,0.81,42.688623899999996,-84.4916185,264.96,0.1318976879119873,17.19853973388672,-0.036000002175569534,0.0,1
1666872922.19901299,346460973,0,3,389740199,2233,14,0.81,42.6886242,-84.49161819999999,264.97,0.2616906762123108,46.23863220214844,-0.0990000069141388,0.0,1
1666872922.39900208,346660962,0,3,389740399,2233,14,0.81,42.6886246,-84.49161749999999,265.0,0.4888118505477905,52.731571197509766,-0.02800000086426735,0.0,1
1666872922.59903097,346860991,0,3,389740599,2233,14,0.81,42.6886252,-84.49161629999999,265.02,0.7035375237464905,57.59751510620117,-0.04200000315904617,0.0,1
1666872922.79900098,347060961,0,3,389740799,2233,14,0.81,42.688626,-84.49161459999999,265.03000000000003,1.0142682790756226,58.62934494018555,-0.06000000238418579,0.0,1
1666872922.99897504,347260935,0,3,389740999,2233,14,0.81,42.6886271,-84.49161219999999,265.03000000000003,1.2981237173080444,59.543399810791016,-0.03500000014901161,0.0,1
1666872923.19901800,347460978,0,3,389741199,2233,14,0.81,42.6886282,-84.4916095,265.03000000000003,1.3415402173995972,60.970279693603516,-0.017000000923871994,0.0,1
1666872923.39901400,347660974,0,3,389741399,2233,14,0.81,42.688629399999996,-84.4916066,265.04,1.427706241607666,61.19096374511719,-0.013000000268220901,0.0,1
1666872923.61930203,347881262,0,3,389741599,2233,14,0.81,42.688630599999996,-84.4916037,265.02,1.2774291038513184,61.62937545776367,-0.004000000189989805,0.0,1
1666872923.79899597,348060956,0,3,389741799,2233,14,0.81,42.688631699999995,-84.4916011,265.01,1.2034118175506592,61.944313049316406,0.009000000543892384,0.0,1
1666872924.01936197,348281322,0,3,389741999,2233,14,0.81,42.6886326,-84.4915986,265.01,1.1184816360473633,63.38912582397461,0.003000000026077032,0.0,1
1666872924.19900608,348460966,0,3,389742199,2233,14,0.81,42.688633499999995,-84.4915963,265.01,0.966429591178894,63.51448440551758,0.05300000309944153,0.0,1
1666872924.39905286,348661013,0,3,389742399,2233,14,0.81,42.688634199999996,-84.4915943,265.0,0.8578962683677673,65.55604553222656,0.06000000238418579,0.0,1
1666872924.59907699,348861037,0,3,389742599,2233,14,0.81,42.688634799999996,-84.4915925,264.99,0.753568172454834,66.87129211425781,-0.020000001415610313,0.0,1
1666872924.79895902,349060919,0,3,389742799,2233,14,0.81,42.6886353,-84.491591,264.99,0.6467341184616089,70.86463928222656,-0.03200000151991844,0.0,1
1666872924.99897289,349260933,0,3,389742999,2233,14,0.81,42.6886356,-84.49158969999999,264.97,0.4923667311668396,71.52825164794922,-0.03700000047683716,0.0,1
1666872925.19899988,349460960,0,3,389743199,2233,14,0.81,42.6886359,-84.4915886,264.96,0.4258497655391693,73.35230255126953,0.055000003427267075,0.0,1
1666872925.39898896,349660949,0,3,389743399,2233,14,0.81,42.6886361,-84.4915876,264.96,0.4477722942829132,76.83274841308594,0.039000000804662704,0.0,1
1666872925.59908390,349861044,0,3,389743599,2233,14,0.81,42.6886362,-84.4915865,264.94,0.39965611696243286,83.39066314697266,0.125,0.0,1
1666872925.79903102,350060991,0,3,389743799,2233,14,0.81,42.6886364,-84.4915855,264.9,0.44124937057495117,77.03457641601562,0.24500000476837158,0.0,1
1666872925.99903989,350261000,0,3,389743999,2233,14,0.81,42.688636599999995,-84.4915845,264.83,0.4622780978679657,76.23429870605469,0.3230000138282776,0.0,1
1666872926.19903994,350461000,0,3,389744199,2233,14,0.81,42.688636699999996,-84.4915834,264.75,0.43195024132728577,84.55337524414062,0.40800002217292786,0.0,1
1666872926.39903808,350660998,0,3,389744399,2233,14,0.81,42.6886369,-84.4915824,264.64,0.44085827469825745,72.3048324584961,0.5660000443458557,0.0,1
1666872926.59903288,350860993,0,3,389744599,2233,14,0.81,42.6886371,-84.49158129999999,264.51,0.4582717716693878,72.47442626953125,0.6200000047683716,0.0,1
1666872926.79898190,351060942,0,3,389744799,2233,14,0.81,42.688637199999995,-84.4915803,264.39,0.399270623922348,97.3386001586914,0.5680000185966492,0.0,1
1666872926.99904108,351261001,0,3,389744999,2233,14,0.81,42.688637,-84.49157939999999,264.27,0.33505821228027344,99.96835327148438,0.690000057220459,0.0,1
1666872927.19900203,351460962,0,3,389745199,2233,14,0.81,42.6886369,-84.49157869999999,264.13,0.3032952547073364,105.68589782714844,0.5920000076293945,0.0,1
1666872927.39900589,351660966,0,3,389745399,2233,14,0.81,42.6886368,-84.4915779,264.01,0.2960827648639679,91.3547134399414,0.4910000264644623,0.0,1
1666872927.59907293,351861033,0,3,389745599,2233,14,0.81,42.688636699999996,-84.4915774,263.9,0.21280978620052338,111.50142669677734,0.4100000262260437,0.0,1
1666872927.79903388,352060994,0,3,389745799,2233,14,0.81,42.6886365,-84.4915769,263.83,0.23860637843608856,113.98686218261719,0.33100003004074097,0.0,1
1666872927.99897885,352260939,0,3,389745999,2233,14,0.81,42.6886364,-84.49157629999999,263.77,0.19448651373386383,107.96913146972656,0.3070000112056732,0.0,1
1666872928.19901800,352460978,0,3,389746199,2233,14,0.81,42.6886362,-84.4915759,263.74,0.18298088014125824,130.56732177734375,0.2330000102519989,0.0,1
1666872928.39897203,352660932,0,3,389746399,2233,14,0.81,42.688635999999995,-84.49157559999999,263.67,0.20915305614471436,124.67782592773438,0.2330000102519989,0.0,1
1666872928.59896493,352860925,0,3,389746599,2233,14,0.81,42.6886358,-84.49157509999999,263.59000000000003,0.20711833238601685,117.926025390625,0.4270000159740448,0.0,1
1666872928.79901004,353060970,0,3,389746799,2233,14,0.81,42.6886355,-84.4915748,263.51,0.18919038772583008,152.62228393554688,0.4090000092983246,0.0,1
1666872928.99899387,353260954,0,3,389746999,2233,14,0.81,42.6886353,-84.49157439999999,263.41,0.28211525082588196,120.92891693115234,0.32100000977516174,0.0,1
1666872929.19909501,353461055,0,3,389747199,2233,14,0.81,42.6886351,-84.49157389999999,263.34000000000003,0.19829776883125305,114.10916137695312,0.3320000171661377,0.0,1
1666872929.39899302,353660953,0,3,389747399,2233,14,0.81,42.6886349,-84.4915734,263.26,0.24107469618320465,117.41537475585938,0.25200000405311584,0.0,1
1666872929.59900689,353860967,0,3,389747599,2233,14,0.81,42.6886347,-84.4915729,263.19,0.2580426335334778,116.46574401855469,0.3490000069141388,0.0,1
1666872929.79902387,354060984,0,3,389747799,2233,14,0.81,42.6886345,-84.4915724,263.12,0.22469758987426758,114.16960144042969,0.1900000125169754,0.0,1
1666872930.01926303,354281223,0,3,389747999,2233,14,0.81,42.6886344,-84.49157199999999,263.07,0.1540292352437973,129.99607849121094,0.13700000941753387,0.0,1
1666872930.21931386,354481274,0,3,389748199,2233,14,0.81,42.688634199999996,-84.4915717,263.04,0.12389108538627625,152.6076202392578,0.049000002443790436,0.0,1
1666872930.39899588,354660956,0,3,389748399,2233,14,0.81,42.688634,-84.4915717,263.02,0.12713772058486938,199.29005432128906,0.03400000184774399,0.0,1
1666872930.59895086,354860911,0,3,389748599,2233,14,0.81,42.6886337,-84.4915719,262.99,0.16011247038841248,221.45523071289062,0.07900000363588333,0.0,1
1666872930.79897904,355060939,0,3,389748799,2233,14,0.81,42.688633499999995,-84.4915722,262.95,0.19597195088863373,223.13906860351562,0.015000000596046448,0.0,1
1666872930.99902892,355260989,0,3,389748999,2233,14,0.81,42.6886333,-84.4915726,262.92,0.21693317592144012,220.88778686523438,0.13700000941753387,0.0,1
1666872931.19902086,355460981,0,3,389749199,2233,14,0.81,42.688632999999996,-84.491573,262.87,0.24396106600761414,225.4982147216797,0.15900000929832458,0.0,1
1666872931.39902806,355660988,0,3,389749399,2233,14,0.81,42.6886327,-84.4915734,262.82,0.21567802131175995,231.58912658691406,0.281000018119812,0.0,1
1666872931.59899902,355860959,0,3,389749599,2233,14,0.81,42.688632399999996,-84.4915738,262.75,0.2760308086872101,212.42344665527344,0.3710000216960907,0.0,1
1666872931.79902387,356060984,0,3,389749799,2233,14,0.81,42.6886321,-84.4915741,262.67,0.18139736354351044,213.07684326171875,0.4280000329017639,0.0,1
1666872931.99899888,356260959,0,3,389749999,2233,14,0.81,42.688631699999995,-84.49157439999999,262.57,0.28044429421424866,209.94761657714844,0.39100003242492676,0.0,1
1666872932.19893003,356460890,0,3,389750199,2233,14,0.81,42.6886313,-84.49157459999999,262.5,0.2456929087638855,202.4943084716797,0.37800002098083496,0.0,1
1666872932.39900398,356660964,0,3,389750399,2233,14,0.81,42.688631,-84.49157489999999,262.41,0.18160396814346313,196.63880920410156,0.2550000250339508,0.0,1
1666872932.59897804,356860938,0,3,389750599,2233,14,0.81,42.6886307,-84.491575,262.33,0.1907092034816742,201.85720825195312,0.28700000047683716,0.0,1
1666872932.79903793,357060998,0,3,389750799,2233,14,0.81,42.6886304,-84.49157509999999,262.26,0.17890779674053192,185.7743377685547,0.2800000011920929,0.0,1
1666872932.99901199,357260972,0,3,389750999,2233,14,0.81,42.6886301,-84.4915753,262.18,0.20274369418621063,199.5968017578125,0.3960000276565552,0.0,1
1666872933.19901586,357460976,0,3,389751199,2233,14,0.81,42.6886298,-84.4915754,262.09000000000003,0.22823892533779144,193.42739868164062,0.36400002241134644,0.0,1
1666872933.39904404,357661004,0,3,389751399,2233,14,0.81,42.688629299999995,-84.49157559999999,261.99,0.29548099637031555,195.30613708496094,0.36400002241134644,0.0,1
1666872933.59903002,357860990,0,3,389751599,2233,14,0.81,42.688629,-84.4915757,261.94,0.08338465541601181,174.4945068359375,-0.12200000882148743,0.0,1
1666872933.77945995,358041420,0,3,389751799,2233,14,0.81,42.688629,-84.4915755,261.94,0.14426712691783905,57.742027282714844,0.13700000941753387,0.0,1
1666872933.99902201,358260982,0,3,389751999,2233,14,0.81,42.6886292,-84.4915754,261.92,0.09774456918239594,346.3902587890625,-0.007000000216066837,0.0,1
1666872934.19899607,358460956,0,3,389752199,2233,14,0.81,42.6886292,-84.4915754,261.92,0.08154140412807465,156.8936767578125,0.006000000052154064,0.0,1
1666872934.39900899,358660969,0,3,389752399,2233,14,0.81,42.6886292,-84.4915753,261.92,0.05414794757962227,94.23638916015625,-0.058000002056360245,0.0,1
1666872934.59903407,358860994,0,3,389752599,2233,14,0.81,42.6886291,-84.4915753,261.92,0.02500000037252903,180.0,-0.023000001907348633,0.0,1
1666872934.79902291,359060983,0,3,389752799,2233,14,0.81,42.6886291,-84.4915753,261.91,0.026305893436074257,188.7461700439453,-0.014000000432133675,0.0,1
1666872934.99902892,359260989,0,3,389752999,2233,14,0.81,42.6886291,-84.4915753,261.91,0.012000000104308128,270.0,-0.004000000189989805,0.0,1
1666872935.19902086,359460981,0,3,389753199,2233,14,0.81,42.6886291,-84.4915753,261.89,0.01303840521723032,85.60128784179688,-0.04200000315904617,0.0,1
1666872935.39902902,359660989,0,3,389753399,2233,14,0.81,42.6886291,-84.4915753,261.88,0.0070710680447518826,81.8698959350586,-0.02200000174343586,0.0,1
1666872935.59892201,359860882,0,3,389753599,2233,14,0.81,42.6886292,-84.4915754,261.87,0.008602325804531574,54.46232223510742,-0.0020000000949949026,0.0,1
1666872935.79898095,360060941,0,3,389753799,2233,14,0.81,42.6886292,-84.4915754,261.85,0.03944616764783859,30.465545654296875,-0.014000000432133675,0.0,1
1666872936.01926994,360281230,0,3,389753999,2233,14,0.81,42.688629299999995,-84.4915754,261.83,0.01303840521723032,212.47120666503906,-0.04200000315904617,0.0,1
1666872936.19900894,360460969,0,3,389754199,2233,14,0.81,42.688629299999995,-84.4915755,261.83,0.011401754803955555,307.875,-0.01600000075995922,0.0,1
1666872936.39895701,360660917,0,3,389754399,2233,14,0.81,42.688629399999996,-84.4915755,261.8,0.007810249924659729,230.19442749023438,-0.018000001087784767,0.0,1
1666872936.59902287,360860983,0,3,389754599,2233,14,0.81,42.688629399999996,-84.49157559999999,261.78000000000003,0.006082762498408556,170.5376739501953,-0.020000001415610313,0.0,1
1666872936.79894304,361060903,0,3,389754799,2233,14,0.81,42.688629399999996,-84.49157559999999,261.77,0.03301514685153961,88.26428985595703,-0.0860000029206276,0.0,1
1666872936.99900293,361260963,0,3,389754999,2233,14,0.81,42.6886295,-84.4915755,261.77,0.03220248594880104,64.23067474365234,0.05100000277161598,0.0,1
1666872937.19892287,361460883,0,3,389755199,2233,14,0.81,42.6886296,-84.49157559999999,261.74,0.009055385366082191,276.3402099609375,-0.032999999821186066,0.0,1
1666872937.39898491,361660945,0,3,389755399,2233,14,0.81,42.6886296,-84.49157559999999,261.74,0.03275667876005173,301.26373291015625,0.03200000151991844,0.0,1
1666872937.59902096,361860981,0,3,389755599,2233,14,0.81,42.6886297,-84.4915757,261.72,0.00632455525919795,161.56504821777344,-0.10200000554323196,0.0,1
1666872937.79895687,362060917,0,3,389755799,2233,14,0.81,42.6886297,-84.4915757,261.71,0.016401220113039017,217.568603515625,-0.02200000174343586,0.0,1
1666872937.99897194,362260932,0,3,389755999,2233,14,0.81,42.6886297,-84.49157579999999,261.69,0.016278821974992752,312.51043701171875,0.009000000543892384,0.0,1
1666872938.19901299,362460973,0,3,389756199,2233,14,0.81,42.6886297,-84.49157579999999,261.67,0.017691805958747864,132.70938110351562,-0.006000000052154064,0.0,1
1666872938.39902186,362660982,0,3,389756399,2233,14,0.81,42.6886298,-84.49157579999999,261.66,0.01612451672554016,330.255126953125,0.007000000216066837,0.0,1
1666872938.59903789,362860998,0,3,389756599,2233,14,0.81,42.6886298,-84.4915759,261.63,0.03465544804930687,313.83087158203125,-0.02800000086426735,0.0,1
1666872938.79898500,363060945,0,3,389756799,2233,14,0.81,42.688629899999995,-84.491576,261.61,0.015620499849319458,219.8055877685547,0.0020000000949949026,0.0,1
1666872938.99901795,363260978,0,3,389756999,2233,14,0.81,42.688629899999995,-84.491576,261.59000000000003,0.027294687926769257,171.57301330566406,-0.04000000283122063,0.0,1
1666872939.19895792,363460918,0,3,389757199,2233,14,0.81,42.688629899999995,-84.491576,261.58,0.013341664336621761,77.00537872314453,-0.021000001579523087,0.0,1
1666872939.39894295,363660903,0,3,389757399,2233,14,0.81,42.688629899999995,-84.491576,261.57,0.004242640919983387,225.0,-0.026000000536441803,0.0,1
1666872939.59899092,363860951,0,3,389757599,2233,14,0.81,42.688629999999996,-84.491576,261.56,0.005099019967019558,11.309930801391602,0.006000000052154064,0.0,1
1666872939.79897690,364060937,0,3,389757799,2233,14,0.81,42.688629999999996,-84.4915761,261.55,0.02475883811712265,223.36341857910156,-0.09200000762939453,0.0,1
1666872939.99900603,364260966,0,3,389757999,2233,14,0.81,42.688629999999996,-84.4915761,261.55,0.0213775597512722,259.2156982421875,-0.005000000353902578,0.0,1
1666872940.19899487,364460955,0,3,389758199,2233,14,0.81,42.688629999999996,-84.4915761,261.54,0.011401754803955555,164.744873046875,0.012000000104308128,0.0,1
1666872940.39897609,364660936,0,3,389758399,2233,14,0.81,42.688629999999996,-84.4915761,261.53000000000003,0.011045361869037151,185.19442749023438,-0.03400000184774399,0.0,1
1666872940.59903598,364860996,0,3,389758599,2233,14,0.81,42.688629999999996,-84.4915761,261.52,0.012000000104308128,0.0,-0.036000002175569534,0.0,1
1666872940.79899287,365060953,0,3,389758799,2233,14,0.81,42.688629999999996,-84.4915761,261.52,0.006403124425560236,128.65980529785156,-0.017000000923871994,0.0,1
1666872940.99891996,365260880,0,3,389758999,2233,14,0.81,42.688629999999996,-84.4915761,261.51,0.016278821974992752,317.48956298828125,0.02800000086426735,0.0,1
1666872941.19895697,365460917,0,3,389759199,2233,14,0.81,42.688629999999996,-84.4915761,261.49,0.042059481143951416,298.39300537109375,0.052000001072883606,0.0,1
1666872941.39890194,365660862,0,3,389759399,2233,14,0.81,42.6886301,-84.4915761,261.49,0.006082762498408556,170.5376739501953,-0.046000003814697266,0.0,1
1666872941.59893203,365860892,0,3,389759599,2233,14,0.81,42.6886301,-84.4915761,261.48,0.018027756363153458,109.44002532958984,-0.021000001579523087,0.0,1
1666872941.79899788,366060958,0,3,389759799,2233,14,0.81,42.6886301,-84.491576,261.48,0.019313208758831024,68.7494888305664,-0.021000001579523087,0.0,1
1666872941.99916387,366261124,0,3,389759999,2233,14,0.81,42.6886301,-84.491576,261.48,0.011045361869037151,95.19442749023438,0.01100000087171793,0.0,1
1666872942.19903207,366460992,0,3,389760199,2233,14,0.81,42.6886301,-84.4915759,261.47,0.029068883508443832,63.4349479675293,0.009000000543892384,0.0,1
1666872942.39898491,366660945,0,3,389760399,2233,14,0.81,42.6886301,-84.49157579999999,261.46,0.02846049889922142,18.434947967529297,0.015000000596046448,0.0,1
1666872942.59896207,366860922,0,3,389760599,2233,14,0.81,42.6886301,-84.49157579999999,261.45,0.01077033020555973,158.19857788085938,-0.020000001415610313,0.0,1
1666872942.79899001,367060950,0,3,389760799,2233,14,0.81,42.6886301,-84.49157579999999,261.44,0.007615773472934961,23.198589324951172,-0.03400000184774399,0.0,1
1666872942.99892402,367260884,0,3,389760999,2233,14,0.81,42.6886302,-84.49157579999999,261.43,0.00800000037997961,270.0,-0.05100000277161598,0.0,1
1666872943.19895387,367460914,0,3,389761199,2233,14,0.81,42.6886302,-84.49157579999999,261.43,0.027018513530492783,272.12109375,0.05000000074505806,0.0,1
1666872943.39891005,367660870,0,3,389761399,2233,14,0.81,42.6886301,-84.49157579999999,261.42,0.01984943449497223,130.9143829345703,-0.07300000637769699,0.0,1
1666872943.59898996,367860950,0,3,389761599,2233,14,0.81,42.6886301,-84.49157579999999,261.42,0.030016662552952766,91.90914154052734,-0.07100000232458115,0.0,1
1666872943.79901385,368060974,0,3,389761799,2233,14,0.8300000000000001,42.6886301,-84.4915757,261.41,0.00632455525919795,288.4349365234375,-0.03500000014901161,0.0,1
1666872943.99898601,368260946,0,3,389761999,2233,14,0.8300000000000001,42.6886302,-84.4915757,261.4,0.0152970589697361,78.6900634765625,-0.021000001579523087,0.0,1
1666872944.19897699,368460937,0,3,389762199,2233,14,0.8300000000000001,42.6886302,-84.4915757,261.39,0.022472206503152847,339.1455383300781,-0.03400000184774399,0.0,1
1666872944.39898086,368660941,0,3,389762399,2233,14,0.8300000000000001,42.6886302,-84.4915757,261.36,0.01615549437701702,291.8014221191406,0.0020000000949949026,0.0,1
1666872944.59890699,368860867,0,3,389762599,2233,14,0.8300000000000001,42.6886303,-84.4915757,261.35,0.018027756363153458,19.440032958984375,-0.03500000014901161,0.0,1
1666872944.79898787,369060948,0,3,389762799,2233,14,0.8300000000000001,42.6886303,-84.4915757,261.34000000000003,0.008944272063672543,63.4349479675293,-0.05100000277161598,0.0,1
1666872944.99889493,369260855,0,3,389762999,2233,14,0.8300000000000001,42.6886303,-84.4915757,261.33,0.00984885822981596,66.03750610351562,-0.009000000543892384,0.0,1
1666872945.19898796,369460948,0,3,389763199,2233,14,0.8300000000000001,42.6886303,-84.4915757,261.32,0.019723083823919296,329.5344543457031,-0.012000000104308128,0.0,1
1666872945.39899802,369660958,0,3,389763399,2233,14,0.8300000000000001,42.6886303,-84.4915757,261.31,0.012727922759950161,135.0,0.04400000348687172,0.0,1
1666872945.59901500,369860975,0,3,389763599,2233,14,0.8300000000000001,42.6886303,-84.4915757,261.28000000000003,0.004472136031836271,333.4349365234375,0.009000000543892384,0.0,1
1666872945.79896903,370060929,0,3,389763799,2233,14,0.8300000000000001,42.6886303,-84.4915757,261.26,0.007000000216066837,90.0,0.026000000536441803,0.0,1
1666872945.99899101,370260951,0,3,389763999,2233,14,0.8300000000000001,42.6886303,-84.4915757,261.25,0.020591260865330696,150.94540405273438,-0.01900000125169754,0.0,1
1666872946.19900608,370460966,0,3,389764199,2233,14,0.8300000000000001,42.6886303,-84.4915757,261.24,0.00824621133506298,284.0362548828125,-0.08400000631809235,0.0,1
1666872946.39897609,370660936,0,3,389764399,2233,14,0.8300000000000001,42.6886303,-84.4915757,261.25,0.016278821974992752,222.5104522705078,0.030000001192092896,0.0,1
1666872946.59891701,370860877,0,3,389764599,2233,14,0.8300000000000001,42.6886303,-84.4915757,261.23,0.018384777009487152,157.61985778808594,-0.05400000140070915,0.0,1
1666872946.79897308,371060933,0,3,389764799,2233,14,0.8300000000000001,42.6886302,-84.4915757,261.22,0.019209373742341995,218.65982055664062,-0.017000000923871994,0.0,1
1666872946.99898291,371260943,0,3,389764999,2233,14,0.8300000000000001,42.6886302,-84.4915757,261.21,0.006082762498408556,80.53767395019531,-0.06200000271201134,0.0,1
1666872947.19898796,371460948,0,3,389765199,2233,14,0.8300000000000001,42.6886302,-84.4915757,261.21,0.022472206503152847,69.14553833007812,-0.03200000151991844,0.0,1
1666872947.39898586,371660946,0,3,389765399,2233,14,0.8300000000000001,42.6886302,-84.49157559999999,261.19,0.02280350960791111,164.744873046875,-0.052000001072883606,0.0,1
1666872947.59891486,371860875,0,3,389765599,2233,14,0.8300000000000001,42.6886302,-84.4915757,261.19,0.018384777009487152,292.380126953125,-0.032999999821186066,0.0,1
1666872947.79915404,372061114,0,3,389765799,2233,14,0.8300000000000001,42.6886302,-84.4915757,261.18,0.02163330838084221,56.309932708740234,-0.01900000125169754,0.0,1
1666872948.01926994,372281230,0,3,389765999,2233,14,0.8300000000000001,42.6886302,-84.49157559999999,261.18,0.00632455525919795,288.4349365234375,-0.04400000348687172,0.0,1
1666872948.19892406,372460884,0,3,389766199,2233,14,0.8300000000000001,42.6886302,-84.49157559999999,261.17,0.026000000536441803,112.61986541748047,-0.07700000703334808,0.0,1
1666872948.39896989,372660930,0,3,389766399,2233,14,0.8300000000000001,42.6886302,-84.49157559999999,261.18,0.012206556275486946,124.99201965332031,-0.024000000208616257,0.0,1
1666872948.59896088,372860921,0,3,389766599,2233,14,0.8300000000000001,42.6886302,-84.4915755,261.17,0.01044030673801899,73.30075073242188,-0.07200000435113907,0.0,1
1666872948.79896808,373060928,0,3,389766799,2233,14,0.8300000000000001,42.6886301,-84.4915755,261.17,0.003162277629598975,251.5650634765625,-0.04400000348687172,0.0,1
1666872948.99906492,373261025,0,3,389766999,2233,14,0.8300000000000001,42.6886301,-84.4915755,261.18,0.013416407629847527,296.5650634765625,-0.014000000432133675,0.0,1
1666872949.19899702,373460957,0,3,389767199,2233,14,0.8300000000000001,42.6886302,-84.49157559999999,261.16,0.012041594833135605,48.366458892822266,-0.11900000274181366,0.0,1
1666872949.39896107,373660921,0,3,389767399,2233,14,0.8300000000000001,42.6886301,-84.49157559999999,261.17,0.029154760763049126,157.83364868164062,-0.04400000348687172,0.0,1
1666872949.59900093,373860961,0,3,389767599,2233,14,0.8300000000000001,42.6886301,-84.4915755,261.17,0.011180340312421322,79.69514465332031,-0.01900000125169754,0.0,1
1666872949.79894805,374060908,0,3,389767799,2233,14,0.8300000000000001,42.6886301,-84.4915755,261.17,0.014866068959236145,160.34616088867188,-0.030000001192092896,0.0,1
1666872949.99899888,374260959,0,3,389767999,2233,14,0.8300000000000001,42.688629999999996,-84.4915755,261.15,0.015811389312148094,108.43494415283203,-0.07700000703334808,0.0,1
1666872950.21942091,374481381,0,3,389768199,2233,14,0.8300000000000001,42.688629999999996,-84.4915755,261.16,0.01486606989055872,227.726318359375,-0.06000000238418579,0.0,1
1666872950.39893699,374660897,0,3,389768399,2233,14,0.8300000000000001,42.688629999999996,-84.4915755,261.16,0.01726267673075199,169.99200439453125,-0.03700000047683716,0.0,1
1666873375.61944795,799881408,0,3,390193600,2233,14,0.85,42.6886255,-84.491576,261.56,0.02202271670103073,309.47247314453125,0.010000000707805157,0.0,1
1666873375.81936693,800081327,0,3,390193800,2233,14,0.85,42.688625599999995,-84.491576,261.57,0.017000000923871994,331.9275207519531,-0.03200000151991844,0.0,1
1666873376.03899908,800300959,0,3,390194000,2233,14,0.85,42.688625599999995,-84.491576,261.57,0.005000000353902578,36.869895935058594,-0.058000002056360245,0.0,1
1666873376.21931887,800481279,0,3,390194200,2233,14,0.85,42.688625599999995,-84.491576,261.57,0.009219544939696789,130.60128784179688,-0.023000001907348633,0.0,1
1666873376.41927791,800681238,0,3,390194400,2233,14,0.85,42.6886255,-84.491576,261.58,0.012041594833135605,221.633544921875,-0.02200000174343586,0.0,1
1666873376.61928606,800881246,0,3,390194600,2233,14,0.85,42.6886255,-84.491576,261.58,0.008544004522264004,20.55604362487793,-0.01900000125169754,0.0,1
1666873376.81928706,801081247,0,3,390194800,2233,14,0.85,42.6886255,-84.491576,261.58,0.00806225836277008,209.74488830566406,0.01600000075995922,0.0,1
1666873377.01934886,801281309,0,3,390195000,2233,14,0.85,42.6886255,-84.491576,261.57,0.01664331741631031,147.2647705078125,-0.03500000014901161,0.0,1
1666873377.19897699,801460937,0,3,390195200,2233,14,0.85,42.6886255,-84.491576,261.58,0.00800000037997961,270.0,0.02200000174343586,0.0,1
1666873377.41940904,801681369,0,3,390195400,2233,14,0.85,42.6886255,-84.491576,261.57,0.00824621133506298,104.0362319946289,-0.039000000804662704,0.0,1
1666873377.61930609,801881266,0,3,390195600,2233,14,0.85,42.6886255,-84.4915759,261.58,0.01044030673801899,163.30075073242188,-0.07300000637769699,0.0,1
1666873377.81929898,802081259,0,3,390195800,2233,14,0.85,42.6886255,-84.491576,261.58,0.03312098979949951,298.8865966796875,0.05100000277161598,0.0,1
1666873378.01931787,802281278,0,3,390196000,2233,14,0.85,42.688625599999995,-84.491576,261.58,0.02408318966627121,138.366455078125,-0.00800000037997961,0.0,1
1666873378.21932793,802481288,0,3,390196200,2233,14,0.85,42.688625599999995,-84.4915759,261.58,0.02147091180086136,62.241455078125,0.004000000189989805,0.0,1
1666873378.41930699,802681267,0,3,390196400,2233,14,0.85,42.688625599999995,-84.4915759,261.56,0.03478505462408066,198.43495178222656,0.013000000268220901,0.0,1
1666873378.61934495,802881305,0,3,390196600,2233,14,0.85,42.6886255,-84.4915759,261.57,0.010295630432665348,299.0545959472656,0.03500000014901161,0.0,1
1666873378.81933498,803081295,0,3,390196800,2233,14,0.85,42.688625599999995,-84.4915759,261.57,0.03224903345108032,29.74488067626953,0.02800000086426735,0.0,1
1666873379.01931190,803281272,0,3,390197000,2233,14,0.85,42.688625599999995,-84.49157579999999,261.57,0.03894868493080139,131.8778533935547,0.020000001415610313,0.0,1
1666873379.21932006,803481280,0,3,390197200,2233,14,0.85,42.688625599999995,-84.49157579999999,261.56,0.019646884873509407,14.743561744689941,-0.003000000026077032,0.0,1
1666873379.41930103,803681261,0,3,390197400,2233,14,0.85,42.688625599999995,-84.49157579999999,261.56,0.024041632190346718,196.92752075195312,0.003000000026077032,0.0,1
1666873379.61934090,803881301,0,3,390197600,2233,14,0.85,42.688625599999995,-84.49157579999999,261.55,0.022203603759407997,35.83765411376953,0.014000000432133675,0.0,1
1666873379.81943607,804081396,0,3,390197800,2233,14,0.85,42.688625599999995,-84.49157579999999,261.54,0.027018513530492783,92.12109375,0.012000000104308128,0.0,1
1666873380.03897095,804300931,0,3,390198000,2233,14,0.85,42.688625599999995,-84.4915757,261.54,0.012806248851120472,51.34019088745117,-0.00800000037997961,0.0,1
1666873380.21936297,804481323,0,3,390198200,2233,14,0.85,42.688625599999995,-84.4915757,261.55,0.04517742991447449,84.9203872680664,-0.004000000189989805,0.0,1
1666873380.41935992,804681320,0,3,390198400,2233,14,0.85,42.688625599999995,-84.49157559999999,261.55,0.016552945598959923,64.98310089111328,0.039000000804662704,0.0,1
1666873380.61929798,804881258,0,3,390198600,2233,14,0.85,42.6886255,-84.49157559999999,261.54,0.02617250569164753,133.4518280029297,-0.04200000315904617,0.0,1
1666873380.81934595,805081306,0,3,390198800,2233,14,0.85,42.6886255,-84.49157559999999,261.54,0.004000000189989805,180.0,-0.02500000037252903,0.0,1
1666873381.01928806,805281248,0,3,390199000,2233,14,0.85,42.6886255,-84.49157559999999,261.55,0.07690253853797913,192.77125549316406,-0.06800000369548798,0.0,1
1666873381.19903493,805460995,0,3,390199200,2233,14,0.85,42.6886253,-84.4915757,261.57,0.07376313954591751,164.26797485351562,-0.23400001227855682,0.0,1
1666873381.41936302,805681323,0,3,390199400,2233,14,0.85,42.688625099999996,-84.4915757,261.64,0.22641776502132416,188.380615234375,-0.51500004529953,0.0,1
1666873381.61939692,805881357,0,3,390199600,2233,14,0.85,42.6886247,-84.4915759,261.74,0.1605895459651947,207.8416290283203,-0.6040000319480896,0.0,1
1666873381.81937289,806081333,0,3,390199800,2233,14,0.85,42.688624399999995,-84.4915761,261.87,0.2824181318283081,195.6110076904297,-0.7090000510215759,0.0,1
1666873382.03896189,806300922,0,3,390200000,2233,14,0.85,42.688623899999996,-84.4915764,262.02,0.3291337192058563,211.7101593017578,-0.6830000281333923,0.0,1
1666873382.21929908,806481259,0,3,390200200,2233,14,0.85,42.6886234,-84.4915767,262.15,0.23409400880336761,196.8867950439453,-0.5180000066757202,0.0,1
1666873382.41932988,806681290,0,3,390200400,2233,14,0.85,42.6886231,-84.4915769,262.25,0.21982266008853912,203.8831024169922,-0.43300002813339233,0.0,1
1666873382.59898305,806860943,0,3,390200600,2233,14,0.85,42.6886228,-84.4915772,262.32,0.13364505767822266,224.6968536376953,-0.3850000202655792,0.0,1
1666873382.81933999,807081300,0,3,390200800,2233,14,0.85,42.688622599999995,-84.4915774,262.41,0.10778682678937912,205.85186767578125,-0.25600001215934753,0.0,1
1666873383.01933908,807281299,0,3,390201000,2233,14,0.85,42.688622599999995,-84.4915776,262.46,0.07375635951757431,282.52880859375,-0.359000027179718,0.0,1
1666873383.21935391,807481314,0,3,390201200,2233,14,0.85,42.688622699999996,-84.4915778,262.56,0.08988882601261139,302.275634765625,-0.5870000123977661,0.0,1
1666873383.41942906,807681389,0,3,390201400,2233,14,0.85,42.688622699999996,-84.49157799999999,262.68,0.0936482772231102,239.87570190429688,-0.5830000042915344,0.0,1
1666873383.61932993,807881290,0,3,390201600,2233,14,0.85,42.688622699999996,-84.49157819999999,262.82,0.1578480452299118,292.34063720703125,-0.6650000214576721,0.0,1
1666873383.81929302,808081253,0,3,390201800,2233,14,0.85,42.6886228,-84.4915786,262.95,0.16597892343997955,263.774169921875,-0.5660000443458557,0.0,1
1666873384.01937604,808281336,0,3,390202000,2233,14,0.85,42.6886228,-84.49157919999999,263.07,0.28717416524887085,271.9955749511719,-0.5760000348091125,0.0,1
1666873384.21926308,808481223,0,3,390202200,2233,14,0.85,42.688622699999996,-84.49158,263.18,0.3975185751914978,256.17352294921875,-0.4870000183582306,0.0,1
1666873384.41939902,808681359,0,3,390202400,2233,14,0.85,42.688622599999995,-84.49158129999999,263.27,0.6799911856651306,265.6142272949219,-0.3830000162124634,0.0,1
1666873384.61934304,808881303,0,3,390202600,2233,14,0.85,42.6886225,-84.49158299999999,263.34000000000003,0.7646967172622681,261.3506774902344,-0.21300001442432404,0.0,1
1666873384.81935906,809081319,0,3,390202800,2233,14,0.85,42.6886222,-84.4915851,263.4,0.9838948249816895,262.2899169921875,-0.27800002694129944,0.0,1
1666873385.01937008,809281330,0,3,390203000,2233,14,0.85,42.688621999999995,-84.4915876,263.44,1.0873252153396606,263.3455810546875,-0.17500001192092896,0.0,1
1666873385.21940303,809481363,0,3,390203200,2233,14,0.85,42.6886218,-84.4915905,263.47,1.2511135339736938,264.8180236816406,-0.005000000353902578,0.0,1
1666873385.41929007,809681250,0,3,390203400,2233,14,0.85,42.6886216,-84.4915936,263.48,1.3141605854034424,264.01611328125,-0.10500000417232513,0.0,1
1666873385.61926699,809881227,0,3,390203600,2233,14,0.85,42.6886213,-84.4915968,263.5,1.3471429347991943,262.96466064453125,-0.1120000034570694,0.0,1
1666873385.81928205,810081242,0,3,390203800,2233,14,0.85,42.688621,-84.4916001,263.51,1.327055811882019,263.68365478515625,-0.04700000211596489,0.0,1
1666873386.03902507,810300985,0,3,390204000,2233,14,0.85,42.688620799999995,-84.4916033,263.52,1.3215090036392212,264.31097412109375,0.013000000268220901,0.0,1
1666873386.21932292,810481283,0,3,390204200,2233,14,0.85,42.6886206,-84.4916065,263.52,1.3392088413238525,264.94500732421875,-0.014000000432133675,0.0,1
1666873386.41937399,810681334,0,3,390204400,2233,14,0.85,42.6886204,-84.4916097,263.53000000000003,1.2907363176345825,266.26861572265625,0.023000001907348633,0.0,1
1666873386.59905291,810861013,0,3,390204600,2233,14,0.85,42.6886203,-84.4916128,263.53000000000003,1.352423906326294,264.866943359375,0.13199999928474426,0.0,1
1666873386.81932497,811081285,0,3,390204800,2233,14,0.85,42.68862,-84.4916161,263.52,1.3449479341506958,263.76800537109375,0.027000000700354576,0.0,1
1666873387.01941490,811281375,0,3,390205000,2233,14,0.85,42.6886198,-84.4916193,263.52,1.3345059156417847,263.1572265625,0.03800000250339508,0.0,1
1666873387.21925902,811481219,0,3,390205200,2233,14,0.85,42.6886195,-84.49162249999999,263.53000000000003,1.295711874961853,263.3521728515625,-0.12600000202655792,0.0,1
1666873387.41932702,811681287,0,3,390205400,2233,14,0.85,42.6886192,-84.49162559999999,263.57,1.2972590923309326,261.80120849609375,-0.13300000131130219,0.0,1
1666873387.61932707,811881287,0,3,390205600,2233,14,0.85,42.6886189,-84.49162869999999,263.63,1.2976614236831665,262.65045166015625,-0.15600000321865082,0.0,1
1666873387.81931090,812081271,0,3,390205800,2233,14,0.85,42.6886186,-84.4916318,263.67,1.2352368831634521,261.2926330566406,-0.27300000190734863,0.0,1
1666873387.99899507,812260955,0,3,390206000,2233,14,0.85,42.6886182,-84.4916348,263.75,1.3380539417266846,257.8334655761719,-0.31300002336502075,0.0,1
1666873388.21944594,812481406,0,3,390206200,2233,14,0.85,42.688617699999995,-84.491638,263.8,1.3046245574951172,254.80267333984375,-0.34800001978874207,0.0,1
1666873388.41932988,812681290,0,3,390206400,2233,14,0.85,42.688617099999995,-84.4916411,263.89,1.349468469619751,255.93287658691406,-0.4240000247955322,0.0,1
1666873388.61935806,812881318,0,3,390206600,2233,14,0.85,42.6886164,-84.4916442,264.0,1.3371282815933228,252.3238983154297,-0.33500000834465027,0.0,1
1666873388.81932592,813081286,0,3,390206800,2233,14,0.85,42.6886158,-84.4916473,264.08,1.309705376625061,256.2184143066406,-0.40400001406669617,0.0,1
1666873389.01931500,813281275,0,3,390207000,2233,14,0.85,42.6886152,-84.4916504,264.16,1.3409885168075562,252.51089477539062,-0.26500001549720764,0.0,1
1666873389.21931696,813481277,0,3,390207200,2233,14,0.85,42.6886146,-84.4916535,264.25,1.2867933511734009,258.070068359375,-0.3320000171661377,0.0,1
1666873389.39898396,813660944,0,3,390207400,2233,14,0.85,42.688614,-84.4916566,264.33,1.3597331047058105,253.99093627929688,-0.2930000126361847,0.0,1
1666873389.61935687,813881317,0,3,390207600,2233,14,0.85,42.6886134,-84.4916598,264.39,1.3850661516189575,255.0206298828125,-0.20000000298023224,0.0,1
