timestamp,TimeUS,Lat,Lng,Alt,RelHomeAlt,RelOriginAlt
1666872888.58019590,312842156,42.688636599999995,-84.4915771,263.97998046875,0.007167022675275803,-2.2128329277038574
1666872888.59960985,312861570,42.688636599999995,-84.4915771,263.97998046875,0.008647125214338303,-2.211352825164795
1666872888.62035990,312882320,42.688636599999995,-84.4915771,263.989990234375,0.010224264115095139,-2.209775686264038
1666872888.65936708,312921327,42.688636599999995,-84.4915771,263.989990234375,0.013237874954938889,-2.2067620754241943
1666872888.69951987,312961480,42.688636599999995,-84.4915771,263.989990234375,0.016252677887678146,-2.203747272491455
1666872888.69966102,312961621,42.688636599999995,-84.4915771,263.989990234375,0.016252677887678146,-2.203747272491455
1666872888.73936892,313001329,42.688636599999995,-84.4915771,263.989990234375,0.019235532730817795,-2.2007644176483154
1666872888.77971697,313041677,42.688636599999995,-84.4915771,264.0,0.022269170731306076,-2.197730779647827
1666872888.79941893,313061379,42.688636599999995,-84.4915771,264.0,0.02374069020152092,-2.1962592601776123
1666872888.81958699,313081547,42.688636599999995,-84.4915771,264.0,0.024867217987775803,-2.1951327323913574
1666872888.85932088,313121281,42.688636599999995,-84.4915772,264.0,0.027195613831281662,-2.1928043365478516
1666872888.89953899,313161499,42.688636599999995,-84.4915772,264.0,0.02949492260813713,-2.190505027770996
1666872888.89967299,313161633,42.688636599999995,-84.4915772,264.0,0.02949492260813713,-2.190505027770996
1666872888.93940401,313201364,42.688636599999995,-84.4915772,264.0099792480469,0.03189627453684807,-2.188103675842285
1666872888.97969508,313241655,42.688636599999995,-84.4915772,264.0099792480469,0.03382627293467522,-2.186173677444458
1666872888.99981904,313261779,42.688636599999995,-84.4915772,264.0099792480469,0.03459088131785393,-2.1854090690612793
1666872889.01962686,313281587,42.688636599999995,-84.4915772,264.0099792480469,0.03476635739207268,-2.1852335929870605
1666872889.05937004,313321330,42.688636599999995,-84.4915772,264.0099792480469,0.035959403961896896,-2.1840405464172363
1666872889.09953094,313361491,42.688636599999995,-84.4915772,264.0099792480469,0.03731338307261467,-2.1826865673065186
1666872889.09967399,313361634,42.688636599999995,-84.4915772,264.0099792480469,0.03731338307261467,-2.1826865673065186
1666872889.13944101,313401401,42.688636599999995,-84.4915772,264.0099792480469,0.03885261341929436,-2.181147336959839
1666872889.17966700,313441627,42.688636599999995,-84.4915773,264.0199890136719,0.04020849987864494,-2.1797914505004883
1666872889.19953990,313461500,42.688636599999995,-84.4915773,264.0199890136719,0.041275184601545334,-2.178724765777588
1666872889.21958089,313481541,42.688636599999995,-84.4915773,264.0199890136719,0.042482536286115646,-2.1775174140930176
1666872889.25948691,313521447,42.688636599999995,-84.4915773,264.0199890136719,0.04479924961924553,-2.1752007007598877
1666872889.29946208,313561422,42.688636599999995,-84.4915773,264.0199890136719,0.04707114025950432,-2.172928810119629
1666872889.29956698,313561527,42.688636599999995,-84.4915773,264.0199890136719,0.04707114025950432,-2.172928810119629
1666872889.33945298,313601413,42.688636599999995,-84.4915773,264.0199890136719,0.04937044903635979,-2.1706295013427734
1666872889.37963796,313641598,42.688636599999995,-84.4915773,264.0299987792969,0.051308076828718185,-2.168691873550415
1666872889.39943600,313661396,42.688636599999995,-84.4915773,264.0299987792969,0.05249754711985588,-2.1675024032592773
1666872889.41964507,313681605,42.688636599999995,-84.4915773,264.0299987792969,0.052487295120954514,-2.1675126552581787
1666872889.45927906,313721239,42.688636599999995,-84.4915773,264.0299987792969,0.05330817028880119,-2.166691780090332
1666872889.49984503,313761805,42.688636599999995,-84.4915773,264.0299987792969,0.05431143566966057,-2.1656885147094727
1666872889.49998307,313761943,42.688636599999995,-84.4915773,264.0299987792969,0.05431143566966057,-2.1656885147094727
1666872889.53947687,313801437,42.688636599999995,-84.4915773,264.0299987792969,0.055458467453718185,-2.164541482925415
1666872889.57968998,313841650,42.688636599999995,-84.4915774,264.0299987792969,0.056004445999860764,-2.1639955043792725
1666872889.59953690,313861497,42.688636599999995,-84.4915774,264.0299987792969,0.05684201046824455,-2.1631579399108887
1666872889.61966991,313881630,42.688636599999995,-84.4915774,264.0299987792969,0.056497734040021896,-2.1635022163391113
1666872889.65927386,313921234,42.688636599999995,-84.4915774,264.0299987792969,0.05679146572947502,-2.163208484649658
1666872889.69946599,313961426,42.688636599999995,-84.4915774,264.0299987792969,0.05725924298167229,-2.162740707397461
1666872889.69958091,313961541,42.688636599999995,-84.4915774,264.0299987792969,0.05725924298167229,-2.162740707397461
1666872889.73943090,314001391,42.688636599999995,-84.4915774,264.0299987792969,0.057965200394392014,-2.162034749984741
1666872889.77973294,314041693,42.688636599999995,-84.4915774,264.0299987792969,0.05810515210032463,-2.1618947982788086
1666872889.79951191,314061472,42.688636599999995,-84.4915774,264.0299987792969,0.058778923004865646,-2.1612210273742676
1666872889.81960201,314081562,42.688636599999995,-84.4915774,264.0299987792969,0.058021944016218185,-2.161978006362915
1666872889.85937285,314121333,42.688636599999995,-84.4915774,264.0299987792969,0.057570140808820724,-2.1624298095703125
1666872889.89950585,314161466,42.688636599999995,-84.4915774,264.0299987792969,0.05732671543955803,-2.162673234939575
1666872889.89961290,314161573,42.688636599999995,-84.4915774,264.0299987792969,0.05732671543955803,-2.162673234939575
1666872889.93934989,314201310,42.688636599999995,-84.4915774,264.0299987792969,0.05735151097178459,-2.1626484394073486
1666872889.97966290,314241623,42.688636599999995,-84.4915774,264.0299987792969,0.05698196217417717,-2.163017988204956
1666872889.99974203,314261702,42.688636599999995,-84.4915774,264.0299987792969,0.05748502537608147,-2.1625149250030518
1666872890.01979303,314281753,42.688636599999995,-84.49157749999999,264.0299987792969,0.055972736328840256,-2.164027214050293
1666872890.05931997,314321280,42.688636599999995,-84.49157749999999,264.0299987792969,0.05436794087290764,-2.1656320095062256
1666872890.09966302,314361623,42.688636599999995,-84.49157749999999,264.0299987792969,0.05304090306162834,-2.166959047317505
1666872890.09977603,314361736,42.688636599999995,-84.49157749999999,264.0299987792969,0.05304090306162834,-2.166959047317505
1666872890.13940001,314401360,42.688636599999995,-84.49157749999999,264.0299987792969,0.05204574391245842,-2.167954206466675
1666872890.17967701,314441637,42.688636599999995,-84.49157749999999,264.0299987792969,0.050655048340559006,-2.169344902038574
1666872890.19952488,314461485,42.688636599999995,-84.49157749999999,264.0299987792969,0.05088631436228752,-2.1691136360168457
1666872890.21966100,314481621,42.688636599999995,-84.49157749999999,264.0299987792969,0.051034849137067795,-2.1689651012420654
1666872890.25933194,314521292,42.688636599999995,-84.49157749999999,264.0299987792969,0.051833074539899826,-2.1681668758392334
1666872890.29943991,314561400,42.688636599999995,-84.49157749999999,264.0299987792969,0.05271760746836662,-2.1672823429107666
1666872890.29960704,314561567,42.688636599999995,-84.49157749999999,264.0299987792969,0.05271760746836662,-2.1672823429107666
1666872890.33947086,314601431,42.688636599999995,-84.49157749999999,264.0299987792969,0.05373327061533928,-2.166266679763794
1666872890.37967491,314641635,42.688636599999995,-84.49157749999999,264.0299987792969,0.05477587506175041,-2.165224075317383
1666872890.39951992,314661480,42.688636599999995,-84.49157749999999,264.0299987792969,0.055533092468976974,-2.1644668579101562
1666872890.41954994,314681510,42.688636599999995,-84.49157749999999,264.0299987792969,0.05601803585886955,-2.1639819145202637
1666872890.45935488,314721315,42.688636599999995,-84.49157749999999,264.0299987792969,0.05727497860789299,-2.1627249717712402
1666872890.49982786,314761788,42.688636599999995,-84.4915776,264.0299987792969,0.05864111706614494,-2.1613588333129883
1666872890.49993205,314761892,42.688636599999995,-84.4915776,264.0299987792969,0.05864111706614494,-2.1613588333129883
1666872890.53942394,314801384,42.688636599999995,-84.4915776,264.0400085449219,0.06007949635386467,-2.1599204540252686
1666872890.57972503,314841685,42.688636599999995,-84.4915776,264.0400085449219,0.06127683445811272,-2.1587231159210205
1666872890.59952402,314861484,42.688636599999995,-84.4915776,264.0400085449219,0.062062185257673264,-2.15793776512146
1666872890.61965489,314881615,42.688636599999995,-84.4915776,264.0400085449219,0.0629839152097702,-2.1570160388946533
1666872890.65928102,314921241,42.688636599999995,-84.4915776,264.0400085449219,0.06430070102214813,-2.1556992530822754
1666872890.69954085,314961501,42.688636599999995,-84.4915776,264.0400085449219,0.06544129550457001,-2.1545586585998535
1666872890.69961190,314961572,42.688636599999995,-84.4915776,264.0400085449219,0.06544129550457001,-2.1545586585998535
1666872890.73945498,315001415,42.688636599999995,-84.4915776,264.0400085449219,0.06665699183940887,-2.1533429622650146
1666872890.77973199,315041692,42.688636599999995,-84.4915776,264.0400085449219,0.06805197894573212,-2.1519479751586914
1666872890.79952908,315061489,42.688636599999995,-84.4915776,264.0400085449219,0.06886927783489227,-2.1511306762695312
1666872890.81957889,315081539,42.688636599999995,-84.4915776,264.04998779296875,0.07020346820354462,-2.149796485900879
1666872890.85934401,315121304,42.688636599999995,-84.49157749999999,264.04998779296875,0.07280294597148895,-2.1471970081329346
1666872890.89952493,315161485,42.688636599999995,-84.49157749999999,264.04998779296875,0.07542555034160614,-2.1445744037628174
1666872890.89964199,315161602,42.688636599999995,-84.49157749999999,264.04998779296875,0.07542555034160614,-2.1445744037628174
1666872890.93952298,315201483,42.688636599999995,-84.49157749999999,264.04998779296875,0.07796470820903778,-2.1420352458953857
1666872890.97964692,315241607,42.688636599999995,-84.49157749999999,264.05999755859375,0.08084337413311005,-2.1391565799713135
1666872890.99981594,315261776,42.688636599999995,-84.49157749999999,264.05999755859375,0.08200542628765106,-2.1379945278167725
1666872891.01966786,315281628,42.688636599999995,-84.49157749999999,264.05999755859375,0.0826830118894577,-2.137316942214966
1666872891.05929899,315321259,42.688636599999995,-84.49157749999999,264.05999755859375,0.08406727015972137,-2.135932683944702
1666872891.09955502,315361515,42.688636599999995,-84.49157749999999,264.05999755859375,0.0854746550321579,-2.1345252990722656
1666872891.09965897,315361619,42.688636599999995,-84.49157749999999,264.05999755859375,0.0854746550321579,-2.1345252990722656
1666872891.13943386,315401394,42.688636599999995,-84.49157749999999,264.05999755859375,0.08693544566631317,-2.1330645084381104
1666872891.17969799,315441658,42.688636599999995,-84.49157749999999,264.05999755859375,0.08767716586589813,-2.1323227882385254
1666872891.19951391,315461474,42.688636599999995,-84.49157749999999,264.05999755859375,0.0883135050535202,-2.1316864490509033
1666872891.21970105,315481661,42.688636599999995,-84.49157749999999,264.05999755859375,0.08791844546794891,-2.1320815086364746
1666872891.25927997,315521240,42.688636599999995,-84.49157749999999,264.05999755859375,0.08791820704936981,-2.1320817470550537
1666872891.29955387,315561514,42.688636599999995,-84.49157749999999,264.05999755859375,0.08807127177715302,-2.1319286823272705
1666872891.29967904,315561639,42.688636599999995,-84.49157749999999,264.05999755859375,0.08807127177715302,-2.1319286823272705
1666872891.33943391,315601394,42.688636599999995,-84.49157749999999,264.05999755859375,0.08842818439006805,-2.1315717697143555
1666872891.37970591,315641666,42.688636599999995,-84.49157749999999,264.05999755859375,0.08826296031475067,-2.131736993789673
1666872891.39962506,315661585,42.688636599999995,-84.49157749999999,264.05999755859375,0.08867780864238739,-2.131322145462036
1666872891.41975999,315681720,42.688636599999995,-84.49157749999999,264.05999755859375,0.08813183009624481,-2.1318681240081787
1666872891.45932603,315721286,42.688636599999995,-84.49157749999999,264.05999755859375,0.08753721415996552,-2.132462739944458
1666872891.49973202,315761692,42.688636599999995,-84.49157749999999,264.05999755859375,0.0870002955198288,-2.1329996585845947
1666872891.49983692,315761797,42.688636599999995,-84.49157749999999,264.05999755859375,0.0870002955198288,-2.1329996585845947
1666872891.53945398,315801414,42.688636599999995,-84.49157749999999,264.05999755859375,0.0866960734128952,-2.1333038806915283
1666872891.57976294,315841723,42.688636599999995,-84.49157749999999,264.05999755859375,0.08664648234844208,-2.1333534717559814
1666872891.59949207,315861452,42.688636599999995,-84.49157749999999,264.05999755859375,0.08741156756877899,-2.1325883865356445
1666872891.61964607,315881606,42.688636599999995,-84.49157749999999,264.05999755859375,0.0882055014371872,-2.1317944526672363
1666872891.65935898,315921319,42.688636599999995,-84.49157749999999,264.05999755859375,0.0895940512418747,-2.130405902862549
1666872891.69952607,315961486,42.688636599999995,-84.49157749999999,264.07000732421875,0.09095589816570282,-2.1290440559387207
1666872891.69971895,315961679,42.688636599999995,-84.49157749999999,264.07000732421875,0.09095589816570282,-2.1290440559387207
1666872891.73933196,316001292,42.688636599999995,-84.49157749999999,264.07000732421875,0.09235088527202606,-2.1276490688323975
1666872891.77977109,316041731,42.688636599999995,-84.49157749999999,264.07000732421875,0.0934397429227829,-2.1265602111816406
1666872891.79946589,316061426,42.688636599999995,-84.49157749999999,264.07000732421875,0.09406964480876923,-2.1259303092956543
1666872891.81962299,316081583,42.688636699999996,-84.49157749999999,264.07000732421875,0.09333626925945282,-2.1266636848449707
1666872891.85934496,316121305,42.688636699999996,-84.49157749999999,264.07000732421875,0.09275500476360321,-2.1272449493408203
1666872891.89948797,316161448,42.688636699999996,-84.49157749999999,264.07000732421875,0.09235160052776337,-2.12764835357666
1666872891.89963293,316161593,42.688636699999996,-84.49157749999999,264.07000732421875,0.09235160052776337,-2.12764835357666
1666872891.93939185,316201352,42.688636699999996,-84.49157749999999,264.07000732421875,0.0921580046415329,-2.1278419494628906
1666872891.97968388,316241644,42.688636699999996,-84.49157749999999,264.07000732421875,0.09145371615886688,-2.1285462379455566
1666872891.99986196,316261822,42.688636699999996,-84.49157749999999,264.07000732421875,0.09165780246257782,-2.1283421516418457
1666872892.01969600,316281656,42.688636699999996,-84.49157749999999,264.07000732421875,0.09193770587444305,-2.1280622482299805
1666872892.05938506,316321345,42.688636699999996,-84.49157749999999,264.07000732421875,0.09260980784893036,-2.127390146255493
1666872892.09952497,316361485,42.688636699999996,-84.49157749999999,264.07000732421875,0.09329812228679657,-2.126701831817627
1666872892.09965587,316361616,42.688636699999996,-84.49157749999999,264.07000732421875,0.09329812228679657,-2.126701831817627
1666872892.13943601,316401396,42.688636699999996,-84.49157749999999,264.07000732421875,0.09404341876506805,-2.1259565353393555
1666872892.17967796,316441638,42.688636699999996,-84.49157749999999,264.07000732421875,0.09478633105754852,-2.125213623046875
1666872892.19971490,316461675,42.688636699999996,-84.49157749999999,264.07000732421875,0.09531013667583466,-2.124689817428589
1666872892.21964598,316481606,42.688636699999996,-84.49157749999999,264.07000732421875,0.0962928980588913,-2.1237070560455322
1666872892.25927091,316521231,42.688636699999996,-84.49157749999999,264.07000732421875,0.09822742640972137,-2.121772527694702
1666872892.29948592,316561446,42.688636699999996,-84.49157749999999,264.0799865722656,0.1000014990568161,-2.1199984550476074
1666872892.29960394,316561564,42.688636699999996,-84.49157749999999,264.0799865722656,0.1000014990568161,-2.1199984550476074
1666872892.33944798,316601408,42.688636699999996,-84.49157749999999,264.0799865722656,0.10183565318584442,-2.118164300918579
1666872892.37977600,316641736,42.688636699999996,-84.49157749999999,264.0799865722656,0.10353843867778778,-2.1164615154266357
1666872892.39946389,316661424,42.688636699999996,-84.49157749999999,264.0799865722656,0.10429613292217255,-2.115703821182251
1666872892.41964293,316681603,42.688636699999996,-84.49157749999999,264.0799865722656,0.10449568927288055,-2.115504264831543
1666872892.45927405,316721234,42.688636699999996,-84.49157749999999,264.0799865722656,0.10521666705608368,-2.11478328704834
1666872892.49980497,316761765,42.688636699999996,-84.49157749999999,264.0799865722656,0.1061054915189743,-2.113894462585449
1666872892.49994707,316761907,42.688636699999996,-84.49157749999999,264.0799865722656,0.1061054915189743,-2.113894462585449
1666872892.53950095,316801461,42.688636699999996,-84.49157749999999,264.0799865722656,0.10693018138408661,-2.113069772720337
1666872892.57966805,316841628,42.688636699999996,-84.49157749999999,264.0799865722656,0.107386514544487,-2.1126134395599365
1666872892.59957194,316861532,42.688636699999996,-84.49157749999999,264.0799865722656,0.10783354938030243,-2.112166404724121
1666872892.61978292,316881743,42.688636699999996,-84.49157749999999,264.0799865722656,0.10771314799785614,-2.1122868061065674
1666872892.65927196,316921232,42.688636699999996,-84.49157749999999,264.0799865722656,0.10806791484355927,-2.1119320392608643
1666872892.69951105,316961471,42.688636699999996,-84.49157749999999,264.0799865722656,0.1086231917142868,-2.1113767623901367
1666872892.69961405,316961574,42.688636699999996,-84.49157749999999,264.0799865722656,0.1086231917142868,-2.1113767623901367
1666872892.73948908,317001449,42.688636699999996,-84.49157749999999,264.0799865722656,0.10920898616313934,-2.110790967941284
1666872892.77967691,317041637,42.688636699999996,-84.49157749999999,264.0799865722656,0.10955159366130829,-2.1104483604431152
1666872892.79949808,317061458,42.688636699999996,-84.49157749999999,264.0799865722656,0.10989563167095184,-2.1101043224334717
1666872892.81961608,317081576,42.688636699999996,-84.49157749999999,264.0899963378906,0.11074964702129364,-2.10925030708313
1666872892.85932708,317121287,42.688636699999996,-84.49157749999999,264.0899963378906,0.11243335902690887,-2.1075665950775146
1666872892.89952803,317161488,42.688636699999996,-84.49157749999999,264.0899963378906,0.11434833705425262,-2.105651617050171
1666872892.89962387,317161584,42.688636699999996,-84.49157749999999,264.0899963378906,0.11434833705425262,-2.105651617050171
1666872892.93943000,317201390,42.688636599999995,-84.49157749999999,264.0899963378906,0.11614100635051727,-2.1038589477539062
1666872892.97966194,317241622,42.688636599999995,-84.49157749999999,264.0899963378906,0.11739842593669891,-2.1026015281677246
1666872892.99976707,317261727,42.688636599999995,-84.49157749999999,264.0899963378906,0.11808817088603973,-2.101911783218384
1666872893.01967788,317281638,42.688636599999995,-84.49157749999999,264.0899963378906,0.1186618059873581,-2.1013381481170654
1666872893.05934787,317321308,42.688636599999995,-84.49157749999999,264.1000061035156,0.12008349597454071,-2.099916458129883
1666872893.09958506,317361545,42.688636599999995,-84.49157749999999,264.1000061035156,0.12143127620220184,-2.0985686779022217
1666872893.09969997,317361660,42.688636599999995,-84.49157749999999,264.1000061035156,0.12143127620220184,-2.0985686779022217
1666872893.13944292,317401403,42.688636599999995,-84.49157749999999,264.1000061035156,0.12268917262554169,-2.097310781478882
1666872893.17967987,317441640,42.688636599999995,-84.49157749999999,264.1000061035156,0.12491266429424286,-2.0950872898101807
1666872893.19952202,317461482,42.688636599999995,-84.49157749999999,264.1000061035156,0.12583868205547333,-2.09416127204895
1666872893.21970201,317481662,42.688636599999995,-84.49157749999999,264.1000061035156,0.12731878459453583,-2.0926811695098877
1666872893.25938106,317521341,42.688636599999995,-84.49157749999999,264.1099853515625,0.13000242412090302,-2.0899975299835205
1666872893.29943705,317561397,42.688636599999995,-84.49157749999999,264.1099853515625,0.1325487345457077,-2.087451219558716
1666872893.29956889,317561529,42.688636599999995,-84.49157749999999,264.1099853515625,0.1325487345457077,-2.087451219558716
1666872893.33941197,317601372,42.688636599999995,-84.49157749999999,264.1099853515625,0.13488881289958954,-2.085111141204834
1666872893.37965894,317641619,42.688636599999995,-84.49157749999999,264.1099853515625,0.13908283412456512,-2.0809171199798584
1666872893.39947605,317661436,42.688636599999995,-84.49157749999999,264.1199951171875,0.14034096896648407,-2.0796589851379395
1666872893.41967297,317681633,42.688636599999995,-84.4915776,264.1199951171875,0.14199034869670868,-2.078009605407715
1666872893.45949006,317721450,42.688636599999995,-84.4915776,264.1199951171875,0.14547865092754364,-2.07452130317688
1666872893.49979901,317761759,42.688636599999995,-84.4915776,264.1199951171875,0.14914576709270477,-2.0708541870117188
1666872893.49991488,317761875,42.688636599999995,-84.4915776,264.1199951171875,0.14914576709270477,-2.0708541870117188
1666872893.53940606,317801366,42.688636599999995,-84.4915776,264.1300048828125,0.15255825221538544,-2.067441701889038
1666872893.57974505,317841705,42.688636599999995,-84.4915776,264.1300048828125,0.1579868048429489,-2.0620131492614746
1666872893.59965301,317861613,42.688636599999995,-84.4915776,264.1300048828125,0.1595398634672165,-2.060460090637207
1666872893.61960888,317881569,42.688636599999995,-84.4915776,264.1399841308594,0.16237561404705048,-2.057624340057373
1666872893.65934801,317921308,42.688636599999995,-84.4915776,264.1399841308594,0.16719119250774384,-2.0528087615966797
1666872893.69951987,317961480,42.688636599999995,-84.4915776,264.1499938964844,0.1719016283750534,-2.04809832572937
1666872893.69965005,317961610,42.688636599999995,-84.4915776,264.1499938964844,0.1719016283750534,-2.04809832572937
1666872893.73943186,318001392,42.688636599999995,-84.4915776,264.1499938964844,0.17624346911907196,-2.0437564849853516
1666872893.77970695,318041667,42.688636599999995,-84.4915776,264.1600036621094,0.1837889403104782,-2.0362110137939453
1666872893.79953909,318061499,42.688636599999995,-84.4915776,264.1600036621094,0.18593232333660126,-2.0340676307678223
1666872893.81968999,318081650,42.688636599999995,-84.4915776,264.1600036621094,0.18856756389141083,-2.0314323902130127
1666872893.85929799,318121258,42.688636599999995,-84.4915776,264.16998291015625,0.1942528933286667,-2.025747060775757
1666872893.89954591,318161506,42.688636599999995,-84.4915776,264.17999267578125,0.20013205707073212,-2.0198678970336914
1666872893.89965391,318161614,42.688636599999995,-84.4915776,264.17999267578125,0.20013205707073212,-2.0198678970336914
1666872893.93951488,318201475,42.6886365,-84.4915776,264.17999267578125,0.20561258494853973,-2.014387369155884
1666872893.97975397,318241714,42.6886365,-84.4915776,264.19000244140625,0.2143499106168747,-2.005650043487549
1666872893.99996400,318261924,42.6886365,-84.4915776,264.19000244140625,0.21682994067668915,-2.0031700134277344
1666872894.01964092,318281601,42.6886365,-84.4915776,264.1999816894531,0.2213178128004074,-1.9986821413040161
1666872894.05927205,318321232,42.6886365,-84.4915776,264.1999816894531,0.22973720729351044,-1.990262746810913
1666872894.09954000,318361500,42.6886365,-84.4915776,264.2099914550781,0.2381676882505417,-1.9818322658538818
1666872894.09965801,318361618,42.6886365,-84.4915776,264.2099914550781,0.2381676882505417,-1.9818322658538818
1666872894.13951302,318401473,42.6886365,-84.4915776,264.2200012207031,0.24584810435771942,-1.974151849746704
1666872894.17980695,318441767,42.6886365,-84.4915777,264.22998046875,0.25811710953712463,-1.9618828296661377
1666872894.19947791,318461438,42.6886365,-84.4915777,264.239990234375,0.2615021765232086,-1.9584977626800537
1666872894.21957898,318481539,42.6886365,-84.4915777,264.239990234375,0.2666400969028473,-1.953359842300415
1666872894.25927496,318521235,42.6886365,-84.4915777,264.25,0.27656546235084534,-1.943434476852417
1666872894.29962206,318561582,42.6886365,-84.4915777,264.2599792480469,0.2868124544620514,-1.933187484741211
1666872894.29973698,318561697,42.6886365,-84.4915777,264.2599792480469,0.2868124544620514,-1.933187484741211
1666872894.33948994,318601450,42.6886365,-84.4915777,264.2699890136719,0.29645517468452454,-1.9235447645187378
1666872894.37972903,318641689,42.6886365,-84.4915777,264.2900085449219,0.3127281963825226,-1.9072717428207397
1666872894.39951992,318661480,42.6886365,-84.4915777,264.2900085449219,0.31708112359046936,-1.902918815612793
1666872894.41972494,318681685,42.6886364,-84.4915777,264.29998779296875,0.323712021112442,-1.8962879180908203
1666872894.45938802,318721348,42.6886364,-84.4915776,264.30999755859375,0.3370497524738312,-1.8829501867294312
1666872894.49978399,318761744,42.6886364,-84.4915776,264.3299865722656,0.35103216767311096,-1.8689677715301514
1666872894.49985600,318761816,42.6886364,-84.4915776,264.3299865722656,0.35103216767311096,-1.8689677715301514
1666872894.53951693,318801477,42.6886364,-84.4915776,264.3399963378906,0.36479905247688293,-1.8552008867263794
1666872894.57965899,318841619,42.6886364,-84.4915776,264.3599853515625,0.3862932026386261,-1.8337067365646362
1666872894.59959006,318861550,42.6886364,-84.4915776,264.3699951171875,0.39344051480293274,-1.8265594244003296
1666872894.61969590,318881656,42.6886364,-84.4915776,264.3800048828125,0.40388837456703186,-1.8161115646362305
1666872894.65934300,318921303,42.6886364,-84.4915776,264.3999938964844,0.4241913855075836,-1.7958085536956787
1666872894.69948387,318961444,42.6886363,-84.4915776,264.41998291015625,0.4452475607395172,-1.7747523784637451
1666872894.69962192,318961582,42.6886363,-84.4915776,264.41998291015625,0.4452475607395172,-1.7747523784637451
1666872894.73940086,319001361,42.6886363,-84.4915776,264.44000244140625,0.4656544029712677,-1.7543455362319946
1666872894.77965498,319041615,42.6886363,-84.4915776,264.4700012207031,0.4929838478565216,-1.7270160913467407
1666872894.79953599,319061496,42.6886363,-84.4915776,264.47998046875,0.5026745200157166,-1.7173254489898682
1666872894.81969905,319081659,42.6886363,-84.4915776,264.489990234375,0.5169451832771301,-1.7030547857284546
1666872894.85940194,319121362,42.6886362,-84.4915776,264.5199890136719,0.5436145663261414,-1.6763854026794434
1666872894.89971685,319161677,42.6886362,-84.4915776,264.54998779296875,0.5716156363487244,-1.6483843326568604
1666872894.89978886,319161749,42.6886362,-84.4915776,264.54998779296875,0.5716156363487244,-1.6483843326568604
1666872894.93934894,319201309,42.6886362,-84.4915776,264.57000732421875,0.5993544459342957,-1.620645523071289
1666872894.97967196,319241632,42.6886361,-84.4915776,264.6099853515625,0.6332488656044006,-1.586751103401184
1666872894.99986696,319261827,42.6886361,-84.4915776,264.6199951171875,0.6457698941230774,-1.5742300748825073
1666872895.01966500,319281625,42.6886361,-84.4915776,264.6399841308594,0.6615439057350159,-1.5584560632705688
1666872895.05941987,319321380,42.688635999999995,-84.4915776,264.66998291015625,0.6997615694999695,-1.5202383995056152
1666872895.09944797,319361408,42.688635999999995,-84.4915776,264.7200012207031,0.741515576839447,-1.4784843921661377
1666872895.09959507,319361555,42.688635999999995,-84.4915776,264.7200012207031,0.741515576839447,-1.4784843921661377
1666872895.13955402,319401514,42.688635999999995,-84.4915776,264.7599792480469,0.7810779213905334,-1.4389220476150513
1666872895.17972207,319441682,42.6886359,-84.4915776,264.82000732421875,0.8418633341789246,-1.3781366348266602
1666872895.19956589,319461526,42.6886359,-84.4915776,264.8399963378906,0.8614804148674011,-1.3585195541381836
1666872895.21961594,319481576,42.6886359,-84.4915776,264.8599853515625,0.8884915709495544,-1.3315083980560303
1666872895.25940990,319521370,42.6886358,-84.4915776,264.91998291015625,0.9416361451148987,-1.278363823890686
1666872895.29952097,319561481,42.6886358,-84.4915776,264.9700012207031,0.9953836798667908,-1.224616289138794
1666872895.29966307,319561623,42.6886358,-84.4915776,264.9700012207031,0.9953836798667908,-1.224616289138794
1666872895.33946896,319601429,42.6886357,-84.4915776,265.0199890136719,1.0457123517990112,-1.1742875576019287
1666872895.37969089,319641651,42.6886357,-84.4915776,265.0899963378906,1.1110635995864868,-1.1089363098144531
1666872895.39954400,319661504,42.6886357,-84.4915776,265.1099853515625,1.1318867206573486,-1.0881131887435913
1666872895.41964698,319681607,42.6886357,-84.4915776,265.1300048828125,1.1593577861785889,-1.060642123222351
1666872895.45927787,319721238,42.6886356,-84.4915776,265.17999267578125,1.208068609237671,-1.011931300163269
1666872895.49987888,319761839,42.6886356,-84.4915776,265.22998046875,1.2543731927871704,-0.9656267166137695
1666872895.49998093,319761941,42.6886356,-84.4915776,265.22998046875,1.2543731927871704,-0.9656267166137695
1666872895.53953791,319801498,42.6886355,-84.4915776,265.2699890136719,1.2975170612335205,-0.9224829077720642
1666872895.57976699,319841727,42.6886355,-84.49157749999999,265.32000732421875,1.3480503559112549,-0.8719496130943298
1666872895.59953594,319861496,42.6886355,-84.49157749999999,265.3399963378906,1.365032434463501,-0.854967474937439
1666872895.61965895,319881619,42.6886355,-84.49157749999999,265.3599853515625,1.3863410949707031,-0.8336588144302368
1666872895.65927196,319921232,42.688635399999995,-84.4915774,265.3999938964844,1.4235444068908691,-0.7964555621147156
1666872895.69949293,319961453,42.688635399999995,-84.4915774,265.42999267578125,1.4590574502944946,-0.7609424591064453
1666872895.69960999,319961570,42.688635399999995,-84.4915774,265.42999267578125,1.4590574502944946,-0.7609424591064453
1666872895.73947597,320001436,42.6886353,-84.4915773,265.4700012207031,1.4920101165771484,-0.7279898524284363
1666872895.77976990,320041730,42.6886353,-84.4915773,265.5,1.5283879041671753,-0.6916120648384094
1666872895.79954791,320061508,42.6886352,-84.4915772,265.5199890136719,1.5415685176849365,-0.6784313917160034
1666872895.81969404,320081654,42.6886352,-84.4915772,265.5299987792969,1.5566649436950684,-0.6633350253105164
1666872895.85927701,320121237,42.6886351,-84.4915772,265.55999755859375,1.5821075439453125,-0.6378924250602722
1666872895.89957595,320161536,42.6886349,-84.4915771,265.5799865722656,1.6061140298843384,-0.6138858795166016
1666872895.89969492,320161655,42.6886349,-84.4915771,265.5799865722656,1.6061140298843384,-0.6138858795166016
1666872895.93944287,320201403,42.6886349,-84.4915771,265.6000061035156,1.6296350955963135,-0.5903648734092712
1666872895.97989702,320241857,42.688634799999996,-84.49157699999999,265.6199951171875,1.648277759552002,-0.5717222094535828
1666872895.99977398,320261734,42.688634799999996,-84.49157699999999,265.6300048828125,1.6575994491577148,-0.5624004602432251
1666872896.01970291,320281663,42.6886347,-84.49157699999999,265.6399841308594,1.664717197418213,-0.5552827715873718
1666872896.05932808,320321288,42.6886346,-84.49157699999999,265.6499938964844,1.6751084327697754,-0.5448915362358093
1666872896.09946394,320361424,42.6886345,-84.49157699999999,265.6600036621094,1.684369444847107,-0.5356305241584778
1666872896.09960103,320361561,42.6886345,-84.49157699999999,265.6600036621094,1.684369444847107,-0.5356305241584778
1666872896.13949299,320401453,42.6886344,-84.49157699999999,265.66998291015625,1.6949546337127686,-0.5250452756881714
1666872896.17969704,320441657,42.6886344,-84.49157699999999,265.66998291015625,1.697617530822754,-0.522382378578186
1666872896.19947886,320461439,42.6886343,-84.49157699999999,265.67999267578125,1.703903317451477,-0.5160966515541077
1666872896.21965599,320481616,42.688634199999996,-84.4915771,265.67999267578125,1.7058746814727783,-0.5141252875328064
1666872896.25934505,320521305,42.6886341,-84.4915771,265.69000244140625,1.7109421491622925,-0.5090577602386475
1666872896.29949403,320561454,42.688634,-84.4915772,265.69000244140625,1.7163974046707153,-0.5036025643348694
1666872896.29967403,320561634,42.688634,-84.4915772,265.69000244140625,1.7163974046707153,-0.5036025643348694
1666872896.33949900,320601459,42.6886339,-84.4915773,265.6999816894531,1.7240780591964722,-0.49592190980911255
1666872896.37962508,320641585,42.6886337,-84.4915774,265.6999816894531,1.7223633527755737,-0.4976365864276886
1666872896.39967299,320661633,42.6886337,-84.4915774,265.6999816894531,1.7285027503967285,-0.4914971590042114
1666872896.41966105,320681621,42.688633599999996,-84.4915774,265.7099914550781,1.730070948600769,-0.4899290204048157
1666872896.45942402,320721384,42.6886334,-84.4915774,265.7099914550781,1.7363687753677368,-0.4836311340332031
1666872896.49980187,320761762,42.6886333,-84.49157749999999,265.7200012207031,1.7431920766830444,-0.4768078625202179
1666872896.49990296,320761863,42.6886333,-84.49157749999999,265.7200012207031,1.7431920766830444,-0.4768078625202179
1666872896.53937197,320801332,42.6886331,-84.4915776,265.72998046875,1.7520471811294556,-0.46795275807380676
1666872896.57970405,320841664,42.688632999999996,-84.4915777,265.72998046875,1.7505661249160767,-0.46943381428718567
1666872896.59947991,320861440,42.688632899999995,-84.4915777,265.72998046875,1.7573155164718628,-0.4626844823360443
1666872896.61964297,320881603,42.6886328,-84.4915778,265.72998046875,1.7591806650161743,-0.4608193039894104
1666872896.65933704,320921297,42.6886327,-84.4915778,265.739990234375,1.7668743133544922,-0.45312562584877014
1666872896.69952297,320961483,42.6886325,-84.4915779,265.75,1.7752431631088257,-0.4447568356990814
1666872896.69965196,320961612,42.6886325,-84.4915779,265.75,1.7752431631088257,-0.4447568356990814
1666872896.73942208,321001382,42.688632399999996,-84.49157799999999,265.7599792480469,1.78641939163208,-0.433580607175827
1666872896.77963185,321041592,42.6886322,-84.4915781,265.7699890136719,1.7913994789123535,-0.4286004304885864
1666872896.79953694,321061497,42.6886321,-84.4915781,265.7799987792969,1.8001271486282349,-0.4198727607727051
1666872896.82006598,321082026,42.6886321,-84.4915781,265.7799987792969,1.8039873838424683,-0.41601261496543884
1666872896.85936999,321121330,42.6886319,-84.49157819999999,265.7900085449219,1.8171828985214233,-0.4028170108795166
1666872896.89957094,321161531,42.688631799999996,-84.49157819999999,265.80999755859375,1.8306933641433716,-0.38930660486221313
1666872896.89970589,321161666,42.688631799999996,-84.49157819999999,265.80999755859375,1.8306933641433716,-0.38930660486221313
1666872896.93941903,321201379,42.6886316,-84.49157819999999,265.82000732421875,1.8463304042816162,-0.37366950511932373
1666872896.97978091,321241741,42.6886315,-84.49157819999999,265.8299865722656,1.8567001819610596,-0.36329972743988037
1666872896.99993896,321261899,42.6886314,-84.4915783,265.8399963378906,1.8667320013046265,-0.35326793789863586
1666872897.01965404,321281614,42.6886313,-84.49157819999999,265.8500061035156,1.8731988668441772,-0.34680110216140747
1666872897.05941987,321321380,42.688631199999996,-84.49157819999999,265.8599853515625,1.8888072967529297,-0.33119261264801025
1666872897.09954596,321361506,42.688631099999995,-84.49157819999999,265.8800048828125,1.9045727252960205,-0.3154272735118866
1666872897.09962296,321361583,42.688631099999995,-84.49157819999999,265.8800048828125,1.9045727252960205,-0.3154272735118866
1666872897.13949800,321401458,42.6886309,-84.4915781,265.8999938964844,1.9210209846496582,-0.2989789545536041
1666872897.17977405,321441734,42.6886308,-84.4915781,265.8999938964844,1.9297975301742554,-0.29020246863365173
1666872897.19953704,321461497,42.6886307,-84.4915781,265.9100036621094,1.9388813972473145,-0.2811185419559479
1666872897.21971297,321481673,42.6886307,-84.49157799999999,265.91998291015625,1.943326711654663,-0.27667319774627686
1666872897.25928497,321521245,42.688630599999996,-84.49157799999999,265.92999267578125,1.9540735483169556,-0.2659263610839844
1666872897.29943800,321561398,42.6886304,-84.4915779,265.94000244140625,1.9652767181396484,-0.2547232210636139
1666872897.29953790,321561498,42.6886304,-84.4915779,265.94000244140625,1.9652767181396484,-0.2547232210636139
1666872897.33953905,321601499,42.6886303,-84.4915778,265.9499816894531,1.9770734310150146,-0.2429264932870865
1666872897.37970591,321641666,42.6886302,-84.4915777,265.9599914550781,1.9840281009674072,-0.23597189784049988
1666872897.39949703,321661457,42.6886302,-84.4915777,265.9700012207031,1.9919087886810303,-0.22809113562107086
1666872897.41971302,321681673,42.6886301,-84.4915777,265.9700012207031,1.9950650930404663,-0.2249348759651184
1666872897.45926499,321721225,42.688629999999996,-84.4915776,265.97998046875,2.004873037338257,-0.21512699127197266
1666872897.49976087,321761721,42.688629899999995,-84.49157749999999,265.989990234375,2.014793872833252,-0.2052059918642044
1666872897.49989104,321761851,42.688629899999995,-84.49157749999999,265.989990234375,2.014793872833252,-0.2052059918642044
1666872897.53946686,321801427,42.6886298,-84.49157749999999,266.0,2.025749683380127,-0.19425027072429657
1666872897.57970905,321841669,42.6886298,-84.4915774,266.0099792480469,2.0309207439422607,-0.18907921016216278
1666872897.59958601,321861546,42.6886297,-84.4915774,266.0099792480469,2.037482261657715,-0.18251773715019226
1666872897.61965299,321881613,42.6886297,-84.4915773,266.0199890136719,2.0411243438720703,-0.17887553572654724
1666872897.65936708,321921327,42.6886296,-84.4915773,266.0299987792969,2.050786256790161,-0.16921371221542358
1666872897.69950795,321961468,42.6886295,-84.4915772,266.0400085449219,2.060424327850342,-0.1595757156610489
1666872897.69961500,321961575,42.6886295,-84.4915772,266.0400085449219,2.060424327850342,-0.1595757156610489
1666872897.73938298,322001343,42.688629399999996,-84.4915771,266.04998779296875,2.0704705715179443,-0.1495293229818344
1666872897.77968597,322041646,42.688629299999995,-84.4915771,266.04998779296875,2.0759928226470947,-0.14400714635849
1666872897.79948497,322061445,42.688629299999995,-84.49157699999999,266.05999755859375,2.0817830562591553,-0.13821683824062347
1666872897.81996608,322081926,42.6886292,-84.49157699999999,266.05999755859375,2.084609031677246,-0.13539081811904907
1666872897.85932398,322121284,42.6886291,-84.49157699999999,266.07000732421875,2.0920448303222656,-0.1279551386833191
1666872897.89963007,322161590,42.6886291,-84.4915769,266.07000732421875,2.0991196632385254,-0.12088017165660858
1666872897.89972901,322161689,42.6886291,-84.4915769,266.07000732421875,2.0991196632385254,-0.12088017165660858
1666872897.93943405,322201394,42.688629,-84.4915769,266.0799865722656,2.107013702392578,-0.11298627406358719
1666872897.97966099,322241621,42.6886289,-84.49157679999999,266.0799865722656,2.1094510555267334,-0.11054890602827072
1666872897.99981403,322261774,42.6886289,-84.49157679999999,266.0899963378906,2.114084005355835,-0.10591593384742737
1666872898.01962805,322281588,42.6886288,-84.49157679999999,266.0899963378906,2.1152732372283936,-0.10472676157951355
1666872898.05942607,322321386,42.6886288,-84.49157679999999,266.1000061035156,2.120124101638794,-0.09987592697143555
1666872898.09954786,322361508,42.688628699999995,-84.4915767,266.1000061035156,2.1253349781036377,-0.09466493874788284
1666872898.09968996,322361650,42.688628699999995,-84.4915767,266.1000061035156,2.1253349781036377,-0.09466493874788284
1666872898.13943601,322401396,42.6886286,-84.4915767,266.1099853515625,2.131098747253418,-0.08890125900506973
1666872898.17968798,322441648,42.6886286,-84.4915767,266.1099853515625,2.13083815574646,-0.08916173875331879
1666872898.19944406,322461404,42.6886285,-84.4915766,266.1099853515625,2.1341419219970703,-0.08585813641548157
1666872898.21962595,322481586,42.6886285,-84.4915766,266.1099853515625,2.1345202922821045,-0.08547976613044739
1666872898.25941586,322521376,42.6886284,-84.4915766,266.1099853515625,2.137944221496582,-0.08205576986074448
1666872898.29949903,322561459,42.6886284,-84.4915766,266.1199951171875,2.1415927410125732,-0.07840731739997864
1666872898.29963207,322561592,42.6886284,-84.4915766,266.1199951171875,2.1415927410125732,-0.07840731739997864
1666872898.33943701,322601397,42.6886283,-84.4915766,266.1199951171875,2.1456100940704346,-0.07438988983631134
1666872898.37970090,322641661,42.6886282,-84.4915766,266.1199951171875,2.146038293838501,-0.07396166771650314
1666872898.39951801,322661478,42.6886282,-84.4915765,266.1199951171875,2.148665428161621,-0.07133444398641586
1666872898.41968393,322681644,42.6886282,-84.4915765,266.1199951171875,2.149104356765747,-0.07089568674564362
1666872898.45935702,322721317,42.688628099999995,-84.4915765,266.1300048828125,2.1522984504699707,-0.06770145148038864
1666872898.50007200,322762032,42.688628099999995,-84.4915765,266.1300048828125,2.1556968688964844,-0.0643031895160675
1666872898.50019002,322762150,42.688628099999995,-84.4915765,266.1300048828125,2.1556968688964844,-0.0643031895160675
1666872898.53945088,322801411,42.688628,-84.4915765,266.1300048828125,2.159299373626709,-0.06070069596171379
1666872898.57974195,322841702,42.6886279,-84.4915765,266.1399841308594,2.161292791366577,-0.05870717018842697
1666872898.59960794,322861568,42.6886279,-84.4915765,266.1399841308594,2.1638293266296387,-0.056170571595430374
1666872898.61971498,322881675,42.6886279,-84.4915765,266.1399841308594,2.164801836013794,-0.05519803985953331
1666872898.65928793,322921248,42.6886278,-84.4915765,266.1399841308594,2.168290376663208,-0.05170963332056999
1666872898.69951987,322961480,42.6886277,-84.4915765,266.1499938964844,2.1717114448547363,-0.04828861728310585
1666872898.69958997,322961550,42.6886277,-84.4915765,266.1499938964844,2.1717114448547363,-0.04828861728310585
1666872898.73942399,323001384,42.6886277,-84.4915765,266.1499938964844,2.17533540725708,-0.04466461390256882
1666872898.77974296,323041703,42.6886276,-84.4915765,266.1499938964844,2.1776766777038574,-0.042323287576436996
1666872898.79949498,323061455,42.6886276,-84.4915765,266.1499938964844,2.1797244548797607,-0.04027559235692024
1666872898.81983805,323081798,42.6886276,-84.4915765,266.1600036621094,2.180335760116577,-0.03966417908668518
1666872898.85936308,323121323,42.688627499999996,-84.4915765,266.1600036621094,2.182668447494507,-0.03733145073056221
1666872898.89960408,323161564,42.6886274,-84.4915765,266.1600036621094,2.1850666999816895,-0.03493336960673332
1666872898.89970899,323161669,42.6886274,-84.4915765,266.1600036621094,2.1850666999816895,-0.03493336960673332
1666872898.93943286,323201393,42.6886274,-84.4915764,266.1600036621094,2.187483310699463,-0.03251652047038078
1666872898.97978592,323241746,42.6886273,-84.4915764,266.1600036621094,2.1888911724090576,-0.031108850613236427
1666872898.99987292,323261833,42.6886272,-84.4915764,266.16998291015625,2.1903343200683594,-0.029665706679224968
1666872899.01974392,323281704,42.6886272,-84.4915764,266.16998291015625,2.190880060195923,-0.02911989763379097
1666872899.05930185,323321262,42.6886271,-84.4915764,266.16998291015625,2.1924400329589844,-0.027559803798794746
1666872899.09951997,323361480,42.688627,-84.4915764,266.16998291015625,2.1937944889068604,-0.02620554156601429
1666872899.09962392,323361584,42.688627,-84.4915764,266.16998291015625,2.1937944889068604,-0.02620554156601429
1666872899.13943696,323401397,42.688626899999996,-84.4915764,266.16998291015625,2.1951816082000732,-0.024818258360028267
1666872899.17975688,323441717,42.6886268,-84.49157629999999,266.16998291015625,2.195197582244873,-0.02480243146419525
1666872899.19953203,323461492,42.6886267,-84.49157629999999,266.16998291015625,2.1957688331604004,-0.024231070652604103
1666872899.21975207,323481712,42.6886267,-84.49157629999999,266.16998291015625,2.196019172668457,-0.02398088201880455
1666872899.25936508,323521325,42.6886266,-84.4915762,266.16998291015625,2.196183204650879,-0.023816736415028572
1666872899.29942894,323561389,42.6886264,-84.4915762,266.16998291015625,2.195798635482788,-0.024201346561312675
1666872899.29956102,323561521,42.6886264,-84.4915762,266.16998291015625,2.195798635482788,-0.024201346561312675
1666872899.33959198,323601552,42.688626299999996,-84.4915761,266.16998291015625,2.1952624320983887,-0.024737633764743805
1666872899.37968993,323641650,42.6886261,-84.4915761,266.16998291015625,2.193784236907959,-0.02621578797698021
1666872899.39957690,323661537,42.688626,-84.491576,266.16998291015625,2.1934454441070557,-0.026554565876722336
1666872899.41958094,323681541,42.6886259,-84.491576,266.16998291015625,2.1920201778411865,-0.027979841455817223
1666872899.45935893,323721319,42.6886258,-84.4915759,266.1600036621094,2.1896567344665527,-0.03034311719238758
1666872899.49979591,323761756,42.688625599999995,-84.49157579999999,266.1600036621094,2.1872498989105225,-0.03274998441338539
1666872899.49987197,323761832,42.688625599999995,-84.49157579999999,266.1600036621094,2.1872498989105225,-0.03274998441338539
1666872899.53939700,323801357,42.6886255,-84.4915757,266.1600036621094,2.1847894191741943,-0.03521054983139038
1666872899.57976794,323841728,42.6886253,-84.49157559999999,266.1600036621094,2.1813862323760986,-0.03861379623413086
1666872899.59953594,323861496,42.6886252,-84.4915755,266.1600036621094,2.180213451385498,-0.039786405861377716
1666872899.61963201,323881592,42.6886252,-84.4915755,266.1499938964844,2.178637742996216,-0.041362203657627106
1666872899.65933585,323921296,42.688625099999996,-84.4915754,266.1499938964844,2.1759493350982666,-0.044050510972738266
1666872899.69948101,323961441,42.688624999999995,-84.4915752,266.1499938964844,2.173491954803467,-0.04650810360908508
1666872899.69964290,323961603,42.688624999999995,-84.4915752,266.1499938964844,2.173491954803467,-0.04650810360908508
1666872899.73939300,324001353,42.6886249,-84.49157509999999,266.1499938964844,2.1709911823272705,-0.04900885000824928
1666872899.77967787,324041638,42.6886249,-84.491575,266.1399841308594,2.167452812194824,-0.05254713073372841
1666872899.79950690,324061467,42.6886248,-84.49157489999999,266.1399841308594,2.166147232055664,-0.053852763026952744
1666872899.81966400,324081624,42.6886249,-84.49157489999999,266.1399841308594,2.1644880771636963,-0.0555119551718235
1666872899.85939908,324121359,42.6886249,-84.4915748,266.1399841308594,2.161541223526001,-0.058458682149648666
1666872899.89955592,324161516,42.688624999999995,-84.49157459999999,266.1300048828125,2.158616065979004,-0.061383768916130066
1666872899.89968896,324161649,42.688624999999995,-84.49157459999999,266.1300048828125,2.158616065979004,-0.061383768916130066
1666872899.93945789,324201418,42.688624999999995,-84.4915745,266.1300048828125,2.1556079387664795,-0.0643920972943306
1666872899.97959900,324241559,42.688625099999996,-84.49157439999999,266.1300048828125,2.1523478031158447,-0.06765225529670715
1666872899.99985504,324261815,42.688625099999996,-84.4915743,266.1300048828125,2.150798797607422,-0.06920122355222702
1666872900.01963687,324281597,42.688625099999996,-84.4915743,266.1199951171875,2.1491453647613525,-0.07085461914539337
1666872900.05939603,324321356,42.6886253,-84.4915742,266.1199951171875,2.1453123092651367,-0.07468762993812561
1666872900.09955788,324361518,42.6886255,-84.4915741,266.1199951171875,2.141263246536255,-0.07873678207397461
1666872900.09969306,324361653,42.6886255,-84.4915741,266.1199951171875,2.141263246536255,-0.07873678207397461
1666872900.13942409,324401384,42.688625699999996,-84.4915741,266.1099853515625,2.1373536586761475,-0.08264630287885666
1666872900.17980599,324441766,42.688626,-84.491574,266.1099853515625,2.1326332092285156,-0.08736669272184372
1666872900.19953203,324461492,42.688626,-84.49157389999999,266.1099853515625,2.1305525302886963,-0.08944739401340485
1666872900.21963596,324481596,42.688626199999995,-84.49157389999999,266.1000061035156,2.1282646656036377,-0.0917353481054306
1666872900.25943589,324521396,42.6886265,-84.49157389999999,266.1000061035156,2.12353515625,-0.09646470844745636
1666872900.29953504,324561495,42.6886268,-84.49157389999999,266.0899963378906,2.1187572479248047,-0.10124275833368301
1666872900.29965591,324561616,42.6886268,-84.49157389999999,266.0899963378906,2.1187572479248047,-0.10124275833368301
1666872900.33948994,324601450,42.6886271,-84.4915738,266.0899963378906,2.1140964031219482,-0.10590359568595886
1666872900.37963796,324641598,42.6886274,-84.4915738,266.0799865722656,2.1088063716888428,-0.11119352281093597
1666872900.39952493,324661485,42.688627499999996,-84.49157369999999,266.0799865722656,2.1064836978912354,-0.11351633816957474
1666872900.41963387,324681594,42.6886278,-84.49157369999999,266.0799865722656,2.1039059162139893,-0.11609409749507904
1666872900.45931506,324721275,42.688628099999995,-84.49157369999999,266.07000732421875,2.0986382961273193,-0.1213616356253624
1666872900.49975991,324761720,42.6886284,-84.49157369999999,266.07000732421875,2.093230724334717,-0.12676915526390076
1666872900.49988699,324761847,42.6886284,-84.49157369999999,266.07000732421875,2.093230724334717,-0.12676915526390076
1666872900.53945303,324801413,42.6886286,-84.4915736,266.05999755859375,2.0881102085113525,-0.13188964128494263
1666872900.57980204,324841762,42.688629,-84.4915736,266.05999755859375,2.082179546356201,-0.137820303440094
1666872900.59965992,324861620,42.6886291,-84.4915736,266.04998779296875,2.0797970294952393,-0.14020292460918427
1666872900.61971903,324881679,42.688629399999996,-84.4915736,266.04998779296875,2.077483892440796,-0.14251606166362762
1666872900.65933394,324921294,42.6886297,-84.4915736,266.04998779296875,2.072636842727661,-0.1473630666732788
1666872900.69942808,324961388,42.6886301,-84.4915735,266.0400085449219,2.0678365230560303,-0.1521633416414261
1666872900.69955587,324961516,42.6886301,-84.4915735,266.0400085449219,2.0678365230560303,-0.1521633416414261
1666872900.73943496,325001395,42.6886304,-84.4915735,266.0400085449219,2.06322979927063,-0.15677006542682648
1666872900.77966785,325041628,42.6886308,-84.4915735,266.0299987792969,2.0576446056365967,-0.16235530376434326
1666872900.79953098,325061491,42.6886309,-84.4915735,266.0299987792969,2.0554215908050537,-0.16457830369472504
1666872900.81976795,325081728,42.688631099999995,-84.4915735,266.0299987792969,2.054218053817749,-0.16578200459480286
1666872900.85932398,325121284,42.6886315,-84.4915734,266.0299987792969,2.0510246753692627,-0.16897515952587128
1666872900.89958286,325161543,42.688632,-84.4915734,266.0199890136719,2.0477006435394287,-0.1722993552684784
1666872900.89969707,325161657,42.688632,-84.4915734,266.0199890136719,2.0477006435394287,-0.1722993552684784
1666872900.93947887,325201439,42.688632299999995,-84.4915733,266.0199890136719,2.044351100921631,-0.1756487339735031
1666872900.97966886,325241629,42.6886326,-84.4915733,266.0099792480469,2.0399386882781982,-0.1800612211227417
1666872900.99980807,325261768,42.6886327,-84.4915733,266.0099792480469,2.0379886627197266,-0.18201135098934174
1666872901.01988697,325281847,42.688632899999995,-84.4915733,266.0099792480469,2.035487174987793,-0.1845128834247589
1666872901.05931902,325321279,42.6886333,-84.49157319999999,266.0099792480469,2.0304641723632812,-0.18953581154346466
1666872901.09953308,325361493,42.688633599999996,-84.49157319999999,266.0,2.02535343170166,-0.19464649260044098
1666872901.09966707,325361627,42.688633599999996,-84.49157319999999,266.0,2.02535343170166,-0.19464649260044098
1666872901.13942003,325401380,42.6886339,-84.49157319999999,266.0,2.0205466747283936,-0.19945338368415833
1666872901.17974401,325441704,42.6886343,-84.4915731,265.989990234375,2.014899492263794,-0.20510049164295197
1666872901.19960594,325461566,42.6886344,-84.4915731,265.989990234375,2.012643575668335,-0.2073563039302826
1666872901.21965098,325481611,42.6886347,-84.4915731,265.989990234375,2.0101358890533447,-0.20986400544643402
1666872901.25936604,325521326,42.688635,-84.491573,265.97998046875,2.005269765853882,-0.21473006904125214
1666872901.29946399,325561424,42.688635399999995,-84.491573,265.97998046875,2.000309467315674,-0.21969059109687805
1666872901.29961705,325561577,42.688635399999995,-84.491573,265.97998046875,2.000309467315674,-0.21969059109687805
1666872901.33949399,325601454,42.6886357,-84.4915729,265.9700012207031,1.9955757856369019,-0.22442413866519928
1666872901.37970304,325641663,42.6886361,-84.4915728,265.9700012207031,1.9902286529541016,-0.22977134585380554
1666872901.39948988,325661450,42.6886362,-84.4915728,265.9599914550781,1.9880281686782837,-0.23197174072265625
1666872901.41960096,325681561,42.6886364,-84.4915728,265.9599914550781,1.9861791133880615,-0.23382088541984558
1666872901.45933294,325721293,42.6886368,-84.49157269999999,265.9599914550781,1.9822182655334473,-0.23778162896633148
1666872901.49985790,325761818,42.6886371,-84.4915726,265.9499816894531,1.9781557321548462,-0.24184417724609375
1666872901.49995995,325761920,42.6886371,-84.4915726,265.9499816894531,1.9781557321548462,-0.24184417724609375
1666872901.53945208,325801412,42.6886375,-84.4915726,265.9499816894531,1.9743127822875977,-0.24568720161914825
1666872901.57968688,325841647,42.688637799999995,-84.49157249999999,265.9499816894531,1.970220923423767,-0.24977897107601166
1666872901.59955907,325861519,42.688638,-84.4915724,265.94000244140625,1.968443512916565,-0.251556396484375
1666872901.61965394,325881614,42.6886382,-84.4915724,265.94000244140625,1.9657914638519287,-0.2542085349559784
1666872901.65930605,325921266,42.6886386,-84.4915723,265.94000244140625,1.961010456085205,-0.25898948311805725
1666872901.69954300,325961503,42.6886389,-84.4915722,265.92999267578125,1.9564465284347534,-0.2635533809661865
1666872901.69964790,325961608,42.6886389,-84.4915722,265.92999267578125,1.9564465284347534,-0.2635533809661865
1666872901.73949289,326001453,42.6886393,-84.4915722,265.92999267578125,1.9521946907043457,-0.2678053081035614
1666872901.77966905,326041629,42.688639599999995,-84.4915721,265.91998291015625,1.947579026222229,-0.2724209427833557
1666872901.79949689,326061457,42.6886398,-84.4915721,265.91998291015625,1.9457533359527588,-0.2742466628551483
1666872901.81972504,326081685,42.68864,-84.49157199999999,265.91998291015625,1.9449687004089355,-0.27503126859664917
1666872901.85945392,326121414,42.6886404,-84.4915719,265.91998291015625,1.9427688121795654,-0.2772311866283417
1666872901.89954591,326161506,42.688640799999995,-84.4915718,265.91998291015625,1.94045090675354,-0.2795490622520447
1666872901.89966702,326161627,42.688640799999995,-84.4915718,265.91998291015625,1.94045090675354,-0.2795490622520447
1666872901.93945098,326201411,42.6886411,-84.4915717,265.9100036621094,1.9382572174072266,-0.28174272179603577
1666872901.97974801,326241708,42.688641499999996,-84.4915716,265.9100036621094,1.9352248907089233,-0.28477510809898376
1666872901.99982095,326261781,42.6886417,-84.4915716,265.9100036621094,1.9339545965194702,-0.2860453128814697
1666872902.01966786,326281628,42.6886419,-84.4915716,265.9100036621094,1.932885766029358,-0.2871142029762268
1666872902.05928302,326321243,42.6886423,-84.49157149999999,265.9100036621094,1.9303431510925293,-0.28965675830841064
1666872902.09956908,326361529,42.688642699999996,-84.4915714,265.8999938964844,1.9278234243392944,-0.2921765148639679
1666872902.09966898,326361629,42.688642699999996,-84.4915714,265.8999938964844,1.9278234243392944,-0.2921765148639679
1666872902.13948202,326401442,42.6886431,-84.49157129999999,265.8999938964844,1.925697684288025,-0.2943022847175598
1666872902.17969203,326441652,42.6886436,-84.4915712,265.8999938964844,1.9227458238601685,-0.29725411534309387
1666872902.19953489,326461495,42.6886437,-84.4915712,265.8999938964844,1.9216601848602295,-0.2983398139476776
1666872902.21966004,326481620,42.688644,-84.4915711,265.8999938964844,1.920190453529358,-0.2998095154762268
1666872902.25932789,326521288,42.6886444,-84.4915711,265.8899841308594,1.9172537326812744,-0.3027462661266327
1666872902.29944301,326561403,42.6886448,-84.491571,265.8899841308594,1.9144484996795654,-0.3055514991283417
1666872902.29959202,326561552,42.6886448,-84.491571,265.8899841308594,1.9144484996795654,-0.3055514991283417
1666872902.33945608,326601416,42.6886453,-84.4915709,265.8899841308594,1.9118950366973877,-0.30810487270355225
1666872902.37965202,326641612,42.688645699999995,-84.49157079999999,265.8800048828125,1.9095423221588135,-0.31045767664909363
1666872902.39946294,326661423,42.6886459,-84.4915707,265.8800048828125,1.9089316129684448,-0.3110683858394623
1666872902.41966605,326681626,42.6886461,-84.4915707,265.8800048828125,1.908850073814392,-0.31114986538887024
1666872902.45936704,326721327,42.6886466,-84.4915706,265.8800048828125,1.909300446510315,-0.3106995224952698
1666872902.49982190,326761782,42.688646999999996,-84.4915705,265.8899841308594,1.9103116989135742,-0.3096882104873657
1666872902.49992204,326761882,42.688646999999996,-84.4915705,265.8899841308594,1.9103116989135742,-0.3096882104873657
1666872902.53941607,326801376,42.688647499999995,-84.4915704,265.8899841308594,1.9117449522018433,-0.30825498700141907
1666872902.57973599,326841696,42.6886479,-84.49157029999999,265.8899841308594,1.913435697555542,-0.3065643012523651
1666872902.59955502,326861515,42.688648199999996,-84.49157029999999,265.8899841308594,1.9143606424331665,-0.3056392967700958
1666872902.61972189,326881682,42.6886484,-84.4915702,265.8899841308594,1.9158388376235962,-0.30416107177734375
1666872902.65933394,326921294,42.688648799999996,-84.49157009999999,265.8899841308594,1.9181848764419556,-0.30181506276130676
1666872902.69972587,326961686,42.6886492,-84.49157009999999,265.8999938964844,1.9206616878509521,-0.29933831095695496
1666872902.69979692,326961757,42.6886492,-84.49157009999999,265.8999938964844,1.9206616878509521,-0.29933831095695496
1666872902.73943591,327001396,42.6886497,-84.49157,265.8999938964844,1.9234706163406372,-0.29652929306030273
1666872902.77966309,327041623,42.6886501,-84.4915699,265.8999938964844,1.9270391464233398,-0.2929607927799225
1666872902.79955101,327061511,42.6886503,-84.4915699,265.8999938964844,1.9288440942764282,-0.2911558747291565
1666872902.81970406,327081664,42.6886505,-84.4915699,265.9100036621094,1.9308257102966309,-0.28917422890663147
1666872902.85933995,327121300,42.6886509,-84.4915698,265.9100036621094,1.933969259262085,-0.28603067994117737
1666872902.89948297,327161443,42.6886513,-84.4915698,265.9100036621094,1.9369018077850342,-0.28309813141822815
1666872902.89963007,327161590,42.6886513,-84.4915698,265.9100036621094,1.9369018077850342,-0.28309813141822815
1666872902.93946099,327201421,42.6886517,-84.4915698,265.9100036621094,1.9399572610855103,-0.2800426781177521
1666872902.97966409,327241624,42.688652,-84.4915698,265.91998291015625,1.9400752782821655,-0.2799246609210968
1666872902.99992990,327261890,42.6886523,-84.4915698,265.91998291015625,1.9411085844039917,-0.27889135479927063
1666872903.01963091,327281591,42.688652399999995,-84.4915698,265.91998291015625,1.9420469999313354,-0.27795296907424927
1666872903.05935097,327321311,42.6886528,-84.4915698,265.91998291015625,1.9431675672531128,-0.27683237195014954
1666872903.09952998,327361490,42.688653099999996,-84.4915698,265.91998291015625,1.9439277648925781,-0.276072233915329
1666872903.09966898,327361629,42.688653099999996,-84.4915698,265.91998291015625,1.9439277648925781,-0.276072233915329
1666872903.13943005,327401390,42.6886535,-84.4915698,265.91998291015625,1.9451723098754883,-0.27482765913009644
1666872903.17975807,327441718,42.6886538,-84.4915699,265.91998291015625,1.9455207586288452,-0.2744791507720947
1666872903.19950986,327461470,42.6886541,-84.4915699,265.91998291015625,1.9467599391937256,-0.27323997020721436
