timestamp,TimeUS,C,Q1,Q2,Q3,Q4
1666872888.57860994,312840570,1,-0.9964984655380249,0.003212576499208808,0.00567207857966423,0.08335671573877335
1666872888.59862208,312860582,1,-0.9964955449104309,0.003199707716703415,0.005670495331287384,0.08339209854602814
1666872888.61862087,312880581,1,-0.996494472026825,0.003198789432644844,0.005662159528583288,0.0834055170416832
1666872888.65861702,312920577,1,-0.9964931607246399,0.003198317950591445,0.005675850436091423,0.0834200531244278
1666872888.69864607,312960606,1,-0.9964925050735474,0.003188851522281766,0.005696542095392942,0.08342710137367249
1666872888.73862100,313000581,1,-0.9964926242828369,0.0031941295601427555,0.005698312073945999,0.08342532068490982
1666872888.77859402,313040554,1,-0.9964917302131653,0.003203514264896512,0.005712464917451143,0.08343454450368881
1666872888.79861593,313060576,1,-0.9964937567710876,0.0032141569536179304,0.005696718581020832,0.08341123908758163
1666872888.81859589,313080556,1,-0.9964936375617981,0.003213598160073161,0.0056804572232067585,0.08341345936059952
1666872888.85864902,313120609,1,-0.9964949488639832,0.0032197157852351665,0.005686948541551828,0.08339709043502808
1666872888.89858699,313160547,1,-0.9964953660964966,0.0032251805532723665,0.005704041104763746,0.08339115232229233
1666872888.93862796,313200588,1,-0.9965006113052368,0.0031998667400330305,0.0057195923291146755,0.08332847058773041
1666872888.97858191,313240542,1,-0.9965031147003174,0.0031997240148484707,0.005701493006199598,0.08329911530017853
1666872888.99862599,313260586,1,-0.9965053796768188,0.0031889500096440315,0.005706166848540306,0.08327233046293259
1666872889.01858401,313280544,1,-0.9965072870254517,0.0031917383894324303,0.0056921993382275105,0.08325071632862091
1666872889.05858397,313320544,1,-0.9965111017227173,0.0032108097802847624,0.0056984093971550465,0.08320371061563492
1666872889.09859490,313360555,1,-0.9965137243270874,0.0032048788852989674,0.005716861691325903,0.08317102491855621
1666872889.13863492,313400595,1,-0.9965161085128784,0.003198801539838314,0.005706967785954475,0.08314357697963715
1666872889.17861009,313440570,1,-0.9965155124664307,0.0031867651268839836,0.00571823213249445,0.08315055817365646
1666872889.19861507,313460575,1,-0.9965156316757202,0.0031919500324875116,0.005718911532312632,0.0831487700343132
1666872889.21858191,313480542,1,-0.996515691280365,0.003192391712218523,0.005711100064218044,0.08314827084541321
1666872889.25857806,313520538,1,-0.9965142011642456,0.003181791864335537,0.0057107023894786835,0.0831664502620697
1666872889.29856992,313560530,1,-0.9965149164199829,0.0031650566961616278,0.005705962423235178,0.08315905183553696
1666872889.33859205,313600552,1,-0.9965164065361023,0.003176202764734626,0.005695062223821878,0.08314179629087448
1666872889.37862897,313640589,1,-0.9965184330940247,0.003182892221957445,0.00572236068546772,0.08311551809310913
1666872889.39858294,313660543,1,-0.9965192675590515,0.003184986999258399,0.005728770978748798,0.08310483396053314
1666872889.41858006,313680540,1,-0.9965187311172485,0.0031936480663716793,0.005714903585612774,0.08311165869235992
1666872889.45858407,313720544,1,-0.9965198636054993,0.0031846712809056044,0.005698352586477995,0.0830996036529541
1666872889.49857807,313760538,1,-0.9965201616287231,0.003222131635993719,0.0057000210508704185,0.08309422433376312
1666872889.53859401,313800554,1,-0.9965208172798157,0.003219915321096778,0.005704747512936592,0.08308644592761993
1666872889.57867002,313840630,1,-0.9965237379074097,0.0032323228660970926,0.005690779536962509,0.08305206894874573
1666872889.59858394,313860544,1,-0.9965255260467529,0.003238881705328822,0.005694026127457619,0.08303019404411316
1666872889.61861706,313880577,1,-0.9965271949768066,0.0032548471353948116,0.0056727430783212185,0.08301100134849548
1666872889.65858102,313920541,1,-0.9965322017669678,0.0032599668484181166,0.005669930949807167,0.08295072615146637
1666872889.69858599,313960546,1,-0.9965357780456543,0.0032589619513601065,0.005677996203303337,0.08290677517652512
1666872889.73859191,314000552,1,-0.9965394139289856,0.0032566089648753405,0.0056883953511714935,0.08286295086145401
1666872889.77862906,314040589,1,-0.9965431094169617,0.003257173579186201,0.005692839622497559,0.08281774818897247
1666872889.79858303,314060543,1,-0.9965438842773438,0.003260996425524354,0.0056848591193556786,0.08280931413173676
1666872889.81859803,314080558,1,-0.9965442419052124,0.003261007135733962,0.005677053704857826,0.08280525356531143
1666872889.85862398,314120584,1,-0.9965442419052124,0.003270606277510524,0.00566998403519392,0.08280541002750397
1666872889.89858294,314160543,1,-0.9965454936027527,0.003292187349870801,0.00567120173946023,0.08278964459896088
1666872889.93857098,314200531,1,-0.99654620885849,0.00328271696344018,0.005681948270648718,0.0827801376581192
1666872889.97856498,314240525,1,-0.9965487122535706,0.0032825928647071123,0.00567930331453681,0.08275018632411957
1666872889.99856806,314260528,1,-0.9965495467185974,0.003273076144978404,0.005669314879924059,0.08274117112159729
1666872890.01862192,314280582,1,-0.9965509176254272,0.0032603770960122347,0.005687679164111614,0.08272438496351242
1666872890.05861902,314320579,1,-0.9965522289276123,0.003274335991591215,0.00571507029235363,0.08270620554685593
1666872890.09858799,314360548,1,-0.996554970741272,0.0032684311736375093,0.005712302401661873,0.08267365396022797
1666872890.13858700,314400547,1,-0.9965569972991943,0.0032723252661526203,0.005707403179258108,0.08264879882335663
1666872890.17860293,314440563,1,-0.9965594410896301,0.003257651347666979,0.005696065258234739,0.08262104541063309
1666872890.19862103,314460581,1,-0.9965599775314331,0.0032707354985177517,0.005678185727447271,0.08261527866125107
1666872890.21858096,314480541,1,-0.9965609312057495,0.003275561146438122,0.00569230318069458,0.08260255306959152
1666872890.25861406,314520574,1,-0.9965617656707764,0.003282467368990183,0.0056837499141693115,0.08259246498346329
1666872890.29862905,314560589,1,-0.9965611100196838,0.003286689519882202,0.005706364754587412,0.08259885013103485
1666872890.33860087,314600561,1,-0.9965615272521973,0.003271693829447031,0.005723639857023954,0.08259318023920059
1666872890.37858295,314640543,1,-0.9965597987174988,0.003279091091826558,0.005714915692806244,0.08261430263519287
1666872890.39862394,314660584,1,-0.9965593218803406,0.0032717781141400337,0.005707955919206142,0.0826210007071495
1666872890.41857600,314680536,1,-0.9965587854385376,0.0032667203340679407,0.005720042623579502,0.08262699097394943
1666872890.45861697,314720577,1,-0.9965577125549316,0.0032634567469358444,0.005752144381403923,0.08263757079839706
1666872890.49860597,314760566,1,-0.9965571761131287,0.0032508454751223326,0.005788138136267662,0.08264224976301193
1666872890.53862906,314800589,1,-0.996557891368866,0.003253982402384281,0.0058081867173314095,0.08263182640075684
1666872890.57859087,314840551,1,-0.9965605139732361,0.0032377985771745443,0.005806480534374714,0.0826011598110199
1666872890.59864187,314860602,1,-0.9965612888336182,0.003235910087823868,0.0058198366314172745,0.08259110152721405
1666872890.61858797,314880548,1,-0.9965640902519226,0.0032314355485141277,0.0058076954446733,0.08255836367607117
1666872890.65859604,314920556,1,-0.9965687990188599,0.0032315426506102085,0.005802234169095755,0.08250153064727783
1666872890.69866490,314960625,1,-0.9965676665306091,0.00323148793540895,0.005808170419186354,0.08251514285802841
1666872890.73859000,315000550,1,-0.9965687394142151,0.003240903839468956,0.005823510233312845,0.08250080049037933
1666872890.77862287,315040583,1,-0.9965710639953613,0.003234684932976961,0.005820711143314838,0.08247314393520355
1666872890.79861593,315060576,1,-0.996570885181427,0.00323898415081203,0.005820871330797672,0.0824749618768692
1666872890.81858897,315080549,1,-0.9965727925300598,0.003241796512156725,0.005813138093799353,0.082452192902565
1666872890.85858607,315120546,1,-0.9965737462043762,0.003231331706047058,0.0058152880519628525,0.08244067430496216
1666872890.89857507,315160535,1,-0.9965750575065613,0.003220905316993594,0.005793603602796793,0.08242737501859665
1666872890.93865108,315200611,1,-0.9965763092041016,0.0032399636693298817,0.005797137040644884,0.0824107751250267
1666872890.97862291,315240583,1,-0.996575117111206,0.003227702109143138,0.0057980031706392765,0.0824260339140892
1666872890.99860001,315260560,1,-0.9965757131576538,0.003224013838917017,0.005802430212497711,0.08241858333349228
1666872891.01859689,315280557,1,-0.9965754747390747,0.003224436193704605,0.005821907892823219,0.08241991698741913
1666872891.05859709,315320557,1,-0.9965757727622986,0.00322638894431293,0.005834318231791258,0.082415372133255
1666872891.09857106,315360531,1,-0.9965746402740479,0.003208443056792021,0.0058522517792880535,0.08242812007665634
1666872891.13861108,315400571,1,-0.9965748190879822,0.00322371581569314,0.005863949656486511,0.08242495357990265
1666872891.17862606,315440586,1,-0.996576189994812,0.0032111566979438066,0.005876071751117706,0.08240751922130585
1666872891.19858408,315460544,1,-0.9965764284133911,0.0032111422624439,0.005877944640815258,0.08240461349487305
1666872891.21862292,315480583,1,-0.9965770244598389,0.0031966418027877808,0.005880808457732201,0.08239831775426865
1666872891.25858188,315520542,1,-0.9965793490409851,0.003213315038010478,0.005849362816661596,0.08237134665250778
1666872891.29860497,315560565,1,-0.9965803027153015,0.0031908468808978796,0.005849017295986414,0.08236074447631836
1666872891.33858991,315600550,1,-0.9965829253196716,0.00317664397880435,0.005831965710967779,0.08233120292425156
1666872891.37861991,315640580,1,-0.9965823888778687,0.0031833299435675144,0.005850953981280327,0.08233574032783508
1666872891.39863992,315660600,1,-0.9965844750404358,0.0031827620696276426,0.005849264562129974,0.08231037855148315
1666872891.41861987,315680580,1,-0.996586799621582,0.003197133308276534,0.005839479621499777,0.08228261768817902
1666872891.45861292,315720573,1,-0.9965835809707642,0.0031674134079366922,0.005864229053258896,0.08232084661722183
1666872891.49859190,315760552,1,-0.9965806603431702,0.003194859018549323,0.0058283391408622265,0.08235755562782288
1666872891.53862500,315800585,1,-0.9965820908546448,0.00319667044095695,0.005851627793163061,0.08233900368213654
1666872891.57860088,315840561,1,-0.996590256690979,0.003162992186844349,0.005855236202478409,0.08224105834960938
1666872891.59859109,315860551,1,-0.9965938925743103,0.0031432060059159994,0.005843215622007847,0.08219883590936661
1666872891.61859798,315880558,1,-0.9965999126434326,0.0031268703751266003,0.005864018574357033,0.08212495595216751
1666872891.65859008,315920550,1,-0.996607780456543,0.0030683339573442936,0.005887728184461594,0.08202950656414032
1666872891.69860697,315960567,1,-0.9966056942939758,0.0030571953393518925,0.005861188285052776,0.08205738663673401
1666872891.73858786,316000548,1,-0.9965851306915283,0.0031174677424132824,0.005811889190226793,0.08230814337730408
1666872891.77858806,316040548,1,-0.9965867400169373,0.0032211800571531057,0.00578704010695219,0.08228597044944763
1666872891.79862189,316060582,1,-0.9965964555740356,0.0032102828845381737,0.005804374348372221,0.08216788619756699
1666872891.81859303,316080553,1,-0.9965976476669312,0.0031254575587809086,0.005860065575689077,0.08215255290269852
1666872891.85862899,316120589,1,-0.9965960383415222,0.0029925634153187275,0.005868684034794569,0.08217600733041763
1666872891.89865208,316160612,1,-0.9966217279434204,0.00296585401520133,0.005757972132414579,0.08187321573495865
1666872891.93858790,316200548,1,-0.9966121912002563,0.00294012320227921,0.005694045219570398,0.08199454843997955
1666872891.97861195,316240572,1,-0.9966058135032654,0.0028489388059824705,0.005705514922738075,0.08207403123378754
1666872891.99860597,316260566,1,-0.9965999722480774,0.0029210634529590607,0.005639796610921621,0.08214736729860306
1666872892.01860094,316280561,1,-0.9966096878051758,0.0027135417331010103,0.005744416266679764,0.08202888071537018
1666872892.05864692,316320607,1,-0.9965860247612,0.002825095085427165,0.005671671591699123,0.08231733739376068
1666872892.09862208,316360582,1,-0.9965977668762207,0.0029933054465800524,0.005546000320464373,0.08217786997556686
1666872892.13863897,316400599,1,-0.9965857863426208,0.003131409175693989,0.005584957543760538,0.08231513202190399
1666872892.17858195,316440542,1,-0.9966124892234802,0.0030505526810884476,0.005551771726459265,0.08199644833803177
1666872892.19862103,316460581,1,-0.9966257214546204,0.0029589547775685787,0.005659487098455429,0.08183164894580841
1666872892.21859789,316480558,1,-0.9966004490852356,0.0029159625992178917,0.005689503159373999,0.08213783800601959
1666872892.25858402,316520544,1,-0.9966131448745728,0.0025854858104139566,0.00556931784376502,0.08200309425592422
1666872892.29864192,316560602,1,-0.9965959191322327,0.00319035816937685,0.00563253415748477,0.08218684047460556
1666872892.33860397,316600564,1,-0.9965933561325073,0.0030260682106018066,0.005455679260194302,0.0822356641292572
1666872892.37862301,316640583,1,-0.9965794682502747,0.0026788245886564255,0.005638699512928724,0.08240363746881485
1666872892.39860106,316660561,1,-0.9965920448303223,0.0028207064606249332,0.005569663364440203,0.08225160092115402
1666872892.41861105,316680571,1,-0.9965988993644714,0.0029057026840746403,0.005451946519315243,0.08217354118824005
1666872892.45859194,316720552,1,-0.9966017007827759,0.0029699939768761396,0.005492867901921272,0.08213458955287933
1666872892.49858594,316760546,1,-0.9966250061988831,0.0027739042416214943,0.0054680644534528255,0.08185991644859314
1666872892.53865099,316800611,1,-0.9966143369674683,0.0030960601288825274,0.00554640032351017,0.0819723978638649
1666872892.57861686,316840577,1,-0.9966250658035278,0.0030451142229139805,0.0055180820636451244,0.08184557408094406
1666872892.59859705,316860557,1,-0.9965987205505371,0.002906125271692872,0.005560471210628748,0.08216854929924011
1666872892.61862993,316880590,1,-0.9966001510620117,0.0028089035768061876,0.005471786484122276,0.08216061443090439
1666872892.65858293,316920543,1,-0.9966117739677429,0.0028422547038644552,0.005520899314433336,0.08201492577791214
1666872892.69860506,316960565,1,-0.9966126084327698,0.0027699710335582495,0.005459724925458431,0.08201081305742264
1666872892.73861003,317000570,1,-0.9966179132461548,0.002815358340740204,0.005427325144410133,0.08194755017757416
1666872892.77866888,317040629,1,-0.9966334700584412,0.002908141817897558,0.00537016661837697,0.08175831288099289
1666872892.79859185,317060552,1,-0.9966275691986084,0.0029457116033881903,0.005388735327869654,0.08182770758867264
1666872892.81862688,317080587,1,-0.996637761592865,0.002685329644009471,0.005537186283618212,0.08170220255851746
1666872892.85859990,317120560,1,-0.9966335296630859,0.0028786933980882168,0.005458410829305649,0.08175310492515564
1666872892.89856791,317160528,1,-0.9966400265693665,0.003017841838300228,0.005528175737708807,0.08166391402482986
1666872892.93860507,317200565,1,-0.9966381788253784,0.0030111251398921013,0.005467682145535946,0.08169110119342804
1666872892.97862005,317240580,1,-0.9966205954551697,0.0027169755194336176,0.005586189683526754,0.08190720528364182
1666872892.99859595,317260556,1,-0.9966425895690918,0.002855562837794423,0.00533392233774066,0.08165138959884644
1666872893.01864386,317280604,1,-0.9966360926628113,0.002791687613353133,0.005359978415071964,0.08173076808452606
1666872893.05863309,317320593,1,-0.9966596961021423,0.002594240475445986,0.005346482153981924,0.08145000040531158
1666872893.09861588,317360576,1,-0.9966655373573303,0.002676419448107481,0.005413296166807413,0.08137177675962448
1666872893.13858986,317400550,1,-0.9966561198234558,0.002778158290311694,0.005430551711469889,0.08148225396871567
1666872893.17859793,317440558,1,-0.996667742729187,0.0029057578649371862,0.0052389055490493774,0.08134828507900238
1666872893.19859600,317460556,1,-0.9966866970062256,0.002766262972727418,0.005327015183866024,0.08111459016799927
1666872893.21862793,317480588,1,-0.9966849088668823,0.003128326265141368,0.005224079824984074,0.08113051950931549
1666872893.25860786,317520568,1,-0.9966968894004822,0.0025480694603174925,0.0051876250654459,0.08100544661283493
1666872893.29861808,317560578,1,-0.9967132806777954,0.0025832639075815678,0.005197140388190746,0.08080212771892548
1666872893.33857489,317600535,1,-0.9967240691184998,0.0028887949883937836,0.005100547336041927,0.08066431432962418
1666872893.37860990,317640570,1,-0.9967520236968994,0.0028450177051126957,0.005081602837890387,0.0803213119506836
1666872893.39864302,317660603,1,-0.9967468976974487,0.0028306441381573677,0.005166407208889723,0.08037950098514557
1666872893.41858506,317680545,1,-0.9967743158340454,0.002423665253445506,0.005140506196767092,0.08005385845899582
1666872893.45862699,317720587,1,-0.9967933297157288,0.0026284195482730865,0.0050739082507789135,0.0798148587346077
1666872893.49864006,317760600,1,-0.9968162775039673,0.002455637790262699,0.005041494965553284,0.079535111784935
1666872893.53859901,317800559,1,-0.996832549571991,0.002554701641201973,0.00509339664131403,0.07932429760694504
1666872893.57860398,317840564,1,-0.9968349933624268,0.0027948105707764626,0.0049904510378837585,0.07929255068302155
1666872893.59859490,317860555,1,-0.9968422651290894,0.002609980758279562,0.004995401948690414,0.07920659333467484
1666872893.61858702,317880547,1,-0.996843695640564,0.0024613833520561457,0.005019142758101225,0.07919201254844666
1666872893.65861201,317920572,1,-0.9968562722206116,0.0024114365223795176,0.005029194988310337,0.07903441786766052
1666872893.69864297,317960603,1,-0.9968783259391785,0.00259021925739944,0.004864413756877184,0.07876086235046387
1666872893.73863101,318000591,1,-0.9968956112861633,0.002796472981572151,0.005016272887587547,0.07852461189031601
1666872893.77859592,318040556,1,-0.9969183802604675,0.002587429014965892,0.0050719729624688625,0.07823921740055084
1666872893.79861689,318060577,1,-0.9969190955162048,0.0027041530702263117,0.004902534186840057,0.07823678851127625
1666872893.81859207,318080552,1,-0.9969260096549988,0.0023909900337457657,0.004875389859080315,0.07816050201654434
1666872893.85860991,318120570,1,-0.9969472289085388,0.0023691686801612377,0.004808550234884024,0.07789433747529984
1666872893.89861894,318160579,1,-0.996970534324646,0.002390320645645261,0.004604863468557596,0.07760656625032425
1666872893.93864703,318200607,1,-0.9969872832298279,0.0024131855461746454,0.00454611936584115,0.07739436626434326
1666872893.97863102,318240591,1,-0.997012197971344,0.0027788272127509117,0.004410829860717058,0.0770682841539383
1666872893.99862695,318260587,1,-0.9970444440841675,0.0018603233620524406,0.004155388567596674,0.07669194787740707
1666872894.01859808,318280558,1,-0.9970419406890869,0.002472896361723542,0.004043910186737776,0.07671290636062622
1666872894.05860591,318320566,1,-0.9970812797546387,0.002317323349416256,0.0038741794414818287,0.07621349394321442
1666872894.09858489,318360545,1,-0.9971150755882263,0.0021373957861214876,0.0036422419361770153,0.07578679919242859
1666872894.13862991,318400590,1,-0.9971438050270081,0.0013883934589102864,0.0036399562377482653,0.07542586326599121
1666872894.17862892,318440589,1,-0.9971666932106018,0.0018204906955361366,0.002986165462061763,0.07514257729053497
1666872894.19859290,318460553,1,-0.9971876740455627,0.0016952326986938715,0.002916970057412982,0.0748688355088234
1666872894.21860194,318480562,1,-0.9972127079963684,0.0016648604068905115,0.0025647561997175217,0.07454866915941238
1666872894.25859094,318520551,1,-0.9972386360168457,0.001235653879120946,0.0021537085995078087,0.07422251254320145
1666872894.29861188,318560572,1,-0.9972637891769409,0.00010976319754263386,0.0018118504667654634,0.07390255481004715
1666872894.33857894,318600539,1,-0.9972922801971436,0.0006956742145121098,0.0013453476130962372,0.07352416962385178
1666872894.37862802,318640588,1,-0.9972986578941345,-7.809452654328197e-05,0.0008539773407392204,0.0734483078122139
1666872894.39859486,318660555,1,-0.9973095059394836,0.00022146711125969887,0.0008629594813100994,0.07330038398504257
1666872894.41865802,318680618,1,-0.9973033666610718,0.0001224393636221066,0.0006215355242602527,0.07338672131299973
1666872894.45860887,318720569,1,-0.9973106384277344,-0.0013060830533504486,0.00013665341248270124,0.07327865809202194
1666872894.49858093,318760541,1,-0.9973031282424927,-0.002033380325883627,-0.0006024108733981848,0.0733618214726448
1666872894.53858495,318800545,1,-0.9972900748252869,-0.003058572066947818,-0.0015945810591802,0.0734889954328537
1666872894.57871294,318840673,1,-0.9972738027572632,-0.003870457410812378,-0.0024411913473159075,0.07364816963672638
1666872894.59859800,318860558,1,-0.9972658157348633,-0.003946482669562101,-0.0030844607390463352,0.07372809201478958
1666872894.61863399,318880594,1,-0.9972624182701111,-0.004386965185403824,-0.003477730555459857,0.07373114675283432
1666872894.65861893,318920579,1,-0.9972361326217651,-0.0048417807556688786,-0.004176401067525148,0.07402203232049942
1666872894.69859290,318960553,1,-0.9972173571586609,-0.005204934626817703,-0.004944013897329569,0.07420217990875244
1666872894.73858905,319000549,1,-0.9971703290939331,-0.0065466370433568954,-0.005465713795274496,0.07469029724597931
1666872894.77856493,319040525,1,-0.9971301555633545,-0.007728705648332834,-0.0062493192963302135,0.07505135983228683
1666872894.79863691,319060597,1,-0.9971163868904114,-0.008247259072959423,-0.006116947624832392,0.07518954575061798
1666872894.81862807,319080588,1,-0.9970905184745789,-0.008610048331320286,-0.0067405104637146,0.07543864846229553
1666872894.85861492,319120575,1,0.11890886723995209,-0.0011935685761272907,0.0002363592357141897,0.9929044246673584
1666872894.89862704,319160587,1,0.11924593150615692,-0.0011332833673804998,0.001070189755409956,0.9928635358810425
1666872894.93857694,319200537,1,0.1197984367609024,-0.002592058153823018,0.0026157593820244074,0.9927914142608643
1666872894.97859097,319240551,1,0.12070348858833313,-0.0049280161038041115,0.0030086003243923187,0.9926717877388
1666872894.99864006,319260600,1,0.1211332231760025,-0.005541873164474964,0.0032531162723898888,0.9926154613494873
1666872895.01857996,319280540,1,0.12168946862220764,-0.006895598489791155,0.0033531333319842815,0.9925386309623718
1666872895.05863500,319320595,1,0.12273849546909332,-0.008586393669247627,0.00549795338883996,0.9923866987228394
1666872895.09861898,319360579,1,0.12382664531469345,-0.009347273968160152,0.005921000149101019,0.992242157459259
1666872895.13863587,319400596,1,0.1250694990158081,-0.010115896351635456,0.005070936866104603,0.9920834302902222
1666872895.17859292,319440553,1,0.12619233131408691,-0.010591322556138039,0.003017811570316553,0.9919446706771851
1666872895.19862294,319460583,1,0.12685412168502808,-0.010963784530758858,0.0015506376512348652,0.9918595552444458
1666872895.21860194,319480562,1,0.12742555141448975,-0.011317679658532143,-0.000432861183071509,0.9917834997177124
1666872895.25857592,319520536,1,0.12867435812950134,-0.011623391881585121,-0.005135329905897379,0.9916054606437683
1666872895.29862690,319560587,1,0.1299125701189041,-0.011960910633206367,-0.011249632574617863,0.9913895130157471
1666872895.33862400,319600584,1,0.13131387531757355,-0.012329711578786373,-0.017206545919179916,0.9911147952079773
1666872895.37859607,319640556,1,0.13299190998077393,-0.01233678963035345,-0.022413989529013634,0.9907868504524231
1666872895.39861798,319660578,1,0.13421668112277985,-0.012332464568316936,-0.024457840248942375,0.9905733466148376
1666872895.41858792,319680548,1,0.13501544296741486,-0.012446143664419651,-0.02647208422422409,0.9904115796089172
1666872895.45857191,319720532,1,0.13629378378391266,-0.011870919726788998,-0.02926025539636612,0.990165114402771
1666872895.49860787,319760568,1,0.1370951384305954,-0.01111521665006876,-0.03030555509030819,0.9900317788124084
1666872895.53864288,319800603,1,0.13779734075069427,-0.010733931325376034,-0.028797399252653122,0.9899834990501404
1666872895.57862306,319840583,1,0.1382242888212204,-0.009396754205226898,-0.02485286444425583,0.9900444746017456
1666872895.59856892,319860529,1,0.13831563293933868,-0.009293658658862114,-0.022407833486795425,0.99009108543396
1666872895.61856890,319880529,1,0.1383250206708908,-0.008430174551904202,-0.019631696864962578,0.9901564121246338
1666872895.65858889,319920549,1,0.1384882777929306,-0.006981498561799526,-0.014941510744392872,0.9902267456054688
1666872895.69859886,319960559,1,0.1389901489019394,-0.00556219695135951,-0.00981342513114214,0.9902294874191284
1666872895.73861408,320000574,1,0.13936927914619446,-0.003582712495699525,-0.006233347579836845,0.9902144074440002
1666872895.77860188,320040562,1,0.1401975154876709,-0.0019834910053759813,-0.005297140683978796,0.9901074171066284
1666872895.79856491,320060525,1,0.14047259092330933,-0.0011744966031983495,-0.004576286766678095,0.9900733232498169
1666872895.81862998,320080590,1,0.14082053303718567,-0.0007335420814342797,-0.003960947971791029,0.9900269508361816
1666872895.85860801,320120568,1,0.14167694747447968,4.366077700979076e-05,-0.0032499090302735567,0.9899076223373413
1666872895.89860106,320160561,1,0.14286258816719055,0.00021378748351708055,-0.002682953607290983,0.9897388815879822
1666872895.93859196,320200552,1,0.14397519826889038,0.0009124203934334219,0.00020334887085482478,0.9895808696746826
1666872895.97866893,320240629,1,0.14514710009098053,0.0019303378649055958,0.00230954447761178,0.9894055128097534
1666872895.99859905,320260559,1,0.14572300016880035,0.0026531340554356575,0.003675698069855571,0.9893150329589844
1666872896.01865292,320280613,1,0.14606653153896332,0.003790724091231823,0.0051885079592466354,0.9892538785934448
1666872896.05862188,320320582,1,0.14668765664100647,0.006487458012998104,0.006662488915026188,0.9891391396522522
1666872896.09859395,320360554,1,0.14691762626171112,0.008700238540768623,0.007891091518104076,0.9890789985656738
1666872896.13860703,320400567,1,0.14707158505916595,0.008880889974534512,0.008703278377652168,0.9890477061271667
1666872896.17861891,320440579,1,0.14684367179870605,0.007631153799593449,0.011084637604653835,0.9890681505203247
1666872896.19859004,320460550,1,0.14657935500144958,0.006478442344814539,0.013113237917423248,0.9890908002853394
1666872896.21863508,320480595,1,0.14614076912403107,0.005845671985298395,0.014307788573205471,0.9891430735588074
1666872896.25862408,320520584,1,0.14540790021419525,0.0047675324603915215,0.0212149228900671,0.989132821559906
1666872896.29859996,320560560,1,0.14495490491390228,0.0035895402543246746,0.025447199121117592,0.9891044497489929
1666872896.33858299,320600543,1,0.14395685493946075,0.0036362353712320328,0.02992159128189087,0.9891248345375061
1666872896.37859893,320640559,1,0.14275629818439484,0.0036371322348713875,0.029933050274848938,0.9892984628677368
1666872896.39861202,320660572,1,0.1419622004032135,0.0038048673886805773,0.029025983065366745,0.9894391298294067
1666872896.41862488,320680585,1,0.14132072031497955,0.0034259518142789602,0.02758912555873394,0.9895734190940857
1666872896.45863986,320720600,1,0.13952435553073883,0.0031172737944871187,0.021860945969820023,0.9899724125862122
1666872896.49864006,320760600,1,0.137499138712883,0.002464977325871587,0.016367144882678986,0.990363597869873
1666872896.53858995,320800550,1,0.13506534695625305,0.0024078856222331524,0.012476001866161823,0.9907552003860474
1666872896.57860088,320840561,1,0.13316839933395386,0.0028849898371845484,0.008791619911789894,0.9910502433776855
1666872896.59862804,320860588,1,0.13229689002037048,0.003068716498091817,0.007811049465090036,0.991174578666687
1666872896.61857700,320880537,1,0.13140536844730377,0.0032992265187203884,0.006632624659687281,0.9913010597229004
1666872896.65863991,320920600,1,0.12995854020118713,0.0038969418965280056,0.005497573874890804,0.9914965033531189
1666872896.69859886,320960559,1,0.1282067745923996,0.004272492602467537,0.00514988461509347,0.9917249083518982
1666872896.73862791,321000588,1,0.12674789130687714,0.0044153123162686825,0.0037898686714470387,0.9919179081916809
1666872896.77858996,321040550,1,0.12549994885921478,0.004238263703882694,0.0032236790284514427,0.9920793175697327
1666872896.79860806,321060568,1,0.1249188557267189,0.004371919669210911,0.0027481100987643003,0.992153525352478
1666872896.81861186,321080572,1,0.12432336807250977,0.004152112174779177,0.0016868776874616742,0.9922316074371338
1666872896.85857797,321120538,1,0.12353087961673737,0.004015276208519936,-0.0002328552509425208,0.9923325777053833
1666872896.89865589,321160616,1,0.12308193743228912,0.004160572309046984,-0.001802670070901513,0.9923861622810364
1666872896.93863201,321200592,1,0.12275882065296173,0.004222908057272434,-0.0022404624614864588,0.9924250245094299
1666872896.97861886,321240579,1,0.12300872802734375,0.004247388336807489,-0.003890309249982238,0.9923888444900513
1666872896.99863195,321260592,1,0.12320829182863235,0.003827732987701893,-0.004461943171918392,0.9923633933067322
1666872897.01859188,321280552,1,0.12354286015033722,0.003909572493284941,-0.0047718221321702,0.9923200607299805
1666872897.05860901,321320569,1,0.12432219088077545,0.0032093257177621126,-0.0047766901552677155,0.9922252297401428
1666872897.09861898,321360579,1,0.12538407742977142,0.0022774673998355865,-0.0057779112830758095,0.9920888543128967
1666872897.13863301,321400593,1,0.12649616599082947,0.0018866078462451696,-0.005163657944649458,0.9919518828392029
1666872897.17867589,321440636,1,0.12782219052314758,0.0015136018628254533,-0.0050842915661633015,0.9917829036712646
1666872897.19858694,321460547,1,0.1285168081521988,0.0013095234753564,-0.005343216937035322,0.991692066192627
1666872897.21861291,321480573,1,0.12935829162597656,0.0012293881736695766,-0.005372977815568447,0.9915825724601746
1666872897.25859094,321520551,1,0.13084515929222107,0.0013848876114934683,-0.0053941356018185616,0.9913871884346008
1666872897.29859495,321560555,1,0.13253401219844818,0.0011071573244407773,-0.005657101981341839,0.9911617040634155
1666872897.33861804,321600578,1,0.13421155512332916,0.0008781979558989406,-0.005309992004185915,0.9909380674362183
1666872897.37862706,321640587,1,0.13586114346981049,0.0008721837657503784,-0.0046274117194116116,0.9907166957855225
1666872897.39859295,321660553,1,0.13670501112937927,0.0006513772532343864,-0.004675709642469883,0.9906005263328552
1666872897.41862106,321680581,1,0.1375710666179657,0.0006142630591057241,-0.004376839846372604,0.9904820322990417
1666872897.45859194,321720552,1,0.1391361504793167,0.000326563575072214,-0.003955916501581669,0.9902653098106384
1666872897.49860907,321760569,1,0.14085762202739716,3.6547467061609495e-06,-0.0040133497677743435,0.9900217056274414
1666872897.53857493,321800535,1,0.14254583418369293,-0.00024539013975299895,-0.0034266309812664986,0.9897822141647339
1666872897.57866597,321840626,1,0.14390838146209717,-0.0006007081246934831,-0.003522587241604924,0.9895845651626587
1666872897.59859109,321860551,1,0.1445845067501068,-0.0005937446258030832,-0.0032559551764279604,0.9894869327545166
1666872897.61859488,321880555,1,0.1451679766178131,-0.0005721516790799797,-0.002963065402582288,0.9894024133682251
1666872897.65863109,321920591,1,0.14628149569034576,-0.000821226742118597,-0.0024432784412056208,0.9892396330833435
1666872897.69859195,321960552,1,0.14724794030189514,-0.0011653255205601454,-0.002382993930950761,0.9890960454940796
1666872897.73860097,322000561,1,0.14800722897052765,-0.0014523332938551903,-0.0017603331943973899,0.9889836311340332
1666872897.77857494,322040535,1,0.14878959953784943,-0.0013303837040439248,-0.0017081286059692502,0.9888665080070496
1666872897.79859185,322060552,1,0.1491355448961258,-0.0012178804026916623,-0.001244784565642476,0.9888152480125427
1666872897.81863999,322080600,1,0.14950236678123474,-0.0008242007461376488,-0.0009444461320526898,0.9887605905532837
1666872897.85857487,322120535,1,0.15012948215007782,-0.0006944091292098165,-0.0002110547065967694,0.9886660575866699
1666872897.89863205,322160592,1,0.1508011370897293,-0.0007330746739171445,-0.0005634937551803887,0.9885637164115906
1666872897.93860197,322200562,1,0.1513599157333374,-0.00042918321560136974,-5.5657976190559566e-05,0.9884786009788513
1666872897.97860909,322240569,1,0.15218786895275116,-0.0006616069586016238,-0.0004390923131722957,0.9883512854576111
1666872897.99865603,322260616,1,0.15263520181179047,-0.0005294508882798254,-2.7209538529859856e-05,0.9882824420928955
1666872898.01862288,322280583,1,0.153231680393219,-0.0006938254227861762,-0.0004335336561780423,0.9881899356842041
1666872898.05862904,322320589,1,0.15434838831424713,-0.00028785684844478965,-0.0003373385115992278,0.9880163669586182
1666872898.09862590,322360586,1,0.1556675285100937,-0.00018409424228593707,-4.044695015181787e-05,0.9878094792366028
1666872898.13857603,322400536,1,0.15726681053638458,-0.00023963311105035245,-6.338418461382389e-05,0.9875560998916626
1666872898.17860103,322440561,1,0.15901565551757812,-0.0003626031684689224,-0.00027169613167643547,0.9872759580612183
1666872898.19862008,322460580,1,0.15989179909229279,-0.0005182927125133574,-0.0003408313205000013,0.9871343374252319
1666872898.21859694,322480557,1,0.16078796982765198,-0.0005394130712375045,-0.00044806988444179296,0.9869887232780457
1666872898.25861692,322520577,1,0.1626487523317337,-0.000707198865711689,-0.00026344539946876466,0.98668372631073
1666872898.29861403,322560574,1,0.16462725400924683,-0.0008878762018866837,-0.0002905126893892884,0.9863554239273071
1666872898.33861709,322600577,1,0.16654492914676666,-0.0008533667423762381,-0.0003336078370921314,0.9860334396362305
1666872898.37858891,322640549,1,0.1683092713356018,-0.0008791942964307964,-0.0001262597943423316,0.9857338666915894
1666872898.39863205,322660592,1,0.16913603246212006,-0.0009081439347937703,-0.0005559943383559585,0.9855921268463135
1666872898.41858792,322680548,1,0.16988041996955872,-0.0010151006281375885,-0.00028623995603993535,0.9854640960693359
1666872898.45858693,322720547,1,0.17118322849273682,-0.0008567235199734569,4.70581762783695e-05,0.9852388501167297
1666872898.49864101,322760601,1,0.1724379062652588,-0.0010601597605273128,-0.00012121843610657379,0.9850198030471802
1666872898.53862500,322800585,1,0.17351683974266052,-0.000594177981838584,0.00014235319395083934,0.9848307371139526
1666872898.57865500,322840615,1,0.17430450022220612,-0.00010581946116872132,0.001017747214064002,0.9846912622451782
1666872898.59862494,322860585,1,0.1747969388961792,0.0001731615629978478,0.0008878217777237296,0.9846040606498718
1666872898.61858606,322880546,1,0.17521251738071442,0.00033678978797979653,0.00035707835922949016,0.984530508518219
1666872898.65858388,322920544,1,0.17602375149726868,0.00038983896956779063,0.0004175495996605605,0.9843857288360596
1666872898.69863200,322960592,1,0.1767173409461975,0.00037025829078629613,0.000611408322583884,0.9842613935470581
1666872898.73862600,323000586,1,0.17752066254615784,-9.035346010932699e-05,0.0010398385347798467,0.9841164946556091
1666872898.77862501,323040585,1,0.17798520624637604,-0.0004875622980762273,0.0012414171360433102,0.9840322732925415
1666872898.79858303,323060543,1,0.1784730702638626,-0.00034700645483098924,0.0013945623068138957,0.98394376039505
1666872898.81860399,323080564,1,0.17870019376277924,-0.0005608920473605394,0.0018558497540652752,0.9839016795158386
1666872898.85859203,323120552,1,0.17928025126457214,-0.00028120758361183107,0.0016517123440280557,0.9837965965270996
1666872898.89864206,323160602,1,0.17970333993434906,0.0016668144380673766,0.0007013200665824115,0.9837191700935364
1666872898.93864107,323200601,1,0.1800840049982071,0.00619084108620882,0.0005602915189228952,0.9836316108703613
1666872898.97862792,323240588,1,0.18046429753303528,0.014559006318449974,-0.0007109584403224289,0.983473539352417
1666872898.99860787,323260568,1,0.18056216835975647,0.019752411171793938,-0.0011484980350360274,0.9833645224571228
1666872899.01862288,323280583,1,0.18065758049488068,0.026126904413104057,-0.002228904515504837,0.9831964373588562
1666872899.05858803,323320548,1,0.18100892007350922,0.038763243705034256,-0.00549314497038722,0.9827018976211548
1666872899.09859109,323360551,1,0.18116775155067444,0.050647493451833725,-0.006396430544555187,0.9821263551712036
1666872899.13858485,323400545,1,0.18103070557117462,0.06008072569966316,-0.007701043039560318,0.9816103577613831
1666872899.17862296,323440583,1,0.18109801411628723,0.06658533215522766,-0.009455488063395023,0.9811628460884094
1666872899.19859505,323460555,1,0.18078333139419556,0.06955025345087051,-0.008615254424512386,0.9810228943824768
1666872899.21858907,323480549,1,0.1808343529701233,0.07151176035404205,-0.008731796406209469,0.9808714389801025
1666872899.25866008,323520620,1,0.18066361546516418,0.07388715445995331,-0.009201341308653355,0.9807225465774536
1666872899.29859185,323560552,1,0.18077486753463745,0.07418901473283768,-0.010314002633094788,0.9806681871414185
1666872899.33860207,323600562,1,0.1808854192495346,0.07260718941688538,-0.009837538935244083,0.9807710647583008
1666872899.37859106,323640551,1,0.1809839904308319,0.07034140825271606,-0.009848706424236298,0.9809178709983826
1666872899.39858198,323660542,1,0.18105058372020721,0.06904234737157822,-0.00879477709531784,0.9810078740119934
1666872899.41860700,323680567,1,0.18113313615322113,0.0676778182387352,-0.009004279971122742,0.9810858368873596
1666872899.45858288,323720543,1,0.18157191574573517,0.06539636850357056,-0.009400851093232632,0.9811557531356812
1666872899.49861193,323760572,1,0.18182817101478577,0.06419319659471512,-0.008466794155538082,0.9811962246894836
1666872899.53856707,323800527,1,0.1824859231710434,0.06255227327346802,-0.009701675735414028,0.9811686873435974
1666872899.57860088,323840561,1,0.18292264640331268,0.06065542995929718,-0.008798399940133095,0.9812149405479431
1666872899.59862304,323860583,1,0.18335139751434326,0.058990709483623505,-0.009276695549488068,0.9812320470809937
1666872899.61859202,323880552,1,0.18365584313869476,0.05689450353384018,-0.007649166975170374,0.9813129305839539
1666872899.65864801,323920608,1,0.18454959988594055,0.05051754042506218,-0.007836255244910717,0.9814927577972412
1666872899.69862700,323960587,1,0.1849539428949356,0.04119983687996864,-0.004863131325691938,0.9818711280822754
1666872899.73859000,324000550,1,0.18548578023910522,0.028850259259343147,-0.004248191602528095,0.9822141528129578
1666872899.77859187,324040552,1,0.18603670597076416,0.016648229211568832,-0.0014212079113349319,0.9824007153511047
1666872899.79860687,324060567,1,0.18618439137935638,0.01145820040255785,-0.0011970378691330552,0.9824472665786743
1666872899.81860590,324080566,1,0.18639057874679565,0.006661690305918455,6.612159631913528e-05,0.9824531078338623
1666872899.85862398,324120584,1,0.18703363835811615,-0.0008531238418072462,-0.0002301311178598553,0.9823530912399292
1666872899.89861488,324160575,1,0.1875571459531784,-0.005165820941329002,0.001393513404764235,0.9822391271591187
1666872899.93864608,324200606,1,0.18780730664730072,-0.007379429880529642,0.0014280065661296248,0.9821771383285522
1666872899.97859406,324240554,1,0.18765278160572052,-0.00877322442829609,0.0007325171609409153,0.9821959733963013
1666872899.99864292,324260603,1,0.18760210275650024,-0.009142686612904072,0.001541251433081925,0.982201337814331
1666872900.01856589,324280526,1,0.18736988306045532,-0.009072434157133102,0.0028102847281843424,0.982243537902832
1666872900.05859494,324320555,1,0.18703120946884155,-0.010410950519144535,0.0028054886497557163,0.9822947978973389
1666872900.09862494,324360585,1,0.18653075397014618,-0.010984532535076141,0.0017067973967641592,0.9823862314224243
1666872900.13860202,324400562,1,0.18570241332054138,-0.010809451341629028,0.0035384853836148977,0.9825401902198792
1666872900.17862105,324440581,1,0.1848832666873932,-0.011236335150897503,0.0020635316614061594,0.9826940894126892
1666872900.19861007,324460570,1,0.18442100286483765,-0.010571448132395744,0.002596397651359439,0.9827870726585388
1666872900.21860504,324480565,1,0.183932363986969,-0.010127059184014797,0.0032961834222078323,0.9828811883926392
1666872900.25858998,324520550,1,0.18335272371768951,-0.009873652830719948,0.002441458171233535,0.982994556427002
1666872900.29857302,324560533,1,0.18249215185642242,-0.00936718750745058,0.0024137215223163366,0.9831597208976746
1666872900.33865309,324600613,1,0.1817527562379837,-0.008980986662209034,0.002598366467282176,0.9832997918128967
1666872900.37859607,324640556,1,0.18068505823612213,-0.008353641256690025,0.0024921554140746593,0.9835023880004883
1666872900.39859486,324660555,1,0.18023069202899933,-0.00801607221364975,0.0022619853261858225,0.9835891127586365
1666872900.41860199,324680562,1,0.1799965649843216,-0.008287325501441956,0.0019924810621887445,0.9836302995681763
1666872900.45859599,324720556,1,0.17905019223690033,-0.007395480293780565,0.002637624740600586,0.9838086366653442
1666872900.49858093,324760541,1,0.17810586094856262,-0.00689314678311348,0.0025843768380582333,0.9839838147163391
1666872900.53864288,324800603,1,0.17746968567371368,-0.00653719762340188,0.001396301668137312,0.9841035604476929
1666872900.57868886,324840649,1,0.17684075236320496,-0.005992845166474581,0.0020693072583526373,0.9842190742492676
1666872900.59860492,324860565,1,0.17655260860919952,-0.00600143289193511,0.0023600480053573847,0.9842700958251953
1666872900.61863399,324880594,1,0.17642471194267273,-0.00563852721825242,0.0026357329916208982,0.9842944741249084
1666872900.65860605,324920566,1,0.1765577495098114,-0.005399751476943493,0.002049349946901202,0.9842733144760132
1666872900.69858098,324960541,1,0.17701229453086853,-0.005333316512405872,0.0018517848802730441,0.984192430973053
1666872900.73859406,325000554,1,0.17775990068912506,-0.005399736575782299,0.0006329362513497472,0.9840588569641113
1666872900.77861786,325040578,1,0.17873753607273102,-0.005169372074306011,0.0010653764475136995,0.9838826060295105
1666872900.79858899,325060549,1,0.1793644279241562,-0.004720530938357115,0.0007389783277176321,0.9837710857391357
1666872900.81862092,325080581,1,0.18006493151187897,-0.00454479968175292,0.0006994810537435114,0.9836440086364746
1666872900.85862303,325120583,1,0.18167050182819366,-0.004565464798361063,0.0007553892792202532,0.983348548412323
1666872900.89859009,325160550,1,0.18335510790348053,-0.004196786787360907,0.0002069428883260116,0.9830377697944641
1666872900.93860006,325200560,1,0.18536579608917236,-0.00430903397500515,2.0794503143406473e-05,0.9826601147651672
1666872900.97857690,325240537,1,0.18736454844474792,-0.004066556692123413,-0.00020055932691320777,0.9822819828987122
1666872900.99859500,325260555,1,0.18851439654827118,-0.004281981382519007,-4.81487913930323e-05,0.9820610880851746
1666872901.01864004,325280600,1,0.18968936800956726,-0.0038262272719293833,0.00024795150966383517,0.9818366765975952
1666872901.05860400,325320564,1,0.19212566316127777,-0.003765513887628913,-0.00031593083986081183,0.98136305809021
1666872901.09862685,325360587,1,0.19453437626361847,-0.003478687023743987,-3.20454682878335e-06,0.9808895587921143
1666872901.13859200,325400552,1,0.19693508744239807,-0.003229939378798008,4.519179856288247e-05,0.9804112315177917
1666872901.17858887,325440549,1,0.19926150143146515,-0.003342947456985712,-7.1603775722906e-05,0.97994065284729
1666872901.19863200,325460592,1,0.20036981999874115,-0.003243268234655261,-0.00012154785508755594,0.9797149896621704
1666872901.21860504,325480565,1,0.20135873556137085,-0.0031332955695688725,-0.0007117075729183853,0.9795122742652893
1666872901.25865388,325520614,1,0.20350196957588196,-0.0030944664031267166,-0.0007094726897776127,0.9790694117546082
1666872901.29861188,325560572,1,0.20563137531280518,-0.0031460709869861603,-0.0009316375362686813,0.9786240458488464
1666872901.33863187,325600592,1,0.20751027762889862,-0.002999138319864869,-6.296097853919491e-05,0.9782282114028931
1666872901.37860203,325640562,1,0.2094012051820755,-0.003079758957028389,-0.0006875398103147745,0.9778246879577637
1666872901.39860392,325660564,1,0.2102525383234024,-0.0027364727575331926,-0.00011599028948694468,0.9776432514190674
1666872901.41858292,325680543,1,0.21125607192516327,-0.003339129965752363,-5.7445500715402886e-05,0.9774250388145447
1666872901.45861387,325720574,1,0.21282915771007538,-0.002702785888686776,0.0003586475213523954,0.9770856499671936
1666872901.49862194,325760582,1,0.21467797458171844,-0.0034503007773309946,-0.0004005563969258219,0.976678729057312
1666872901.53862286,325800583,1,0.2162235677242279,-0.0034911613911390305,0.00042663351632654667,0.9763375520706177
1666872901.57859993,325840560,1,0.2175770252943039,-0.0031681691762059927,0.0006020698929205537,0.9760378003120422
1666872901.59865093,325860611,1,0.2184048891067505,-0.0036092661321163177,1.3820870663039386e-05,0.9758515954017639
1666872901.61859298,325880553,1,0.21915246546268463,-0.0037209882866591215,0.00032838762854225934,0.9756834506988525
1666872901.65858889,325920549,1,0.22055871784687042,-0.003634715685620904,0.001058895606547594,0.9753663539886475
1666872901.69862199,325960582,1,0.22210201621055603,-0.004898173734545708,0.0007530298898927867,0.9750108122825623
1666872901.73861289,326000573,1,0.22336606681346893,-0.0070150322280824184,0.002573753008618951,0.9747059941291809
1666872901.77862597,326040586,1,0.22454118728637695,-0.010675359517335892,0.003049164777621627,0.9744013547897339
1666872901.79858708,326060547,1,0.22525784373283386,-0.013239792548120022,0.0031998760532587767,0.9742039442062378
1666872901.81859088,326080551,1,0.22574642300605774,-0.0149857047945261,0.004989901091903448,0.9740580320358276
1666872901.85858703,326120547,1,0.22674664855003357,-0.01853657327592373,0.004954471252858639,0.9737647771835327
1666872901.89859200,326160552,1,0.22771449387073517,-0.020741762593388557,0.0049845390021800995,0.9734942317008972
1666872901.93861794,326200578,1,0.22842231392860413,-0.02190893329679966,0.004753754939883947,0.9733039736747742
1666872901.97859788,326240558,1,0.22901390492916107,-0.024738280102610588,0.0028053626883774996,0.97310471534729
1666872901.99859285,326260553,1,0.22932584583759308,-0.02694098837673664,0.0024433990474790335,0.9729737043380737
1666872902.01861286,326280573,1,0.22940005362033844,-0.029382912442088127,0.00029202961013652384,0.9728885889053345
1666872902.05859303,326320553,1,0.22958289086818695,-0.03469972684979439,-0.0022808960638940334,0.9726676940917969
1666872902.09858394,326360544,1,0.22951607406139374,-0.03914187476038933,-0.004807095974683762,0.9725056290626526
1666872902.13862896,326400589,1,0.2294076532125473,-0.04077155515551567,-0.008608673699200153,0.9724380373954773
1666872902.17867088,326440631,1,0.22916412353515625,-0.03900868818163872,-0.01144408993422985,0.9725385308265686
1666872902.19859290,326460553,1,0.2291153222322464,-0.03749357908964157,-0.01216128095984459,0.9726008772850037
1666872902.21862602,326480586,1,0.22897841036319733,-0.035457879304885864,-0.014016641303896904,0.9726845026016235
1666872902.25859809,326520558,1,0.22877970337867737,-0.032556165009737015,-0.017450466752052307,0.9727771878242493
1666872902.29859090,326560551,1,0.22822244465351105,-0.030972296372056007,-0.019765382632613182,0.9729154706001282
1666872902.33860707,326600567,1,0.22775445878505707,-0.03168574720621109,-0.02313346415758133,0.9729279279708862
1666872902.37861109,326640571,1,0.22738802433013916,-0.03319770097732544,-0.023475199937820435,0.972955048084259
1666872902.39859200,326660552,1,0.22704188525676727,-0.03443845361471176,-0.024150671437382698,0.9729762077331543
1666872902.41862297,326680583,1,0.22695539891719818,-0.03490935638546944,-0.02314665913581848,0.9730040431022644
1666872902.45863199,326720592,1,0.22662097215652466,-0.034775760024785995,-0.021410267800092697,0.9731264710426331
1666872902.49860501,326760565,1,0.22641900181770325,-0.034196410328149796,-0.017797082662582397,0.9732668399810791
1666872902.53860307,326800563,1,0.2262871414422989,-0.03346562758088112,-0.012809131294488907,0.9734013080596924
1666872902.57860494,326840565,1,0.22604139149188995,-0.03355899453163147,-0.007373580243438482,0.9735115170478821
1666872902.59860706,326860567,1,0.22598497569561005,-0.03388487920165062,-0.005552700720727444,0.9735254645347595
1666872902.61864185,326880602,1,0.2259310632944107,-0.034196846187114716,-0.003916527144610882,0.9735350012779236
1666872902.65860486,326920565,1,0.22578072547912598,-0.03487813472747803,-0.0003997530147898942,0.973553478717804
1666872902.69864702,326960607,1,0.22566066682338715,-0.03545951470732689,0.0020603504963219166,0.973558247089386
1666872902.73858905,327000549,1,0.22545216977596283,-0.03560524433851242,0.003764656139537692,0.9735960960388184
1666872902.77857590,327040536,1,0.22524361312389374,-0.035042714327573776,0.0068342299200594425,0.9736480712890625
1666872902.79862309,327060583,1,0.2251119464635849,-0.03502281382679939,0.007858539000153542,0.973671555519104
1666872902.81860304,327080563,1,0.2250392884016037,-0.03482832387089729,0.007764868903905153,0.9736960530281067
1666872902.85864902,327120609,1,0.22482997179031372,-0.034229204058647156,0.009302245453000069,0.9737522006034851
1666872902.89862990,327160590,1,0.22468765079975128,-0.03348660096526146,0.010221321135759354,0.9738016128540039
1666872902.93862605,327200586,1,0.22424937784671783,-0.03299752622842789,0.010918152518570423,0.9739117622375488
1666872902.97859001,327240550,1,0.22380580008029938,-0.032805435359478,0.0102151557803154,0.9740279316902161
1666872902.99861908,327260579,1,0.22359459102153778,-0.03335975483059883,0.009477336890995502,0.9740650653839111
1666872903.01857901,327280539,1,0.22346504032611847,-0.03371454402804375,0.007670961320400238,0.9740985035896301
1666872903.05856991,327320530,1,0.2229977399110794,-0.035296328365802765,0.006135707255452871,0.9741604328155518
1666872903.09862304,327360583,1,0.22238799929618835,-0.03769659250974655,0.003456774400547147,0.9742230772972107
1666872903.13862991,327400590,1,0.22181633114814758,-0.04046104475855827,0.00010265278251608834,0.9742486476898193
1666872903.17859006,327440550,1,0.22120676934719086,-0.04149676114320755,-0.0017343397485092282,0.9743421077728271
1666872903.19860196,327460562,1,0.22089692950248718,-0.042204950004816055,-0.0023808281403034925,0.974380612373352
1666872903.21860290,327480563,1,0.22055190801620483,-0.04231913387775421,-0.003534296527504921,0.9744503498077393
1666872903.25860286,327520563,1,0.22015002369880676,-0.04145633429288864,-0.004245570860803127,0.9745754599571228
1666872903.29863286,327560593,1,0.21971718966960907,-0.039710190147161484,-0.0023930827155709267,0.9747521281242371
1666872903.33861303,327600573,1,0.2193475067615509,-0.0379125252366066,-0.001820588600821793,0.974908173084259
1666872903.37861896,327640579,1,0.21892331540584564,-0.03632153570652008,0.0006305918213911355,0.9750655889511108
1666872903.39857697,327660537,1,0.2187030166387558,-0.035706669092178345,0.0010627787560224533,0.9751373529434204
1666872903.41856790,327680528,1,0.21847578883171082,-0.034807246178388596,0.0022370831575244665,0.9752188324928284
1666872903.45860291,327720563,1,0.21820928156375885,-0.032857127487659454,0.00294043542817235,0.9753443002700806
1666872903.49859405,327760554,1,0.2180374264717102,-0.03082902729511261,0.004719155374914408,0.9754419326782227
1666872903.53862000,327800580,1,0.21769684553146362,-0.029462484642863274,0.0051126135513186455,0.9755582809448242
1666872903.57860494,327840565,1,0.21740750968456268,-0.02876555547118187,0.0050252461805939674,0.975644052028656
1666872903.59860396,327860564,1,0.21731677651405334,-0.028416810557246208,0.005599528085440397,0.9756713509559631
1666872903.61864090,327880601,1,0.21728330850601196,-0.02822710946202278,0.0065999263897538185,0.975678026676178
1666872903.65857387,327920534,1,0.21721383929252625,-0.02780509926378727,0.007460403256118298,0.9756994247436523
1666872903.69859099,327960551,1,0.2173583060503006,-0.02767801657319069,0.006219054572284222,0.9756795763969421
1666872903.73861289,328000573,1,0.21734289824962616,-0.026811959221959114,0.007040085271000862,0.975701630115509
1666872903.77863288,328040593,1,0.21734993159770966,-0.025993751361966133,0.006254275795072317,0.9757275581359863
1666872903.79860806,328060568,1,0.21730317175388336,-0.02559852972626686,0.0060164351016283035,0.9757499098777771
1666872903.81861997,328080580,1,0.21732386946678162,-0.025252781808376312,0.005350123159587383,0.9757581949234009
1666872903.85863590,328120596,1,0.2174631506204605,-0.024435166269540787,0.004911718890070915,0.9757502675056458
1666872903.89858794,328160548,1,0.21776407957077026,-0.023702168837189674,0.0045212646946311,0.9757031202316284
1666872903.93860197,328200562,1,0.21784274280071259,-0.02354312688112259,0.0042480225674808025,0.9756906628608704
1666872903.97856688,328240527,1,0.21792595088481903,-0.02318486198782921,0.004082043189555407,0.9756813645362854
1666872903.99859786,328260558,1,0.21794454753398895,-0.02286173589527607,0.004485390614718199,0.9756830334663391
1666872904.01865292,328280613,1,0.2180238664150238,-0.022423511371016502,0.00449359230697155,0.9756754636764526
1666872904.05865097,328320611,1,0.21820883452892303,-0.021561680361628532,0.00375050469301641,0.9756566882133484
1666872904.09859705,328360557,1,0.21839548647403717,-0.020374856889247894,0.00453683128580451,0.9756370782852173
1666872904.13860297,328400563,1,0.21848298609256744,-0.019391857087612152,0.0032644839957356453,0.9756426215171814
1666872904.17860103,328440561,1,0.21853430569171906,-0.018223537132143974,0.003972676582634449,0.9756510257720947
1666872904.19862390,328460584,1,0.21870048344135284,-0.017842061817646027,0.003940908703953028,0.9756209254264832
1666872904.21862793,328480588,1,0.21873386204242706,-0.01775401085615158,0.0033424803987145424,0.9756172895431519
1666872904.25861502,328520575,1,0.2190905064344406,-0.017019305378198624,0.002174841472879052,0.9755536913871765
1666872904.29862785,328560588,1,0.21927733719348907,-0.016219938173890114,0.0008527731988579035,0.9755273461341858
1666872904.33859301,328600553,1,0.21940186619758606,-0.015589692629873753,-0.0009188100229948759,0.9755095839500427
1666872904.37859797,328640558,1,0.21947740018367767,-0.014603751711547375,-0.002525616902858019,0.975504994392395
1666872904.39863300,328660593,1,0.21956588327884674,-0.013244732283055782,-0.003403369802981615,0.9755018353462219
1666872904.41859102,328680551,1,0.2195650339126587,-0.011861437000334263,-0.004460516385734081,0.9755155444145203
1666872904.45866704,328720627,1,0.21990008652210236,-0.009527887217700481,-0.00457629282027483,0.9754651188850403
1666872904.49862409,328760584,1,0.21994982659816742,-0.007605156861245632,-0.006557997781783342,0.9754595160484314
1666872904.53863096,328800591,1,0.22018569707870483,-0.006620550993829966,-0.00657200301066041,0.9754133820533752
1666872904.57859492,328840555,1,0.22022856771945953,-0.006108676549047232,-0.006713822018355131,0.9754060506820679
1666872904.59864807,328860608,1,0.22046542167663574,-0.005812851712107658,-0.007817729376256466,0.9753461480140686
1666872904.61857605,328880536,1,0.2204587161540985,-0.005281258374452591,-0.0075105223804712296,0.9753531217575073
1666872904.65858793,328920548,1,0.22063472867012024,-0.003947430290281773,-0.00592513894662261,0.9753305315971375
1666872904.69860387,328960564,1,0.2208021730184555,-0.0019908195827156305,-0.005780813284218311,0.9752994775772095
1666872904.73864198,329000602,1,0.220951646566391,-0.0003655203909147531,-0.004869832191616297,0.975272536277771
1666872904.77860308,329040563,1,0.22099483013153076,0.0011269778478890657,-0.003167105372995138,0.9752691984176636
1666872904.79859900,329060559,1,0.2211151123046875,0.0014215814881026745,-0.0027297507040202618,0.9752428531646729
1666872904.81859303,329080553,1,0.22110161185264587,0.0018258185591548681,-0.0024445890448987484,0.975246012210846
1666872904.85859203,329120552,1,0.22130709886550903,0.001608174992725253,-0.0011316435411572456,0.975202202796936
1666872904.89860487,329160565,1,0.2214258313179016,0.0014965696027502418,0.00030163212795741856,0.9751760363578796
1666872904.93862987,329200590,1,0.22148866951465607,0.0015432150103151798,0.00015628329128958285,0.9751617312431335
1666872904.97862697,329240587,1,0.2214580625295639,0.0021597498562186956,0.0011703049531206489,0.9751667976379395
1666872904.99858499,329260545,1,0.22160522639751434,0.0024669626727700233,0.0011809231946244836,0.9751326441764832
1666872905.01860595,329280566,1,0.2215089052915573,0.0030907553154975176,0.0011225917842239141,0.9751527905464172
1666872905.05859399,329320554,1,0.22180205583572388,0.003724233014509082,0.0009979673195630312,0.9750840663909912
1666872905.09859204,329360552,1,0.22179052233695984,0.004684844519942999,0.0017276029102504253,0.9750815629959106
1666872905.13862801,329400588,1,0.2218410223722458,0.0047890800051391125,0.0018012801883742213,0.9750694036483765
1666872905.17861390,329440574,1,0.2217625230550766,0.004479723982512951,0.0015214262530207634,0.9750892519950867
1666872905.19859385,329460554,1,0.22176600992679596,0.004647575318813324,0.0017150886123999953,0.9750873446464539
1666872905.21865606,329480616,1,0.22171084582805634,0.004634201526641846,0.001252844580449164,0.9751006364822388
1666872905.25859094,329520551,1,0.22177201509475708,0.004523489158600569,0.0015586944064125419,0.9750868082046509
1666872905.29858899,329560549,1,0.22162197530269623,0.004800974857062101,0.001618254347704351,0.9751194715499878
1666872905.33858585,329600546,1,0.22157707810401917,0.0047164070419967175,0.0012923689791932702,0.9751306176185608
1666872905.37859488,329640555,1,0.22131037712097168,0.004655609838664532,0.0022053858265280724,0.9751898050308228
1666872905.39856887,329660529,1,0.2212020754814148,0.004999507684260607,0.0016892702551558614,0.9752137064933777
1666872905.41860199,329680562,1,0.22112753987312317,0.004985866602510214,0.001763477805070579,0.9752305746078491
1666872905.45861387,329720574,1,0.22097548842430115,0.00480940705165267,0.0015237482730299234,0.9752663373947144
1666872905.49859190,329760552,1,0.2208678126335144,0.005018249619752169,0.0013775031547993422,0.9752898812294006
1666872905.53857207,329800532,1,0.22056496143341064,0.0046071880497038364,0.0007811945397406816,0.9753611087799072
1666872905.57863688,329840597,1,0.2202576845884323,0.0044937096536159515,0.0012689406285062432,0.9754305481910706
1666872905.59858608,329860546,1,0.2201254665851593,0.004802597686648369,0.0019694119691848755,0.9754577279090881
1666872905.61862397,329880584,1,0.2199128419160843,0.004917333368211985,0.001480419305153191,0.9755060076713562
1666872905.65863490,329920595,1,0.21969957649707794,0.004383978899568319,0.0006904794718138874,0.9755575060844421
1666872905.69860387,329960564,1,0.21952541172504425,0.004745621234178543,0.0004903719527646899,0.9755951166152954
1666872905.73858786,330000548,1,0.2191384881734848,0.004651326220482588,0.0009211524738930166,0.975682258605957
1666872905.77858806,330040548,1,0.2187008410692215,0.004749940242618322,0.0014400059590116143,0.9757793545722961
1666872905.79862094,330060581,1,0.21854381263256073,0.004443706478923559,0.001088552875444293,0.9758164286613464
1666872905.81857800,330080538,1,0.21853524446487427,0.0044247922487556934,0.0002841044042725116,0.9758189916610718
1666872905.85861897,330120579,1,0.21810024976730347,0.004236113280057907,0.0009364052093587816,0.9759167432785034
1666872905.89863586,330160596,1,0.21795235574245453,0.004157024901360273,-7.85278098192066e-05,0.9759505391120911
1666872905.93856907,330200529,1,0.21773585677146912,0.003933492116630077,0.0006158316391520202,0.9759995937347412
1666872905.97860503,330240565,1,0.10995765030384064,0.00371908419765532,0.0009816739475354552,0.993928849697113
1666872905.99863291,330260593,1,0.10993929952383041,0.0034557897597551346,0.00146493932697922,0.993931233882904
