timestamp,TimeUS,DesRoll,Roll,DesPitch,Pitch,DesYaw,Yaw,ErrRP,ErrYaw,AEKF
1679660629.36043096,113299624,0.0,-0.16,0.0,-1.52,332.84000000000003,332.85,0.0,0.03,3
1679660629.46042705,113399620,0.0,-0.16,0.0,-1.51,332.84000000000003,332.85,0.0,0.03,3
1679660629.56043506,113499628,0.0,-0.16,0.0,-1.52,332.84000000000003,332.85,0.0,0.03,3
1679660629.66046500,113599658,0.0,-0.16,0.0,-1.52,332.84000000000003,332.84000000000003,0.0,0.03,3
1679660629.76046705,113699660,0.0,-0.16,0.0,-1.52,332.84000000000003,332.83,0.0,0.03,3
1679660629.86067295,113799866,0.0,-0.16,0.0,-1.52,332.84000000000003,332.81,0.0,0.03,3
1679660629.96051502,113899708,0.0,-0.16,0.0,-1.52,332.84000000000003,332.8,0.0,0.03,3
1679660630.06048894,113999682,0.0,-0.16,0.0,-1.52,332.84000000000003,332.79,0.0,0.02,3
1679660630.16077495,114099968,0.0,-0.16,0.0,-1.52,332.84000000000003,332.78000000000003,0.0,0.02,3
1679660630.26043606,114199629,0.0,-0.16,0.0,-1.52,332.84000000000003,332.77,0.0,0.02,3
1679660630.36041808,114299611,0.0,-0.16,0.0,-1.52,332.84000000000003,332.76,0.0,0.02,3
1679660630.46044397,114399637,0.0,-0.16,0.0,-1.52,332.84000000000003,332.76,0.01,0.02,3
1679660630.56048489,114499678,0.0,-0.15,0.0,-1.53,332.84000000000003,332.76,0.01,0.02,3
1679660630.66047502,114599668,0.0,-0.15,0.0,-1.53,332.84000000000003,332.76,0.01,0.01,3
1679660630.76048303,114699676,0.0,-0.15,0.0,-1.53,332.84000000000003,332.76,0.01,0.01,3
1679660630.86052108,114799714,0.0,-0.14,0.0,-1.53,332.84000000000003,332.76,0.01,0.01,3
1679660630.96051693,114899710,0.0,-0.14,0.0,-1.53,332.84000000000003,332.76,0.01,0.01,3
1679660631.06055689,114999750,0.0,-0.13,0.0,-1.54,332.84000000000003,332.75,0.01,0.01,3
1679660631.16054702,115099740,0.0,-0.13,0.0,-1.54,332.84000000000003,332.75,0.01,0.01,3
1679660631.26043010,115199623,0.0,-0.12,0.0,-1.55,332.84000000000003,332.74,0.01,0.01,3
1679660631.36008096,115299274,0.0,-0.12,0.0,-1.56,332.73,332.74,0.01,0.01,3
1679660631.46035290,115399546,0.0,-0.11,0.0,-1.56,332.72,332.73,0.01,0.02,3
1679660631.56040597,115499599,0.0,-0.11,0.0,-1.57,332.71,332.72,0.01,0.01,3
1679660631.66040492,115599598,0.0,-0.1,0.0,-1.58,332.7,332.71,0.01,0.01,3
1679660631.76042104,115699614,0.0,-0.1,0.0,-1.58,332.7,332.71,0.01,0.02,3
1679660631.86047387,115799667,0.0,-0.1,0.0,-1.58,332.69,332.7,0.01,0.02,3
1679660631.96052289,115899716,0.0,-0.09,0.0,-1.59,332.69,332.69,0.01,0.02,3
1679660632.06037807,115999571,0.0,-0.09,0.0,-1.59,332.69,332.69,0.01,0.01,3
1679660632.16044402,116099637,0.0,-0.08,0.0,-1.6,332.69,332.68,0.01,0.01,3
1679660632.26039290,116199586,0.0,-0.07,0.0,-1.6,332.69,332.68,0.01,0.01,3
1679660632.36074996,116299943,0.0,-0.08,0.0,-1.61,332.69,332.66,0.01,0.02,3
1679660632.46051693,116399710,0.0,-0.08,0.0,-1.61,332.69,332.68,0.01,0.01,3
1679660632.56022787,116499421,0.0,-0.05,0.0,-1.62,332.69,332.64,0.01,0.01,3
1679660632.66023207,116599425,0.0,-0.06,0.0,-1.59,332.69,332.66,0.01,0.02,3
1679660632.76024294,116699436,0.0,-0.01,0.0,-1.53,332.69,332.67,0.01,0.05,3
1679660632.86031604,116799509,0.0,-0.04,0.0,-1.52,332.69,332.63,0.01,0.04,3
1679660632.96017194,116899365,0.0,-0.03,0.0,-1.55,332.69,332.61,0.01,0.05,3
1679660633.06006694,116999260,0.0,0.0,0.12,-1.56,332.69,332.62,0.01,0.05,3
1679660633.16018295,117099376,0.0,-0.03,0.39,-1.54,332.69,332.57,0.01,0.05,3
1679660633.26013803,117199331,0.0,0.0,0.55,-1.51,332.69,332.56,0.01,0.05,3
1679660633.36023402,117299427,0.0,0.01,0.49,-1.45,332.69,332.56,0.01,0.16,3
1679660633.46023798,117399431,0.0,0.04,0.25,-1.33,332.69,332.54,0.01,0.2,3
1679660633.56028891,117499482,0.0,0.01,0.13,-0.77,332.69,332.52,0.01,0.22,3
1679660633.66029501,117599488,0.0,0.4,0.06,0.14,332.69,332.45,0.01,0.24,3
1679660633.76056910,117699762,0.0,0.84,0.03,0.62,332.69,332.22,0.01,0.26,3
1679660633.86018705,117799380,0.0,1.1400000000000001,-0.15,0.77,332.69,331.97,0.01,0.31,3
1679660633.96021008,117899403,0.0,0.75,-1.6500000000000001,0.5700000000000001,332.69,331.65000000000003,0.01,0.34,3
1679660634.06050110,117999694,0.0,0.1,-2.24,-0.86,332.69,331.40000000000003,0.01,0.41000000000000003,3
1679660634.16051793,118099711,0.0,0.02,-1.51,-2.05,332.69,331.15000000000003,0.01,0.43,3
1679660634.26045799,118199651,0.0,0.24,-1.3900000000000001,-1.23,332.69,330.93,0.02,0.4,3
1679660634.36048698,118299680,0.0,0.28,-1.3,-0.28,332.69,330.73,0.02,0.41000000000000003,3
1679660634.46049690,118399690,0.0,0.41000000000000003,-1.25,-0.4,332.69,330.55,0.03,0.46,3
1679660634.56049204,118499685,-0.11,0.01,-1.43,-0.77,332.69,330.39,0.03,0.46,3
1679660634.66059494,118599788,0.44,0.8,-1.4000000000000001,-0.1,181.44,179.08,0.04,0.45,3
1679660634.76052594,118699719,-0.32,-0.17,-2.4,-0.96,181.44,178.85,0.04,0.46,3
1679660634.86045909,118799652,-0.72,-1.49,-2.8000000000000003,-2.48,181.44,178.65,0.04,0.48,3
1679660634.96013999,118899333,-0.63,-1.98,-3.0100000000000002,-3.22,181.44,178.72,0.04,0.45,3
1679660635.06049800,118999691,-0.32,-1.51,-1.61,-2.95,181.44,178.69,0.04,0.42,3
1679660635.16060495,119099798,-0.16,-0.71,-0.8200000000000001,-1.2,181.44,178.32,0.04,0.39,3
1679660635.26050901,119199702,-0.08,-0.4,-0.42,0.19,181.44,177.59,0.03,0.4,3
1679660635.36054492,119299738,-0.04,-0.14,-0.21,0.47000000000000003,181.44,176.8,0.03,0.44,3
1679660635.46053004,119399723,-0.02,0.24,0.04,0.25,181.44,176.33,0.03,0.45,3
1679660635.56057191,119499765,-0.01,0.42,0.02,0.26,181.44,176.32,0.03,0.44,3
1679660635.66052794,119599721,0.03,0.42,0.01,0.45,181.44,176.6,0.02,0.45,3
1679660635.76077700,119699970,0.05,0.64,0.0,0.52,181.44,177.02,0.02,0.46,3
1679660635.86014295,119799336,0.22,0.62,0.0,0.66,181.34,177.55,0.02,0.46,3
1679660635.96026897,119899462,1.01,0.79,0.0,0.72,180.58,178.16,0.02,0.47000000000000003,3
1679660636.06029201,119999485,1.6400000000000001,1.56,0.0,0.75,179.29,178.61,0.02,0.47000000000000003,3
1679660636.16040707,120099600,1.92,2.38,0.0,0.68,177.42000000000002,178.79,0.02,0.48,3
1679660636.26031590,120199509,1.86,2.61,0.0,0.59,175.77,178.58,0.02,0.47000000000000003,3
1679660636.36033297,120299526,1.07,2.12,0.0,0.39,174.53,178.0,0.02,0.48,3
1679660636.46058702,120399780,0.54,1.03,0.0,0.27,173.83,177.18,0.02,0.48,3
1679660636.56044388,120499637,0.27,0.12,0.0,0.13,173.68,176.29,0.02,0.48,3
1679660636.66008401,120599277,0.14,-0.2,0.0,0.05,173.68,175.45000000000002,0.02,0.49,3
1679660636.76012993,120699323,0.07,-0.28,0.0,0.01,173.71,174.65,0.02,0.5,3
1679660636.86021805,120799411,0.03,-0.35000000000000003,0.0,-0.1,173.98,173.92000000000002,0.02,0.5,3
1679660636.96028399,120899477,0.01,-0.24,0.0,-0.2,174.05,173.25,0.02,0.5,3
1679660637.06052589,120999719,0.0,0.01,0.0,-0.23,174.39000000000001,172.67000000000002,0.02,0.52,3
1679660637.16061902,121099812,0.0,0.11,0.0,-0.3,174.56,172.18,0.02,0.53,3
1679660637.26029491,121199488,0.0,0.12,0.0,-0.34,174.6,171.82,0.03,0.55,3
1679660637.36032200,121299515,0.0,0.06,-0.03,-0.31,174.6,171.6,0.03,0.5700000000000001,3
1679660637.46017194,121399365,0.0,-0.1,-0.17,-0.33,174.6,171.47,0.04,0.58,3
1679660637.56008601,121499279,0.0,-0.16,-0.17,-0.45,174.6,171.42000000000002,0.04,0.6,3
1679660637.66017103,121599364,0.0,-0.12,-1.06,-0.59,174.6,171.47,0.04,0.61,3
1679660637.76052094,121699714,0.0,-0.04,-1.21,-1.32,174.6,171.57,0.04,0.64,3
1679660637.86055708,121799750,0.0,0.04,-0.73,-1.68,174.6,171.74,0.04,0.65,3
1679660637.96053505,121899728,0.0,0.05,-0.54,-0.79,174.6,171.94,0.04,0.64,3
1679660638.06054497,121999738,0.18,-0.03,-0.56,0.0,174.6,172.14000000000001,0.04,0.67,3
1679660638.16032505,122099518,1.19,0.3,-1.1500000000000001,-0.19,174.6,172.34,0.04,0.7000000000000001,3
1679660638.26052809,122199721,2.0100000000000002,1.45,-1.46,-0.99,174.6,172.58,0.03,0.72,3
1679660638.36040211,122299595,3.08,2.69,-1.48,-1.52,174.6,172.86,0.03,0.72,3
1679660638.46031904,122399512,3.15,3.8000000000000003,-1.69,-1.53,174.6,173.13,0.04,0.72,3
1679660638.56038690,122499580,1.8900000000000001,3.89,-2.29,-1.61,174.6,173.34,0.04,0.75,3
1679660638.66044092,122599634,0.96,2.25,-2.87,-2.2800000000000002,174.6,173.49,0.04,0.77,3
1679660638.76046109,122699654,0.49,0.31,-3.34,-3.16,174.6,173.67000000000002,0.04,0.79,3
1679660638.86073208,122799925,0.25,-0.45,-3.36,-3.65,174.6,173.89000000000001,0.04,0.79,3
1679660638.96048689,122899680,0.12,-0.48,-2.33,-3.5300000000000002,174.6,174.08,0.04,0.79,3
1679660639.06041789,122999611,0.06,-0.29,-1.19,-2.09,174.6,174.24,0.04,0.76,3
1679660639.16060805,123099801,0.03,-0.16,-0.6,-0.24,174.6,174.25,0.04,0.76,3
1679660639.26040006,123199593,0.01,-0.19,-0.31,0.5700000000000001,174.6,174.19,0.03,0.78,3
1679660639.36033010,123299523,0.0,-0.14,-0.15,0.51,174.6,174.1,0.03,0.8,3
1679660639.46040988,123399603,0.26,-0.11,-0.08,0.43,174.6,174.05,0.03,0.8,3
1679660639.56038094,123499574,0.89,0.26,-0.04,0.33,174.6,173.99,0.03,0.8,3
1679660639.66043401,123599627,1.16,1.08,-0.02,0.18,174.6,173.93,0.03,0.81,3
1679660639.76041198,123699605,1.79,1.43,-0.01,0.07,174.6,173.87,0.03,0.8200000000000001,3
1679660639.86048293,123799676,2.5,1.93,0.0,0.04,174.6,173.8,0.03,0.8300000000000001,3
1679660639.96042895,123899622,1.84,2.66,0.0,-0.02,174.6,173.76,0.03,0.85,3
1679660640.06069589,123999889,1.06,2.11,0.0,-0.01,174.6,173.73,0.03,0.85,3
1679660640.16022706,124099420,0.54,0.84,0.0,-0.02,174.6,173.69,0.03,0.86,3
1679660640.26043701,124199630,0.27,0.03,0.0,-0.08,174.6,173.69,0.03,0.87,3
1679660640.36069393,124299887,0.14,-0.13,0.0,-0.07,174.6,173.71,0.03,0.87,3
1679660640.46053791,124399731,0.07,-0.13,0.0,-0.12,174.95000000000002,173.77,0.03,0.87,3
1679660640.56049299,124499686,0.03,-0.16,0.0,-0.13,175.87,173.87,0.03,0.87,3
1679660640.66052508,124599718,0.01,-0.08,-0.16,-0.14,176.27,174.11,0.02,0.87,3
1679660640.76052308,124699716,0.0,0.01,-0.8200000000000001,-0.39,176.70000000000002,174.41,0.02,0.88,3
1679660640.86053705,124799730,0.0,0.09,-0.96,-1.19,177.23,174.69,0.02,0.88,3
1679660640.96075487,124899948,0.0,0.4,-0.91,-1.52,177.79,175.08,0.02,0.88,3
1679660641.06044006,124999633,0.0,0.38,-0.54,-1.1400000000000001,177.88,175.53,0.02,0.88,3
1679660641.16051006,125099703,0.0,0.31,-0.28,-0.48,177.88,175.95000000000002,0.02,0.89,3
1679660641.26012301,125199316,0.0,0.21,-0.14,-0.01,177.88,176.34,0.02,0.89,3
1679660641.36019397,125299387,0.02,0.15,-0.07,0.13,177.88,176.69,0.02,0.9,3
1679660641.46029496,125399488,0.6900000000000001,0.19,-0.03,0.18,177.88,177.02,0.02,0.9,3
1679660641.56023908,125499432,1.76,0.77,-0.01,0.24,177.88,177.29,0.02,0.9,3
1679660641.66028905,125599482,2.36,2.21,0.0,0.23,177.88,177.56,0.03,0.91,3
1679660641.76026988,125699463,2.66,3.1,0.0,0.17,177.88,177.75,0.03,0.92,3
1679660641.86036396,125799557,2.58,3.21,0.0,0.15,177.88,177.89000000000001,0.04,0.92,3
1679660641.96016502,125899358,1.82,2.77,0.0,0.15,177.88,178.01,0.04,0.93,3
1679660642.06044388,125999637,0.9400000000000001,1.67,0.0,0.13,177.88,178.09,0.06,0.9400000000000001,3
1679660642.16018510,126099378,0.48,0.16,0.0,0.08,177.88,178.14000000000001,0.06,0.9400000000000001,3
1679660642.26018906,126199382,0.24,-0.41000000000000003,0.0,0.06,177.88,178.17000000000002,0.04,0.9400000000000001,3
1679660642.36023498,126299428,0.12,-0.59,0.0,-0.04,177.88,178.18,0.04,0.9400000000000001,3
1679660642.46034098,126399534,0.06,-0.49,0.0,-0.06,177.88,178.14000000000001,0.04,0.9400000000000001,3
1679660642.56030107,126499494,0.03,-0.43,0.0,-0.12,177.88,178.06,0.04,0.9400000000000001,3
1679660642.66024804,126599441,0.01,-0.34,0.0,-0.15,177.88,177.91,0.04,0.9400000000000001,3
1679660642.76029706,126699490,0.0,-0.28,0.0,-0.2,177.88,177.77,0.04,0.9400000000000001,3
1679660642.86017394,126799367,0.0,-0.21,0.0,-0.22,177.88,177.59,0.03,0.9400000000000001,3
1679660642.96008301,126899276,0.0,-0.13,0.0,-0.21,177.88,177.44,0.03,0.9500000000000001,3
1679660643.06012392,126999317,0.0,-0.06,0.0,-0.19,177.88,177.26,0.03,0.9500000000000001,3
1679660643.16025209,127099445,0.0,-0.17,0.0,-0.2,177.88,177.1,0.03,0.9500000000000001,3
1679660643.26049709,127199690,0.0,-0.07,0.0,-0.19,177.88,176.93,0.03,0.96,3
1679660643.36024189,127299435,0.0,0.05,0.0,-0.16,177.88,176.8,0.03,0.96,3
1679660643.46046996,127399663,0.0,0.0,0.0,-0.22,177.88,176.70000000000002,0.02,0.96,3
1679660643.56042409,127499617,0.0,-0.07,0.0,-0.27,177.88,176.59,0.02,0.97,3
1679660643.66051388,127599707,0.0,0.12,0.0,-0.29,177.88,176.52,0.02,0.97,3
1679660643.76039910,127699592,0.04,0.01,0.0,-0.26,177.88,176.49,0.02,0.97,3
1679660643.86032104,127799514,0.17,0.07,0.0,-0.23,177.88,176.47,0.02,0.98,3
1679660643.96039104,127899584,0.27,0.36,0.0,-0.2,177.88,176.45000000000002,0.02,0.98,3
1679660644.06073189,127999925,0.36,0.66,0.0,-0.18,177.88,176.49,0.02,0.98,3
1679660644.16047692,128099670,0.43,0.73,0.0,-0.14,177.88,176.51,0.02,0.98,3
1679660644.26047993,128199673,0.35000000000000003,0.62,0.0,-0.16,177.88,176.58,0.01,0.99,3
1679660644.36048603,128299679,0.17,0.5,0.0,-0.12,177.88,176.65,0.01,0.99,3
1679660644.46049094,128399684,0.2,0.19,0.0,-0.17,177.88,176.70000000000002,0.01,0.99,3
1679660644.56052494,128499718,0.35000000000000003,0.25,-0.09,-0.16,177.88,176.78,0.01,0.99,3
1679660644.66039705,128599590,0.41000000000000003,0.36,-0.84,-0.41000000000000003,177.88,176.85,0.01,0.99,3
1679660644.76030993,128699503,0.63,0.5700000000000001,-1.57,-1.23,177.88,176.92000000000002,0.01,0.99,3
1679660644.86041307,128799606,0.86,0.61,-2.38,-2.24,177.88,176.98,0.02,0.99,3
1679660644.96050811,128899701,1.0,0.9400000000000001,-2.97,-3.17,177.88,177.03,0.02,0.99,3
1679660645.06058002,128999773,1.09,1.24,-3.24,-3.73,177.88,177.08,0.02,0.99,3
1679660645.16033387,129099527,1.19,1.26,-3.96,-3.94,177.88,177.12,0.02,0.99,3
1679660645.26052594,129199719,1.24,1.3900000000000001,-4.22,-4.43,177.88,177.15,0.02,0.99,3
1679660645.36054707,129299740,1.29,1.35,-3.69,-4.65,177.88,177.19,0.02,0.99,3
1679660645.46057701,129399770,1.36,1.45,-3.0100000000000002,-3.77,177.88,177.28,0.03,0.99,3
1679660645.56052494,129499718,1.54,1.45,-1.96,-2.45,177.88,177.35,0.03,0.99,3
1679660645.66044903,129599642,1.6500000000000001,1.6400000000000001,-1.16,-1.1400000000000001,177.88,177.39000000000001,0.04,0.98,3
1679660645.76046300,129699656,1.7,1.76,-0.8300000000000001,-0.14,177.88,177.48,0.04,0.98,3
1679660645.86083698,129800030,1.62,1.9100000000000001,-0.64,0.09,177.88,177.52,0.04,0.98,3
1679660645.96047592,129899669,1.3800000000000001,1.6,-0.42,-0.05,177.88,177.55,0.04,0.98,3
1679660646.06050301,129999696,0.8300000000000001,1.1400000000000001,-0.21,0.0,177.88,177.59,0.03,0.98,3
1679660646.16059399,130099787,0.42,0.34,-0.11,0.08,177.88,177.64000000000001,0.03,0.98,3
1679660646.26051497,130199708,0.21,-0.37,-0.05,0.0,177.88,177.69,0.03,0.98,3
1679660646.36057305,130299766,0.11,-0.47000000000000003,-0.02,-0.01,177.88,177.74,0.03,0.98,3
1679660646.46045804,130399651,0.1,-0.53,-0.01,-0.02,177.88,177.78,0.03,0.98,3
1679660646.56073809,130499931,0.16,-0.49,0.0,-0.03,177.88,177.84,0.03,0.98,3
1679660646.66060591,130599799,0.11,-0.29,0.0,-0.1,177.88,177.9,0.03,0.98,3
1679660646.76085210,130700045,0.06,-0.05,0.0,-0.06,177.88,177.92000000000002,0.03,0.98,3
1679660646.86055088,130799744,0.03,-0.18,0.0,-0.04,177.88,177.97,0.03,0.98,3
1679660646.96031094,130899504,0.01,-0.07,0.0,-0.01,177.88,178.01,0.03,0.98,3
1679660647.06030607,130999499,0.0,-0.14,0.0,0.0,177.88,178.05,0.03,0.98,3
1679660647.16032290,131099516,0.0,-0.06,-0.29,-0.04,177.88,178.09,0.03,0.98,3
1679660647.26030207,131199495,0.0,0.12,-0.63,-0.4,177.88,178.13,0.02,0.98,3
1679660647.36028409,131299477,0.0,0.0,-0.76,-0.91,177.88,178.16,0.02,0.97,3
1679660647.46008301,131399276,0.0,0.0,-0.79,-1.0,177.88,178.19,0.02,0.97,3
1679660647.56012487,131499318,0.0,-0.21,-0.8200000000000001,-0.96,177.88,178.20000000000002,0.02,0.97,3
1679660647.66024995,131599443,0.0,0.04,-1.19,-0.97,177.88,178.19,0.03,0.97,3
1679660647.76056004,131699753,0.05,-0.21,-1.77,-1.42,177.88,178.18,0.03,0.97,3
1679660647.86051488,131799708,0.31,-0.08,-1.9100000000000001,-2.16,177.88,178.18,0.03,0.96,3
1679660647.96051598,131899709,1.25,0.41000000000000003,-1.75,-2.2,177.88,178.14000000000001,0.03,0.96,3
1679660648.06029391,131999487,1.94,1.47,-1.56,-1.75,177.88,178.14000000000001,0.03,0.96,3
1679660648.16038203,132099575,2.9,2.31,-0.98,-1.32,177.88,178.1,0.03,0.9500000000000001,3
1679660648.26016092,132199354,4.08,3.37,-0.5,-0.59,177.88,178.12,0.03,0.9400000000000001,3
1679660648.36018896,132299382,4.95,4.9,-0.46,-0.09,185.83,186.11,0.03,0.92,3
1679660648.46018291,132399376,5.2,5.5,-0.23,0.3,185.83,186.65,0.04,0.9,3
1679660648.56050491,132499698,5.03,5.51,-0.15,0.35000000000000003,185.83,187.93,0.04,0.88,3
1679660648.66046906,132599662,2.96,4.71,-0.25,0.24,185.83,189.55,0.05,0.86,3
1679660648.76098394,132700177,1.51,2.36,-0.12,0.11,185.83,191.15,0.05,0.86,3
1679660648.86052895,132799722,0.77,-0.33,-0.06,0.31,185.83,192.48000000000002,0.06,0.86,3
1679660648.96042490,132899618,0.39,-1.55,-0.03,0.37,185.83,193.46,0.06,0.86,3
1679660649.06051588,132999709,0.2,-1.6300000000000001,-0.01,0.19,185.83,194.01,0.06,0.86,3
1679660649.16044903,133099642,0.1,-1.25,0.0,0.0,185.83,194.25,0.06,0.87,3
1679660649.26029706,133199490,0.05,-0.9500000000000001,0.0,-0.07,185.83,193.97,0.06,0.87,3
1679660649.36040998,133299603,-0.28,-0.77,0.0,-0.13,185.86,193.35,0.06,0.87,3
1679660649.46044087,133399634,-0.84,-0.9500000000000001,0.0,-0.07,186.53,192.45000000000002,0.05,0.86,3
1679660649.56045294,133499646,-1.3800000000000001,-1.76,0.0,0.02,188.08,191.54,0.05,0.84,3
1679660649.66071391,133599907,-1.74,-2.2800000000000002,0.0,0.04,190.51,190.78,0.05,0.8200000000000001,3
1679660649.76031899,133699512,-1.6400000000000001,-2.48,0.0,-0.07,193.82,190.49,0.05,0.8,3
1679660649.86054587,133799739,-0.97,-2.11,0.0,-0.26,197.97,190.94,0.05,0.78,3
1679660649.96059608,133899789,-1.23,-0.56,0.0,-0.44,202.48000000000002,192.28,0.05,0.76,3
1679660650.06051898,133999712,-1.83,-0.4,0.0,-0.51,207.35,194.3,0.04,0.75,3
1679660650.16051292,134099706,-1.17,-1.37,0.0,-0.59,211.39000000000001,196.84,0.04,0.74,3
1679660650.26043391,134199627,-0.75,-0.62,0.0,-0.26,214.55,199.53,0.04,0.73,3
1679660650.36049700,134299690,-0.79,0.3,0.0,0.01,216.83,202.33,0.04,0.74,3
1679660650.46055794,134399751,-0.4,0.01,0.0,0.02,218.23000000000002,205.31,0.04,0.75,3
1679660650.56079388,134499987,-0.18,0.29,0.0,0.14,218.75,208.21,0.04,0.76,3
1679660650.66053700,134599730,1.44,0.75,0.0,0.31,218.4,210.88,0.03,0.78,3
1679660650.76040888,134699602,3.47,2.12,0.0,0.5,217.16,213.20000000000002,0.03,0.79,3
1679660650.86033297,134799526,3.2,4.6000000000000005,0.0,0.79,215.04,215.12,0.03,0.81,3
1679660650.96017289,134899366,1.82,4.8,0.0,0.47000000000000003,212.51,216.5,0.03,0.8300000000000001,3
1679660651.06005001,134999243,0.93,2.21,0.0,0.05,210.81,217.29,0.05,0.84,3
1679660651.16020703,135099400,0.47000000000000003,-0.15,0.0,0.01,209.99,217.88,0.05,0.86,3
1679660651.26025009,135199443,0.24,-1.04,0.0,0.14,209.91,218.67000000000002,0.05,0.87,3
1679660651.36024094,135299434,-0.23,-0.9500000000000001,0.0,0.14,209.91,219.74,0.05,0.88,3
1679660651.46052408,135399717,-0.81,-1.47,0.05,0.16,209.91,220.76,0.05,0.89,3
1679660651.56031203,135499505,-1.6,-1.94,0.06,0.39,210.1,221.82,0.05,0.91,3
1679660651.66029191,135599485,-2.06,-2.74,0.08,0.63,211.04,223.15,0.05,0.92,3
1679660651.76032400,135699517,-2.38,-3.18,0.21,0.68,211.51,224.79,0.05,0.92,3
1679660651.86016607,135799359,-3.08,-3.1,0.22,0.75,211.51,226.35,0.04,0.93,3
1679660651.96008611,135899279,-4.12,-3.66,0.23,0.97,211.52,227.65,0.04,0.93,3
1679660652.06017089,135999364,-4.83,-4.5600000000000005,0.28,1.29,211.65,228.72,0.04,0.9400000000000001,3
1679660652.16026998,136099463,-5.63,-5.44,0.52,1.6,212.37,229.58,0.04,0.93,3
1679660652.26023102,136199424,-6.25,-6.04,0.63,2.04,213.86,230.14000000000001,0.06,0.93,3
1679660652.36052203,136299715,-6.46,-6.49,0.46,2.21,215.49,230.54,0.06,0.93,3
1679660652.46053505,136399728,-6.33,-6.74,0.23,1.7,217.03,230.93,0.07,0.93,3
1679660652.56029892,136499492,-6.2,-6.12,0.11,1.0,218.6,231.32,0.07,0.92,3
1679660652.66054702,136599740,-5.94,-5.99,0.06,0.59,220.87,231.66,0.08,0.92,3
1679660652.76043892,136699632,-4.28,-5.38,0.03,0.21,223.56,231.93,0.08,0.91,3
1679660652.86043692,136799630,-2.66,-3.45,0.01,-0.36,226.26,232.23000000000002,0.09,0.89,3
1679660652.96047688,136899670,-2.5500000000000003,-0.62,0.0,-0.81,229.07,232.54,0.09,0.86,3
1679660653.06073594,136999929,-3.13,-0.12,0.0,-0.73,231.88,232.95000000000002,0.1,0.84,3
1679660653.16059804,137099791,-3.63,-1.32,0.0,-0.29,234.66,233.29,0.1,0.8,3
1679660653.26052094,137199714,-4.1,-2.75,0.0,-0.08,237.41,233.63,0.09,0.74,3
1679660653.36054397,137299737,-4.46,-3.5700000000000003,0.0,-0.13,240.24,234.03,0.09,0.71,3
1679660653.46053696,137399730,-4.37,-4.03,0.0,-0.42,243.44,234.85,0.07,0.7000000000000001,3
1679660653.56056499,137499758,-3.38,-3.79,0.0,-0.65,246.74,236.24,0.07,0.6900000000000001,3
1679660653.66051507,137599708,-2.09,-2.46,0.0,-0.65,249.39000000000001,238.17000000000002,0.07,0.6900000000000001,3
1679660653.76043105,137699624,-1.06,-0.55,0.0,-0.45,251.16,240.43,0.07,0.6900000000000001,3
1679660653.86046600,137799659,-0.54,0.73,0.64,-0.06,252.05,242.84,0.06,0.6900000000000001,3
1679660653.96051598,137899709,-0.27,0.73,2.58,1.04,252.1,245.21,0.06,0.68,3
1679660654.06052804,137999721,-0.14,0.51,3.5,3.63,251.34,247.43,0.06,0.71,3
1679660654.16035104,138099544,-0.07,0.27,4.0600000000000005,5.15,249.71,249.32,0.06,0.6900000000000001,3
1679660654.26032305,138199516,-0.03,0.5,3.63,5.25,248.05,250.79,0.06,0.68,3
1679660654.36030293,138299496,-0.01,0.63,1.96,4.05,247.26000000000002,251.61,0.06,0.71,3
1679660654.46032810,138399521,0.32,0.51,1.22,1.47,247.19,251.92000000000002,0.07,0.72,3
1679660654.56016898,138499362,1.95,0.86,1.1400000000000001,-0.27,247.09,252.01000000000002,0.07,0.74,3
1679660654.66007900,138599272,1.81,2.5,0.72,-0.25,247.09,251.91,0.07,0.77,3
1679660654.76013303,138699326,0.92,2.94,0.36,-0.12,247.09,251.62,0.07,0.76,3
1679660654.86051488,138799708,0.47000000000000003,1.33,0.18,-0.38,247.09,251.19,0.08,0.77,3
1679660654.96022105,138899414,0.24,-0.15,0.09,-0.54,247.09,250.71,0.08,0.76,3
1679660655.06034589,138999539,0.12,-0.44,0.04,-0.46,247.09,250.24,0.06,0.76,3
1679660655.16035509,139099548,0.06,-0.4,0.02,-0.34,247.09,249.77,0.06,0.77,3
1679660655.26028895,139199482,0.03,-0.21,0.01,-0.29,247.09,249.29,0.06,0.77,3
1679660655.36032104,139299514,0.01,-0.2,0.0,-0.23,247.09,248.78,0.06,0.77,3
1679660655.46017194,139399365,0.0,-0.04,0.0,-0.21,247.09,248.29,0.05,0.77,3
1679660655.56008005,139499273,0.0,0.02,0.0,-0.18,247.16,247.83,0.05,0.76,3
1679660655.66044593,139599639,0.0,0.07,0.0,-0.15,247.94,247.43,0.05,0.75,3
1679660655.76051998,139699713,0.0,0.11,0.0,-0.15,249.6,247.22,0.05,0.74,3
1679660655.86055899,139799752,0.0,0.11,0.0,-0.17,251.75,247.35,0.04,0.73,3
1679660655.96049500,139899688,0.0,0.26,0.0,-0.13,253.72,247.89000000000001,0.04,0.72,3
1679660656.06047392,139999667,0.0,0.23,0.0,-0.14,255.61,248.79,0.04,0.71,3
1679660656.16051507,140099708,0.0,0.33,0.0,-0.21,256.89,249.94,0.04,0.7000000000000001,3
1679660656.26051688,140199710,0.11,0.19,0.0,-0.28,257.28000000000003,251.17000000000002,0.04,0.7000000000000001,3
1679660656.36039305,140299586,0.28,0.47000000000000003,0.0,-0.25,257.25,252.3,0.04,0.71,3
1679660656.46031404,140399507,0.36,0.61,0.0,-0.23,256.55,253.37,0.03,0.71,3
1679660656.56041503,140499608,0.38,0.49,0.0,-0.23,254.98000000000002,254.24,0.03,0.72,3
1679660656.66045809,140599651,0.31,0.59,0.0,-0.25,252.83,254.81,0.03,0.73,3
1679660656.76057291,140699766,0.19,0.46,0.0,-0.27,251.41,254.97,0.03,0.75,3
1679660656.86054707,140799740,0.14,0.23,0.0,-0.25,250.87,254.82,0.03,0.76,3
1679660656.96052694,140899720,0.22,0.1,-0.15,-0.22,250.87,254.56,0.03,0.76,3
1679660657.06052494,140999718,0.15,0.16,-0.8200000000000001,-0.41000000000000003,250.87,254.26000000000002,0.03,0.76,3
1679660657.16069388,141099887,0.07,0.03,-3.08,-1.44,250.87,253.85,0.03,0.75,3
1679660657.26050997,141199703,0.04,-0.13,-3.74,-3.93,250.87,253.4,0.02,0.73,3
1679660657.36044788,141299641,0.02,-0.06,-4.16,-5.43,250.87,253.01000000000002,0.02,0.74,3
1679660657.46044707,141399640,0.77,0.07,-4.04,-5.14,250.87,252.62,0.04,0.77,3
1679660657.56083608,141500029,1.86,1.06,-3.5100000000000002,-4.4,250.87,252.29,0.04,0.73,3
1679660657.66024089,141599434,2.44,2.54,-3.0700000000000003,-3.49,250.87,252.03,0.04,0.7000000000000001,3
1679660657.76028490,141699478,2.71,3.66,-2.93,-2.62,250.87,251.77,0.04,0.6900000000000001,3
1679660657.86029601,141799489,2.43,3.62,-2.65,-2.3000000000000003,250.87,251.56,0.06,0.66,3
1679660657.96028495,141899478,1.93,3.08,-2.33,-2.0,250.87,251.37,0.06,0.62,3
1679660658.06030393,141999497,1.5,2.09,-2.15,-1.61,250.87,251.17000000000002,0.07,0.61,3
1679660658.16021395,142099407,0.98,1.23,-2.16,-1.46,250.87,250.96,0.07,0.58,3
1679660658.26043510,142199628,0.51,0.41000000000000003,-2.32,-1.6400000000000001,250.87,250.76000000000002,0.07,0.5700000000000001,3
1679660658.36044002,142299633,0.26,-0.11,-2.39,-1.95,250.87,250.6,0.07,0.56,3
1679660658.46021295,142399406,0.13,-0.33,-2.37,-2.13,250.87,250.43,0.06,0.5700000000000001,3
1679660658.56022787,142499421,0.06,-0.45,-2.29,-2.09,250.87,250.28,0.06,0.5700000000000001,3
1679660658.66029000,142599483,0.03,-0.3,-1.97,-1.96,250.87,250.17000000000002,0.05,0.5700000000000001,3
1679660658.76030493,142699498,0.01,-0.17,-1.43,-1.56,250.87,250.13,0.05,0.5700000000000001,3
1679660658.86028290,142799476,0.0,-0.11,-1.11,-0.8300000000000001,250.87,250.13,0.05,0.5700000000000001,3
1679660658.96029997,142899493,0.0,0.03,-0.89,-0.34,250.87,250.14000000000001,0.05,0.56,3
1679660659.06017089,142999364,0.0,-0.05,-0.75,-0.25,250.87,250.20000000000002,0.04,0.55,3
1679660659.16050196,143099695,0.0,0.12,-0.43,-0.16,250.87,250.28,0.04,0.55,3
1679660659.26021791,143199411,0.0,0.17,-0.22,0.13,250.87,250.37,0.04,0.55,3
1679660659.36045408,143299647,0.0,0.09,-0.11,0.35000000000000003,250.87,250.46,0.04,0.55,3
1679660659.46046901,143399662,0.0,0.17,-0.05,0.36,250.87,250.54,0.04,0.54,3
1679660659.56047392,143499667,0.0,0.09,-0.02,0.31,250.87,250.61,0.04,0.53,3
1679660659.66042304,143599616,0.0,0.07,-0.01,0.24,250.87,250.71,0.04,0.53,3
1679660659.76041508,143699608,0.0,0.13,0.0,0.12,250.87,250.78,0.04,0.53,3
1679660659.86052108,143799714,0.0,0.11,0.0,0.04,250.87,250.86,0.03,0.53,3
1679660659.96040702,143899600,0.0,0.23,0.0,0.03,250.87,250.95000000000002,0.03,0.53,3
1679660660.06044698,143999640,0.03,0.23,0.0,0.0,250.87,251.03,0.03,0.53,3
1679660660.16020894,144099402,0.35000000000000003,0.24,0.0,-0.02,250.87,251.13,0.03,0.53,3
1679660660.26050210,144199695,0.5700000000000001,0.63,0.0,0.0,250.87,251.24,0.03,0.53,3
1679660660.36055589,144299749,0.66,0.89,0.0,-0.03,250.87,251.34,0.03,0.52,3
1679660660.46051598,144399709,0.65,0.98,0.0,0.0,250.87,251.44,0.02,0.52,3
1679660660.56051993,144499713,0.59,0.8,0.0,-0.05,250.87,251.54,0.02,0.51,3
1679660660.66051888,144599712,0.67,0.5700000000000001,0.0,-0.06,250.87,251.62,0.02,0.5,3
1679660660.76057005,144699763,1.37,0.65,0.0,-0.04,250.87,251.69,0.02,0.5,3
1679660660.86052108,144799714,3.29,1.6600000000000001,-0.07,-0.03,250.87,251.77,0.02,0.49,3
1679660660.96072006,144899913,4.72,4.07,-0.79,-0.25,250.87,251.82,0.02,0.47000000000000003,3
1679660661.06018496,144999378,5.4,6.13,-1.61,-1.09,250.87,251.83,0.03,0.44,3
1679660661.16029310,145099486,5.61,6.65,-2.72,-2.33,250.87,251.78,0.03,0.41000000000000003,3
1679660661.26027203,145199465,5.03,6.23,-3.81,-3.66,250.87,251.75,0.04,0.37,3
1679660661.36035109,145299544,3.5700000000000003,5.0,-4.45,-4.8,250.87,251.72,0.04,0.33,3
1679660661.46031404,145399507,2.62,2.7800000000000002,-4.6000000000000005,-5.36,250.87,251.77,0.07,0.32,3
1679660661.56052709,145499720,1.84,1.04,-4.21,-4.98,250.87,251.89000000000001,0.07,0.32,3
1679660661.66055799,145599751,1.17,0.23,-3.38,-4.07,250.87,252.04,0.09,0.32,3
1679660661.76017404,145699367,0.6,-0.37,-2.62,-2.71,250.87,252.19,0.09,0.36,3
1679660661.86009908,145799292,0.31,-0.87,-2.2,-1.51,250.87,252.31,0.1,0.38,3
1679660661.96016002,145899353,0.15,-0.92,-2.02,-1.03,250.87,252.41,0.1,0.39,3
1679660662.06024909,145999442,0.08,-0.8300000000000001,-3.12,-1.17,250.87,252.52,0.1,0.41000000000000003,3
1679660662.16030598,146099499,0.04,-0.65,-3.84,-2.46,250.87,252.57,0.1,0.41000000000000003,3
1679660662.26049995,146199693,0.02,-0.52,-4.16,-3.94,250.87,252.62,0.09,0.43,3
1679660662.36052990,146299723,0.01,-0.53,-3.97,-4.3100000000000005,250.87,252.57,0.09,0.46,3
1679660662.46042299,146399616,0.0,-0.3,-3.31,-3.7800000000000002,250.87,252.46,0.09,0.47000000000000003,3
1679660662.56051803,146499711,0.0,-0.22,-2.45,-2.71,250.87,252.31,0.09,0.48,3
1679660662.66039991,146599593,0.0,-0.22,-1.84,-1.44,250.87,252.16,0.09,0.47000000000000003,3
1679660662.76032090,146699514,0.0,-0.1,-1.51,-0.5,250.87,252.0,0.09,0.45,3
1679660662.86041498,146799608,0.0,-0.15,-1.31,-0.26,250.87,251.8,0.09,0.42,3
1679660662.96043491,146899628,0.0,0.0,-1.02,-0.25,250.87,251.62,0.09,0.41000000000000003,3
1679660663.06043291,146999626,0.0,-0.05,-0.72,-0.08,250.87,251.42000000000002,0.08,0.42,3
1679660663.16074991,147099943,0.0,0.0,-0.36,0.12,250.87,251.24,0.08,0.41000000000000003,3
1679660663.26048589,147199679,0.0,-0.06,-0.18,0.43,250.87,251.04,0.07,0.4,3
1679660663.36042595,147299619,0.0,0.07,-0.09,0.5700000000000001,250.87,250.85,0.07,0.38,3
1679660663.46053004,147399723,0.0,0.04,-0.04,0.42,250.87,250.67000000000002,0.05,0.37,3
1679660663.56037688,147499570,0.0,0.11,-0.02,0.34,250.87,250.51000000000002,0.05,0.36,3
1679660663.66031408,147599507,0.0,0.04,0.01,0.19,250.87,250.42000000000002,0.05,0.35000000000000003,3
1679660663.76041007,147699603,0.0,0.06,0.05,0.14,250.87,250.32,0.05,0.33,3
1679660663.86045694,147799650,0.0,0.01,0.09,0.1,250.87,250.27,0.04,0.32,3
1679660663.96043611,147899629,0.0,0.09,0.5,0.14,250.87,250.26000000000002,0.04,0.31,3
1679660664.06071496,147999908,0.0,0.02,0.87,0.55,250.87,250.24,0.04,0.31,3
1679660664.16061902,148099812,0.0,0.05,1.09,1.16,250.87,250.23000000000002,0.04,0.31,3
1679660664.26028991,148199483,0.0,0.0,1.69,1.4000000000000001,250.87,250.25,0.03,0.29,3
1679660664.36056399,148299757,0.0,0.12,2.41,2.0100000000000002,250.87,250.28,0.03,0.29,3
1679660664.46044493,148399638,0.0,0.02,3.08,3.0100000000000002,250.87,250.33,0.03,0.3,3
1679660664.56043005,148499623,0.0,-0.07,3.72,3.7800000000000002,250.87,250.34,0.03,0.29,3
1679660664.66042709,148599620,0.0,-0.15,4.3100000000000005,4.44,250.87,250.37,0.03,0.29,3
1679660664.76080799,148700001,0.0,-0.24,4.5600000000000005,5.01,250.87,250.41,0.03,0.29,3
1679660664.86024594,148799439,0.0,-0.11,4.57,5.16,250.87,250.47,0.03,0.3,3
1679660664.96023488,148899428,0.0,-0.24,4.8500000000000005,4.9,250.87,250.51000000000002,0.03,0.29,3
1679660665.06028605,148999479,0.0,-0.2,5.1000000000000005,4.94,250.87,250.56,0.05,0.3,3
1679660665.16033006,149099523,0.0,-0.05,5.23,5.18,250.87,250.59,0.05,0.31,3
1679660665.26031399,149199507,0.0,-0.03,5.29,5.23,250.87,250.67000000000002,0.07,0.3,3
1679660665.36018395,149299377,0.0,-0.03,5.29,5.19,250.87,250.72,0.07,0.31,3
1679660665.46045494,149399648,0.0,0.0,5.36,5.11,250.87,250.81,0.07,0.31,3
1679660665.56059289,149499786,0.0,-0.05,5.46,5.15,250.87,250.88,0.07,0.32,3
1679660665.66047001,149599663,0.0,-0.13,5.29,5.2,250.87,250.95000000000002,0.09,0.32,3
1679660665.76053190,149699725,0.0,-0.13,4.29,4.84,250.87,251.06,0.09,0.32,3
1679660665.86028409,149799477,0.0,-0.1,3.66,3.58,250.87,251.15,0.09,0.3,3
1679660665.96028709,149899480,0.0,-0.17,2.18,2.35,250.87,251.22,0.09,0.32,3
1679660666.06028795,149999481,0.0,-0.24,1.11,0.9400000000000001,250.87,251.27,0.08,0.32,3
1679660666.16036010,150099553,0.0,-0.19,0.5700000000000001,-0.58,250.87,251.3,0.08,0.3,3
1679660666.26016998,150199363,-0.34,-0.18,0.29,-1.06,250.87,251.32,0.07,0.33,3
1679660666.36043692,150299630,-0.93,-0.67,0.14,-0.9500000000000001,250.87,251.33,0.07,0.34,3
1679660666.46013594,150399329,-1.19,-1.35,0.07,-0.74,250.87,251.32,0.05,0.33,3
1679660666.56045508,150499648,-1.37,-1.75,0.03,-0.58,250.87,251.31,0.05,0.32,3
1679660666.66043591,150599629,-1.83,-1.84,0.01,-0.43,250.87,251.3,0.06,0.33,3
1679660666.76041794,150699611,-2.23,-2.21,0.01,-0.28,250.87,251.25,0.06,0.34,3
1679660666.86048508,150799678,-2.62,-2.54,0.0,-0.16,250.87,251.17000000000002,0.05,0.34,3
1679660666.96065307,150899846,-3.19,-3.02,0.03,-0.11,250.87,251.07,0.05,0.34,3
1679660667.06057000,150999763,-3.52,-3.5500000000000003,0.39,0.03,250.87,250.98000000000002,0.06,0.35000000000000003,3
1679660667.16021490,151099408,-2.18,-3.71,1.18,0.5,250.87,250.84,0.06,0.36,3
1679660667.26043797,151199631,-1.11,-2.11,2.0100000000000002,1.57,250.87,250.69,0.07,0.36,3
1679660667.36043310,151299626,-0.56,-0.06,3.75,2.93,250.87,250.59,0.07,0.35000000000000003,3
1679660667.46050096,151399694,0.24,0.92,3.59,4.63,250.87,250.56,0.06,0.36,3
1679660667.56047988,151499673,2.43,1.47,2.23,4.58,250.87,250.51000000000002,0.06,0.31,3
1679660667.66065097,151599844,3.47,3.61,1.31,2.37,250.87,250.43,0.06,0.26,3
1679660667.76051497,151699708,2.15,5.2,0.67,0.26,250.87,250.38,0.06,0.24,3
1679660667.86050391,151799697,1.09,3.7,0.34,-0.49,250.87,250.39000000000001,0.08,0.26,3
1679660667.96056700,151899760,0.56,1.1,0.17,-0.59,250.87,250.49,0.08,0.21,3
1679660668.06016994,151999363,0.28,-0.26,0.08,-0.49,250.87,250.6,0.07,0.17,3
1679660668.16019988,152099393,0.14,-0.47000000000000003,0.04,-0.44,250.87,250.74,0.07,0.15,3
1679660668.26012707,152199320,0.07,-0.31,0.02,-0.3,250.87,250.88,0.08,0.17,3
1679660668.36018395,152299377,0.03,-0.28,0.01,-0.17,250.87,251.03,0.08,0.18,3
1679660668.46026206,152399455,0.01,-0.19,0.0,-0.09,250.87,251.16,0.07,0.19,3
1679660668.56051803,152499711,0.0,-0.22,0.0,-0.04,250.87,251.29,0.07,0.19,3
1679660668.66029406,152599487,0.0,-0.05,0.0,-0.04,250.87,251.39000000000001,0.06,0.2,3
1679660668.76022887,152699422,0.0,-0.04,0.0,-0.02,250.87,251.49,0.06,0.2,3
1679660668.86031008,152799503,0.0,0.03,0.11,-0.04,250.87,251.55,0.05,0.2,3
1679660668.96017599,152899369,0.0,0.0,1.21,0.17,250.87,251.6,0.05,0.2,3
1679660669.06008601,152999279,0.0,0.06,2.71,1.44,250.87,251.64000000000001,0.04,0.22,3
1679660669.16019297,153099386,0.0,0.06,4.55,3.72,250.87,251.63,0.04,0.24,3
1679660669.26051497,153199708,0.0,0.09,5.66,5.87,250.87,251.6,0.04,0.23,3
1679660669.36024094,153299434,0.0,0.06,6.25,6.94,250.87,251.61,0.04,0.21,3
1679660669.46048093,153399674,0.0,0.04,6.47,7.2,250.87,251.55,0.05,0.21,3
1679660669.56047297,153499666,0.0,-0.05,6.4,6.93,250.87,251.52,0.05,0.21,3
1679660669.66047788,153599671,0.0,-0.03,4.36,6.28,250.87,251.47,0.08,0.22,3
1679660669.76062107,153699814,0.0,-0.21,2.22,3.67,250.87,251.41,0.08,0.2,3
1679660669.86038303,153799576,0.0,-0.04,1.1300000000000001,0.04,250.87,251.35,0.11,0.18,3
1679660669.96029997,153899493,0.0,-0.08,0.58,-1.6500000000000001,250.87,251.27,0.11,0.23,3
1679660670.06073308,153999926,0.0,-0.1,0.29,-1.6600000000000001,250.87,251.21,0.1,0.25,3
1679660670.16053009,154099723,0.0,-0.15,0.15,-1.34,250.87,251.20000000000002,0.1,0.21,3
1679660670.26054001,154199733,0.0,-0.12,0.07,-1.09,250.87,251.18,0.08,0.19,3
1679660670.36026192,154299455,0.0,-0.13,0.03,-0.8,250.87,251.21,0.08,0.19,3
1679660670.46026206,154399455,0.0,-0.09,0.02,-0.6,250.87,251.25,0.08,0.19,3
1679660670.56024694,154499440,0.0,-0.02,-0.04,-0.44,250.87,251.27,0.08,0.18,3
1679660670.66031909,154599512,0.0,-0.15,-0.28,-0.47000000000000003,250.87,251.28,0.07,0.18,3
1679660670.76017690,154699370,0.0,0.09,-0.54,-0.68,250.87,251.28,0.07,0.17,3
1679660670.86044788,154799641,0.0,0.04,-0.53,-0.99,250.87,251.26000000000002,0.06,0.16,3
1679660670.96018600,154899379,0.0,0.17,-0.75,-0.84,250.87,251.24,0.06,0.17,3
1679660671.06051207,154999705,0.0,0.17,-3.39,-1.17,250.87,251.23000000000002,0.05,0.16,3
1679660671.16060591,155099799,0.0,0.22,-5.3100000000000005,-4.12,250.87,251.24,0.05,0.16,3
1679660671.26051497,155199708,0.0,0.24,-6.41,-7.3100000000000005,250.87,251.20000000000002,0.05,0.12,3
1679660671.36052704,155299720,0.0,0.22,-6.97,-8.46,250.87,251.19,0.05,0.18,3
1679660671.46051908,155399712,0.0,0.23,-7.23,-8.25,250.87,251.16,0.07,0.16,3
1679660671.56055498,155499748,0.0,0.2,-7.390000000000001,-7.890000000000001,250.87,251.13,0.07,0.16,3
1679660671.66017604,155599369,0.0,0.16,-7.47,-7.55,250.87,251.09,0.09,0.13,3
1679660671.76010299,155699296,0.0,0.05,-7.54,-7.25,250.87,251.05,0.09,0.11,3
1679660671.86024094,155799434,0.0,0.15,-7.62,-7.03,250.87,251.0,0.12,0.09,3
1679660671.96024394,155899437,0.0,0.07,-7.67,-6.99,250.87,250.95000000000002,0.12,0.08,3
1679660672.06023598,155999429,0.0,0.13,-7.86,-6.92,250.87,250.91,0.14,0.07,3
1679660672.16032600,156099519,0.0,0.02,-8.08,-7.08,250.87,250.88,0.14,0.06,3
1679660672.26030087,156199494,0.0,-0.06,-8.02,-7.33,250.87,250.88,0.15,0.06,3
1679660672.36031008,156299503,0.0,-0.03,-7.69,-7.19,250.87,250.87,0.15,0.05,3
1679660672.46058297,156399776,0.0,-0.2,-4.94,-6.46,250.87,250.85,0.16,0.04,3
1679660672.56016588,156499359,0.0,-0.06,-2.52,-3.35,250.87,250.83,0.16,0.07,3
1679660672.66030908,156599502,0.0,-0.06,-1.28,0.55,250.87,250.81,0.16,0.1,3
1679660672.76037288,156699566,0.0,-0.27,-0.65,2.09,250.87,250.82,0.16,0.14,3
1679660672.86035490,156799548,0.0,-0.46,-0.33,1.82,250.87,250.83,0.13,0.13,3
1679660672.96043110,156899624,0.0,-0.3,-0.17,1.3800000000000001,250.87,250.87,0.13,0.13,3
1679660673.06069303,156999886,0.0,-0.22,-0.08,1.1400000000000001,250.87,250.9,0.12,0.13,3
1679660673.16050696,157099700,0.0,-0.25,-0.04,0.81,250.87,250.94,0.12,0.12,3
1679660673.26041198,157199605,0.0,-0.18,-0.02,0.61,250.87,250.98000000000002,0.11,0.1,3
1679660673.36052203,157299715,0.06,-0.22,-0.01,0.49,250.87,250.98000000000002,0.11,0.1,3
1679660673.46040297,157399596,1.93,0.15,0.0,0.39,250.87,250.98000000000002,0.1,0.08,3
1679660673.56032610,157499519,3.97,2.11,0.0,0.32,250.87,251.0,0.1,0.07,3
1679660673.66039491,157599588,5.0600000000000005,5.2700000000000005,0.0,0.2,250.87,251.0,0.09,0.06,3
1679660673.76044393,157699637,5.59,7.0200000000000005,0.0,0.16,250.87,250.98000000000002,0.09,0.06,3
1679660673.86055207,157799745,5.8500000000000005,7.25,0.0,0.15,250.87,250.93,0.09,0.09,3
1679660673.96065807,157899851,5.98,6.9,0.0,0.19,250.87,250.87,0.09,0.13,3
1679660674.06051707,157999710,6.0600000000000005,6.5,0.0,0.21,250.87,250.79,0.1,0.15,3
1679660674.16054988,158099743,6.09,6.15,0.0,0.27,250.87,250.71,0.1,0.17,3
1679660674.26058602,158199779,5.93,5.89,0.0,0.23,250.87,250.65,0.13,0.18,3
1679660674.36051607,158299709,4.36,5.67,0.0,0.29,250.87,250.59,0.13,0.19,3
1679660674.46009088,158399284,2.22,3.8200000000000003,0.0,0.31,250.87,250.56,0.14,0.18,3
1679660674.56012988,158499323,1.1300000000000001,0.6900000000000001,0.0,0.24,250.87,250.53,0.14,0.16,3
1679660674.66022611,158599419,0.58,-1.04,0.0,0.24,250.87,250.49,0.13,0.15,3
1679660674.76023388,158699427,0.25,-1.16,0.0,0.24,250.87,250.5,0.13,0.12,3
1679660674.86028790,158799481,-0.5700000000000001,-1.02,0.0,0.15,250.87,250.5,0.11,0.12,3
1679660674.96029496,158899488,-1.9000000000000001,-1.54,0.0,0.05,250.87,250.51000000000002,0.11,0.12,3
1679660675.06030107,158999494,-3.84,-3.15,0.0,0.02,250.87,250.51000000000002,0.1,0.13,3
1679660675.16060400,159099797,-4.79,-5.24,0.0,0.02,250.87,250.47,0.1,0.15,3
1679660675.26016903,159199362,-5.03,-6.58,0.0,0.0,250.87,250.41,0.11,0.16,3
1679660675.36009002,159299283,-5.18,-6.43,0.0,-0.06,250.87,250.33,0.11,0.18,3
1679660675.46017694,159399370,-5.3,-6.01,0.03,-0.1,250.87,250.19,0.11,0.21,3
1679660675.56012988,159499323,-5.24,-5.92,0.05,-0.03,250.87,250.04,0.11,0.24,3
1679660675.66022205,159599415,-5.14,-5.41,0.02,0.05,250.87,249.86,0.13,0.25,3
1679660675.76026487,159699458,-4.88,-4.94,0.01,0.02,250.87,249.68,0.13,0.25,3
1679660675.86029887,159799492,-4.53,-4.41,0.0,-0.02,250.87,249.54,0.14,0.25,3
1679660675.96024203,159899435,-2.98,-3.66,0.2,0.01,250.92000000000002,249.38,0.14,0.23,3
1679660676.06061888,159999812,-1.52,-1.94,1.62,0.37,251.06,249.27,0.15,0.21,3
1679660676.16021991,160099413,-0.77,0.35000000000000003,3.09,2.0,251.06,249.21,0.15,0.2,3
1679660676.26032495,160199518,-0.39,1.49,3.87,4.08,251.06,249.24,0.13,0.17,3
1679660676.36042094,160299614,-0.2,1.41,3.8200000000000003,5.12,251.06,249.32,0.13,0.18,3
1679660676.46035194,160399545,-0.1,1.11,3.7600000000000002,4.58,251.06,249.41,0.11,0.19,3
1679660676.56044197,160499635,-0.05,0.81,4.11,3.96,251.06,249.52,0.11,0.16,3
1679660676.66071296,160599906,-0.02,0.71,4.38,4.05,251.06,249.74,0.11,0.13,3
1679660676.76052809,160699721,-0.01,0.45,4.53,4.3500000000000005,251.06,249.94,0.11,0.11,3
1679660676.86022902,160799422,0.0,0.18,4.58,4.36,251.06,250.18,0.12,0.11,3
1679660676.96056604,160899759,0.0,0.23,4.53,4.39,251.06,250.42000000000002,0.12,0.08,3
1679660677.06043410,160999627,0.0,0.17,4.4,4.24,251.47,250.69,0.1,0.07,3
1679660677.16049004,161099683,-0.01,0.13,4.23,4.0,252.63,251.03,0.1,0.06,3
1679660677.26043296,161199626,-0.07,0.32,4.19,3.72,253.76000000000002,251.58,0.11,0.05,3
1679660677.36085606,161300049,-0.11,0.07,4.08,3.54,254.25,252.3,0.11,0.06,3
1679660677.46030092,161399494,-0.1,-0.01,3.83,3.45,254.57,253.01000000000002,0.1,0.06,3
1679660677.56027198,161499465,-0.05,-0.12,3.49,3.2,254.57,253.69,0.1,0.06,3
1679660677.66030502,161599498,-0.02,0.04,2.67,2.72,254.57,254.28,0.1,0.08,3
1679660677.76030588,161699499,-0.01,-0.02,1.87,1.79,254.57,254.84,0.1,0.08,3
1679660677.86031699,161799510,0.0,0.02,1.37,0.81,254.57,255.31,0.08,0.1,3
1679660677.96017694,161899370,0.0,0.0,1.53,0.38,254.57,255.70000000000002,0.08,0.12,3
1679660678.06041408,161999607,0.0,-0.06,2.59,0.87,254.57,256.0,0.07,0.14,3
1679660678.16066909,162099862,0.0,0.03,4.13,2.43,254.57,256.23,0.07,0.16,3
1679660678.26017499,162199368,0.0,-0.05,5.2,4.57,254.57,256.37,0.06,0.17,3
1679660678.36021900,162299412,0.0,0.05,5.84,5.99,254.57,256.45,0.06,0.17,3
1679660678.46024609,162399439,0.0,0.18,6.82,6.44,254.57,256.48,0.05,0.16,3
1679660678.56024599,162499439,0.0,0.29,8.07,7.34,254.57,256.44,0.05,0.17,3
1679660678.66024089,162599434,0.0,0.33,8.23,8.66,254.57,256.32,0.07,0.19,3
1679660678.76057887,162699772,0.0,0.31,7.8,8.73,254.57,256.15,0.07,0.17,3
1679660678.86041403,162799607,0.0,0.15,7.48,7.58,254.57,255.98000000000002,0.09,0.15,3
1679660678.96031690,162899510,0.0,0.24,6.86,6.640000000000001,254.57,255.78,0.09,0.17,3
1679660679.06040311,162999596,0.0,0.14,6.25,5.87,254.57,255.61,0.12,0.18,3
1679660679.16044402,163099637,0.0,0.07,5.15,4.88,254.57,255.44,0.12,0.16,3
1679660679.26043510,163199628,0.0,-0.09,3.8000000000000003,3.5,254.57,255.32,0.13,0.15,3
1679660679.36071110,163299904,0.0,-0.07,2.68,1.79,254.57,255.21,0.13,0.13,3
1679660679.46051908,163399712,0.0,-0.09,1.43,0.5,254.57,255.15,0.13,0.14,3
1679660679.56029201,163499485,0.0,-0.24,0.73,-0.6,254.57,255.07,0.13,0.14,3
1679660679.66055298,163599746,0.0,-0.19,0.37,-1.17,254.57,254.99,0.11,0.13,3
1679660679.76044488,163699638,0.0,-0.09,0.19,-1.21,254.57,254.94,0.11,0.13,3
1679660679.86039710,163799590,0.0,-0.11,0.09,-1.06,254.57,254.86,0.1,0.11,3
1679660679.96043491,163899628,0.0,-0.19,0.04,-0.96,254.57,254.78,0.1,0.09,3
1679660680.06105208,164000245,0.0,-0.27,0.02,-0.79,254.57,254.69,0.09,0.08,3
1679660680.16029692,164099490,-0.05,-0.38,0.01,-0.61,254.57,254.6,0.09,0.07,3
1679660680.26034498,164199538,-0.27,-0.41000000000000003,0.0,-0.5,254.57,254.5,0.09,0.06,3
1679660680.36032200,164299515,-1.04,-0.5700000000000001,0.0,-0.38,254.57,254.38,0.09,0.05,3
1679660680.46030188,164399495,-1.54,-1.53,-0.55,-0.4,254.57,254.28,0.07,0.05,3
1679660680.56030393,164499497,-1.72,-2.25,-2.72,-1.1500000000000001,254.57,254.23000000000002,0.07,0.04,3
1679660680.66016603,164599359,-1.8,-2.37,-4.23,-3.8200000000000003,254.57,254.27,0.06,0.06,3
1679660680.76043701,164699630,-1.07,-2.22,-4.84,-6.29,254.57,254.28,0.06,0.07,3
1679660680.86042690,164799620,-0.55,-1.45,-5.5,-6.78,254.57,254.23000000000002,0.07,0.12,3
1679660680.96048498,164899678,-0.28,-0.49,-5.0200000000000005,-6.640000000000001,254.57,254.18,0.07,0.1,3
1679660681.06079888,164999992,-0.14,-0.12,-4.41,-5.7,254.57,254.11,0.08,0.08,3
1679660681.16031098,165099504,-0.07,-0.01,-3.9,-4.4,254.57,254.15,0.08,0.07,3
1679660681.26029110,165199484,-0.03,-0.05,-3.72,-3.49,254.57,254.22,0.1,0.1,3
1679660681.36028504,165299478,-0.01,0.06,-4.45,-3.31,254.57,254.31,0.1,0.1,3
1679660681.46032190,165399515,0.0,-0.12,-5.01,-4.33,254.57,254.46,0.11,0.12,3
1679660681.56016588,165499359,0.0,-0.13,-4.91,-5.3,254.57,254.64000000000001,0.11,0.11,3
1679660681.66043997,165599633,0.0,-0.01,-5.03,-5.12,254.57,254.83,0.11,0.11,3
1679660681.76018500,165699378,0.0,0.01,-5.0,-4.87,254.57,255.05,0.11,0.12,3
1679660681.86034989,165799543,0.0,-0.05,-4.4,-4.74,254.57,255.29,0.1,0.13,3
1679660681.96042895,165899622,0.0,0.01,-3.99,-3.96,254.57,255.54,0.1,0.11,3
1679660682.06046605,165999659,0.0,-0.11,-3.16,-3.13,254.57,255.78,0.1,0.1,3
1679660682.16050792,166099701,0.0,-0.07,-2.8000000000000003,-2.29,254.57,256.01,0.1,0.09,3
1679660682.26042700,166199620,0.0,-0.11,-3.33,-1.94,254.57,256.23,0.1,0.08,3
1679660682.36062193,166299815,0.0,-0.22,-4.26,-2.83,254.57,256.46,0.1,0.09,3
1679660682.46016908,166399362,0.0,0.0,-4.24,-4.22,254.57,256.65,0.08,0.09,3
1679660682.56043696,166499630,0.37,-0.05,-3.14,-4.28,254.57,256.82,0.08,0.09,3
1679660682.66044807,166599641,0.9400000000000001,0.4,-2.22,-2.6,254.57,256.94,0.08,0.11,3
1679660682.76051307,166699706,1.42,1.04,-1.69,-0.98,254.57,257.03000000000003,0.08,0.12,3
1679660682.86047602,166799669,1.69,1.6,-1.0,-0.33,254.57,257.09000000000003,0.07,0.14,3
1679660682.96075106,166899944,1.76,1.84,-0.63,0.13,254.57,257.11,0.07,0.13,3
1679660683.06065798,166999851,1.1400000000000001,1.83,-0.6,0.45,254.57,257.09000000000003,0.07,0.11,3
1679660683.16032600,167099519,0.58,1.09,-0.48,0.28,254.57,257.07,0.07,0.11,3
1679660683.26030397,167199497,0.29,0.24,-0.36,0.19,254.57,257.02,0.07,0.1,3
1679660683.36017299,167299366,0.15,-0.22,-0.97,0.24,254.57,256.94,0.07,0.08,3
1679660683.46008897,167399282,0.07,-0.39,-1.46,-0.54,254.57,256.85,0.07,0.08,3
1679660683.56013489,167499328,0.03,-0.22,-2.25,-1.51,254.57,256.73,0.07,0.07,3
1679660683.66050696,167599700,0.02,-0.28,-3.59,-2.5,254.57,256.6,0.06,0.07,3
1679660683.76055694,167699750,0.01,-0.19,-4.44,-4.0600000000000005,254.57,256.45,0.06,0.07,3
1679660683.86029291,167799486,0.0,-0.07,-5.05,-5.25,254.57,256.31,0.05,0.06,3
1679660683.96029902,167899492,0.0,-0.04,-5.18,-5.74,254.57,256.12,0.05,0.05,3
1679660684.06035709,167999550,0.0,0.0,-4.83,-5.6000000000000005,254.89000000000001,255.96,0.06,0.06,3
1679660684.16037703,168099570,0.0,0.21,-3.97,-4.75,255.46,255.87,0.06,0.05,3
1679660684.26018500,168199378,0.0,0.26,-2.34,-3.23,255.99,255.92000000000002,0.08,0.05,3
1679660684.36045003,168299643,0.0,0.31,-1.2,-1.1300000000000001,256.56,256.06,0.08,0.05,3
1679660684.46024108,168399434,0.0,0.42,-0.61,0.6,257.71,256.29,0.08,0.06,3
1679660684.56043696,168499630,0.0,0.31,-0.31,1.1400000000000001,259.37,256.71,0.08,0.09,3
1679660684.66044903,168599642,0.0,0.31,-0.16,1.01,260.97,257.43,0.07,0.09,3
1679660684.76041102,168699604,0.0,0.25,-0.08,0.75,262.05,258.34000000000003,0.07,0.08,3
1679660684.86049008,168799683,0.0,0.28,-0.04,0.47000000000000003,262.32,259.35,0.07,0.07,3
1679660684.96046495,168899658,0.0,0.19,-0.02,0.41000000000000003,262.27,260.26,0.07,0.05,3
1679660685.06058002,168999773,0.0,0.13,-0.01,0.34,262.25,261.08,0.06,0.05,3
1679660685.16021800,169099411,0.0,0.17,0.0,0.28,262.25,261.8,0.06,0.05,3
1679660685.26044106,169199634,0.0,0.04,0.0,0.18,262.25,262.47,0.05,0.05,3
1679660685.36045289,169299646,0.0,0.05,0.0,0.2,262.25,263.04,0.05,0.06,3
1679660685.46054006,169399733,0.0,0.02,0.0,0.17,262.25,263.53000000000003,0.04,0.08,3
1679660685.56046391,169499657,0.0,0.06,0.0,0.11,262.25,263.92,0.04,0.09,3
1679660685.66051197,169599705,0.0,0.03,0.0,0.1,262.25,264.21,0.04,0.1,3
1679660685.76051688,169699710,0.0,0.1,0.0,0.12,262.25,264.42,0.04,0.11,3
1679660685.86051202,169799705,0.0,0.05,0.0,0.13,262.21,264.57,0.03,0.12,3
1679660685.96056199,169899755,0.0,0.16,0.0,0.19,261.67,264.61,0.03,0.13,3
1679660686.06044102,169999634,0.0,0.06,0.0,0.2,261.02,264.48,0.02,0.14,3
1679660686.16073704,170099930,0.0,-0.03,0.0,0.24,260.67,264.18,0.02,0.15,3
1679660686.26044488,170199638,0.0,-0.05,0.0,0.26,260.67,263.84000000000003,0.02,0.15,3
1679660686.36024809,170299441,0.0,-0.09,0.0,0.29,260.74,263.49,0.02,0.14,3
1679660686.46024704,170399440,0.0,-0.23,0.0,0.26,260.81,263.16,0.02,0.14,3
1679660686.56034398,170499537,0.0,-0.22,0.0,0.28,260.91,262.8,0.02,0.14,3
1679660686.66031408,170599507,0.0,-0.4,0.0,0.18,260.93,262.46,0.01,0.13,3
1679660686.76029110,170699484,0.0,-0.28,0.0,0.14,260.93,262.13,0.01,0.12,3
1679660686.86056709,170799760,0.0,-0.21,0.0,0.08,260.93,261.77,0.01,0.12,3
1679660686.96017289,170899366,0.0,-0.24,0.0,0.05,260.93,261.45,0.01,0.1,3
1679660687.06008792,170999281,0.0,-0.22,0.0,-0.01,260.93,261.16,0.01,0.1,3
1679660687.16020894,171099402,0.0,-0.3,0.0,-0.03,260.93,260.89,0.01,0.08,3
1679660687.26018691,171199380,0.0,-0.31,0.0,-0.04,260.93,260.64,0.01,0.07,3
1679660687.36023402,171299427,0.0,-0.22,0.0,0.0,261.02,260.44,0.01,0.06,3
1679660687.46051502,171399708,0.0,-0.3,0.0,0.0,261.52,260.27,0.02,0.05,3
1679660687.56051993,171499713,0.0,-0.26,0.0,0.01,262.17,260.24,0.02,0.05,3
1679660687.66030002,171599493,0.0,-0.31,0.0,0.0,262.57,260.37,0.02,0.04,3
1679660687.76052189,171699715,0.0,-0.23,0.0,-0.05,262.58,260.63,0.02,0.04,3
1679660687.86047387,171799667,0.0,-0.06,0.0,-0.09,262.58,260.82,0.02,0.04,3
1679660687.96030903,171899502,0.0,-0.06,0.0,-0.11,262.58,261.0,0.02,0.03,3
1679660688.06039405,171999587,0.06,-0.1,0.0,-0.11,262.58,261.25,0.01,0.02,3
1679660688.16077304,172099966,0.05,0.0,0.0,-0.06,262.58,261.47,0.01,0.02,3
1679660688.26022792,172199421,0.02,0.02,0.0,-0.08,262.58,261.71,0.02,0.02,3
1679660688.36029696,172299490,0.19,-0.02,0.05,-0.09,262.58,261.93,0.02,0.02,3
1679660688.46031189,172399505,0.67,0.13,0.18,-0.02,262.58,262.15,0.02,0.02,3
1679660688.56023192,172499425,1.1300000000000001,0.66,0.68,0.2,262.58,262.33,0.02,0.01,3
1679660688.66034102,172599534,1.36,1.24,1.45,0.87,262.58,262.51,0.02,0.02,3
1679660688.76016688,172699360,1.62,1.6400000000000001,1.9000000000000001,1.8800000000000001,262.58,262.69,0.02,0.03,3
1679660688.86043811,172799631,1.8800000000000001,1.62,2.08,2.38,262.58,262.84000000000003,0.02,0.04,3
1679660688.96044397,172899637,2.06,2.04,2.25,2.37,262.58,262.92,0.02,0.05,3
1679660689.06049800,172999691,2.31,2.22,2.54,2.42,262.58,263.0,0.02,0.04,3
1679660689.16060901,173099802,2.59,2.49,2.68,2.75,262.58,263.07,0.02,0.03,3
1679660689.26050997,173199703,2.59,2.87,1.5,2.62,262.58,263.08,0.04,0.04,3
1679660689.36054111,173299734,2.0300000000000002,2.88,0.76,1.26,262.58,263.01,0.04,0.07,3
1679660689.46052504,173399718,1.31,2.1,0.39,-0.14,262.58,262.92,0.04,0.06,3
1679660689.56061888,173499812,0.67,1.12,0.2,-0.53,262.58,262.9,0.04,0.06,3
1679660689.66043997,173599633,0.34,0.19,0.1,-0.46,262.58,262.89,0.05,0.05,3
1679660689.76008797,173699281,0.17,0.0,0.05,-0.34,262.58,262.87,0.05,0.05,3
1679660689.86012793,173799321,0.08,-0.2,0.02,-0.17,262.58,262.86,0.05,0.05,3
1679660689.96019793,173899391,0.04,-0.23,0.01,0.03,262.58,262.87,0.05,0.05,3
1679660690.06027293,173999466,0.02,-0.16,0.0,0.11,262.58,262.84000000000003,0.04,0.05,3
1679660690.16055989,174099753,0.63,-0.22,0.0,0.1,262.58,262.82,0.04,0.05,3
1679660690.26053500,174199728,2.24,0.55,0.0,0.07,262.58,262.75,0.04,0.05,3
1679660690.36053610,174299729,3.09,2.59,0.0,0.07,262.58,262.67,0.04,0.05,3
1679660690.46057010,174399763,3.5700000000000003,4.11,0.0,0.03,262.58,262.61,0.04,0.04,3
1679660690.56016397,174499357,3.7600000000000002,4.45,0.0,0.09,262.58,262.5,0.04,0.06,3
1679660690.66031504,174599508,3.5100000000000002,4.34,-0.31,0.11,262.58,262.39,0.04,0.09,3
1679660690.76049495,174699688,3.18,3.77,-1.28,-0.21,262.58,262.27,0.04,0.11,3
1679660690.86044788,174799641,2.8000000000000003,3.0500000000000003,-3.2600000000000002,-1.61,262.58,262.13,0.05,0.15,3
1679660690.96041393,174899607,1.7,2.16,-4.86,-4.18,262.58,261.95,0.05,0.19,3
1679660691.06048298,174999676,1.05,1.11,-5.82,-6.4,262.58,261.84000000000003,0.07,0.17,3
1679660691.16052389,175099717,0.5700000000000001,0.08,-6.29,-7.22,262.58,261.78000000000003,0.07,0.15,3
1679660691.26047587,175199669,0.29,-0.4,-6.3100000000000005,-7.26,262.58,261.78000000000003,0.08,0.14,3
1679660691.36069989,175299893,0.14,-0.56,-6.03,-6.82,262.58,261.76,0.08,0.14,3
1679660691.46017790,175399371,0.07,-0.78,-5.8,-6.0600000000000005,262.58,261.8,0.11,0.12,3
1679660691.56008410,175499277,0.03,-0.62,-5.69,-5.41,262.58,261.87,0.11,0.1,3
1679660691.66013598,175599329,0.01,-0.61,-5.12,-5.12,262.58,261.99,0.13,0.1,3
1679660691.76023102,175699424,0.01,-0.34,-3.48,-4.11,262.58,262.1,0.13,0.08,3
1679660691.86024308,175799436,0.0,-0.17,-1.79,-1.86,262.58,262.26,0.14,0.09,3
1679660691.96029305,175899486,0.0,-0.04,-0.88,0.51,262.58,262.41,0.14,0.09,3
1679660692.06054688,175999740,0.0,0.04,1.46,1.74,262.58,262.63,0.13,0.11,3
1679660692.16055489,176099748,0.0,0.16,3.5500000000000003,3.68,262.58,262.82,0.13,0.09,3
1679660692.26055694,176199750,0.0,0.36,5.11,6.23,262.58,263.03000000000003,0.11,0.09,3
1679660692.36044288,176299636,0.0,0.34,6.32,7.890000000000001,262.58,263.18,0.11,0.1,3
1679660692.46042705,176399620,-0.21,0.53,7.16,8.5,262.58,263.3,0.13,0.1,3
1679660692.56045294,176499646,-0.32,0.12,7.640000000000001,8.86,262.58,263.37,0.13,0.09,3
1679660692.66051602,176599709,-0.6,-0.14,7.69,8.76,262.58,263.34000000000003,0.15,0.07,3
1679660692.76056409,176699757,-0.9400000000000001,-0.5,7.3100000000000005,8.16,262.58,263.27,0.15,0.06,3
1679660692.86036301,176799556,-0.98,-0.92,7.07,7.29,262.58,263.17,0.17,0.05,3
1679660692.96031499,176899508,-1.01,-0.9400000000000001,6.87,6.65,262.58,263.07,0.17,0.04,3
1679660693.06024408,176999437,-0.97,-0.8300000000000001,6.65,6.29,262.58,262.93,0.18,0.05,3
1679660693.16038895,177099582,-0.98,-0.66,6.57,5.93,262.58,262.81,0.18,0.04,3
1679660693.26016688,177199360,-1.04,-0.76,6.54,5.69,262.58,262.74,0.19,0.03,3
1679660693.36008787,177299281,-0.9500000000000001,-0.8,6.26,5.64,262.58,262.72,0.19,0.03,3
1679660693.46013999,177399333,-0.91,-0.74,6.140000000000001,5.3,262.58,262.73,0.18,0.03,3
1679660693.56046796,177499661,-1.1400000000000001,-0.79,5.86,5.0600000000000005,262.58,262.81,0.18,0.02,3
1679660693.66043496,177599628,-1.46,-0.9400000000000001,4.29,4.68,262.58,262.91,0.17,0.03,3
1679660693.76047897,177699672,-1.29,-1.69,2.45,2.85,262.58,263.1,0.17,0.04,3
1679660693.86048508,177799678,-0.89,-1.6400000000000001,1.25,0.23,262.58,263.31,0.16,0.04,3
1679660693.96049809,177899691,-0.47000000000000003,-0.91,0.63,-1.34,262.58,263.51,0.16,0.05,3
1679660694.06054306,177999736,-0.24,-0.3,0.32,-1.57,262.58,263.6,0.13,0.07,3
1679660694.16045189,178099645,-0.12,0.0,0.16,-1.35,262.58,263.71,0.13,0.07,3
1679660694.26046300,178199656,-0.06,0.19,0.08,-1.09,262.58,263.76,0.11,0.09,3
1679660694.36014390,178299337,0.1,0.03,0.04,-0.8300000000000001,262.58,263.81,0.11,0.1,3
1679660694.46017504,178399368,1.93,0.32,0.02,-0.55,262.58,263.77,0.12,0.11,3
1679660694.56023502,178499428,3.23,2.34,0.01,-0.42,262.58,263.72,0.12,0.14,3
1679660694.66026092,178599454,3.66,4.22,0.0,-0.38,262.58,263.62,0.11,0.16,3
1679660694.76031089,178699504,2.95,4.87,0.0,-0.3,262.58,263.49,0.11,0.17,3
1679660694.86030006,178799493,1.59,3.47,0.0,-0.14,262.58,263.32,0.11,0.21,3
1679660694.96033502,178899528,0.81,1.1300000000000001,-0.09,-0.08,262.58,263.13,0.11,0.23,3
1679660695.06017208,178999365,0.41000000000000003,-0.18,-0.21,-0.08,262.58,262.95,0.1,0.25,3
1679660695.16019797,179099391,0.21,-0.77,-0.13,-0.22,262.89,262.78000000000003,0.1,0.25,3
1679660695.26013303,179199326,0.1,-0.72,-0.06,-0.13,264.06,262.68,0.1,0.23,3
1679660695.36019802,179299391,0.05,-0.5700000000000001,-0.03,-0.04,265.98,262.83,0.1,0.21,3
1679660695.46024299,179399436,0.02,-0.32,-0.01,0.03,267.34000000000003,263.29,0.08,0.21,3
1679660695.56051302,179499706,0.01,-0.11,0.0,0.0,267.87,263.95,0.08,0.21,3
1679660695.66029406,179599487,0.0,-0.01,0.0,0.04,267.88,264.6,0.07,0.21,3
1679660695.76053905,179699732,0.0,-0.1,0.0,0.05,267.88,265.19,0.07,0.2,3
1679660695.86057711,179799770,0.0,-0.14,0.0,0.06,267.88,265.8,0.06,0.18,3
1679660695.96044493,179899638,0.0,-0.08,0.0,0.01,267.88,266.42,0.06,0.17,3
1679660696.06043291,179999626,0.0,0.0,0.0,0.02,267.88,266.97,0.05,0.15,3
1679660696.16055703,180099750,0.0,0.0,0.0,0.06,267.88,267.51,0.05,0.14,3
1679660696.26084590,180200039,0.0,-0.01,0.0,0.07,267.88,267.97,0.04,0.12,3
1679660696.36057591,180299769,0.0,-0.04,0.0,0.09,267.88,268.36,0.04,0.11,3
1679660696.46029305,180399486,0.0,-0.05,0.0,0.06,267.88,268.7,0.03,0.1,3
1679660696.56031203,180499505,0.0,-0.16,0.0,0.05,267.88,268.96,0.03,0.08,3
1679660696.66030598,180599499,0.0,-0.24,0.0,0.04,267.88,269.17,0.03,0.07,3
1679660696.76034188,180699535,-0.18,-0.21,0.0,0.0,267.88,269.3,0.03,0.06,3
1679660696.86018491,180799378,-0.67,-0.53,0.0,-0.02,267.88,269.37,0.02,0.05,3
1679660696.96043992,180899633,-2.71,-1.33,0.0,-0.02,267.88,269.39,0.02,0.04,3
1679660697.06049609,180999689,-3.9,-3.42,0.0,0.05,267.88,269.33,0.02,0.06,3
1679660697.16046190,181099655,-4.49,-5.44,-0.02,0.13,267.88,269.21,0.02,0.06,3
1679660697.26037502,181199568,-4.64,-5.91,-0.45,0.04,267.88,269.09000000000003,0.03,0.08,3
1679660697.36046696,181299660,-4.83,-5.51,-0.24,-0.4,267.88,268.97,0.03,0.1,3
1679660697.46048808,181399681,-4.93,-5.23,-0.12,-0.4,267.88,268.82,0.04,0.13,3
1679660697.56042004,181499613,-5.0200000000000005,-5.01,-0.06,0.0,267.88,268.59000000000003,0.04,0.16,3
1679660697.66058302,181599776,-5.1000000000000005,-4.97,-0.03,0.11,267.88,268.44,0.06,0.15,3
1679660697.76019406,181699387,-5.17,-4.92,-0.01,0.16,267.88,268.31,0.06,0.15,3
1679660697.86008501,181799278,-5.25,-4.96,0.0,0.23,267.88,268.22,0.08,0.16,3
1679660697.96018195,181899375,-5.29,-4.92,0.0,0.17,267.88,268.2,0.08,0.15,3
1679660698.06019092,181999384,-5.3,-4.98,0.0,0.09,267.88,268.21,0.09,0.15,3
1679660698.16030288,182099496,-5.1000000000000005,-4.8,0.0,0.02,267.88,268.28000000000003,0.09,0.15,3
1679660698.26022887,182199422,-3.63,-4.46,0.0,-0.05,267.88,268.35,0.09,0.14,3
1679660698.36030102,182299494,-1.85,-2.73,0.0,-0.18,267.88,268.46,0.09,0.13,3
1679660698.46030903,182399502,-0.03,-0.02,0.0,-0.25,267.88,268.61,0.09,0.11,3
1679660698.56056190,182499755,1.51,2.33,0.0,-0.28,267.88,268.78000000000003,0.09,0.09,3
1679660698.66051602,182599709,2.57,4.0,0.0,-0.25,267.88,268.91,0.08,0.12,3
1679660698.76044798,182699641,4.17,4.92,0.0,-0.23,267.88,269.07,0.08,0.14,3
1679660698.86045790,182799651,5.2700000000000005,6.140000000000001,0.0,-0.25,267.88,269.18,0.08,0.19,3
1679660698.96045589,182899649,5.8100000000000005,7.13,0.0,-0.26,267.88,269.26,0.08,0.23,3
1679660699.06047702,182999670,6.01,7.24,0.0,-0.21,267.88,269.3,0.11,0.26,3
1679660699.16101098,183100204,5.72,6.75,0.0,-0.09,267.88,269.27,0.11,0.3,3
1679660699.26050901,183199702,4.92,5.86,-0.31,-0.06,267.88,269.19,0.14,0.32,3
1679660699.36029506,183299488,2.6,4.38,-2.27,-0.48,267.88,269.06,0.14,0.33,3
1679660699.46031094,183399504,1.33,1.52,-4.37,-2.7600000000000002,267.88,268.87,0.16,0.36,3
1679660699.56016302,183499356,0.67,-0.84,-6.21,-6.11,267.88,268.81,0.16,0.37,3
1679660699.66008592,183599279,0.34,-1.41,-7.07,-8.43,267.88,268.85,0.15,0.31,3
1679660699.76013398,183699327,0.17,-1.1300000000000001,-7.07,-8.98,267.88,268.88,0.15,0.27,3
1679660699.86050987,183799703,0.09,-0.89,-6.86,-8.15,267.88,268.89,0.15,0.22,3
1679660699.96022987,183899423,0.04,-0.75,-6.73,-6.98,267.88,268.97,0.15,0.2,3
1679660700.06029606,183999489,0.02,-0.61,-6.74,-6.3,267.88,269.09000000000003,0.17,0.21,3
1679660700.16033792,184099531,0.01,-0.46,-6.28,-5.8500000000000005,267.88,269.24,0.17,0.21,3
1679660700.26028490,184199478,0.0,-0.48,-5.44,-5.12,267.88,269.41,0.19,0.18,3
1679660700.36030889,184299502,0.36,-0.26,-2.96,-3.7800000000000002,267.88,269.62,0.19,0.18,3
1679660700.46016502,184399358,1.2,0.13,-1.51,-0.9500000000000001,267.88,269.82,0.17,0.15,3
1679660700.56043196,184499625,1.99,1.48,-0.77,1.42,267.88,270.04,0.17,0.16,3
1679660700.66044402,184599637,2.86,2.6,-0.39,1.96,267.88,270.2,0.14,0.2,3
1679660700.76050210,184699695,3.25,3.54,-0.23,1.47,267.88,270.29,0.14,0.22,3
1679660700.86056304,184799756,2.88,3.86,-0.6,1.03,267.88,270.32,0.12,0.2,3
1679660700.96041489,184899608,1.6600000000000001,3.0500000000000003,-1.24,0.04,267.88,270.32,0.12,0.21,3
1679660701.06047893,184999672,0.86,1.36,-1.58,-1.12,267.88,270.21,0.12,0.23,3
1679660701.16052389,185099717,0.43,-0.02,-1.79,-1.8,267.88,270.13,0.12,0.22,3
