timestamp,TimeUS,I,Status,GMS,GWk,NSats,HDop,Lat,Lng,Alt,Spd,GCrs,VZ,Yaw,U
1679660629.40000010,113339193,0,3,476647400,2254,12,0.8300000000000001,42.6887082,-84.4915711,262.37,0.039000000804662704,337.380126953125,0.013000000268220901,0.0,1
1679660629.60001802,113539211,0,3,476647600,2254,12,0.8300000000000001,42.6887082,-84.4915711,262.37,0.016278821974992752,312.51043701171875,-0.020000001415610313,0.0,1
1679660629.80055404,113739747,0,3,476647800,2254,12,0.8300000000000001,42.6887082,-84.4915711,262.38,0.017888544127345085,206.56504821777344,0.06100000441074371,0.0,1
1679660630.00044799,113939641,0,3,476648000,2254,12,0.8300000000000001,42.6887082,-84.4915711,262.37,0.02801785245537758,214.8245086669922,-0.03400000184774399,0.0,1
1679660630.19997406,114139167,0,3,476648200,2254,12,0.8300000000000001,42.6887081,-84.4915712,262.38,0.0022360680159181356,333.4349365234375,0.01900000125169754,0.0,1
1679660630.40001392,114339207,0,3,476648400,2254,12,0.8300000000000001,42.6887081,-84.4915712,262.38,0.02865309827029705,240.75119018554688,0.06100000441074371,0.0,1
1679660630.60002303,114539216,0,3,476648600,2254,12,0.8300000000000001,42.6887081,-84.4915712,262.39,0.015811389312148094,18.434947967529297,-0.012000000104308128,0.0,1
1679660630.79987502,114739068,0,3,476648800,2254,12,0.8300000000000001,42.6887081,-84.4915712,262.39,0.029154758900403976,149.03623962402344,-0.0820000022649765,0.0,1
1679660630.99988294,114939076,0,3,476649000,2254,12,0.8300000000000001,42.688708,-84.4915712,262.4,0.012369317002594471,75.96375274658203,0.014000000432133675,0.0,1
1679660631.20046496,115139658,0,3,476649200,2254,12,0.8300000000000001,42.688708,-84.4915712,262.4,0.012206556275486946,214.99203491210938,-0.014000000432133675,0.0,1
1679660631.40037704,115339570,0,3,476649400,2254,12,0.8300000000000001,42.688708,-84.49157129999999,262.39,0.03420526161789894,164.74485778808594,-0.030000001192092896,0.0,1
1679660631.60054398,115539737,0,3,476649600,2254,12,0.8300000000000001,42.688708,-84.49157129999999,262.39,0.030000001192092896,53.13010025024414,-0.049000002443790436,0.0,1
1679660631.80034900,115739542,0,3,476649800,2254,12,0.8300000000000001,42.6887081,-84.49157129999999,262.39,0.03354102000594139,349.6951599121094,0.04700000211596489,0.0,1
1679660632.00050402,115939697,0,3,476650000,2254,12,0.8300000000000001,42.6887081,-84.49157129999999,262.38,0.005000000353902578,180.0,-0.004000000189989805,0.0,1
1679660632.20104098,116140234,0,3,476650200,2254,12,0.8300000000000001,42.6887081,-84.4915714,262.38,0.021931713446974754,155.77224731445312,-0.03400000184774399,0.0,1
1679660632.39996505,116339158,0,3,476650400,2254,12,0.8300000000000001,42.6887081,-84.49157129999999,262.38,0.026683328673243523,12.994616508483887,0.04200000315904617,0.0,1
1679660632.60036492,116539558,0,3,476650600,2254,12,0.8300000000000001,42.6887082,-84.4915714,262.37,0.013928388245403767,201.0375213623047,-0.021000001579523087,0.0,1
1679660632.80041790,116739611,0,3,476650800,2254,12,0.8300000000000001,42.6887082,-84.4915714,262.38,0.012369317002594471,345.9637451171875,0.05700000375509262,0.0,1
1679660633.00094104,116940134,0,3,476651000,2254,12,0.8300000000000001,42.6887082,-84.4915714,262.37,0.0442831814289093,6.4830732345581055,0.04800000041723251,0.0,1
1679660633.20004988,117139243,0,3,476651200,2254,12,0.8300000000000001,42.6887082,-84.4915714,262.37,0.02745906077325344,190.49148559570312,0.03400000184774399,0.0,1
1679660633.39999294,117339186,0,3,476651400,2254,12,0.8300000000000001,42.6887082,-84.4915714,262.38,0.02418677508831024,299.744873046875,0.09000000357627869,0.0,1
1679660633.60042310,117539616,0,3,476651600,2254,12,0.8300000000000001,42.6887082,-84.4915714,262.39,0.020615529268980026,112.83364868164062,0.006000000052154064,0.0,1
1679660633.79996896,117739162,0,3,476651800,2254,12,0.8300000000000001,42.6887081,-84.4915712,262.49,0.0584123320877552,128.0470428466797,-0.6940000057220459,0.0,1
1679660634.00005007,117939243,0,3,476652000,2254,12,0.8300000000000001,42.688708,-84.4915712,262.62,0.08755569905042648,166.12245178222656,-0.6410000324249268,0.0,1
1679660634.20003700,118139230,0,3,476652200,2254,12,0.8300000000000001,42.6887079,-84.4915712,262.74,0.05434151738882065,257.2424621582031,-0.5190000534057617,0.0,1
1679660634.40042305,118339616,0,3,476652400,2254,12,0.8300000000000001,42.688707799999996,-84.4915712,262.84000000000003,0.13778607547283173,158.2758026123047,-0.3440000116825104,0.0,1
1679660634.59993196,118539125,0,3,476652600,2254,12,0.8300000000000001,42.6887076,-84.4915712,262.92,0.06952697783708572,229.66685485839844,-0.3230000138282776,0.0,1
1679660634.80042696,118739620,0,3,476652800,2254,12,0.8300000000000001,42.6887076,-84.4915712,262.96,0.06324555724859238,145.30484008789062,-0.15200001001358032,0.0,1
1679660635.00041389,118939607,0,3,476653000,2254,12,0.8300000000000001,42.6887075,-84.4915712,262.99,0.08704596757888794,317.32781982421875,-0.06599999964237213,0.0,1
1679660635.20051193,119139705,0,3,476653200,2254,12,0.8300000000000001,42.6887076,-84.4915714,263.01,0.14500001072883606,306.8699035644531,-0.03400000184774399,0.0,1
1679660635.40084100,119340034,0,3,476653400,2254,12,0.8300000000000001,42.688707799999996,-84.4915718,263.03000000000003,0.21382470428943634,297.8833312988281,-0.15700000524520874,0.0,1
1679660635.60049701,119539690,0,3,476653600,2254,12,0.8300000000000001,42.688708,-84.4915722,263.06,0.188820019364357,300.9117126464844,-0.1720000058412552,0.0,1
1679660635.80034709,119739540,0,3,476653800,2254,12,0.8300000000000001,42.6887081,-84.4915726,263.11,0.156416118144989,277.7156677246094,-0.22700001299381256,0.0,1
1679660636.00049901,119939692,0,3,476654000,2254,12,0.8300000000000001,42.6887081,-84.4915729,263.18,0.161276176571846,279.6375427246094,-0.2750000059604645,0.0,1
1679660636.20050287,120139696,0,3,476654200,2254,12,0.8300000000000001,42.6887081,-84.49157319999999,263.25,0.09080198407173157,258.56634521484375,-0.328000009059906,0.0,1
1679660636.40043497,120339628,0,3,476654400,2254,12,0.8300000000000001,42.6887081,-84.4915734,263.3,0.0505964457988739,251.5650634765625,-0.3630000054836273,0.0,1
1679660636.60047197,120539665,0,3,476654600,2254,12,0.8300000000000001,42.688708,-84.4915735,263.37,0.10361949354410172,202.10946655273438,-0.2370000183582306,0.0,1
1679660636.80051708,120739710,0,3,476654800,2254,12,0.8300000000000001,42.6887079,-84.4915736,263.43,0.04570557922124863,190.0806121826172,-0.2590000033378601,0.0,1
1679660637.00062203,120939815,0,3,476655000,2254,12,0.8300000000000001,42.688707699999995,-84.49157369999999,263.49,0.14042791724205017,206.20013427734375,-0.2680000066757202,0.0,1
1679660637.19985890,121139052,0,3,476655200,2254,12,0.8300000000000001,42.6887076,-84.4915738,263.53000000000003,0.01910497434437275,222.87890625,-0.3240000009536743,0.0,1
1679660637.39997697,121339170,0,3,476655400,2254,12,0.8300000000000001,42.6887075,-84.491574,263.62,0.22440366446971893,227.70913696289062,-0.28700000047683716,0.0,1
1679660637.60049605,121539689,0,3,476655600,2254,12,0.8300000000000001,42.6887073,-84.4915743,263.71,0.1208304688334465,245.55606079101562,-0.5010000467300415,0.0,1
1679660637.80001187,121739205,0,3,476655800,2254,12,0.8300000000000001,42.688707199999996,-84.49157459999999,263.81,0.054644305258989334,235.43746948242188,-0.609000027179718,0.0,1
1679660637.99988604,121939079,0,3,476656000,2254,12,0.8300000000000001,42.688707099999995,-84.4915748,263.92,0.1739683896303177,243.72952270507812,-0.3930000066757202,0.0,1
1679660638.19992995,122139123,0,3,476656200,2254,12,0.8300000000000001,42.688707,-84.4915753,263.97,0.21824757754802704,243.90457153320312,-0.2840000092983246,0.0,1
1679660638.40003300,122339226,0,3,476656400,2254,12,0.8300000000000001,42.6887068,-84.49157559999999,264.03000000000003,0.132442444562912,283.0918884277344,-0.18700000643730164,0.0,1
1679660638.60052204,122539715,0,3,476656600,2254,12,0.8300000000000001,42.6887068,-84.4915759,264.06,0.07517978549003601,241.38955688476562,-0.1210000067949295,0.0,1
1679660638.80056310,122739756,0,3,476656800,2254,12,0.8300000000000001,42.6887068,-84.4915761,264.08,0.09291394799947739,304.0321350097656,-0.15400001406669617,0.0,1
1679660638.99985003,122939043,0,3,476657000,2254,12,0.8300000000000001,42.688707,-84.4915762,264.11,0.15388308465480804,351.0273742675781,-0.02200000174343586,0.0,1
1679660639.19998908,123139182,0,3,476657200,2254,12,0.8300000000000001,42.688707199999996,-84.49157629999999,264.13,0.17551355063915253,330.6600341796875,0.02800000086426735,0.0,1
1679660639.40002298,123339216,0,3,476657400,2254,12,0.8300000000000001,42.6887076,-84.4915766,264.12,0.26234519481658936,330.7969055175781,0.013000000268220901,0.0,1
1679660639.60005593,123539249,0,3,476657600,2254,12,0.8300000000000001,42.6887079,-84.4915769,264.12,0.17839844524860382,302.17559814453125,0.09100000560283661,0.0,1
1679660639.79988790,123739081,0,3,476657800,2254,12,0.8300000000000001,42.688708,-84.4915772,264.11,0.1709415167570114,319.5077819824219,0.11700000613927841,0.0,1
1679660640.00043797,123939631,0,3,476658000,2254,12,0.8300000000000001,42.688708299999995,-84.4915774,264.09000000000003,0.1637192666530609,334.6871337890625,0.17800000309944153,0.0,1
1679660640.20029092,124139484,0,3,476658200,2254,12,0.8300000000000001,42.6887085,-84.4915776,264.07,0.11693160980939865,311.1859130859375,0.07900000363588333,0.0,1
1679660640.40049410,124339687,0,3,476658400,2254,12,0.8300000000000001,42.6887085,-84.4915777,264.08,0.10420173406600952,322.8002014160156,0.02500000037252903,0.0,1
1679660640.60056210,124539755,0,3,476658600,2254,12,0.8300000000000001,42.6887087,-84.4915779,264.08,0.12050726264715195,310.9622802734375,-0.11300000548362732,0.0,1
1679660640.80044103,124739634,0,3,476658800,2254,12,0.8300000000000001,42.6887088,-84.4915781,264.12,0.08626703172922134,325.38885498046875,-0.281000018119812,0.0,1
1679660641.02004695,124959240,0,3,476659000,2254,12,0.8300000000000001,42.688708899999995,-84.4915783,264.2,0.1678868681192398,308.7131042480469,-0.2990000247955322,0.0,1
1679660641.20055795,125139751,0,3,476659200,2254,12,0.8300000000000001,42.6887091,-84.4915786,264.26,0.19225504994392395,308.24090576171875,-0.4280000329017639,0.0,1
1679660641.40050387,125339697,0,3,476659400,2254,12,0.8300000000000001,42.6887093,-84.4915789,264.35,0.15892766416072845,326.80987548828125,-0.36900001764297485,0.0,1
1679660641.60050702,125539700,0,3,476659600,2254,12,0.8300000000000001,42.6887094,-84.4915793,264.4,0.2456521987915039,278.4269714355469,-0.31300002336502075,0.0,1
1679660641.82003593,125759229,0,3,476659800,2254,12,0.8300000000000001,42.688709499999995,-84.4915796,264.47,0.16600301861763,359.65484619140625,-0.2850000262260437,0.0,1
1679660642.00050807,125939701,0,3,476660000,2254,12,0.8300000000000001,42.6887097,-84.4915796,264.54,0.051478151232004166,299.0545959472656,-0.33500000834465027,0.0,1
1679660642.20005989,126139253,0,3,476660200,2254,12,0.8300000000000001,42.6887098,-84.4915797,264.58,0.05414794757962227,4.236394882202148,-0.22500000894069672,0.0,1
1679660642.39999604,126339189,0,3,476660400,2254,12,0.8300000000000001,42.6887098,-84.4915797,264.63,0.040804412215948105,143.97262573242188,-0.20500001311302185,0.0,1
1679660642.59986901,126539062,0,3,476660600,2254,12,0.8300000000000001,42.6887098,-84.4915797,264.66,0.017464250326156616,66.37062072753906,-0.14500001072883606,0.0,1
1679660642.79998207,126739175,0,3,476660800,2254,12,0.8300000000000001,42.6887098,-84.4915797,264.68,0.04788528382778168,241.29405212402344,-0.09200000762939453,0.0,1
1679660643.00050998,126939703,0,3,476661000,2254,12,0.8300000000000001,42.6887098,-84.49157989999999,264.69,0.07156815379858017,277.22430419921875,0.03400000184774399,0.0,1
1679660643.19999194,127139185,0,3,476661200,2254,12,0.8300000000000001,42.6887098,-84.4915801,264.68,0.10412012785673141,253.82785034179688,0.08900000154972076,0.0,1
1679660643.39988494,127339078,0,3,476661400,2254,12,0.8300000000000001,42.6887097,-84.4915803,264.68,0.12358398735523224,264.42779541015625,0.18400001525878906,0.0,1
1679660643.59994102,127539134,0,3,476661600,2254,12,0.8300000000000001,42.688709599999996,-84.4915807,264.65,0.15463507175445557,264.8055725097656,0.25,0.0,1
1679660643.80047107,127739664,0,3,476661800,2254,12,0.8300000000000001,42.688709499999995,-84.491581,264.63,0.14822280406951904,262.63525390625,0.21300001442432404,0.0,1
1679660644.00052094,127939714,0,3,476662000,2254,12,0.8300000000000001,42.688709499999995,-84.49158129999999,264.6,0.15685024857521057,251.79608154296875,0.2120000123977661,0.0,1
1679660644.20000005,128139193,0,3,476662200,2254,12,0.8300000000000001,42.6887093,-84.4915817,264.57,0.1721540093421936,247.45693969726562,0.15800000727176666,0.0,1
1679660644.39984894,128339042,0,3,476662400,2254,12,0.8300000000000001,42.6887092,-84.4915821,264.53000000000003,0.17805898189544678,236.220703125,0.18300001323223114,0.0,1
1679660644.60001802,128539211,0,3,476662600,2254,12,0.8300000000000001,42.688708899999995,-84.49158249999999,264.51,0.18762730062007904,234.10733032226562,0.22500000894069672,0.0,1
1679660644.80052900,128739722,0,3,476662800,2254,12,0.8300000000000001,42.6887087,-84.49158279999999,264.49,0.18625253438949585,248.25572204589844,0.25300002098083496,0.0,1
1679660645.00032592,128939519,0,3,476663000,2254,12,0.8300000000000001,42.6887086,-84.4915833,264.44,0.15658864378929138,245.071533203125,0.11600000411272049,0.0,1
1679660645.20037794,129139571,0,3,476663200,2254,12,0.8300000000000001,42.6887085,-84.4915836,264.42,0.1130707785487175,267.9726867675781,0.15400001406669617,0.0,1
1679660645.40042901,129339622,0,3,476663400,2254,12,0.8300000000000001,42.6887086,-84.4915839,264.4,0.18092264235019684,310.2921447753906,0.10900000482797623,0.0,1
1679660645.60043597,129539629,0,3,476663600,2254,12,0.8300000000000001,42.6887088,-84.49158419999999,264.37,0.17352810502052307,334.0256042480469,0.08900000154972076,0.0,1
1679660645.80096292,129740156,0,3,476663800,2254,12,0.8300000000000001,42.6887091,-84.4915844,264.36,0.25431084632873535,342.84759521484375,0.08900000154972076,0.0,1
1679660646.00000405,129939197,0,3,476664000,2254,12,0.8300000000000001,42.688709499999995,-84.4915846,264.35,0.24633312225341797,349.2374572753906,0.01900000125169754,0.0,1
1679660646.19986010,130139053,0,3,476664200,2254,12,0.8300000000000001,42.6887099,-84.4915846,264.36,0.19002369046211243,0.9045950174331665,-0.01900000125169754,0.0,1
1679660646.40050888,130339702,0,3,476664400,2254,12,0.8300000000000001,42.688710199999996,-84.4915846,264.36,0.17901118099689484,0.6401496529579163,-0.05400000140070915,0.0,1
1679660646.60037208,130539565,0,3,476664600,2254,12,0.8300000000000001,42.6887105,-84.4915846,264.36,0.1380036324262619,336.9649658203125,-0.032999999821186066,0.0,1
1679660646.80050898,130739702,0,3,476664800,2254,12,0.8300000000000001,42.688710799999996,-84.49158469999999,264.39,0.12806248664855957,345.5296936035156,-0.10000000149011612,0.0,1
1679660647.00042796,130939621,0,3,476665000,2254,12,0.8300000000000001,42.688711,-84.4915848,264.41,0.1313697099685669,329.33544921875,-0.11500000208616257,0.0,1
1679660647.20044088,131139634,0,3,476665200,2254,12,0.8300000000000001,42.6887111,-84.49158489999999,264.45,0.10756394267082214,312.739501953125,-0.16900001466274261,0.0,1
1679660647.40049505,131339688,0,3,476665400,2254,12,0.8300000000000001,42.6887113,-84.4915852,264.48,0.12559060752391815,290.0220947265625,-0.2330000102519989,0.0,1
1679660647.60052299,131539716,0,3,476665600,2254,12,0.8300000000000001,42.688711399999995,-84.49158539999999,264.55,0.1659216731786728,333.89825439453125,-0.21300001442432404,0.0,1
1679660647.80095696,131740150,0,3,476665800,2254,12,0.8300000000000001,42.6887117,-84.4915857,264.58,0.22000227868556976,313.3423767089844,-0.2710000276565552,0.0,1
1679660647.99986506,131939058,0,3,476666000,2254,12,0.8300000000000001,42.6887121,-84.491586,264.65,0.27639466524124146,342.0894775390625,-0.33000001311302185,0.0,1
1679660648.22028494,132159478,0,3,476666200,2254,13,0.8300000000000001,42.6887125,-84.4915862,264.72,0.22432120144367218,338.0088806152344,-0.45600003004074097,0.0,1
1679660648.40116501,132340358,0,3,476666400,2254,13,0.8300000000000001,42.6887129,-84.4915863,264.8,0.24639806151390076,3.2572219371795654,-0.23000000417232513,0.0,1
1679660648.60004091,132539234,0,3,476666600,2254,13,0.8300000000000001,42.6887134,-84.49158609999999,264.84000000000003,0.3471743166446686,23.24193000793457,-0.19300000369548798,0.0,1
1679660648.79988289,132739076,0,3,476666800,2254,13,0.81,42.688713899999996,-84.4915857,264.88,0.31468239426612854,44.35625457763672,-0.18900001049041748,0.0,1
1679660648.99991703,132939110,0,3,476667000,2254,13,0.81,42.6887143,-84.4915851,264.92,0.40188807249069214,55.95405960083008,-0.17500001192092896,0.0,1
1679660649.20003295,133139226,0,3,476667200,2254,13,0.81,42.6887148,-84.4915843,264.94,0.3840963542461395,48.8000373840332,0.04500000178813934,0.0,1
1679660649.40125299,133340446,0,3,476667400,2254,13,0.81,42.6887152,-84.4915836,264.95,0.39128127694129944,50.28817367553711,0.013000000268220901,0.0,1
1679660649.60134888,133540542,0,3,476667600,2254,13,0.81,42.688715599999995,-84.4915829,264.95,0.3294510841369629,54.13884735107422,0.05300000309944153,0.0,1
1679660649.80009007,133739283,0,3,476667800,2254,13,0.81,42.688716,-84.49158229999999,264.94,0.3579748570919037,43.18887710571289,0.11900000274181366,0.0,1
1679660650.02004910,133959242,0,3,476668000,2254,13,0.81,42.6887165,-84.4915817,264.92,0.33479100465774536,42.457881927490234,0.1810000091791153,0.0,1
1679660650.20110703,134140300,0,3,476668200,2254,13,0.81,42.688716899999996,-84.49158129999999,264.89,0.3147205114364624,31.619426727294922,0.1340000033378601,0.0,1
1679660650.40108299,134340276,0,3,476668400,2254,13,0.81,42.6887174,-84.4915808,264.86,0.3742526173591614,43.15937042236328,0.24900001287460327,0.0,1
1679660650.60032010,134539513,0,3,476668600,2254,13,0.81,42.6887179,-84.4915802,264.82,0.3618452847003937,40.292144775390625,0.2070000171661377,0.0,1
1679660650.80110192,134740295,0,3,476668800,2254,13,0.81,42.6887185,-84.4915796,264.77,0.43355393409729004,43.78509521484375,0.3050000071525574,0.0,1
1679660651.00118399,134940377,0,3,476669000,2254,13,0.81,42.6887189,-84.4915785,264.74,0.5760877132415771,62.500858306884766,0.164000004529953,0.0,1
1679660651.20122290,135140416,0,3,476669200,2254,13,0.81,42.6887194,-84.4915772,264.71,0.6943544149398804,61.81101608276367,0.164000004529953,0.0,1
1679660651.40117407,135340367,0,3,476669400,2254,13,0.81,42.688719999999996,-84.49157559999999,264.66,0.7753973603248596,65.21969604492188,0.22200001776218414,0.0,1
1679660651.59987497,135539068,0,3,476669600,2254,13,0.81,42.688720499999995,-84.49157389999999,264.63,0.7366525530815125,64.33936309814453,0.19700001180171967,0.0,1
1679660651.80002093,135739214,0,3,476669800,2254,13,0.81,42.688721,-84.4915723,264.59000000000003,0.7176517844200134,61.72087097167969,0.26100000739097595,0.0,1
1679660652.02031207,135959505,0,3,476670000,2254,13,0.81,42.688721699999995,-84.49157079999999,264.55,0.7221330404281616,60.09765625,0.1300000101327896,0.0,1
1679660652.20117188,136140365,0,3,476670200,2254,13,0.81,42.688722299999995,-84.4915695,264.54,0.5930303931236267,53.709800720214844,0.11800000816583633,0.0,1
1679660652.39989400,136339087,0,3,476670400,2254,13,0.81,42.6887228,-84.4915685,264.55,0.4326118528842926,53.55392074584961,0.11000000685453415,0.0,1
1679660652.59993005,136539123,0,3,476670600,2254,13,0.81,42.6887232,-84.4915678,264.54,0.3270535469055176,42.27368927001953,-0.052000001072883606,0.0,1
1679660652.80003691,136739230,0,3,476670800,2254,13,0.81,42.688723599999996,-84.4915675,264.56,0.1664121448993683,27.950965881347656,-0.08400000631809235,0.0,1
1679660653.00118709,136940380,0,3,476671000,2254,13,0.81,42.6887239,-84.4915674,264.58,0.22031114995479584,353.7459716796875,-0.05400000140070915,0.0,1
1679660653.20032787,137139521,0,3,476671200,2254,13,0.81,42.688724199999996,-84.4915676,264.62,0.16260689496994019,320.2395324707031,-0.13700000941753387,0.0,1
1679660653.40098190,137340175,0,3,476671400,2254,13,0.81,42.6887244,-84.4915678,264.67,0.18607793748378754,316.9599304199219,-0.12000000476837158,0.0,1
1679660653.60110593,137540299,0,3,476671600,2254,13,0.81,42.6887246,-84.4915682,264.71,0.3162182867527008,306.25384521484375,-0.055000003427267075,0.0,1
1679660653.80130005,137740493,0,3,476671800,2254,13,0.81,42.6887249,-84.4915688,264.74,0.3657895624637604,299.29803466796875,-0.036000002175569534,0.0,1
1679660654.00035810,137939551,0,3,476672000,2254,13,0.81,42.6887252,-84.49156959999999,264.75,0.40139010548591614,294.5857238769531,0.005000000353902578,0.0,1
1679660654.20105696,138140250,0,3,476672200,2254,13,0.81,42.688725399999996,-84.4915705,264.75,0.3141862452030182,276.76312255859375,0.10100000351667404,0.0,1
1679660654.40104890,138340242,0,3,476672400,2254,13,0.81,42.688725399999996,-84.4915711,264.73,0.2767399549484253,255.56204223632812,0.055000003427267075,0.0,1
1679660654.60113001,138540323,0,3,476672600,2254,13,0.81,42.6887252,-84.4915717,264.75,0.28231191635131836,247.06790161132812,0.05100000277161598,0.0,1
1679660654.80124402,138740437,0,3,476672800,2254,13,0.81,42.6887249,-84.4915721,264.76,0.2394264042377472,208.70596313476562,0.0990000069141388,0.0,1
1679660655.00002289,138939216,0,3,476673000,2254,13,0.81,42.6887245,-84.49157249999999,264.74,0.2906888425350189,220.81509399414062,0.1300000101327896,0.0,1
1679660655.19987392,139139067,0,3,476673200,2254,13,0.81,42.688724099999995,-84.4915729,264.72,0.22844256460666656,211.39390563964844,0.14500001072883606,0.0,1
1679660655.39998507,139339178,0,3,476673400,2254,13,0.81,42.6887237,-84.49157319999999,264.7,0.24383603036403656,221.00909423828125,0.18700000643730164,0.0,1
1679660655.60117602,139540369,0,3,476673600,2254,13,0.81,42.6887234,-84.4915736,264.67,0.2835930287837982,226.0000762939453,0.14400000870227814,0.0,1
1679660655.80003595,139739229,0,3,476673800,2254,13,0.81,42.688722899999995,-84.4915741,264.63,0.29724907875061035,215.8289794921875,0.07700000703334808,0.0,1
1679660655.99989104,139939084,0,3,476674000,2254,13,0.81,42.688722399999996,-84.4915747,264.63,0.38749709725379944,225.20912170410156,0.07800000160932541,0.0,1
1679660656.19994187,140139135,0,3,476674200,2254,13,0.81,42.6887219,-84.4915754,264.6,0.4210997521877289,227.40597534179688,0.16100001335144043,0.0,1
1679660656.40005803,140339251,0,3,476674400,2254,13,0.81,42.6887213,-84.4915761,264.58,0.4148024022579193,217.0632781982422,0.07600000500679016,0.0,1
1679660656.60124397,140540437,0,3,476674600,2254,13,0.81,42.6887207,-84.49157679999999,264.56,0.44374093413352966,220.97943115234375,0.15900000929832458,0.0,1
1679660656.80036092,140739554,0,3,476674800,2254,13,0.81,42.688719999999996,-84.4915774,264.55,0.5045017600059509,213.84756469726562,0.05000000074505806,0.0,1
1679660657.00099301,140940186,0,3,476675000,2254,13,0.81,42.688719299999995,-84.4915781,264.54,0.4611561894416809,215.37881469726562,0.09100000560283661,0.0,1
1679660657.20111489,141140308,0,3,476675200,2254,13,0.81,42.6887186,-84.4915788,264.52,0.5128002166748047,216.9145965576172,0.003000000026077032,0.0,1
1679660657.40115309,141340346,0,3,476675400,2254,13,0.81,42.688718,-84.4915796,264.54,0.4828302264213562,232.48928833007812,0.04400000348687172,0.0,1
1679660657.60034204,141539535,0,3,476675600,2254,13,0.81,42.6887174,-84.4915805,264.54,0.4457017183303833,223.18170166015625,0.02800000086426735,0.0,1
1679660657.80103588,141740229,0,3,476675800,2254,13,0.81,42.688717,-84.4915812,264.52,0.3018079102039337,235.25682067871094,0.021000001579523087,0.0,1
1679660658.00124407,141940437,0,3,476676000,2254,13,0.81,42.6887167,-84.49158179999999,264.53000000000003,0.2507987320423126,237.70404052734375,-0.0690000057220459,0.0,1
1679660658.20116401,142140357,0,3,476676200,2254,13,0.81,42.6887164,-84.49158229999999,264.54,0.2210090607404709,233.64862060546875,-0.017000000923871994,0.0,1
1679660658.40006495,142339258,0,3,476676400,2254,13,0.81,42.688716199999995,-84.4915827,264.55,0.177341490983963,238.371337890625,-0.0950000062584877,0.0,1
1679660658.60000300,142539196,0,3,476676600,2254,13,0.81,42.688716,-84.4915831,264.58,0.1982952505350113,252.38742065429688,-0.01100000087171793,0.0,1
1679660658.79986596,142739059,0,3,476676800,2254,13,0.81,42.6887159,-84.49158349999999,264.58,0.19382983446121216,260.197509765625,0.006000000052154064,0.0,1
1679660659.02021003,142959403,0,3,476677000,2254,13,0.81,42.6887159,-84.491584,264.57,0.2007710188627243,247.138671875,-0.0820000022649765,0.0,1
1679660659.20005202,143139245,0,3,476677200,2254,13,0.81,42.688715699999996,-84.4915844,264.6,0.27568280696868896,253.9975128173828,0.039000000804662704,0.0,1
1679660659.40000200,143339195,0,3,476677400,2254,13,0.81,42.6887155,-84.4915851,264.59000000000003,0.32423603534698486,247.7063751220703,0.08100000023841858,0.0,1
1679660659.59988594,143539079,0,3,476677600,2254,13,0.81,42.6887153,-84.4915857,264.58,0.31520313024520874,233.3845977783203,-0.0560000017285347,0.0,1
1679660659.80108500,143740278,0,3,476677800,2254,13,0.81,42.6887149,-84.4915863,264.59000000000003,0.32874611020088196,231.42184448242188,0.07000000029802322,0.0,1
1679660660.00116706,143940360,0,3,476678000,2254,13,0.81,42.688714499999996,-84.4915869,264.59000000000003,0.40140005946159363,233.1015625,0.06100000441074371,0.0,1
1679660660.20116997,144140363,0,3,476678200,2254,13,0.81,42.6887141,-84.4915876,264.58,0.3740922510623932,225.7581329345703,0.004000000189989805,0.0,1
1679660660.40112591,144340319,0,3,476678400,2254,13,0.81,42.6887137,-84.4915882,264.59000000000003,0.36878177523612976,229.39869689941406,0.06599999964237213,0.0,1
1679660660.60096788,144540161,0,3,476678600,2254,13,0.81,42.688713199999995,-84.4915888,264.58,0.37335509061813354,225.217041015625,0.046000003814697266,0.0,1
1679660660.80113101,144740324,0,3,476678800,2254,13,0.81,42.688712699999996,-84.4915893,264.58,0.4084470570087433,217.73965454101562,0.01100000087171793,0.0,1
1679660661.00035405,144939547,0,3,476679000,2254,13,0.81,42.6887122,-84.4915898,264.59000000000003,0.3289513885974884,214.2214813232422,0.18200001120567322,0.0,1
1679660661.20118403,145140377,0,3,476679200,2254,13,0.81,42.6887117,-84.49159,264.58,0.3061780631542206,188.26243591308594,-0.023000001907348633,0.0,1
1679660661.40102887,145340222,0,3,476679400,2254,13,0.81,42.6887112,-84.4915898,264.59000000000003,0.23843029141426086,144.0432891845703,0.00800000037997961,0.0,1
1679660661.62003303,145559226,0,3,476679600,2254,13,0.81,42.688711,-84.4915894,264.58,0.2564624845981598,112.46519470214844,-0.06700000166893005,0.0,1
1679660661.80114508,145740338,0,3,476679800,2254,13,0.81,42.688711,-84.4915887,264.59000000000003,0.2954336106777191,86.89546966552734,-0.04400000348687172,0.0,1
1679660662.00124288,145940436,0,3,476680000,2254,13,0.81,42.6887112,-84.491588,264.59000000000003,0.31317728757858276,61.79836654663086,-0.021000001579523087,0.0,1
1679660662.20139194,146140585,0,3,476680200,2254,13,0.81,42.6887116,-84.4915874,264.57,0.30001503229141235,49.460845947265625,-0.005000000353902578,0.0,1
1679660662.39986110,146339054,0,3,476680400,2254,13,0.81,42.688711999999995,-84.4915868,264.59000000000003,0.390089750289917,29.65378761291504,0.12000000476837158,0.0,1
1679660662.59998703,146539180,0,3,476680600,2254,13,0.81,42.688712599999995,-84.4915862,264.57,0.4351574778556824,26.035093307495117,0.07000000029802322,0.0,1
1679660662.80002499,146739218,0,3,476680800,2254,13,0.81,42.6887134,-84.4915857,264.58,0.5384877324104309,23.18461799621582,0.1080000028014183,0.0,1
1679660663.00003409,146939227,0,3,476681000,2254,13,0.81,42.688714399999995,-84.4915851,264.57,0.5959665179252625,16.97549819946289,0.046000003814697266,0.0,1
1679660663.19988608,147139079,0,3,476681200,2254,13,0.81,42.6887153,-84.4915845,264.6,0.6328577995300293,19.379770278930664,0.18900001049041748,0.0,1
1679660663.39992404,147339117,0,3,476681400,2254,13,0.81,42.688716299999996,-84.491584,264.59000000000003,0.599000871181488,17.587974548339844,0.05700000375509262,0.0,1
1679660663.60000110,147539194,0,3,476681600,2254,13,0.81,42.6887174,-84.4915834,264.6,0.6586076617240906,16.949222564697266,0.0010000000474974513,0.0,1
1679660663.80123591,147740429,0,3,476681800,2254,13,0.81,42.6887185,-84.4915829,264.62,0.7111237645149231,14.329363822937012,0.09800000488758087,0.0,1
1679660664.00118089,147940374,0,3,476682000,2254,13,0.81,42.6887197,-84.49158229999999,264.64,0.7419232130050659,14.27973461151123,0.06100000441074371,0.0,1
1679660664.20019007,148139383,0,3,476682200,2254,13,0.81,42.688721,-84.49158179999999,264.65,0.7341560125350952,14.111955642700195,0.11000000685453415,0.0,1
1679660664.40106797,148340261,0,3,476682400,2254,13,0.81,42.6887222,-84.4915814,264.65,0.7283763289451599,11.402493476867676,0.01900000125169754,0.0,1
1679660664.60116196,148540355,0,3,476682600,2254,13,0.81,42.688723499999995,-84.491581,264.64,0.6831251978874207,12.85631275177002,0.08400000631809235,0.0,1
1679660664.80034709,148739540,0,3,476682800,2254,13,0.81,42.6887246,-84.49158059999999,264.62,0.6500284671783447,14.613456726074219,0.049000002443790436,0.0,1
1679660665.00105810,148940251,0,3,476683000,2254,13,0.81,42.6887257,-84.4915802,264.62,0.5605229735374451,13.51561164855957,0.07200000435113907,0.0,1
1679660665.20112109,149140314,0,3,476683200,2254,13,0.81,42.6887264,-84.4915798,264.64,0.37095150351524353,17.89766502380371,0.08300000429153442,0.0,1
1679660665.40118504,149340378,0,3,476683400,2254,13,0.81,42.688727,-84.4915795,264.62,0.34216371178627014,18.752666473388672,0.07200000435113907,0.0,1
1679660665.60003495,149539228,0,3,476683600,2254,13,0.81,42.6887274,-84.49157919999999,264.62,0.1969771534204483,29.16761016845703,0.01100000087171793,0.0,1
1679660665.80000901,149739202,0,3,476683800,2254,13,0.81,42.6887276,-84.4915789,264.62,0.09343447536230087,47.602561950683594,0.013000000268220901,0.0,1
1679660665.99987507,149939068,0,3,476684000,2254,13,0.81,42.6887277,-84.49157869999999,264.62,0.07430344074964523,61.02029037475586,0.013000000268220901,0.0,1
1679660666.20113707,150140330,0,3,476684200,2254,13,0.81,42.688727799999995,-84.4915785,264.62,0.08741854131221771,54.3099365234375,-0.02500000037252903,0.0,1
1679660666.40004992,150339243,0,3,476684400,2254,13,0.81,42.688727799999995,-84.4915783,264.62,0.10060318559408188,52.674476623535156,0.04100000113248825,0.0,1
1679660666.60003996,150539233,0,3,476684600,2254,13,0.81,42.688727899999996,-84.49157819999999,264.62,0.13518136739730835,357.0317687988281,0.04800000041723251,0.0,1
1679660666.79988694,150739080,0,3,476684800,2254,13,0.81,42.6887282,-84.49157819999999,264.62,0.21301880478858948,339.09765625,0.049000002443790436,0.0,1
1679660667.00019693,150939390,0,3,476685000,2254,13,0.81,42.688728499999996,-84.4915785,264.61,0.26627054810523987,325.713134765625,-0.04800000041723251,0.0,1
1679660667.20108509,151140278,0,3,476685200,2254,13,0.81,42.6887289,-84.491579,264.61,0.3572898209095001,310.9143981933594,0.07500000298023224,0.0,1
1679660667.40118790,151340381,0,3,476685400,2254,13,0.81,42.6887292,-84.4915796,264.61,0.3284585475921631,307.95147705078125,0.018000001087784767,0.0,1
1679660667.60116005,151540353,0,3,476685600,2254,13,0.81,42.6887295,-84.49158039999999,264.6,0.3580223619937897,284.89019775390625,-0.015000000596046448,0.0,1
1679660667.80103898,151740232,0,3,476685800,2254,13,0.81,42.688729599999995,-84.491581,264.61,0.19260582327842712,301.6269836425781,-0.07000000029802322,0.0,1
1679660668.00029993,151939493,0,3,476686000,2254,13,0.81,42.688729699999996,-84.4915814,264.61,0.19866807758808136,281.0271301269531,0.07500000298023224,0.0,1
1679660668.20115399,152140347,0,3,476686200,2254,13,0.81,42.6887298,-84.49158179999999,264.6,0.10912837088108063,332.73052978515625,0.036000002175569534,0.0,1
1679660668.40117598,152340369,0,3,476686400,2254,13,0.81,42.6887299,-84.4915819,264.59000000000003,0.1265740841627121,315.3200988769531,0.08700000494718552,0.0,1
1679660668.59989309,152539086,0,3,476686600,2254,13,0.81,42.68873,-84.4915822,264.57,0.13647344708442688,298.44293212890625,0.09800000488758087,0.0,1
1679660668.79992890,152739122,0,3,476686800,2254,13,0.81,42.6887301,-84.4915826,264.54,0.16282814741134644,302.7140808105469,0.04100000113248825,0.0,1
1679660669.00003791,152939231,0,3,476687000,2254,13,0.81,42.688730199999995,-84.4915829,264.53000000000003,0.16995587944984436,295.81121826171875,0.13500000536441803,0.0,1
1679660669.20124197,153140435,0,3,476687200,2254,13,0.81,42.688730199999995,-84.4915832,264.53000000000003,0.14886236190795898,263.829833984375,0.19500000774860382,0.0,1
1679660669.40000391,153339197,0,3,476687400,2254,13,0.81,42.68873,-84.4915836,264.5,0.2382960319519043,212.48963928222656,0.0020000000949949026,0.0,1
1679660669.59985900,153539052,0,3,476687600,2254,13,0.81,42.6887295,-84.491584,264.5,0.41812199354171753,197.39491271972656,0.07400000095367432,0.0,1
1679660669.79998398,153739177,0,3,476687800,2254,13,0.81,42.6887286,-84.4915844,264.49,0.6440885066986084,190.64698791503906,-0.07300000637769699,0.0,1
1679660670.00118089,153940374,0,3,476688000,2254,13,0.81,42.6887274,-84.49158469999999,264.51,0.6428787112236023,192.7608184814453,0.09000000357627869,0.0,1
1679660670.20032191,154139515,0,3,476688200,2254,13,0.81,42.6887261,-84.4915851,264.5,0.7156570553779602,190.7917938232422,0.09400000423192978,0.0,1
1679660670.40099692,154340190,0,3,476688400,2254,13,0.81,42.688724799999996,-84.49158539999999,264.5,0.644127368927002,189.1113739013672,0.0990000069141388,0.0,1
1679660670.60112596,154540319,0,3,476688600,2254,13,0.81,42.6887237,-84.4915857,264.49,0.6562469601631165,191.96060180664062,0.07300000637769699,0.0,1
1679660670.80116892,154740362,0,3,476688800,2254,13,0.81,42.688722399999996,-84.49158609999999,264.49,0.6666468381881714,189.75904846191406,0.05000000074505806,0.0,1
1679660671.02033305,154959526,0,3,476689000,2254,13,0.81,42.688721199999996,-84.4915863,264.49,0.6857528686523438,188.0474090576172,-0.02500000037252903,0.0,1
1679660671.19998407,155139177,0,3,476689200,2254,13,0.81,42.688719999999996,-84.4915865,264.51,0.6407262086868286,184.20668029785156,-0.12000000476837158,0.0,1
1679660671.39987707,155339070,0,3,476689400,2254,13,0.81,42.6887188,-84.49158659999999,264.55,0.5046860575675964,185.9139404296875,0.01600000075995922,0.0,1
1679660671.62029409,155559487,0,3,476689600,2254,13,0.81,42.688718,-84.4915867,264.57,0.30746057629585266,188.6044921875,0.0020000000949949026,0.0,1
1679660671.80117989,155740373,0,3,476689800,2254,13,0.81,42.6887177,-84.4915867,264.58,0.09113726764917374,183.14495849609375,-0.03800000250339508,0.0,1
1679660672.00124097,155940434,0,3,476690000,2254,13,0.81,42.6887177,-84.4915867,264.59000000000003,0.14477916061878204,5.946862697601318,-0.10400000214576721,0.0,1
1679660672.20105410,156140247,0,3,476690200,2254,13,0.81,42.688718,-84.49158659999999,264.6,0.3042909801006317,5.279664993286133,-0.10100000351667404,0.0,1
1679660672.40109110,156340284,0,3,476690400,2254,13,0.81,42.688718699999995,-84.4915865,264.62,0.5171189904212952,3.7698535919189453,-0.125,0.0,1
1679660672.60002804,156539221,0,3,476690600,2254,13,0.81,42.6887197,-84.4915864,264.64,0.6387315988540649,4.2198286056518555,0.007000000216066837,0.0,1
1679660672.80004406,156739237,0,3,476690800,2254,13,0.81,42.6887208,-84.4915862,264.63,0.6366474628448486,5.227020263671875,-0.04100000113248825,0.0,1
1679660673.00118804,156940381,0,3,476691000,2254,13,0.81,42.688721799999996,-84.49158609999999,264.65,0.5974085927009583,3.935288429260254,-0.021000001579523087,0.0,1
1679660673.19987893,157139072,0,3,476691200,2254,13,0.81,42.6887228,-84.491586,264.64,0.5420231223106384,0.5285438299179077,0.0560000017285347,0.0,1
1679660673.39998388,157339177,0,3,476691400,2254,13,0.81,42.6887237,-84.491586,264.63,0.5431326031684875,1.2659988403320312,0.1340000033378601,0.0,1
1679660673.60117698,157540370,0,3,476691600,2254,13,0.81,42.6887246,-84.49158589999999,264.61,0.5124080181121826,6.611850738525391,0.10600000619888306,0.0,1
1679660673.80030799,157739501,0,3,476691800,2254,13,0.81,42.688725399999996,-84.4915855,264.61,0.5700955986976624,22.156003952026367,0.10000000149011612,0.0,1
1679660674.00094891,157940142,0,3,476692000,2254,13,0.81,42.6887262,-84.49158469999999,264.59000000000003,0.6000833511352539,35.91505432128906,0.08300000429153442,0.0,1
1679660674.20105195,158140245,0,3,476692200,2254,13,0.81,42.6887271,-84.49158349999999,264.58,0.8138826489448547,45.14933395385742,0.19200000166893005,0.0,1
1679660674.40033197,158339525,0,3,476692400,2254,13,0.81,42.6887281,-84.49158179999999,264.55,0.9904040098190308,53.292083740234375,0.17800000309944153,0.0,1
1679660674.60123897,158540432,0,3,476692600,2254,13,0.81,42.688729099999996,-84.4915797,264.53000000000003,1.033604383468628,58.04749298095703,0.11000000685453415,0.0,1
1679660674.80137897,158740572,0,3,476692800,2254,13,0.81,42.6887301,-84.4915774,264.53000000000003,1.1019115447998047,54.4925422668457,0.05100000277161598,0.0,1
1679660675.00101590,158940209,0,3,476693000,2254,13,0.81,42.6887312,-84.4915752,264.52,1.0681160688400269,54.91129684448242,0.0650000050663948,0.0,1
1679660675.19995999,159139153,0,3,476693200,2254,13,0.81,42.6887323,-84.4915734,264.5,0.9171177744865417,44.9558219909668,0.11700000613927841,0.0,1
1679660675.40003610,159339229,0,3,476693400,2254,13,0.81,42.6887334,-84.4915718,264.51,0.9066295027732849,39.85411834716797,0.052000001072883606,0.0,1
1679660675.60006309,159539256,0,3,476693600,2254,13,0.81,42.6887346,-84.4915707,264.5,0.7563822269439697,25.447059631347656,-0.05300000309944153,0.0,1
1679660675.80105996,159740253,0,3,476693800,2254,13,0.81,42.688735799999996,-84.49157009999999,264.52,0.7379024028778076,10.304844856262207,0.021000001579523087,0.0,1
1679660675.99994302,159939136,0,3,476694000,2254,13,0.81,42.6887371,-84.4915699,264.52,0.8140098452568054,359.71844482421875,0.0430000014603138,0.0,1
1679660676.20000291,160139196,0,3,476694200,2254,13,0.81,42.6887385,-84.49157,264.51,0.8019981980323792,357.14117431640625,0.007000000216066837,0.0,1
1679660676.40004897,160339242,0,3,476694400,2254,13,0.81,42.688739899999995,-84.4915702,264.52,0.7557566165924072,351.78411865234375,0.018000001087784767,0.0,1
1679660676.60116792,160540361,0,3,476694600,2254,13,0.81,42.688741199999996,-84.49157029999999,264.53000000000003,0.7401520609855652,358.8387451171875,-0.08700000494718552,0.0,1
1679660676.80012202,160739315,0,3,476694800,2254,13,0.81,42.688742399999995,-84.49157029999999,264.55,0.5625024437904358,5.406531810760498,-0.19100001454353333,0.0,1
1679660677.02004504,160959238,0,3,476695000,2254,13,0.81,42.6887434,-84.49157009999999,264.57,0.5476660132408142,2.825834274291992,-0.0020000000949949026,0.0,1
1679660677.20116401,161140357,0,3,476695200,2254,13,0.81,42.688744199999995,-84.49157,264.59000000000003,0.41257244348526,6.401535987854004,-0.07100000232458115,0.0,1
1679660677.40036392,161339557,0,3,476695400,2254,13,0.81,42.688745,-84.4915699,264.6,0.35388416051864624,4.051010608673096,-0.1550000011920929,0.0,1
1679660677.60103488,161540228,0,3,476695600,2254,13,0.81,42.688745499999996,-84.4915699,264.62,0.23507660627365112,1.4625531435012817,-0.10600000619888306,0.0,1
1679660677.80111098,161740304,0,3,476695800,2254,13,0.81,42.6887459,-84.4915698,264.63,0.2440512478351593,358.8260803222656,-0.01100000087171793,0.0,1
1679660678.00116611,161940359,0,3,476696000,2254,13,0.81,42.6887463,-84.4915698,264.64,0.23304077982902527,354.5829772949219,0.04000000283122063,0.0,1
1679660678.20004296,162139236,0,3,476696200,2254,13,0.81,42.688746699999996,-84.4915699,264.63,0.19093717634677887,344.5080261230469,0.05900000408291817,0.0,1
1679660678.39999795,162339191,0,3,476696400,2254,13,0.81,42.688747,-84.49157,264.61,0.12571795284748077,338.537109375,0.06100000441074371,0.0,1
1679660678.60102510,162540218,0,3,476696600,2254,13,0.81,42.688747,-84.49157009999999,264.61,0.08579627424478531,229.25384521484375,0.1080000028014183,0.0,1
1679660678.79997206,162739165,0,3,476696800,2254,13,0.81,42.688746699999996,-84.4915702,264.59000000000003,0.3126995265483856,187.53411865234375,0.0,0.0,1
1679660679.00004506,162939238,0,3,476697000,2254,13,0.81,42.688745999999995,-84.49157029999999,264.6,0.5508402585983276,188.3507537841797,0.005000000353902578,0.0,1
1679660679.20110393,163140297,0,3,476697200,2254,13,0.81,42.688744799999995,-84.4915705,264.6,0.7569709420204163,185.07794189453125,0.003000000026077032,0.0,1
1679660679.40019703,163339390,0,3,476697400,2254,13,0.81,42.6887433,-84.4915707,264.59000000000003,0.8764775991439819,185.1056671142578,0.01600000075995922,0.0,1
1679660679.60103297,163540226,0,3,476697600,2254,13,0.81,42.6887416,-84.4915709,264.59000000000003,0.9930866360664368,185.1996612548828,-0.0010000000474974513,0.0,1
1679660679.80113292,163740326,0,3,476697800,2254,13,0.81,42.688739899999995,-84.4915712,264.56,0.9303440451622009,184.06808471679688,0.10500000417232513,0.0,1
1679660680.00124907,163940442,0,3,476698000,2254,13,0.81,42.688738199999996,-84.49157129999999,264.55,0.8896949291229248,185.22360229492188,0.13900001347064972,0.0,1
1679660680.20041203,164139605,0,3,476698200,2254,13,0.81,42.6887366,-84.4915716,264.52,0.8827967643737793,186.56954956054688,0.15700000524520874,0.0,1
1679660680.40105200,164340245,0,3,476698400,2254,13,0.81,42.688735,-84.4915718,264.49,0.9411233067512512,185.3653106689453,0.03500000014901161,0.0,1
1679660680.60112691,164540320,0,3,476698600,2254,13,0.81,42.6887332,-84.4915721,264.48,0.9583194255828857,187.55514526367188,0.0430000014603138,0.0,1
1679660680.80002403,164739217,0,3,476698800,2254,13,0.81,42.6887316,-84.4915724,264.47,0.822358250617981,190.72239685058594,-0.02200000174343586,0.0,1
1679660681.00006890,164939262,0,3,476699000,2254,13,0.81,42.688730199999995,-84.4915728,264.47,0.7567628622055054,192.43849182128906,0.009000000543892384,0.0,1
1679660681.22017288,165159366,0,3,476699200,2254,13,0.81,42.688728999999995,-84.4915733,264.46,0.6412371397018433,202.36557006835938,0.11600000411272049,0.0,1
1679660681.39993000,165339123,0,3,476699400,2254,13,0.81,42.688727899999996,-84.4915738,264.46,0.533948540687561,200.8449249267578,-0.04000000283122063,0.0,1
1679660681.60117006,165540363,0,3,476699600,2254,13,0.81,42.6887271,-84.4915743,264.48,0.4433385133743286,210.49832153320312,-0.012000000104308128,0.0,1
1679660681.80007291,165739266,0,3,476699800,2254,13,0.81,42.6887264,-84.4915748,264.49,0.4212363064289093,202.912841796875,-0.125,0.0,1
1679660682.00000906,165939202,0,3,476700000,2254,13,0.81,42.6887256,-84.4915752,264.51,0.3976091146469116,205.79171752929688,-0.13900001347064972,0.0,1
1679660682.20103407,166140227,0,3,476700200,2254,13,0.81,42.6887251,-84.49157559999999,264.51,0.29405444860458374,212.50108337402344,-0.1210000067949295,0.0,1
1679660682.40019298,166339386,0,3,476700400,2254,13,0.81,42.6887246,-84.491576,264.52,0.28281620144844055,211.55442810058594,-0.17500001192092896,0.0,1
1679660682.60114288,166540336,0,3,476700600,2254,13,0.81,42.688724199999996,-84.49157629999999,264.54,0.2220720797777176,223.9053192138672,-0.10500000417232513,0.0,1
1679660682.80107188,166740265,0,3,476700800,2254,13,0.81,42.6887238,-84.4915766,264.55,0.2236001044511795,199.3263397216797,-0.08400000631809235,0.0,1
1679660683.00023293,166939426,0,3,476701000,2254,13,0.81,42.6887234,-84.4915767,264.57,0.16211415827274323,209.56954956054688,-0.018000001087784767,0.0,1
1679660683.20121098,167140404,0,3,476701200,2254,13,0.81,42.6887231,-84.49157679999999,264.58,0.202009916305542,180.56727600097656,-0.0430000014603138,0.0,1
1679660683.40117788,167340371,0,3,476701400,2254,13,0.81,42.6887226,-84.49157679999999,264.61,0.2968922555446625,175.55686950683594,0.05000000074505806,0.0,1
1679660683.60126495,167540458,0,3,476701600,2254,13,0.81,42.6887221,-84.49157679999999,264.6,0.30130383372306824,174.66783142089844,0.014000000432133675,0.0,1
1679660683.80000496,167739198,0,3,476701800,2254,13,0.81,42.6887216,-84.4915767,264.6,0.23413671553134918,178.0419158935547,0.055000003427267075,0.0,1
1679660683.99986792,167939061,0,3,476702000,2254,13,0.81,42.688721099999995,-84.4915766,264.6,0.17805898189544678,171.27828979492188,0.10500000417232513,0.0,1
1679660684.22030401,168159497,0,3,476702200,2254,13,0.81,42.6887209,-84.4915766,264.58,0.013152946718037128,261.25384521484375,0.18200001120567322,0.0,1
1679660684.40003300,168339226,0,3,476702400,2254,13,0.81,42.6887209,-84.4915766,264.55,0.06306346505880356,14.697318077087402,0.1380000114440918,0.0,1
1679660684.60001993,168539213,0,3,476702600,2254,13,0.81,42.688721,-84.4915766,264.53000000000003,0.08438009768724442,354.5596618652344,0.1550000011920929,0.0,1
1679660684.79989910,168739092,0,3,476702800,2254,13,0.81,42.688721099999995,-84.4915766,264.52,0.020615529268980026,39.09385681152344,0.0430000014603138,0.0,1
1679660685.00019598,168939389,0,3,476703000,2254,13,0.81,42.688721099999995,-84.4915766,264.51,0.03214031830430031,95.3558120727539,0.09400000423192978,0.0,1
1679660685.20110393,169140297,0,3,476703200,2254,13,0.81,42.688721,-84.4915765,264.48,0.056586217135190964,136.43209838867188,0.046000003814697266,0.0,1
1679660685.40117598,169340369,0,3,476703400,2254,13,0.81,42.6887209,-84.4915764,264.47,0.08417245000600815,133.55587768554688,0.06200000271201134,0.0,1
1679660685.60113096,169540324,0,3,476703600,2254,13,0.81,42.6887207,-84.49157629999999,264.46,0.0708378478884697,131.5663604736328,0.07600000500679016,0.0,1
1679660685.80098200,169740175,0,3,476703800,2254,13,0.81,42.688720599999996,-84.4915762,264.44,0.07021396607160568,144.27259826660156,0.02800000086426735,0.0,1
1679660686.02003288,169959226,0,3,476704000,2254,13,0.81,42.688720499999995,-84.4915762,264.43,0.07655716687440872,156.1134796142578,0.10900000482797623,0.0,1
1679660686.20035195,170139545,0,3,476704200,2254,13,0.81,42.6887203,-84.4915761,264.41,0.07443118095397949,149.30027770996094,0.032999999821186066,0.0,1
1679660686.40118694,170340380,0,3,476704400,2254,13,0.81,42.6887202,-84.491576,264.4,0.05481788143515587,141.66665649414062,0.06400000303983688,0.0,1
1679660686.60102892,170540222,0,3,476704600,2254,13,0.81,42.6887201,-84.491576,264.39,0.06328506767749786,148.5704345703125,-0.01600000075995922,0.0,1
1679660686.79991508,170739108,0,3,476704800,2254,13,0.81,42.688719899999995,-84.4915759,264.39,0.03401470556855202,178.3153076171875,0.09000000357627869,0.0,1
1679660687.00002289,170939216,0,3,476705000,2254,13,0.81,42.6887198,-84.4915759,264.39,0.06001666933298111,169.43898010253906,-0.049000002443790436,0.0,1
1679660687.20005107,171139244,0,3,476705200,2254,13,0.81,42.6887197,-84.491576,264.39,0.03982461616396904,231.11550903320312,0.0010000000474974513,0.0,1
1679660687.40133309,171340526,0,3,476705400,2254,13,0.81,42.6887196,-84.4915761,264.38,0.054037027060985565,272.12109375,-0.015000000596046448,0.0,1
1679660687.59988308,171539076,0,3,476705600,2254,13,0.81,42.6887196,-84.49157629999999,264.4,0.11303097754716873,283.298583984375,0.07700000703334808,0.0,1
1679660687.79998589,171739179,0,3,476705800,2254,13,0.81,42.6887196,-84.4915766,264.39,0.11764353513717651,287.81890869140625,-0.05700000375509262,0.0,1
1679660688.00117302,171940366,0,3,476706000,2254,13,0.81,42.6887196,-84.49157699999999,264.38,0.13063308596611023,289.6833190917969,-0.09400000423192978,0.0,1
1679660688.22017694,172159370,0,3,476706200,2254,13,0.81,42.6887197,-84.4915773,264.4,0.1833384931087494,300.48138427734375,0.017000000923871994,0.0,1
1679660688.40100503,172340198,0,3,476706400,2254,13,0.81,42.6887198,-84.4915777,264.4,0.2005716860294342,299.24884033203125,0.036000002175569534,0.0,1
1679660688.62025905,172559452,0,3,476706600,2254,13,0.81,42.688719899999995,-84.4915781,264.4,0.19631099700927734,308.79656982421875,0.030000001192092896,0.0,1
1679660688.80116606,172740359,0,3,476706800,2254,13,0.81,42.6887201,-84.4915784,264.41,0.16892899572849274,304.63079833984375,0.009000000543892384,0.0,1
1679660689.02031088,172959504,0,3,476707000,2254,13,0.81,42.6887201,-84.49157869999999,264.41,0.10171037912368774,300.09423828125,-0.017000000923871994,0.0,1
1679660689.19999099,173139184,0,3,476707200,2254,13,0.81,42.6887201,-84.4915789,264.41,0.058523502200841904,236.85299682617188,-0.04200000315904617,0.0,1
1679660689.40100908,173340202,0,3,476707400,2254,13,0.81,42.688719999999996,-84.491579,264.42,0.07211102545261383,160.55995178222656,-0.07500000298023224,0.0,1
1679660689.62003303,173559226,0,3,476707600,2254,13,0.81,42.6887197,-84.4915789,264.44,0.1105712428689003,155.98489379882812,-0.04000000283122063,0.0,1
1679660689.80114603,173740339,0,3,476707800,2254,13,0.81,42.6887195,-84.4915788,264.45,0.07155417650938034,116.5650405883789,0.09600000083446503,0.0,1
1679660690.00117898,173940372,0,3,476708000,2254,13,0.81,42.6887194,-84.4915786,264.44,0.06688796728849411,121.55137634277344,0.005000000353902578,0.0,1
1679660690.19988894,174139082,0,3,476708200,2254,13,0.81,42.688719299999995,-84.4915785,264.45,0.04825971648097038,145.9806365966797,0.0430000014603138,0.0,1
1679660690.39991593,174339109,0,3,476708400,2254,13,0.81,42.6887192,-84.4915785,264.44,0.06530696898698807,78.51800537109375,0.021000001579523087,0.0,1
1679660690.60002708,174539220,0,3,476708600,2254,13,0.81,42.6887192,-84.4915783,264.44,0.1052330806851387,86.18592071533203,0.02800000086426735,0.0,1
1679660690.80004001,174739233,0,3,476708800,2254,13,0.81,42.6887192,-84.4915779,264.44,0.2494514137506485,86.5526123046875,0.04200000315904617,0.0,1
1679660691.01987290,174959066,0,3,476709000,2254,13,0.81,42.688719299999995,-84.4915772,264.45,0.34885528683662415,62.70042419433594,-0.015000000596046448,0.0,1
1679660691.20100188,175140195,0,3,476709200,2254,13,0.81,42.6887196,-84.4915764,264.46,0.43051600456237793,48.01278305053711,0.09400000423192978,0.0,1
1679660691.42024398,175359437,0,3,476709400,2254,13,0.81,42.6887203,-84.49157559999999,264.44,0.6752540469169617,29.450197219848633,-0.04200000315904617,0.0,1
1679660691.60123897,175540432,0,3,476709600,2254,13,0.81,42.6887215,-84.49157489999999,264.45,0.7975895404815674,21.321176528930664,-0.11000000685453415,0.0,1
1679660691.82032204,175759515,0,3,476709800,2254,13,0.81,42.688722999999996,-84.4915742,264.45,0.9697216749191284,14.69544506072998,-0.03400000184774399,0.0,1
1679660692.02022099,175959414,0,3,476710000,2254,13,0.81,42.688724699999995,-84.49157369999999,264.44,1.0241377353668213,11.661031723022461,-0.029000001028180122,0.0,1
1679660692.22023201,176159425,0,3,476710200,2254,13,0.81,42.6887265,-84.49157319999999,264.44,1.0663471221923828,10.045329093933105,0.029000001028180122,0.0,1
1679660692.42001605,176359209,0,3,476710400,2254,13,0.81,42.6887282,-84.4915728,264.42,0.8258680701255798,13.51462173461914,-0.052000001072883606,0.0,1
1679660692.60125804,176540451,0,3,476710600,2254,13,0.81,42.6887295,-84.4915723,264.42,0.6512334942817688,15.679523468017578,0.023000001907348633,0.0,1
1679660692.82007408,176759267,0,3,476710800,2254,13,0.81,42.6887304,-84.4915719,264.42,0.3994521498680115,25.346172332763672,-0.005000000353902578,0.0,1
1679660693.02019310,176959386,0,3,476711000,2254,13,0.81,42.688730899999996,-84.4915716,264.42,0.24341735243797302,28.460172653198242,-0.020000001415610313,0.0,1
1679660693.22020388,177159397,0,3,476711200,2254,13,0.81,42.688731,-84.49157129999999,264.43,0.0863712951540947,95.31453704833984,0.010000000707805157,0.0,1
1679660693.42019296,177359386,0,3,476711400,2254,13,0.81,42.688730799999995,-84.4915712,264.42,0.17552493512630463,168.49801635742188,0.08500000089406967,0.0,1
1679660693.61987996,177559073,0,3,476711600,2254,13,0.81,42.6887304,-84.4915712,264.43,0.2978338599205017,186.3614501953125,0.0820000022649765,0.0,1
1679660693.81993890,177759132,0,3,476711800,2254,13,0.81,42.688729699999996,-84.4915714,264.41,0.4280981421470642,189.68235778808594,-0.06599999964237213,0.0,1
1679660694.02000594,177959199,0,3,476712000,2254,13,0.81,42.688728999999995,-84.4915716,264.44,0.3824983835220337,193.4549560546875,-0.003000000026077032,0.0,1
1679660694.22002697,178159220,0,3,476712200,2254,13,0.81,42.6887282,-84.4915718,264.47,0.41245606541633606,197.20486450195312,0.0560000017285347,0.0,1
1679660694.42032003,178359513,0,3,476712400,2254,13,0.81,42.6887276,-84.4915721,264.46,0.3134087026119232,213.943603515625,0.10200000554323196,0.0,1
1679660694.62023211,178559425,0,3,476712600,2254,13,0.81,42.6887271,-84.49157249999999,264.45,0.27416783571243286,203.1986083984375,0.08000000566244125,0.0,1
1679660694.82018399,178759377,0,3,476712800,2254,13,0.81,42.6887267,-84.49157269999999,264.44,0.22019310295581818,188.0933074951172,0.07300000637769699,0.0,1
1679660695.02023602,178959429,0,3,476713000,2254,13,0.81,42.6887263,-84.49157269999999,264.42,0.25026386976242065,169.40846252441406,0.04800000041723251,0.0,1
1679660695.22029209,179159485,0,3,476713200,2254,13,0.81,42.6887258,-84.4915724,264.43,0.23667700588703156,149.53443908691406,0.04500000178813934,0.0,1
1679660695.42016792,179359361,0,3,476713400,2254,13,0.81,42.688725399999996,-84.4915722,264.42,0.2324177324771881,156.4129638671875,0.0560000017285347,0.0,1
1679660695.62017798,179559371,0,3,476713600,2254,13,0.81,42.688725,-84.4915719,264.42,0.2401103973388672,166.02162170410156,-0.05100000277161598,0.0,1
1679660695.82024407,179759437,0,3,476713800,2254,13,0.81,42.6887246,-84.4915718,264.42,0.2716265916824341,168.3177490234375,-0.004000000189989805,0.0,1
1679660696.02001905,179959212,0,3,476714000,2254,13,0.81,42.688724099999995,-84.4915717,264.41,0.2634103298187256,169.50059509277344,0.006000000052154064,0.0,1
1679660696.21998096,180159174,0,3,476714200,2254,13,0.81,42.688723599999996,-84.4915716,264.4,0.27238577604293823,166.62698364257812,0.03700000047683716,0.0,1
1679660696.42007494,180359268,0,3,476714400,2254,13,0.81,42.6887231,-84.4915714,264.41,0.295367568731308,168.08135986328125,0.0560000017285347,0.0,1
1679660696.60102391,180540217,0,3,476714600,2254,13,0.81,42.6887226,-84.4915712,264.39,0.28587061166763306,161.43829345703125,0.03800000250339508,0.0,1
1679660696.82019997,180759393,0,3,476714800,2254,13,0.81,42.688722,-84.4915709,264.4,0.31992030143737793,163.66098022460938,0.08400000631809235,0.0,1
1679660697.02041197,180959605,0,3,476715000,2254,13,0.81,42.6887214,-84.4915707,264.38,0.3118268847465515,168.90626525878906,0.039000000804662704,0.0,1
1679660697.21983910,181159032,0,3,476715200,2254,13,0.81,42.6887208,-84.4915707,264.4,0.3769204616546631,185.78622436523438,-0.01100000087171793,0.0,1
1679660697.41992497,181359118,0,3,476715400,2254,13,0.81,42.6887201,-84.49157079999999,264.41,0.3782089650630951,198.33914184570312,-0.013000000268220901,0.0,1
1679660697.62000394,181559197,0,3,476715600,2254,13,0.81,42.688719299999995,-84.49157129999999,264.4,0.5280341506004333,216.21884155273438,-0.0010000000474974513,0.0,1
1679660697.82025909,181759452,0,3,476715800,2254,13,0.81,42.6887186,-84.4915722,264.41,0.5854955315589905,231.30963134765625,0.08900000154972076,0.0,1
1679660698.00115609,181940349,0,3,476716000,2254,13,0.81,42.6887178,-84.4915735,264.41,0.7498493194580078,233.78724670410156,-0.08700000494718552,0.0,1
1679660698.22007704,182159270,0,3,476716200,2254,13,0.81,42.688717,-84.49157509999999,264.43,0.8550024032592773,238.24325561523438,-0.014000000432133675,0.0,1
1679660698.42019510,182359388,0,3,476716400,2254,13,0.81,42.6887161,-84.49157699999999,264.42,0.9709630012512207,239.896484375,-0.006000000052154064,0.0,1
1679660698.62049603,182559689,0,3,476716600,2254,13,0.81,42.6887152,-84.491579,264.43,0.9651678800582886,240.85891723632812,0.04700000211596489,0.0,1
1679660698.82009196,182759285,0,3,476716800,2254,13,0.81,42.688714399999995,-84.491581,264.41,0.9262014031410217,233.0311279296875,0.015000000596046448,0.0,1
1679660699.01988006,182959073,0,3,476717000,2254,13,0.81,42.6887134,-84.49158249999999,264.4,0.7099478840827942,224.65760803222656,-0.04200000315904617,0.0,1
1679660699.21991205,183159105,0,3,476717200,2254,13,0.81,42.6887125,-84.4915834,264.4,0.5926458239555359,212.1078643798828,0.07800000160932541,0.0,1
1679660699.40109897,183340292,0,3,476717400,2254,13,0.81,42.6887116,-84.4915839,264.38,0.5628800988197327,190.7509765625,-0.01100000087171793,0.0,1
1679660699.62028599,183559479,0,3,476717600,2254,13,0.81,42.6887106,-84.4915841,264.4,0.5124578475952148,191.02488708496094,-0.1720000058412552,0.0,1
1679660699.82018495,183759378,0,3,476717800,2254,13,0.81,42.6887098,-84.4915843,264.41,0.3216240108013153,187.3238983154297,-0.024000000208616257,0.0,1
1679660700.02002907,183959222,0,3,476718000,2254,13,0.81,42.6887094,-84.4915845,264.4,0.16770510375499725,222.82525634765625,0.1120000034570694,0.0,1
1679660700.22011209,184159305,0,3,476718200,2254,13,0.81,42.6887094,-84.4915848,264.38,0.23325738310813904,303.28131103515625,0.13100001215934753,0.0,1
1679660700.42030096,184359494,0,3,476718400,2254,13,0.81,42.688709599999996,-84.4915853,264.35,0.27153268456459045,315.29840087890625,0.05000000074505806,0.0,1
1679660700.62020802,184559401,0,3,476718600,2254,13,0.81,42.6887099,-84.4915857,264.33,0.24393852055072784,319.322265625,0.1469999998807907,0.0,1
1679660700.82012606,184759319,0,3,476718800,2254,13,0.81,42.6887103,-84.491586,264.3,0.2359682321548462,336.2593994140625,0.024000000208616257,0.0,1
1679660701.02013206,184959325,0,3,476719000,2254,13,0.81,42.6887106,-84.49158609999999,264.3,0.14412495493888855,2.385943651199341,0.012000000104308128,0.0,1
1679660701.22028804,185159481,0,3,476719200,2254,13,0.81,42.6887109,-84.491586,264.3,0.17988885939121246,8.31027603149414,0.08400000631809235,0.0,1
1679660701.42032194,185359515,0,3,476719400,2254,13,0.81,42.6887113,-84.49158589999999,264.28000000000003,0.21666796505451202,17.180496215820312,0.04100000113248825,0.0,1
1679660701.62030697,185559500,0,3,476719600,2254,13,0.81,42.6887117,-84.4915858,264.27,0.2963258624076843,5.421999931335449,0.0020000000949949026,0.0,1
1679660701.82008791,185759281,0,3,476719800,2254,13,0.81,42.6887123,-84.4915857,264.25,0.3664928674697876,2.971703290939331,0.07500000298023224,0.0,1
1679660702.01998901,185959182,0,3,476720000,2254,13,0.81,42.6887131,-84.4915856,264.25,0.48836463689804077,5.6405487060546875,-0.036000002175569534,0.0,1
1679660702.22003698,186159230,0,3,476720200,2254,13,0.81,42.688714,-84.49158539999999,264.23,0.5310301184654236,9.976728439331055,-0.015000000596046448,0.0,1
1679660702.42002988,186359223,0,3,476720400,2254,13,0.81,42.688714999999995,-84.4915851,264.21,0.5921630263328552,16.07830238342285,-0.017000000923871994,0.0,1
1679660702.61987996,186559073,0,3,476720600,2254,13,0.81,42.688716,-84.4915846,264.22,0.5542824864387512,25.08558464050293,-0.018000001087784767,0.0,1
1679660702.81994510,186759138,0,3,476720800,2254,13,0.81,42.688716899999996,-84.4915839,264.21,0.6355541348457336,29.711334228515625,0.009000000543892384,0.0,1
1679660703.02006388,186959257,0,3,476721000,2254,13,0.81,42.6887179,-84.4915831,264.2,0.6480494141578674,28.77980613708496,0.13199999928474426,0.0,1
1679660703.22003102,187159224,0,3,476721200,2254,13,0.81,42.6887188,-84.4915821,264.2,0.6902094483375549,37.16874313354492,0.1080000028014183,0.0,1
1679660703.40007496,187339268,0,3,476721400,2254,13,0.81,42.6887198,-84.491581,264.2,0.7043195962905884,41.316017150878906,0.012000000104308128,0.0,1
1679660703.62008905,187559282,0,3,476721600,2254,13,0.81,42.688720499999995,-84.4915798,264.2,0.6266259551048279,50.56905746459961,0.05000000074505806,0.0,1
1679660703.82011294,187759306,0,3,476721800,2254,13,0.81,42.688721199999996,-84.4915786,264.17,0.6216406226158142,55.287357330322266,0.16200000047683716,0.0,1
1679660704.02030110,187959494,0,3,476722000,2254,13,0.81,42.688721799999996,-84.4915773,264.16,0.6040993928909302,56.88865661621094,0.007000000216066837,0.0,1
1679660704.22037005,188159563,0,3,476722200,2254,13,0.81,42.688722299999995,-84.491576,264.16,0.5620756149291992,54.924468994140625,0.10000000149011612,0.0,1
1679660704.42030907,188359502,0,3,476722400,2254,13,0.81,42.6887228,-84.49157489999999,264.17,0.5177847146987915,50.40694808959961,0.11600000411272049,0.0,1
