timestamp,TimeUS,Lat,Lng,Alt,RelHomeAlt,RelOriginAlt
1679660629.36063910,113299832,42.688709599999996,-84.4915718,262.3500061035156,0.006237925961613655,1.4762378931045532
1679660629.46068311,113399876,42.688709599999996,-84.4915718,262.3500061035156,0.005603494122624397,1.475603461265564
1679660629.56073403,113499927,42.6887097,-84.4915718,262.3500061035156,0.005129160359501839,1.4751291275024414
1679660629.66071987,113599913,42.6887097,-84.4915718,262.3500061035156,0.005289854481816292,1.4752898216247559
1679660629.76068306,113699876,42.6887097,-84.4915718,262.3500061035156,0.005209626629948616,1.4752095937728882
1679660629.86091709,113800110,42.6887097,-84.4915718,262.3500061035156,0.0034986156970262527,1.4734985828399658
1679660629.96070695,113899900,42.6887097,-84.4915718,262.3500061035156,0.0015105623751878738,1.4715105295181274
1679660630.06064200,113999835,42.688709599999996,-84.4915718,262.3500061035156,0.0007279533892869949,1.4707279205322266
1679660630.16096306,114100156,42.688709599999996,-84.4915718,262.3500061035156,0.000517548993229866,1.4705175161361694
1679660630.26066709,114199860,42.688709599999996,-84.4915718,262.3399963378906,-5.906634032726288e-05,1.4699409008026123
1679660630.36066794,114299861,42.688709599999996,-84.4915718,262.3399963378906,-0.0001479964703321457,1.4698519706726074
1679660630.46074605,114399939,42.688709599999996,-84.4915718,262.3399963378906,-0.0020406823605298996,1.4679592847824097
1679660630.56070399,114499897,42.688709499999995,-84.4915718,262.3399963378906,-0.003954349085688591,1.466045618057251
1679660630.66078210,114599975,42.688709499999995,-84.4915719,262.3399963378906,-0.00482088141143322,1.4651790857315063
1679660630.76070404,114699897,42.6887094,-84.4915719,262.3399963378906,-0.004855690523982048,1.4651442766189575
1679660630.86070395,114799897,42.6887094,-84.4915719,262.3399963378906,-0.002466736361384392,1.4675332307815552
1679660630.96066594,114899859,42.6887094,-84.4915719,262.3500061035156,0.0007739681750535965,1.4707739353179932
1679660631.06071305,114999906,42.6887093,-84.4915719,262.3500061035156,0.002852620556950569,1.4728525876998901
1679660631.16069889,115099892,42.6887093,-84.4915719,262.3500061035156,0.004457773640751839,1.4744577407836914
1679660631.26068091,115199874,42.6887092,-84.4915719,262.3500061035156,0.006346764042973518,1.476346731185913
1679660631.36036801,115299561,42.6887092,-84.4915719,262.3500061035156,0.007773460820317268,1.4777734279632568
1679660631.46067309,115399866,42.6887092,-84.4915718,262.3500061035156,0.009709062054753304,1.4797090291976929
1679660631.56061888,115499812,42.6887091,-84.4915718,262.3599853515625,0.011989416554570198,1.4819893836975098
1679660631.66066694,115599860,42.6887091,-84.4915718,262.3599853515625,0.01493019051849842,1.484930157661438
1679660631.76065397,115699847,42.6887091,-84.4915718,262.3599853515625,0.018317164853215218,1.4883171319961548
1679660631.86061692,115799810,42.6887091,-84.4915718,262.3599853515625,0.019912781193852425,1.489912748336792
1679660631.96071506,115899908,42.6887091,-84.4915718,262.3599853515625,0.019671978428959846,1.4896719455718994
1679660632.06059194,115999785,42.6887091,-84.4915718,262.3599853515625,0.019373955205082893,1.4893739223480225
1679660632.16068506,116099878,42.6887091,-84.4915718,262.3599853515625,0.019316377118229866,1.4893163442611694
1679660632.26069403,116199887,42.6887091,-84.4915718,262.3699951171875,0.020465316250920296,1.4904652833938599
1679660632.36094689,116300140,42.6887091,-84.4915718,262.3699951171875,0.022154035046696663,1.4921540021896362
1679660632.46078396,116399977,42.6887091,-84.4915718,262.3699951171875,0.021827640011906624,1.4918276071548462
1679660632.56041002,116499603,42.6887091,-84.4915718,262.3699951171875,0.020854772999882698,1.4908547401428223
1679660632.66041398,116599607,42.6887091,-84.4915718,262.3699951171875,0.020585479214787483,1.490585446357727
1679660632.76046395,116699657,42.6887091,-84.4915718,262.3699951171875,0.02068883366882801,1.4906888008117676
1679660632.86053801,116799731,42.6887091,-84.4915718,262.3599853515625,0.019006671383976936,1.4890066385269165
1679660632.96040988,116899603,42.6887092,-84.4915718,262.3599853515625,0.017079653218388557,1.4870796203613281
1679660633.06032705,116999520,42.6887092,-84.4915718,262.3599853515625,0.014412345364689827,1.4844123125076294
1679660633.16044402,117099637,42.6887092,-84.4915718,262.3599853515625,0.012522758916020393,1.48252272605896
1679660633.26034999,117199543,42.6887092,-84.4915719,262.3599853515625,0.010920824483036995,1.4809207916259766
1679660633.36043501,117299628,42.6887092,-84.4915719,262.3599853515625,0.01020294614136219,1.4802029132843018
1679660633.46041989,117399613,42.6887092,-84.4915719,262.3500061035156,0.007849516347050667,1.4778494834899902
1679660633.56048894,117499682,42.6887092,-84.4915719,262.3599853515625,0.015675010159611702,1.4856749773025513
1679660633.66049099,117599684,42.6887092,-84.4915719,262.3999938964844,0.05293041467666626,1.522930383682251
1679660633.76072192,117699915,42.6887092,-84.4915719,262.4599914550781,0.11797815561294556,1.5879781246185303
1679660633.86043692,117799630,42.6887092,-84.4915719,262.54998779296875,0.20534545183181763,1.6753454208374023
1679660633.96046901,117899662,42.6887092,-84.4915718,262.6399841308594,0.2946464419364929,1.7646464109420776
1679660634.06081295,118000006,42.6887091,-84.4915717,262.7200012207031,0.3715478777885437,1.8415478467941284
1679660634.16083694,118100030,42.6887091,-84.4915716,262.7799987792969,0.4373125433921814,1.9073125123977661
1679660634.26067591,118199869,42.688708999999996,-84.4915716,262.8299865722656,0.4858350157737732,1.955834984779358
1679660634.36070108,118299894,42.688708999999996,-84.4915716,262.8699951171875,0.5241242051124573,1.994124174118042
1679660634.46068311,118399876,42.688708999999996,-84.4915716,262.8999938964844,0.5543256402015686,2.0243256092071533
1679660634.56063795,118499831,42.688708899999995,-84.49157149999999,262.91998291015625,0.5787280201911926,2.0487279891967773
1679660634.66074705,118599940,42.6887088,-84.4915716,262.94000244140625,0.5946868062019348,2.0646867752075195
1679660634.76068687,118699880,42.6887087,-84.4915716,262.9599914550781,0.6101132035255432,2.080113172531128
1679660634.86071897,118799912,42.6887085,-84.4915716,262.9700012207031,0.6261914372444153,2.09619140625
1679660634.96042109,118899614,42.688708299999995,-84.4915716,262.989990234375,0.6447699666023254,2.11476993560791
1679660635.06079292,118999986,42.688708,-84.49157149999999,263.0099792480469,0.6601222157478333,2.130122184753418
1679660635.16089702,119100090,42.688707799999996,-84.4915714,263.0199890136719,0.6757367253303528,2.1457366943359375
1679660635.26072907,119199922,42.6887076,-84.49157129999999,263.0400085449219,0.6920214295387268,2.1620213985443115
1679660635.36072493,119299918,42.6887074,-84.4915711,263.04998779296875,0.7075524926185608,2.1775524616241455
1679660635.46068001,119399873,42.688707199999996,-84.491571,263.07000732421875,0.728605329990387,2.1986052989959717
1679660635.56073499,119499928,42.688707099999995,-84.491571,263.1000061035156,0.752604067325592,2.2226040363311768
1679660635.66067505,119599868,42.688707099999995,-84.4915711,263.1199951171875,0.7755997776985168,2.2455997467041016
1679660635.76093197,119700125,42.688707099999995,-84.4915711,263.1499938964844,0.8013883233070374,2.271388292312622
1679660635.86040592,119799599,42.688707,-84.49157129999999,263.16998291015625,0.8276594281196594,2.297659397125244
1679660635.96051097,119899704,42.688707099999995,-84.49157149999999,263.1999816894531,0.8575864434242249,2.3275864124298096
1679660636.06047606,119999669,42.688707099999995,-84.4915716,263.239990234375,0.8903678059577942,2.360367774963379
1679660636.16069102,120099884,42.688707199999996,-84.49157199999999,263.2699890136719,0.9258711934089661,2.395871162414551
1679660636.26051903,120199712,42.688707199999996,-84.4915723,263.30999755859375,0.9640451073646545,2.4340450763702393
1679660636.36052299,120299716,42.6887073,-84.49157269999999,263.3399963378906,0.9998117089271545,2.4698116779327393
1679660636.46073389,120399927,42.6887073,-84.4915731,263.3800048828125,1.0307632684707642,2.500763177871704
1679660636.56065989,120499853,42.6887074,-84.4915735,263.4100036621094,1.060064435005188,2.530064344406128
1679660636.66031909,120599512,42.6887074,-84.4915738,263.44000244140625,1.0908914804458618,2.5608913898468018
1679660636.76039100,120699584,42.6887074,-84.491574,263.4700012207031,1.120712399482727,2.590712308883667
1679660636.86046600,120799659,42.6887074,-84.4915742,263.5,1.1525031328201294,2.6225030422210693
1679660636.96046901,120899662,42.6887073,-84.4915743,263.5299987792969,1.1859792470932007,2.6559791564941406
1679660637.06073499,120999928,42.6887073,-84.49157439999999,263.57000732421875,1.220138430595398,2.690138339996338
1679660637.16086888,121100062,42.688707199999996,-84.4915745,263.6000061035156,1.2552894353866577,2.7252893447875977
1679660637.26049209,121199685,42.688707099999995,-84.4915745,263.6399841308594,1.2933388948440552,2.763338804244995
1679660637.36054301,121299736,42.6887069,-84.4915745,263.67999267578125,1.3325692415237427,2.8025691509246826
1679660637.46040797,121399601,42.6887069,-84.49157459999999,263.7200012207031,1.3721519708633423,2.8421518802642822
1679660637.56032300,121499516,42.6887068,-84.49157459999999,263.7599792480469,1.4131420850753784,2.8831419944763184
1679660637.66040492,121599598,42.688706599999996,-84.4915747,263.79998779296875,1.4597474336624146,2.9297473430633545
1679660637.76076007,121699953,42.688706499999995,-84.4915748,263.8500061035156,1.5085495710372925,2.9785494804382324
1679660637.86079597,121799989,42.6887064,-84.4915748,263.9100036621094,1.5602630376815796,3.0302629470825195
1679660637.96080303,121899996,42.6887063,-84.49157489999999,263.9499816894531,1.6073304414749146,3.0773303508758545
1679660638.06072593,121999919,42.6887061,-84.491575,263.989990234375,1.6463032960891724,3.1163032054901123
1679660638.16052103,122099714,42.688705999999996,-84.49157509999999,264.0199890136719,1.6789690256118774,3.1489689350128174
1679660638.26072407,122199917,42.688705899999995,-84.4915753,264.04998779296875,1.707065224647522,3.177065134048462
1679660638.36061907,122299812,42.6887057,-84.4915755,264.0799865722656,1.7303169965744019,3.200316905975342
1679660638.46055102,122399744,42.6887056,-84.49157579999999,264.0899963378906,1.7484372854232788,3.2184371948242188
1679660638.56061292,122499806,42.6887055,-84.4915761,264.1099853515625,1.7642699480056763,3.234269857406616
1679660638.66067100,122599864,42.688705399999996,-84.4915765,264.1199951171875,1.7793198823928833,3.2493197917938232
1679660638.76067996,122699873,42.6887052,-84.49157679999999,264.1399841308594,1.7920397520065308,3.2620396614074707
1679660638.86098194,122800175,42.6887051,-84.4915771,264.1499938964844,1.803118348121643,3.273118257522583
1679660638.96067405,122899867,42.6887049,-84.4915773,264.1600036621094,1.8132108449935913,3.2832107543945312
1679660639.06061196,122999805,42.6887048,-84.49157749999999,264.16998291015625,1.8213516473770142,3.291351556777954
1679660639.16075397,123099947,42.688704699999995,-84.49157749999999,264.16998291015625,1.8262275457382202,3.29622745513916
1679660639.26062608,123199819,42.688704699999995,-84.4915776,264.16998291015625,1.827485203742981,3.297485113143921
1679660639.36064887,123299842,42.6887048,-84.4915776,264.16998291015625,1.824027419090271,3.294027328491211
1679660639.46063209,123399825,42.6887049,-84.4915777,264.1600036621094,1.8177217245101929,3.287721633911133
1679660639.56068802,123499881,42.6887051,-84.4915778,264.1499938964844,1.8090826272964478,3.2790825366973877
1679660639.66064596,123599839,42.688705299999995,-84.4915778,264.1399841308594,1.7967277765274048,3.2667276859283447
1679660639.76067996,123699873,42.6887055,-84.49157799999999,264.1300048828125,1.7827574014663696,3.2527573108673096
1679660639.86067009,123799863,42.6887057,-84.4915781,264.1099853515625,1.7680271863937378,3.2380270957946777
1679660639.96062589,123899819,42.688705899999995,-84.4915783,264.1000061035156,1.7537332773208618,3.2237331867218018
1679660640.06088090,124000074,42.688705999999996,-84.4915785,264.0899963378906,1.7414273023605347,3.2114272117614746
1679660640.16053510,124099728,42.6887062,-84.4915788,264.0799865722656,1.7313677072525024,3.2013676166534424
1679660640.26067591,124199869,42.6887064,-84.491579,264.07000732421875,1.7285679578781128,3.1985678672790527
1679660640.36086988,124300063,42.6887067,-84.49157919999999,264.0799865722656,1.7334080934524536,3.2034080028533936
1679660640.46081805,124400011,42.6887068,-84.49157939999999,264.0899963378906,1.7442611455917358,3.214261054992676
1679660640.56078601,124499979,42.688707,-84.4915795,264.1099853515625,1.7609082460403442,3.230908155441284
1679660640.66073298,124599926,42.688707199999996,-84.4915795,264.1300048828125,1.7842072248458862,3.254207134246826
1679660640.76071596,124699909,42.6887073,-84.4915796,264.1600036621094,1.8118263483047485,3.2818262577056885
1679660640.86069107,124799884,42.6887074,-84.4915796,264.19000244140625,1.8462680578231812,3.316267967224121
1679660640.96094203,124900135,42.6887075,-84.4915797,264.22998046875,1.8845771551132202,3.35457706451416
1679660641.06065798,124999851,42.6887076,-84.4915798,264.2699890136719,1.9222930669784546,3.3922929763793945
1679660641.16074491,125099938,42.688707699999995,-84.4915798,264.30999755859375,1.9600452184677124,3.4300451278686523
1679660641.26039600,125199589,42.688707799999996,-84.49157989999999,264.3399963378906,1.9983683824539185,3.4683682918548584
1679660641.36045003,125299643,42.6887079,-84.49158,264.3800048828125,2.037651300430298,3.5076513290405273
1679660641.46047091,125399664,42.688708,-84.4915801,264.41998291015625,2.0772202014923096,3.547220230102539
1679660641.56041408,125499607,42.6887082,-84.4915802,264.4599914550781,2.116623640060425,3.5866236686706543
1679660641.66047692,125599670,42.688708299999995,-84.49158039999999,264.5,2.1549015045166016,3.624901533126831
1679660641.76048708,125699680,42.688708399999996,-84.49158059999999,264.5400085449219,2.1905722618103027,3.6605722904205322
1679660641.86055493,125799748,42.6887086,-84.4915808,264.57000732421875,2.221942901611328,3.6919429302215576
1679660641.96039391,125899587,42.6887087,-84.49158109999999,264.5899963378906,2.2491021156311035,3.719102144241333
1679660642.06069398,125999887,42.6887088,-84.4915814,264.6199951171875,2.2757837772369385,3.745783805847168
1679660642.16043496,126099628,42.688708999999996,-84.49158159999999,264.6399841308594,2.2999706268310547,3.769970655441284
1679660642.26044607,126199639,42.6887091,-84.49158179999999,264.66998291015625,2.3221051692962646,3.792105197906494
1679660642.36044002,126299633,42.6887092,-84.4915819,264.69000244140625,2.341806173324585,3.8118062019348145
1679660642.46053290,126399726,42.6887093,-84.491582,264.6999816894531,2.3577558994293213,3.827755928039551
1679660642.56049299,126499686,42.6887093,-84.491582,264.7200012207031,2.3701014518737793,3.840101480484009
1679660642.66047096,126599664,42.6887094,-84.4915819,264.72998046875,2.38150691986084,3.8515069484710693
1679660642.76052809,126699721,42.688709499999995,-84.4915819,264.739990234375,2.391831636428833,3.8618316650390625
1679660642.86040902,126799602,42.688709499999995,-84.49158179999999,264.739990234375,2.399353265762329,3.8693532943725586
1679660642.96032405,126899517,42.688709499999995,-84.4915817,264.75,2.404074192047119,3.8740742206573486
1679660643.06038594,126999579,42.688709499999995,-84.49158159999999,264.75,2.406299114227295,3.8762991428375244
1679660643.16048408,127099677,42.688709499999995,-84.4915815,264.75,2.4061264991760254,3.876126527786255
1679660643.26079607,127199989,42.688709499999995,-84.4915815,264.75,2.4010238647460938,3.8710238933563232
1679660643.36041689,127299610,42.688709499999995,-84.4915814,264.739990234375,2.392967939376831,3.8629679679870605
1679660643.46066189,127399855,42.688709499999995,-84.4915814,264.72998046875,2.381584882736206,3.8515849113464355
1679660643.56061101,127499804,42.688709499999995,-84.4915814,264.7099914550781,2.3683359622955322,3.8383359909057617
1679660643.66065598,127599849,42.688709499999995,-84.4915815,264.6999816894531,2.350754499435425,3.8207545280456543
1679660643.76062799,127699821,42.6887094,-84.4915815,264.67999267578125,2.3313589096069336,3.801358938217163
1679660643.86064005,127799833,42.6887094,-84.49158159999999,264.6600036621094,2.311122417449951,3.7811224460601807
1679660643.96062207,127899815,42.6887094,-84.4915817,264.6399841308594,2.291095018386841,3.7610950469970703
1679660644.06095099,128000144,42.6887093,-84.49158179999999,264.6199951171875,2.2709553241729736,3.740955352783203
1679660644.16077709,128099970,42.6887093,-84.4915819,264.6000061035156,2.2515361309051514,3.721536159515381
1679660644.26069403,128199887,42.6887092,-84.4915821,264.5799865722656,2.2345917224884033,3.704591751098633
1679660644.36067700,128299870,42.6887091,-84.4915824,264.55999755859375,2.2185206413269043,3.688520669937134
1679660644.46064806,128399841,42.6887091,-84.49158249999999,264.54998779296875,2.2024104595184326,3.672410488128662
1679660644.56071305,128499906,42.688708999999996,-84.4915827,264.5299987792969,2.1878292560577393,3.6578292846679688
1679660644.66060901,128599802,42.688708899999995,-84.4915829,264.5199890136719,2.1718664169311523,3.641866445541382
1679660644.76064706,128699840,42.688708899999995,-84.4915831,264.5,2.1561119556427,3.6261119842529297
1679660644.86070395,128799897,42.6887087,-84.4915833,264.47998046875,2.138045072555542,3.6080451011657715
1679660644.96075201,128899945,42.6887085,-84.4915836,264.4700012207031,2.1206350326538086,3.590635061264038
1679660645.06080890,129000002,42.688708299999995,-84.4915838,264.4499816894531,2.1043741703033447,3.574374198913574
1679660645.16052508,129099718,42.6887081,-84.491584,264.42999267578125,2.0898096561431885,3.559809684753418
1679660645.26072598,129199919,42.688707799999996,-84.49158419999999,264.41998291015625,2.076385736465454,3.5463857650756836
1679660645.36069489,129299888,42.6887075,-84.4915845,264.4100036621094,2.0653140544891357,3.5353140830993652
1679660645.46072197,129399915,42.688707199999996,-84.49158469999999,264.3999938964844,2.056544065475464,3.5265440940856934
1679660645.56067491,129499868,42.6887069,-84.491585,264.3899841308594,2.0493719577789307,3.51937198638916
1679660645.66067505,129599868,42.6887067,-84.4915853,264.3899841308594,2.04601788520813,3.5160179138183594
1679660645.76078105,129699974,42.688706499999995,-84.4915855,264.3899841308594,2.044365406036377,3.5143654346466064
1679660645.86099696,129800190,42.688706499999995,-84.4915858,264.3899841308594,2.043138265609741,3.5131382942199707
1679660645.96068096,129899874,42.688706499999995,-84.49158609999999,264.3899841308594,2.0419256687164307,3.51192569732666
1679660646.06071806,129999911,42.688706599999996,-84.4915863,264.3899841308594,2.0425968170166016,3.512596845626831
1679660646.16085792,130100051,42.6887067,-84.49158659999999,264.3899841308594,2.0443074703216553,3.5143074989318848
1679660646.26066804,130199861,42.6887069,-84.4915867,264.3899841308594,2.046783924102783,3.5167839527130127
1679660646.36072087,130299914,42.688707099999995,-84.4915868,264.3999938964844,2.051060438156128,3.5210604667663574
1679660646.46067810,130399871,42.6887073,-84.4915868,264.3999938964844,2.0588667392730713,3.528866767883301
1679660646.56087899,130500072,42.6887076,-84.4915868,264.41998291015625,2.0722568035125732,3.5422568321228027
1679660646.66082597,130600019,42.688707799999996,-84.4915868,264.42999267578125,2.0877747535705566,3.557774782180786
1679660646.76102495,130700218,42.688708,-84.4915868,264.4499816894531,2.1064510345458984,3.576451063156128
1679660646.86079407,130799987,42.6887082,-84.4915867,264.4700012207031,2.128467559814453,3.5984675884246826
1679660646.96050310,130899696,42.688708399999996,-84.49158659999999,264.5,2.15169358253479,3.6216936111450195
1679660647.06049609,130999689,42.6887086,-84.49158659999999,264.5199890136719,2.1728663444519043,3.642866373062134
1679660647.16052294,131099716,42.6887088,-84.4915865,264.5400085449219,2.195425510406494,3.6654255390167236
1679660647.26053810,131199731,42.688708999999996,-84.4915865,264.57000732421875,2.2202789783477783,3.690279006958008
1679660647.36051488,131299708,42.6887092,-84.4915864,264.5899963378906,2.2462313175201416,3.716231346130371
1679660647.46032691,131399520,42.6887094,-84.4915864,264.6199951171875,2.2758309841156006,3.74583101272583
1679660647.56037903,131499572,42.688709499999995,-84.4915864,264.6499938964844,2.3094162940979004,3.77941632270813
1679660647.66046906,131599662,42.688709599999996,-84.4915864,264.69000244140625,2.343153715133667,3.8131537437438965
1679660647.76080108,131699994,42.6887097,-84.4915864,264.7200012207031,2.376892328262329,3.8468923568725586
1679660647.86073089,131799924,42.6887098,-84.4915864,264.7599792480469,2.4130821228027344,3.883082151412964
1679660647.96069789,131899891,42.6887099,-84.4915865,264.79998779296875,2.452707290649414,3.9227073192596436
1679660648.06043506,131999628,42.68871,-84.4915865,264.8399963378906,2.4931716918945312,3.9631717205047607
1679660648.16057205,132099765,42.6887101,-84.49158659999999,264.8800048828125,2.5348846912384033,4.004884719848633
1679660648.26041102,132199604,42.688710199999996,-84.4915868,264.91998291015625,2.5755836963653564,4.045583724975586
1679660648.36043191,132299625,42.6887105,-84.491587,264.9599914550781,2.6140964031219482,4.084096431732178
1679660648.46042800,132399621,42.6887106,-84.49158729999999,264.989990234375,2.6458637714385986,4.115863800048828
1679660648.56074810,132499941,42.688710799999996,-84.4915876,265.0199890136719,2.6718051433563232,4.141805171966553
1679660648.66068101,132599874,42.6887111,-84.491588,265.0400085449219,2.6939985752105713,4.163998603820801
1679660648.76113605,132700329,42.688711399999995,-84.49158829999999,265.05999755859375,2.7140820026397705,4.18408203125
1679660648.86071301,132799906,42.6887118,-84.49158849999999,265.0799865722656,2.7322170734405518,4.202217102050781
1679660648.96061897,132899812,42.6887122,-84.4915886,265.0899963378906,2.7481095790863037,4.218109607696533
1679660649.06066108,132999854,42.6887125,-84.49158849999999,265.1000061035156,2.75932240486145,4.22932243347168
1679660649.16066599,133099859,42.6887129,-84.4915882,265.1099853515625,2.7670605182647705,4.237060546875
1679660649.26063800,133199831,42.688713199999995,-84.4915877,265.1199951171875,2.771618604660034,4.241618633270264
1679660649.36073804,133299931,42.6887135,-84.49158709999999,265.1199951171875,2.7724010944366455,4.242401123046875
1679660649.46066904,133399862,42.688713899999996,-84.4915865,265.1199951171875,2.7710940837860107,4.24109411239624
1679660649.56066298,133499856,42.6887141,-84.49158589999999,265.1099853515625,2.7681658267974854,4.238165855407715
1679660649.66095805,133600151,42.688714399999995,-84.4915851,265.1099853515625,2.7637646198272705,4.2337646484375
1679660649.76051593,133699709,42.6887146,-84.4915843,265.1000061035156,2.757962942123413,4.227962970733643
1679660649.86071301,133799906,42.6887149,-84.49158349999999,265.1000061035156,2.7501919269561768,4.220191955566406
1679660649.96074200,133899935,42.688715099999996,-84.4915827,265.0899963378906,2.740229368209839,4.210229396820068
1679660650.06066895,133999862,42.6887153,-84.4915819,265.07000732421875,2.7250640392303467,4.195064067840576
1679660650.16075301,134099946,42.6887155,-84.49158129999999,265.04998779296875,2.7066195011138916,4.176619529724121
1679660650.26076698,134199960,42.688715699999996,-84.4915807,265.0299987792969,2.687448263168335,4.1574482917785645
1679660650.36074805,134299941,42.688716,-84.4915803,265.0099792480469,2.6672985553741455,4.137298583984375
1679660650.46079898,134399992,42.688716299999996,-84.49158,264.989990234375,2.644885778427124,4.1148858070373535
1679660650.56101799,134500211,42.6887165,-84.4915797,264.9700012207031,2.620720624923706,4.0907206535339355
1679660650.66071510,134599908,42.688716799999995,-84.49157939999999,264.94000244140625,2.5964629650115967,4.066462993621826
1679660650.76061106,134699804,42.6887172,-84.49157919999999,264.91998291015625,2.5735981464385986,4.043598175048828
1679660650.86055589,134799749,42.6887176,-84.491579,264.8999938964844,2.55069899559021,4.0206990242004395
1679660650.96041489,134899608,42.688718,-84.4915789,264.8699951171875,2.528115749359131,3.9981157779693604
1679660651.06030297,134999496,42.6887185,-84.4915788,264.8500061035156,2.508803129196167,3.9788031578063965
1679660651.16045403,135099647,42.688719,-84.4915785,264.8399963378906,2.492703676223755,3.9627037048339844
1679660651.26049495,135199688,42.6887194,-84.4915781,264.82000732421875,2.4773576259613037,3.947357654571533
1679660651.36046600,135299659,42.6887198,-84.4915776,264.80999755859375,2.4623074531555176,3.932307481765747
1679660651.46073508,135399928,42.6887202,-84.49157679999999,264.7900085449219,2.448030948638916,3.9180309772491455
1679660651.56050301,135499696,42.688720499999995,-84.4915759,264.7799987792969,2.433505058288574,3.9035050868988037
1679660651.66048288,135599676,42.6887208,-84.49157489999999,264.7599792480469,2.4188058376312256,3.888805866241455
1679660651.76054692,135699740,42.688721,-84.4915738,264.75,2.404860734939575,3.8748607635498047
1679660651.86049604,135799689,42.688721199999996,-84.49157269999999,264.739990234375,2.3905704021453857,3.8605704307556152
1679660651.96031809,135899511,42.6887214,-84.49157149999999,264.7200012207031,2.377648115158081,3.8476481437683105
1679660652.06040788,135999601,42.6887216,-84.49157029999999,264.7099914550781,2.3690052032470703,3.8390052318573
1679660652.16050887,136099702,42.688721699999995,-84.491569,264.7099914550781,2.363895893096924,3.8338959217071533
1679660652.26046896,136199662,42.688721799999996,-84.4915678,264.7099914550781,2.3605639934539795,3.830564022064209
1679660652.36073804,136299931,42.688721799999996,-84.4915666,264.6999816894531,2.3597657680511475,3.829765796661377
1679660652.46072197,136399915,42.6887219,-84.4915655,264.7099914550781,2.3606996536254883,3.8306996822357178
1679660652.56049299,136499686,42.688721799999996,-84.4915644,264.7099914550781,2.3629376888275146,3.832937717437744
1679660652.66068792,136599881,42.688721699999995,-84.4915635,264.7099914550781,2.3692214488983154,3.839221477508545
1679660652.76067090,136699864,42.6887216,-84.4915626,264.72998046875,2.3809683322906494,3.850968360900879
1679660652.86067510,136799868,42.6887215,-84.491562,264.739990234375,2.3973729610443115,3.867372989654541
1679660652.96080804,136900001,42.6887213,-84.4915615,264.7599792480469,2.4187848567962646,3.888784885406494
1679660653.06094599,137000139,42.688721199999996,-84.4915613,264.7900085449219,2.444225549697876,3.9142255783081055
1679660653.16087389,137100067,42.688721199999996,-84.49156119999999,264.82000732421875,2.4702420234680176,3.940242052078247
1679660653.26074195,137199935,42.688721199999996,-84.4915613,264.8399963378906,2.496434211730957,3.9664342403411865
1679660653.36072493,137299918,42.688721199999996,-84.4915615,264.8699951171875,2.5236358642578125,3.993635892868042
1679660653.46068907,137399882,42.688721199999996,-84.49156169999999,264.8999938964844,2.5503218173980713,4.020321846008301
1679660653.56071305,137499906,42.688721199999996,-84.491562,264.91998291015625,2.5732014179229736,4.043201446533203
1679660653.66066194,137599855,42.688721199999996,-84.4915623,264.94000244140625,2.5931284427642822,4.063128471374512
1679660653.76069093,137699884,42.688721199999996,-84.4915627,264.9499816894531,2.6095731258392334,4.079573154449463
1679660653.86078191,137799975,42.6887213,-84.4915632,264.9700012207031,2.6221797466278076,4.092179775238037
1679660653.96074700,137899940,42.6887214,-84.49156359999999,264.97998046875,2.6321961879730225,4.102196216583252
1679660654.06079292,137999986,42.6887215,-84.4915642,264.989990234375,2.6416079998016357,4.111608028411865
1679660654.16054201,138099735,42.688721799999996,-84.49156479999999,264.989990234375,2.646780252456665,4.1167802810668945
1679660654.26052690,138199720,42.6887221,-84.4915654,264.989990234375,2.648876428604126,4.1188764572143555
1679660654.36049700,138299690,42.6887225,-84.4915659,264.989990234375,2.6493756771087646,4.119375705718994
1679660654.46054792,138399741,42.6887228,-84.4915663,264.989990234375,2.649739980697632,4.119740009307861
1679660654.56041193,138499605,42.688722999999996,-84.49156669999999,265.0,2.6514604091644287,4.121460437774658
1679660654.66032600,138599519,42.6887232,-84.49156719999999,265.0,2.653693437576294,4.123693466186523
1679660654.76040602,138699599,42.6887234,-84.49156769999999,265.0,2.654228925704956,4.1242289543151855
1679660654.86075211,138799945,42.688723599999996,-84.4915682,265.0,2.651956796646118,4.121956825256348
1679660654.96043301,138899626,42.6887237,-84.4915686,264.989990234375,2.6474411487579346,4.117441177368164
1679660655.06053996,138999733,42.6887238,-84.49156909999999,264.97998046875,2.6397249698638916,4.109724998474121
1679660655.16054606,139099739,42.6887238,-84.49156959999999,264.9700012207031,2.628953695297241,4.098953723907471
1679660655.26048589,139199679,42.6887238,-84.49157009999999,264.9599914550781,2.616321325302124,4.0863213539123535
1679660655.36056900,139299762,42.6887237,-84.4915706,264.9499816894531,2.602930784225464,4.072930812835693
1679660655.46049690,139399690,42.688723599999996,-84.491571,264.92999267578125,2.589372396469116,4.059372425079346
1679660655.56032300,139499516,42.6887234,-84.49157149999999,264.91998291015625,2.5758445262908936,4.045844554901123
1679660655.66068697,139599880,42.6887233,-84.4915719,264.9100036621094,2.5626232624053955,4.032623291015625
1679660655.76076508,139699958,42.6887231,-84.4915723,264.8999938964844,2.5509655475616455,4.020965576171875
1679660655.86079693,139799990,42.688722899999995,-84.4915728,264.8899841308594,2.5429790019989014,4.012979030609131
1679660655.96070290,139899896,42.6887228,-84.49157319999999,264.8800048828125,2.5376694202423096,4.007669448852539
1679660656.06065607,139999849,42.6887226,-84.49157369999999,264.8800048828125,2.5316736698150635,4.001673698425293
1679660656.16067004,140099863,42.688722399999996,-84.4915741,264.8699951171875,2.524188280105591,3.9941883087158203
1679660656.26066709,140199860,42.6887221,-84.49157459999999,264.8599853515625,2.512730121612549,3.9827301502227783
1679660656.36062098,140299814,42.688721799999996,-84.4915752,264.8399963378906,2.499910354614258,3.9699103832244873
1679660656.46063495,140399828,42.6887215,-84.4915757,264.8299865722656,2.4892141819000244,3.959214210510254
1679660656.56064391,140499837,42.6887213,-84.4915762,264.82000732421875,2.479663610458374,3.9496636390686035
1679660656.66069198,140599885,42.688721099999995,-84.4915767,264.82000732421875,2.470076322555542,3.9400763511657715
1679660656.76081610,140700009,42.6887208,-84.4915772,264.80999755859375,2.462352752685547,3.9323527812957764
1679660656.86087489,140800068,42.688720499999995,-84.4915778,264.79998779296875,2.4563183784484863,3.926318407058716
1679660656.96071506,140899908,42.6887201,-84.4915783,264.7900085449219,2.449723243713379,3.9197232723236084
1679660657.06067610,140999869,42.6887198,-84.4915788,264.7900085449219,2.4437882900238037,3.913788318634033
1679660657.16087389,141100067,42.6887194,-84.4915793,264.7900085449219,2.4404311180114746,3.910431146621704
1679660657.26069498,141199888,42.688719,-84.49157989999999,264.7900085449219,2.4401133060455322,3.9101133346557617
1679660657.36069894,141299892,42.6887186,-84.4915805,264.7900085449219,2.4429285526275635,3.912928581237793
1679660657.46073508,141399928,42.6887182,-84.49158129999999,264.7900085449219,2.445885419845581,3.9158854484558105
1679660657.56098390,141500177,42.6887177,-84.4915821,264.7900085449219,2.4496009349823,3.9196009635925293
1679660657.66044188,141599635,42.6887173,-84.49158299999999,264.79998779296875,2.452655076980591,3.9226551055908203
1679660657.76048207,141699675,42.688716899999996,-84.4915839,264.79998779296875,2.4578607082366943,3.927860736846924
1679660657.86049199,141799685,42.6887166,-84.49158469999999,264.80999755859375,2.462374687194824,3.9323747158050537
1679660657.96048594,141899679,42.6887164,-84.4915856,264.80999755859375,2.467726707458496,3.9377267360687256
1679660658.06052589,141999719,42.688716199999995,-84.4915864,264.82000732421875,2.475621461868286,3.9456214904785156
1679660658.16050696,142099700,42.6887161,-84.49158709999999,264.8299865722656,2.485156297683716,3.9551563262939453
1679660658.26068807,142199881,42.688716,-84.4915877,264.8399963378906,2.4945662021636963,3.964566230773926
1679660658.36072206,142299915,42.6887159,-84.49158829999999,264.8500061035156,2.5038771629333496,3.973877191543579
1679660658.46046591,142399659,42.688715699999996,-84.4915888,264.8599853515625,2.5156033039093018,3.9856033325195312
1679660658.56045294,142499646,42.688715599999995,-84.49158919999999,264.8699951171875,2.5280723571777344,3.998072385787964
1679660658.66047788,142599671,42.6887155,-84.4915896,264.8800048828125,2.5394790172576904,4.00947904586792
1679660658.76050401,142699697,42.6887153,-84.49159,264.8899841308594,2.5498249530792236,4.019824981689453
1679660658.86048293,142799676,42.6887152,-84.49159039999999,264.8999938964844,2.559006929397583,4.0290069580078125
1679660658.96052504,142899718,42.688714999999995,-84.4915907,264.9100036621094,2.5675127506256104,4.03751277923584
1679660659.06040311,142999596,42.6887149,-84.491591,264.91998291015625,2.576489210128784,4.046489238739014
1679660659.16073799,143099931,42.6887148,-84.4915912,264.92999267578125,2.586371660232544,4.056371688842773
1679660659.26050210,143199695,42.6887147,-84.49159139999999,264.94000244140625,2.5942671298980713,4.064267158508301
1679660659.36069393,143299887,42.6887146,-84.49159159999999,264.9499816894531,2.6003310680389404,4.07033109664917
1679660659.46076298,143399956,42.6887146,-84.4915917,264.9499816894531,2.605268716812134,4.075268745422363
1679660659.56069088,143499884,42.688714499999996,-84.4915919,264.9499816894531,2.6088645458221436,4.078864574432373
1679660659.66065001,143599843,42.688714399999995,-84.49159209999999,264.9599914550781,2.6114351749420166,4.081435203552246
1679660659.76062608,143699819,42.6887143,-84.4915922,264.9599914550781,2.6133792400360107,4.08337926864624
1679660659.86067200,143799865,42.6887142,-84.4915923,264.9599914550781,2.614894151687622,4.084894180297852
1679660659.96062493,143899818,42.688714,-84.4915925,264.9599914550781,2.6150691509246826,4.085069179534912
1679660660.06069589,143999889,42.688713899999996,-84.4915927,264.9599914550781,2.6142609119415283,4.084260940551758
1679660660.16045809,144099651,42.6887137,-84.4915929,264.9599914550781,2.6123850345611572,4.082385063171387
1679660660.26075602,144199949,42.6887136,-84.491593,264.9599914550781,2.6101152896881104,4.08011531829834
1679660660.36079192,144299985,42.6887134,-84.4915932,264.9499816894531,2.60852313041687,4.0785231590271
1679660660.46072888,144399922,42.688713199999995,-84.4915935,264.9499816894531,2.6095259189605713,4.079525947570801
1679660660.56071806,144499911,42.688713,-84.4915937,264.9599914550781,2.610539197921753,4.080539226531982
1679660660.66066694,144599860,42.6887129,-84.4915939,264.9599914550781,2.610196828842163,4.080196857452393
1679660660.76071906,144699912,42.688712699999996,-84.4915941,264.9499816894531,2.6099002361297607,4.07990026473999
1679660660.86067295,144799866,42.6887125,-84.4915944,264.9499816894531,2.6099374294281006,4.07993745803833
1679660660.96087098,144900064,42.6887123,-84.4915946,264.9599914550781,2.6116902828216553,4.081690311431885
1679660661.06041598,144999609,42.6887122,-84.4915949,264.9599914550781,2.61065411567688,4.080654144287109
1679660661.16053009,145099723,42.6887122,-84.49159519999999,264.9499816894531,2.6085212230682373,4.078521251678467
1679660661.26047587,145199669,42.6887121,-84.4915955,264.9499816894531,2.607633352279663,4.077633380889893
1679660661.36054897,145299742,42.6887121,-84.4915959,264.9499816894531,2.608250856399536,4.078250885009766
1679660661.46050501,145399698,42.6887121,-84.49159619999999,264.9499816894531,2.609055280685425,4.079055309295654
1679660661.56068206,145499875,42.6887121,-84.4915966,264.9599914550781,2.6120707988739014,4.082070827484131
1679660661.66070104,145599894,42.6887121,-84.49159689999999,264.9599914550781,2.6181108951568604,4.08811092376709
1679660661.76048398,145699677,42.688711999999995,-84.49159709999999,264.9700012207031,2.6260454654693604,4.09604549407959
1679660661.86032891,145799522,42.6887119,-84.4915972,264.97998046875,2.6350386142730713,4.105038642883301
1679660661.96040392,145899597,42.6887118,-84.4915972,264.989990234375,2.64461350440979,4.1146135330200195
1679660662.06046605,145999659,42.6887117,-84.491597,265.0,2.652066469192505,4.122066497802734
1679660662.16049504,146099688,42.6887116,-84.4915968,265.0,2.657933473587036,4.127933502197266
1679660662.26072598,146199919,42.6887116,-84.4915965,265.0099792480469,2.6640427112579346,4.134042739868164
1679660662.36071301,146299906,42.6887116,-84.49159619999999,265.0099792480469,2.6693832874298096,4.139383316040039
1679660662.46062493,146399818,42.6887116,-84.491596,265.0099792480469,2.6695868968963623,4.139586925506592
1679660662.56066108,146499854,42.6887117,-84.49159569999999,265.0099792480469,2.6674206256866455,4.137420654296875
1679660662.66061497,146599808,42.6887117,-84.4915955,265.0099792480469,2.666376829147339,4.136376857757568
1679660662.76065993,146699853,42.6887119,-84.49159519999999,265.0099792480469,2.666382074356079,4.136382102966309
1679660662.86064696,146799840,42.6887121,-84.4915949,265.0099792480469,2.666328191757202,4.136328220367432
1679660662.96068501,146899878,42.6887124,-84.49159449999999,265.0099792480469,2.6665446758270264,4.136544704437256
1679660663.06066298,146999856,42.688712699999996,-84.49159399999999,265.0099792480469,2.668297052383423,4.138297080993652
1679660663.16102195,147100215,42.688713199999995,-84.4915936,265.0199890136719,2.670819044113159,4.140819072723389
1679660663.26067710,147199870,42.6887136,-84.4915932,265.0199890136719,2.6713297367095947,4.141329765319824
1679660663.36062503,147299818,42.6887142,-84.4915925,265.0199890136719,2.671118974685669,4.141119003295898
1679660663.46072388,147399917,42.6887147,-84.491592,265.0199890136719,2.6713926792144775,4.141392707824707
1679660663.56059909,147499792,42.6887152,-84.49159139999999,265.0199890136719,2.6725013256073,4.142501354217529
1679660663.66063595,147599829,42.6887158,-84.49159089999999,265.0199890136719,2.6741559505462646,4.144155979156494
1679660663.76069903,147699892,42.688716299999996,-84.4915903,265.0199890136719,2.676400899887085,4.1464009284973145
1679660663.86069202,147799885,42.688717,-84.49158969999999,265.0199890136719,2.6784884929656982,4.148488521575928
1679660663.96064305,147899836,42.6887176,-84.49158919999999,265.0299987792969,2.6802823543548584,4.150282382965088
1679660664.06097007,148000163,42.6887183,-84.4915886,265.0299987792969,2.683795690536499,4.1537957191467285
1679660664.16088200,148100075,42.688719,-84.491588,265.0299987792969,2.6866238117218018,4.156623840332031
1679660664.26049209,148199685,42.6887197,-84.4915875,265.0299987792969,2.689392328262329,4.159392356872559
1679660664.36070800,148299901,42.6887204,-84.4915869,265.0400085449219,2.690364122390747,4.160364151000977
1679660664.46066689,148399860,42.688721099999995,-84.4915863,265.0400085449219,2.691335439682007,4.161335468292236
1679660664.56068492,148499878,42.6887219,-84.4915856,265.0400085449219,2.6930463314056396,4.163046360015869
1679660664.66073203,148599925,42.6887227,-84.49158489999999,265.0400085449219,2.693751573562622,4.163751602172852
1679660664.76098204,148700175,42.6887234,-84.49158419999999,265.0400085449219,2.693305730819702,4.163305759429932
1679660664.86045194,148799645,42.688724199999996,-84.49158349999999,265.0400085449219,2.6917035579681396,4.161703586578369
1679660664.96041393,148899607,42.6887249,-84.4915826,265.0299987792969,2.6884477138519287,4.158447742462158
1679660665.06047392,148999667,42.6887257,-84.49158179999999,265.0299987792969,2.6848952770233154,4.154895305633545
1679660665.16051888,149099712,42.6887264,-84.491581,265.0299987792969,2.6815474033355713,4.151547431945801
1679660665.26053905,149199732,42.6887271,-84.4915801,265.0199890136719,2.6779754161834717,4.147975444793701
1679660665.36041689,149299610,42.6887277,-84.4915793,265.0199890136719,2.6743195056915283,4.144319534301758
1679660665.46070194,149399895,42.6887283,-84.4915785,265.0199890136719,2.670321226119995,4.140321254730225
1679660665.56082606,149500019,42.6887288,-84.4915777,265.0099792480469,2.6661059856414795,4.136106014251709
1679660665.66073990,149599933,42.6887293,-84.49157699999999,265.0099792480469,2.6631505489349365,4.133150577545166
1679660665.76079607,149699989,42.688729699999996,-84.4915762,265.0099792480469,2.6611855030059814,4.131185531616211
1679660665.86047506,149799668,42.68873,-84.49157559999999,265.0,2.659930467605591,4.12993049621582
1679660665.96048594,149899679,42.688730299999996,-84.491575,265.0,2.6596291065216064,4.129629135131836
1679660666.06047487,149999668,42.6887306,-84.49157439999999,265.0,2.6593096256256104,4.12930965423584
1679660666.16056895,150099762,42.6887307,-84.491574,265.0,2.658965826034546,4.128965854644775
1679660666.26041698,150199610,42.688730799999995,-84.49157369999999,265.0,2.659148931503296,4.129148960113525
1679660666.36068702,150299880,42.688730899999996,-84.4915735,265.0,2.659276247024536,4.129276275634766
1679660666.46039391,150399587,42.688730899999996,-84.4915734,265.0,2.657305955886841,4.12730598449707
1679660666.56068802,150499881,42.688730799999995,-84.4915734,265.0,2.6544501781463623,4.124450206756592
1679660666.66066098,150599854,42.6887307,-84.4915734,265.0,2.651296377182007,4.121296405792236
1679660666.76068497,150699878,42.6887306,-84.4915735,264.989990234375,2.648297071456909,4.118297100067139
1679660666.86067009,150799863,42.6887305,-84.4915736,264.989990234375,2.6455390453338623,4.115539073944092
1679660666.96083498,150900028,42.6887304,-84.49157369999999,264.989990234375,2.643592596054077,4.113592624664307
1679660667.06072092,150999914,42.688730299999996,-84.49157389999999,264.989990234375,2.643602132797241,4.113602161407471
1679660667.16044998,151099643,42.688730199999995,-84.4915741,264.989990234375,2.6453206539154053,4.115320682525635
1679660667.26069593,151199889,42.6887301,-84.4915743,264.989990234375,2.6466944217681885,4.116694450378418
1679660667.36073494,151299928,42.68873,-84.49157459999999,264.989990234375,2.647810220718384,4.117810249328613
1679660667.46073890,151399932,42.68873,-84.4915748,265.0,2.650019407272339,4.120019435882568
1679660667.56069303,151499886,42.68873,-84.49157509999999,265.0,2.6534321308135986,4.123432159423828
1679660667.66089392,151600087,42.6887301,-84.4915754,265.0,2.657402276992798,4.127402305603027
1679660667.76070690,151699900,42.688730299999996,-84.4915757,265.0099792480469,2.660909414291382,4.130909442901611
1679660667.86066008,151799853,42.6887305,-84.4915761,265.0099792480469,2.6631386280059814,4.133138656616211
1679660667.96071506,151899908,42.688730799999995,-84.4915765,265.0099792480469,2.6626999378204346,4.132699966430664
1679660668.06040502,151999598,42.688731,-84.4915769,265.0099792480469,2.6601030826568604,4.13010311126709
1679660668.16043997,152099633,42.6887312,-84.4915774,265.0,2.654163122177124,4.1241631507873535
1679660668.26041389,152199607,42.6887313,-84.4915779,264.989990234375,2.647794008255005,4.117794036865234
1679660668.36044407,152299637,42.688731399999995,-84.4915784,264.989990234375,2.64154314994812,4.11154317855835
1679660668.46047091,152399664,42.688731499999996,-84.491579,264.97998046875,2.6354687213897705,4.10546875
1679660668.56073403,152499927,42.688731499999996,-84.4915793,264.9700012207031,2.6297295093536377,4.099729537963867
1679660668.66048503,152599678,42.688731499999996,-84.4915797,264.9700012207031,2.6240251064300537,4.094025135040283
1679660668.76048994,152699683,42.6887316,-84.4915801,264.9599914550781,2.6186983585357666,4.088698387145996
1679660668.86053300,152799726,42.6887316,-84.4915805,264.9599914550781,2.614703893661499,4.0847039222717285
1679660668.96040487,152899598,42.6887316,-84.4915809,264.9599914550781,2.6115620136260986,4.081562042236328
1679660669.06032610,152999519,42.6887316,-84.49158129999999,264.9499816894531,2.606959104537964,4.076959133148193
1679660669.16043210,153099625,42.6887316,-84.49158159999999,264.9499816894531,2.6014702320098877,4.071470260620117
1679660669.26080608,153199999,42.6887317,-84.49158179999999,264.94000244140625,2.594177007675171,4.0641770362854
1679660669.36044288,153299636,42.6887317,-84.491582,264.92999267578125,2.5870425701141357,4.057042598724365
1679660669.46070004,153399893,42.6887317,-84.491582,264.92999267578125,2.5840156078338623,4.054015636444092
1679660669.56066799,153499861,42.6887317,-84.4915819,264.92999267578125,2.5831329822540283,4.053133010864258
1679660669.66062093,153599814,42.6887316,-84.4915817,264.92999267578125,2.5813395977020264,4.051339626312256
1679660669.76077199,153699965,42.688731499999996,-84.49158159999999,264.92999267578125,2.580610990524292,4.0506110191345215
1679660669.86060500,153799798,42.6887312,-84.4915814,264.92999267578125,2.584385633468628,4.054385662078857
1679660669.96060705,153899800,42.688731,-84.49158129999999,264.94000244140625,2.5907485485076904,4.06074857711792
1679660670.06088305,154000076,42.6887306,-84.4915814,264.94000244140625,2.591773271560669,4.061773300170898
1679660670.16081190,154100005,42.6887301,-84.49158159999999,264.92999267578125,2.5892274379730225,4.059227466583252
1679660670.26079392,154199987,42.6887295,-84.49158179999999,264.92999267578125,2.5855557918548584,4.055555820465088
1679660670.36046410,154299657,42.6887288,-84.4915821,264.92999267578125,2.583298921585083,4.0532989501953125
1679660670.46048307,154399676,42.688728,-84.4915826,264.92999267578125,2.583531141281128,4.053531169891357
1679660670.56046510,154499658,42.6887274,-84.4915829,264.92999267578125,2.583460569381714,4.053460597991943
1679660670.66053796,154599731,42.6887267,-84.4915833,264.92999267578125,2.581507921218872,4.051507949829102
1679660670.76043296,154699626,42.6887259,-84.49158369999999,264.91998291015625,2.5774600505828857,4.047460079193115
1679660670.86069798,154799891,42.6887252,-84.49158419999999,264.91998291015625,2.5734941959381104,4.04349422454834
1679660670.96042609,154899619,42.6887244,-84.4915846,264.91998291015625,2.5728518962860107,4.04285192489624
1679660671.06075311,154999946,42.6887237,-84.491585,264.91998291015625,2.573928117752075,4.043928146362305
1679660671.16088510,155100078,42.688722899999995,-84.4915855,264.91998291015625,2.5774447917938232,4.047444820404053
1679660671.26074505,155199938,42.6887221,-84.49158609999999,264.92999267578125,2.583646059036255,4.053646087646484
1679660671.36070895,155299902,42.6887213,-84.4915867,264.94000244140625,2.5937693119049072,4.063769340515137
1679660671.46067190,155399865,42.688720499999995,-84.4915874,264.94000244140625,2.598440408706665,4.0684404373168945
1679660671.56070805,155499901,42.6887197,-84.4915882,264.9499816894531,2.6000030040740967,4.070003032684326
1679660671.66047192,155599665,42.6887189,-84.4915891,264.9499816894531,2.60152268409729,4.0715227127075195
1679660671.76042390,155699617,42.6887182,-84.49159,264.9499816894531,2.6025278568267822,4.072527885437012
1679660671.86050391,155799697,42.688717499999996,-84.49159089999999,264.9499816894531,2.6033012866973877,4.073301315307617
1679660671.96046710,155899660,42.688716899999996,-84.4915918,264.9499816894531,2.6037843227386475,4.073784351348877
1679660672.06044292,155999636,42.6887165,-84.4915927,264.9499816894531,2.6058099269866943,4.075809955596924
1679660672.16051507,156099708,42.6887161,-84.4915935,264.9599914550781,2.6106555461883545,4.080655574798584
1679660672.26050401,156199697,42.6887158,-84.4915943,264.9599914550781,2.6188323497772217,4.088832378387451
1679660672.36050200,156299695,42.688715599999995,-84.4915951,264.9700012207031,2.629005193710327,4.099005222320557
1679660672.46072793,156399921,42.6887155,-84.4915958,264.989990234375,2.640063524246216,4.110063552856445
1679660672.56039810,156499591,42.688715599999995,-84.49159639999999,265.0,2.6533243656158447,4.123324394226074
1679660672.66063094,156599824,42.688715699999996,-84.49159689999999,265.0099792480469,2.6669423580169678,4.136942386627197
1679660672.76062202,156699815,42.688716,-84.4915972,265.0199890136719,2.6799814701080322,4.149981498718262
1679660672.86067104,156799864,42.6887164,-84.4915973,265.0400085449219,2.6929333209991455,4.162933349609375
1679660672.96063805,156899831,42.688716899999996,-84.4915973,265.04998779296875,2.70331072807312,4.17331075668335
1679660673.06095195,157000145,42.688717499999996,-84.49159709999999,265.04998779296875,2.7098920345306396,4.179892063140869
1679660673.16069293,157099886,42.688718,-84.4915968,265.05999755859375,2.7147529125213623,4.184752941131592
1679660673.26060796,157199801,42.6887186,-84.4915965,265.05999755859375,2.717594861984253,4.187594890594482
1679660673.36066699,157299860,42.6887192,-84.49159619999999,265.05999755859375,2.718351125717163,4.188351154327393
1679660673.46062708,157399820,42.688719899999995,-84.4915958,265.05999755859375,2.7164127826690674,4.186412811279297
1679660673.56055593,157499749,42.688720599999996,-84.4915955,265.05999755859375,2.7127187252044678,4.182718753814697
1679660673.66061997,157599813,42.688721199999996,-84.4915951,265.04998779296875,2.708702325820923,4.178702354431152
1679660673.76070094,157699894,42.688722,-84.4915948,265.04998779296875,2.705233335494995,4.175233364105225
1679660673.86079288,157799986,42.6887228,-84.4915944,265.04998779296875,2.7013213634490967,4.171321392059326
1679660673.96092987,157900123,42.6887237,-84.4915941,265.0400085449219,2.6964404582977295,4.166440486907959
1679660674.06070209,157999895,42.688724699999995,-84.4915937,265.0400085449219,2.692547082901001,4.1625471115112305
1679660674.16071510,158099908,42.6887257,-84.49159329999999,265.0299987792969,2.6879236698150635,4.157923698425293
1679660674.26073909,158199932,42.6887268,-84.49159279999999,265.0299987792969,2.6818130016326904,4.15181303024292
1679660674.36066198,158299855,42.688727799999995,-84.4915924,265.0199890136719,2.674670457839966,4.144670486450195
1679660674.46038389,158399577,42.6887289,-84.4915917,265.0099792480469,2.6677749156951904,4.13777494430542
1679660674.56038904,158499582,42.6887299,-84.4915908,265.0099792480469,2.661900758743286,4.131900787353516
1679660674.66045594,158599649,42.688730799999995,-84.4915899,265.0,2.6574385166168213,4.127438545227051
1679660674.76045799,158699651,42.6887316,-84.4915887,265.0,2.6530816555023193,4.123081684112549
1679660674.86047888,158799672,42.6887323,-84.4915874,264.989990234375,2.6482222080230713,4.118222236633301
1679660674.96048403,158899677,42.688733,-84.49158609999999,264.989990234375,2.643308401107788,4.113308429718018
1679660675.06049299,158999686,42.6887336,-84.4915846,264.97998046875,2.639047861099243,4.109047889709473
1679660675.16074896,159099942,42.6887341,-84.4915832,264.97998046875,2.635439157485962,4.105439186096191
1679660675.26047111,159199664,42.688734499999995,-84.4915817,264.97998046875,2.6313650608062744,4.101365089416504
1679660675.36032510,159299518,42.6887348,-84.4915802,264.9700012207031,2.6273014545440674,4.097301483154297
1679660675.46041989,159399613,42.688735099999995,-84.49157869999999,264.9700012207031,2.6242244243621826,4.094224452972412
1679660675.56033206,159499525,42.688735199999996,-84.4915773,264.9700012207031,2.621323823928833,4.0913238525390625
1679660675.66044903,159599642,42.6887354,-84.491576,264.9700012207031,2.6208932399749756,4.090893268585205
1679660675.76048088,159699674,42.6887356,-84.4915748,264.9700012207031,2.6222946643829346,4.092294692993164
1679660675.86050105,159799694,42.688735799999996,-84.49157369999999,264.9700012207031,2.6236817836761475,4.093681812286377
1679660675.96042609,159899619,42.688736,-84.49157269999999,264.9700012207031,2.625427007675171,4.0954270362854
1679660676.06077099,159999964,42.6887362,-84.4915719,264.9700012207031,2.6285250186920166,4.098525047302246
1679660676.16052008,160099713,42.6887366,-84.4915712,264.97998046875,2.633460760116577,4.103460788726807
1679660676.26064801,160199841,42.6887371,-84.4915705,264.97998046875,2.638272523880005,4.108272552490234
1679660676.36066294,160299856,42.6887377,-84.49157,264.989990234375,2.643928289413452,4.113928318023682
1679660676.46067595,160399869,42.6887384,-84.4915695,264.989990234375,2.6497514247894287,4.119751453399658
1679660676.56064606,160499839,42.6887391,-84.491569,265.0,2.6554644107818604,4.12546443939209
1679660676.66096997,160600163,42.688739899999995,-84.4915686,265.0099792480469,2.6606132984161377,4.130613327026367
1679660676.76071906,160699912,42.6887408,-84.4915681,265.0099792480469,2.667386770248413,4.137386798858643
1679660676.86044002,160799633,42.6887416,-84.49156769999999,265.0199890136719,2.6791412830352783,4.149141311645508
1679660676.96071196,160899905,42.6887425,-84.49156719999999,265.0400085449219,2.6930735111236572,4.163073539733887
1679660677.06068492,160999878,42.6887432,-84.4915668,265.04998779296875,2.703343629837036,4.173343658447266
1679660677.16072488,161099918,42.688744,-84.4915663,265.05999755859375,2.7100932598114014,4.180093288421631
1679660677.26074004,161199933,42.6887447,-84.4915659,265.05999755859375,2.715374708175659,4.185374736785889
1679660677.36100006,161300193,42.688745399999995,-84.4915655,265.07000732421875,2.720003366470337,4.190003395080566
1679660677.46047091,161399664,42.688745999999995,-84.491565,265.07000732421875,2.7266695499420166,4.196669578552246
1679660677.56047392,161499667,42.688746599999995,-84.4915647,265.0799865722656,2.733994245529175,4.203994274139404
1679660677.66050005,161599693,42.6887471,-84.4915644,265.0799865722656,2.7394702434539795,4.209470272064209
1679660677.76050901,161699702,42.6887475,-84.4915642,265.0899963378906,2.743291139602661,4.213291168212891
1679660677.86053610,161799729,42.688748,-84.491564,265.0899963378906,2.7462337017059326,4.216233730316162
1679660677.96040988,161899603,42.6887483,-84.4915639,265.0899963378906,2.7479517459869385,4.217951774597168
1679660678.06065607,161999849,42.6887486,-84.4915639,265.0899963378906,2.7472293376922607,4.21722936630249
1679660678.16084599,162100039,42.6887489,-84.4915639,265.0899963378906,2.7453410625457764,4.215341091156006
1679660678.26037097,162199564,42.6887492,-84.4915639,265.0899963378906,2.7416884899139404,4.21168851852417
1679660678.36043596,162299629,42.6887494,-84.4915638,265.0799865722656,2.7360737323760986,4.206073760986328
1679660678.46042299,162399616,42.688749699999995,-84.4915638,265.0799865722656,2.7315175533294678,4.201517581939697
1679660678.56048203,162499675,42.6887499,-84.49156359999999,265.07000732421875,2.7279107570648193,4.197910785675049
1679660678.66041493,162599608,42.6887501,-84.49156339999999,265.07000732421875,2.7244789600372314,4.194478988647461
1679660678.76073098,162699924,42.6887502,-84.491563,265.07000732421875,2.7224271297454834,4.192427158355713
1679660678.86063004,162799823,42.688750299999995,-84.4915627,265.07000732421875,2.7231690883636475,4.193169116973877
1679660678.96055198,162899745,42.688750299999995,-84.4915623,265.07000732421875,2.725346326828003,4.195346355438232
1679660679.06063890,162999832,42.6887502,-84.4915619,265.07000732421875,2.726666212081909,4.196666240692139
1679660679.16068888,163099882,42.68875,-84.4915615,265.07000732421875,2.727240800857544,4.197240829467773
1679660679.26065493,163199848,42.6887496,-84.4915613,265.07000732421875,2.7268216609954834,4.196821689605713
1679660679.36095309,163300146,42.6887492,-84.4915611,265.07000732421875,2.726027727127075,4.196027755737305
1679660679.46071100,163399904,42.6887486,-84.49156099999999,265.07000732421875,2.7246668338775635,4.194666862487793
1679660679.56048703,163499680,42.688747899999996,-84.49156099999999,265.07000732421875,2.7227418422698975,4.192741870880127
1679660679.66070008,163599893,42.688747,-84.49156119999999,265.07000732421875,2.721442937850952,4.191442966461182
1679660679.76066995,163699863,42.688746099999996,-84.4915615,265.07000732421875,2.720174551010132,4.190174579620361
1679660679.86063004,163799823,42.6887453,-84.4915619,265.05999755859375,2.7177979946136475,4.187798023223877
1679660679.96072292,163899916,42.688744199999995,-84.49156239999999,265.05999755859375,2.7143633365631104,4.18436336517334
1679660680.06121087,164000404,42.6887432,-84.49156289999999,265.04998779296875,2.709604501724243,4.179604530334473
1679660680.16046810,164099661,42.6887423,-84.4915633,265.04998779296875,2.704214334487915,4.1742143630981445
1679660680.26055002,164199743,42.688741199999996,-84.4915639,265.0400085449219,2.6983463764190674,4.168346405029297
1679660680.36051488,164299708,42.6887401,-84.4915645,265.0400085449219,2.6916916370391846,4.161691665649414
1679660680.46048903,164399682,42.6887389,-84.4915651,265.0299987792969,2.6864383220672607,4.15643835067749
1679660680.56052899,164499722,42.6887378,-84.49156579999999,265.0299987792969,2.682863473892212,4.152863502502441
1679660680.66040111,164599594,42.6887366,-84.4915664,265.0299987792969,2.6814510822296143,4.151451110839844
1679660680.76069498,164699888,42.6887354,-84.4915671,265.0299987792969,2.682210683822632,4.152210712432861
1679660680.86073089,164799924,42.6887342,-84.4915678,265.0299987792969,2.6845662593841553,4.154566287994385
1679660680.96073604,164899929,42.6887329,-84.4915687,265.0299987792969,2.68672776222229,4.1567277908325195
1679660681.06096792,165000161,42.6887317,-84.4915697,265.0299987792969,2.688372850418091,4.15837287902832
1679660681.16050506,165099698,42.6887306,-84.4915707,265.0400085449219,2.6907155513763428,4.160715579986572
1679660681.26048899,165199682,42.6887295,-84.4915717,265.0400085449219,2.691173791885376,4.1611738204956055
1679660681.36047602,165299669,42.688728499999996,-84.4915728,265.0400085449219,2.691375970840454,4.161375999450684
1679660681.46053696,165399730,42.6887276,-84.4915738,265.0400085449219,2.6950180530548096,4.165018081665039
1679660681.56040406,165499597,42.6887267,-84.4915748,265.04998779296875,2.700608015060425,4.170608043670654
1679660681.66067100,165599864,42.6887259,-84.49157579999999,265.04998779296875,2.7068207263946533,4.176820755004883
1679660681.76043797,165699631,42.6887252,-84.49157679999999,265.05999755859375,2.71227765083313,4.182277679443359
1679660681.86066103,165799854,42.6887245,-84.4915778,265.05999755859375,2.7194583415985107,4.18945837020874
1679660681.96063399,165899827,42.6887239,-84.49157869999999,265.07000732421875,2.7293202877044678,4.199320316314697
1679660682.06069207,165999885,42.6887233,-84.4915796,265.0899963378906,2.7403371334075928,4.210337162017822
1679660682.16070294,166099896,42.6887228,-84.49158039999999,265.1000061035156,2.75163197517395,4.22163200378418
1679660682.26062608,166199819,42.688722299999995,-84.4915812,265.1099853515625,2.76184344291687,4.2318434715271
1679660682.36076999,166299963,42.6887219,-84.4915819,265.1099853515625,2.768528699874878,4.238528728485107
1679660682.46040487,166399598,42.6887216,-84.49158249999999,265.1199951171875,2.7746989727020264,4.244699001312256
1679660682.56068707,166499880,42.688721199999996,-84.4915831,265.1300048828125,2.7809784412384033,4.250978469848633
1679660682.66074800,166599941,42.6887209,-84.49158369999999,265.1300048828125,2.7884104251861572,4.258410453796387
1679660682.76076293,166699956,42.6887207,-84.49158419999999,265.1399841308594,2.7929751873016357,4.262975215911865
1679660682.86077189,166799965,42.688720499999995,-84.4915846,265.1399841308594,2.798474073410034,4.268474102020264
1679660682.96100497,166900198,42.6887203,-84.491585,265.1499938964844,2.804272413253784,4.274272441864014
