timestamp,TimeUS,C,Roll,Pitch,Yaw,VN,VE,VD,dPD,PN,PE,PD,GX,GY,GZ,OH
1679660629.35961699,113298810,2,0.13,-0.68,334.26,-0.027124106884002686,-0.01956232264637947,0.011224421672523022,0.015027930960059166,1.8622647523880005,0.0322030670940876,-1.4882090091705322,-0.15,0.1,0.21,264.27
1679660629.45962811,113398821,2,0.13,-0.68,334.25,-0.026192007586359978,-0.018661076202988625,0.012160087935626507,0.015021423809230328,1.8631174564361572,0.03300086408853531,-1.4873162508010864,-0.15,0.1,0.21,264.27
1679660629.55967903,113498872,2,0.13,-0.6900000000000001,334.25,-0.025404416024684906,-0.018704209476709366,0.012268589809536934,0.012511549517512321,1.8641414642333984,0.033322788774967194,-1.4862948656082153,-0.15,0.1,0.21,264.27
1679660629.65969992,113598893,2,0.14,-0.68,334.23,-0.023922208696603775,-0.018623318523168564,0.013080401346087456,0.006061889696866274,1.865370273590088,0.03362629935145378,-1.486060380935669,-0.15,0.1,0.21,264.27
1679660629.75967789,113698871,2,0.14,-0.6900000000000001,334.22,-0.023255018517374992,-0.018298441544175148,0.014238602481782436,0.004012242425233126,1.8663078546524048,0.03357825055718422,-1.485413670539856,-0.15,0.1,0.21,264.27
1679660629.85966301,113798856,2,0.14,-0.6900000000000001,334.2,-0.022298647090792656,-0.01763920485973358,0.01551748812198639,0.019690150395035744,1.8667736053466797,0.03377808257937431,-1.483056902885437,-0.15,0.1,0.21,264.27
1679660629.95967197,113898865,2,0.14,-0.6900000000000001,334.2,-0.022749554365873337,-0.016439173370599747,0.016012031584978104,0.03191758692264557,1.8666746616363525,0.033881090581417084,-1.4802989959716797,-0.15,0.1,0.21,264.27
1679660630.05964589,113998839,2,0.14,-0.6900000000000001,334.19,-0.0233310479670763,-0.016623228788375854,0.015480813570320606,0.02060091122984886,1.8660967350006104,0.034015607088804245,-1.4789845943450928,-0.15,0.1,0.21,264.27
1679660630.15961504,114098808,2,0.14,-0.6900000000000001,334.17,-0.025048838928341866,-0.01702267676591873,0.015873771160840988,0.00778170907869935,1.8649463653564453,0.03383522853255272,-1.4781185388565063,-0.15,0.1,0.21,264.27
1679660630.25960803,114198801,2,0.13,-0.6900000000000001,334.18,-0.024049850180745125,-0.016450894996523857,0.0161577221006155,0.008005291223526001,1.864079475402832,0.033907707780599594,-1.4769959449768066,-0.15,0.1,0.21,264.27
1679660630.35961390,114298807,2,0.12,-0.68,334.17,-0.022731060162186623,-0.01583409495651722,0.016591686755418777,0.007688998710364103,1.8633345365524292,0.03395010158419609,-1.4761924743652344,-0.15,0.1,0.21,264.27
1679660630.45967793,114398871,2,0.13,-0.68,334.17,-0.021296367049217224,-0.015518691390752792,0.017691317945718765,0.017989229410886765,1.8626154661178589,0.033573996275663376,-1.4738460779190063,-0.15,0.1,0.21,264.27
1679660630.55965996,114498853,2,0.13,-0.6900000000000001,334.16,-0.021665209904313087,-0.015493630431592464,0.018725134432315826,0.03044160082936287,1.8617597818374634,0.032801754772663116,-1.4711982011795044,-0.15,0.1,0.21,264.27
1679660630.65968895,114598882,2,0.13,-0.6900000000000001,334.16,-0.019177382811903954,-0.013750427402555943,0.019066834822297096,0.02009233832359314,1.8618749380111694,0.032855354249477386,-1.4698607921600342,-0.15,0.1,0.21,264.27
1679660630.75965309,114698846,2,0.13,-0.6900000000000001,334.17,-0.01633559539914131,-0.011962901800870895,0.020243091508746147,0.006705573294311762,1.8624824285507202,0.03325800970196724,-1.4691803455352783,-0.15,0.1,0.21,264.27
1679660630.85966587,114798859,2,0.13,-0.6900000000000001,334.17,-0.015491977334022522,-0.008893989026546478,0.018670400604605675,-0.015542654320597649,1.8624707460403442,0.034640032798051834,-1.4710344076156616,-0.15,0.1,0.21,264.27
1679660630.95964193,114898835,2,0.13,-0.6900000000000001,334.17,-0.015495341271162033,-0.004857531748712063,0.017563460394740105,-0.03681430593132973,1.861903429031372,0.03648291528224945,-1.4736326932907104,-0.15,0.1,0.21,264.27
1679660631.05960488,114998798,2,0.13,-0.6900000000000001,334.17,-0.015202618204057217,-0.0013108333805575967,0.018230069428682327,-0.026761846616864204,1.8615665435791016,0.038899291306734085,-1.4752355813980103,-0.15,0.1,0.21,264.27
1679660631.15960407,115098797,2,0.14,-0.68,334.17,-0.01402085367590189,0.002756321569904685,0.018920639529824257,-0.012861213646829128,1.8612782955169678,0.0414854921400547,-1.476112723350525,-0.15,0.1,0.21,264.27
1679660631.25961494,115198808,2,0.13,-0.68,334.16,-0.012834170833230019,0.004829940851777792,0.019347118213772774,-0.010013450868427753,1.8608248233795166,0.04363652318716049,-1.4773621559143066,-0.15,0.1,0.21,264.27
1679660631.35966802,115298861,2,0.14,-0.68,334.15000000000003,-0.013223349116742611,0.006709545850753784,0.01916823722422123,-0.009256303310394287,1.860148549079895,0.045372433960437775,-1.4780861139297485,-0.15,0.1,0.21,264.27
1679660631.45964003,115398833,2,0.13,-0.68,334.14,-0.014240656979382038,0.008657454513013363,0.019400419667363167,-0.010138369165360928,1.8585230112075806,0.04707444831728935,-1.4796147346496582,-0.15,0.1,0.21,264.27
1679660631.55968690,115498880,2,0.13,-0.68,334.14,-0.016169773414731026,0.010157751850783825,0.018745433539152145,-0.018570847809314728,1.8563045263290405,0.0486382432281971,-1.4812427759170532,-0.15,0.1,0.21,264.27
1679660631.65966511,115598858,2,0.13,-0.67,334.14,-0.01516074500977993,0.01174888201057911,0.018645403906702995,-0.024326378479599953,1.8553731441497803,0.05058811977505684,-1.483989953994751,-0.15,0.1,0.21,264.27
1679660631.75967407,115698867,2,0.13,-0.67,334.13,-0.014553898945450783,0.013786948285996914,0.018358387053012848,-0.03233432397246361,1.8550190925598145,0.05269937962293625,-1.4866316318511963,-0.15,0.1,0.21,264.27
1679660631.85966301,115798856,2,0.12,-0.67,334.12,-0.010997410863637924,0.014718445017933846,0.018338624387979507,-0.016787627711892128,1.8564331531524658,0.053948163986206055,-1.4874778985977173,-0.15,0.1,0.21,264.27
1679660631.95963407,115898827,2,0.12,-0.66,334.12,-0.008016805164515972,0.014830703847110271,0.018721507862210274,0.0074659972451627254,1.8585842847824097,0.054740674793720245,-1.4866912364959717,-0.15,0.1,0.21,264.27
1679660632.05962396,115998817,2,0.12,-0.66,334.11,-0.005976303946226835,0.015333418734371662,0.018869560211896896,0.013502144254744053,1.860459804534912,0.055122144520282745,-1.4862442016601562,-0.15,0.1,0.21,264.27
1679660632.15965009,116098843,2,0.11,-0.66,334.11,-0.00575045682489872,0.014919634908437729,0.01985599659383297,0.008496839553117752,1.8619555234909058,0.05536675453186035,-1.48585045337677,-0.15,0.1,0.21,264.27
1679660632.25969505,116198888,2,0.11,-0.66,334.11,-0.004352999851107597,0.012236391194164753,0.020157353952527046,-0.003921470604836941,1.862583041191101,0.055332034826278687,-1.4869686365127563,-0.15,0.1,0.21,264.27
1679660632.35967803,116298871,2,0.11,-0.66,334.09000000000003,-0.0032629803754389286,0.015876680612564087,0.018567727878689766,-0.017357179895043373,1.8627002239227295,0.05533106252551079,-1.488103985786438,-0.15,0.1,0.21,264.27
1679660632.45968199,116398875,2,0.09,-0.66,334.11,-0.008634175173938274,0.016544179990887642,0.018391547724604607,-0.003415353363379836,1.86332368850708,0.05559990182518959,-1.4875224828720093,-0.15,0.1,0.21,264.27
1679660632.55966306,116498856,2,0.12,-0.65,334.07,0.005061695817857981,0.019590388983488083,0.01961250975728035,0.014963667839765549,1.8648277521133423,0.055331796407699585,-1.4862371683120728,-0.15,0.1,0.21,264.27
1679660632.65968394,116598877,2,0.09,-0.63,334.09000000000003,-0.005442468915134668,0.025009268894791603,0.020097356289625168,0.014176364988088608,1.8656609058380127,0.05456837639212608,-1.4856469631195068,-0.15,0.1,0.21,264.27
1679660632.75965190,116698845,2,0.14,-0.5700000000000001,334.1,-0.018521713092923164,0.021442843601107597,0.014385214075446129,-0.0013506271643564105,1.8650567531585693,0.05397278815507889,-1.485554575920105,-0.15,0.1,0.21,264.27
1679660632.85962510,116798818,2,0.1,-0.55,334.05,0.023749645799398422,0.006062257569283247,0.023556169122457504,0.015329092741012573,1.8656963109970093,0.053706660866737366,-1.4841861724853516,-0.15,0.1,0.21,264.27
1679660632.95963287,116898826,2,0.12,-0.58,334.04,0.007818314246833324,-0.014414154924452305,0.01786184497177601,0.02084306627511978,1.867613434791565,0.051916129887104034,-1.482178807258606,-0.15,0.1,0.21,264.27
1679660633.05961108,116998804,2,0.13,-0.58,334.05,0.0064619057811796665,0.013907462358474731,0.019548123702406883,0.02447524666786194,1.870261788368225,0.05073006823658943,-1.4799171686172485,-0.15,0.1,0.21,264.27
1679660633.15966392,117098857,2,0.09,-0.56,334.01,0.011192383244633675,-0.016044097021222115,0.022270694375038147,0.024469411000609398,1.8739064931869507,0.050267718732357025,-1.4781265258789062,-0.15,0.1,0.21,264.27
1679660633.25972009,117198913,2,0.12,-0.52,334.0,-0.004590857774019241,0.0015307596186175942,0.016263145953416824,0.010419300757348537,1.8758223056793213,0.0482405424118042,-1.4768762588500977,-0.15,0.1,0.21,264.27
1679660633.35968709,117298880,2,0.1,-0.46,333.99,-0.009927740320563316,0.0139335161074996,0.0035464323591440916,-0.005742257460951805,1.8767215013504028,0.04668877646327019,-1.4763447046279907,-0.15,0.1,0.21,264.27
1679660633.45966005,117398853,2,0.12,-0.32,333.97,-0.009723612107336521,0.008237271569669247,-0.011837403289973736,-0.004013508092612028,1.876753807067871,0.044720206409692764,-1.4742677211761475,-0.15,0.1,0.21,264.27
1679660633.55967093,117498864,2,0.17,0.26,333.97,-0.02063172683119774,0.02057325281202793,-0.22252653539180756,-0.19157226383686066,1.87543785572052,0.04303064942359924,-1.4820334911346436,-0.15,0.1,0.22,264.27
1679660633.65965295,117598846,2,0.55,1.19,333.92,-0.02567973919212818,0.02666483446955681,-0.537014365196228,-0.5208011865615845,1.873652696609497,0.04274170100688934,-1.5195846557617188,-0.15,0.1,0.22,264.27
1679660633.75961208,117698805,2,0.97,1.69,333.7,-0.028280435130000114,0.03987758606672287,-0.7201440930366516,-0.7354316115379333,1.8712064027786255,0.04412257671356201,-1.584903597831726,-0.15,0.1,0.22,264.27
1679660633.85961604,117798809,2,1.1400000000000001,1.81,333.45,-0.04323756322264671,0.06253541260957718,-0.7188596129417419,-0.8368624448776245,1.8667713403701782,0.04925237596035004,-1.6724498271942139,-0.15,0.1,0.23,264.27
1679660633.95965791,117898851,2,0.8,1.6300000000000001,333.13,-0.06264397501945496,0.06728938221931458,-0.7058846950531006,-0.9170458316802979,1.86037278175354,0.05684233456850052,-1.761301875114441,-0.15,0.1,0.23,264.27
1679660634.05969501,117998888,2,0.2,0.19,332.85,-0.061198461800813675,0.07988189160823822,-0.6528357863426208,-0.7892023324966431,1.8520846366882324,0.0641479343175888,-1.8372102975845337,-0.15,0.1,0.23,264.27
1679660634.15967393,118098867,2,0.08,-0.99,332.58,-0.05739741399884224,0.07095061987638474,-0.5614830851554871,-0.6122341752052307,1.843553066253662,0.07105080038309097,-1.9013174772262573,-0.15,0.1,0.23,264.27
1679660634.25969100,118198884,2,0.21,-0.2,332.36,-0.05121014267206192,0.05659765005111694,-0.4601745009422302,-0.439214825630188,1.8374499082565308,0.07275308668613434,-1.949181079864502,-0.15,0.1,0.24,264.27
1679660634.35967398,118298867,2,0.32,0.78,332.18,-0.0333898589015007,0.05190348997712135,-0.3979739546775818,-0.31828469038009644,1.8331208229064941,0.07183284312486649,-1.9875198602676392,-0.15,0.1,0.24,264.27
1679660634.45967388,118398867,2,0.37,0.66,331.99,-0.04110613837838173,0.043874647468328476,-0.29457587003707886,-0.22881972789764404,1.8266342878341675,0.07121163606643677,-2.0179901123046875,-0.15,0.1,0.24,264.27
1679660634.55964303,118498836,2,0.04,0.29,331.83,-0.048347268253564835,0.03585045039653778,-0.21852612495422363,-0.1845053732395172,1.8190162181854248,0.07104548811912537,-2.043091058731079,-0.15,0.1,0.24,264.27
1679660634.65961695,118598810,2,0.86,0.9400000000000001,179.04,-0.06658872961997986,0.020707037299871445,-0.16353654861450195,-0.15695978701114655,1.8068020343780518,0.0701761245727539,-2.061068058013916,-0.15,0.1,0.24,264.27
1679660634.75961304,118698806,2,-0.14,0.08,178.82,-0.08644280582666397,0.019780367612838745,-0.11727086454629898,-0.13262858986854553,1.7899690866470337,0.06731580197811127,-2.0775909423828125,-0.15,0.1,0.24,264.27
1679660634.85962105,118798814,2,-1.44,-1.43,178.59,-0.10140456259250641,0.03276843577623367,-0.11051568388938904,-0.17588646709918976,1.769519329071045,0.0672544613480568,-2.0947153568267822,-0.15,0.1,0.24,264.27
1679660634.95968795,118898881,2,-1.93,-2.16,178.63,-0.1458834409713745,0.07027683407068253,-0.1175021082162857,-0.2146131545305252,1.745713472366333,0.07197700440883636,-2.1136844158172607,-0.15,0.1,0.24,264.27
1679660635.05965400,118998847,2,-1.5,-1.8800000000000001,178.55,-0.18439096212387085,0.10898768901824951,-0.12447934597730637,-0.20634101331233978,1.7198512554168701,0.08071207255125046,-2.1305015087127686,-0.15,0.1,0.24,264.27
1679660635.15968299,119098876,2,-0.77,-0.13,178.16,-0.21219681203365326,0.14799189567565918,-0.14003634452819824,-0.18302245438098907,1.6929585933685303,0.09444005787372589,-2.146890163421631,-0.15,0.1,0.24,264.27
1679660635.25966907,119198862,2,-0.41000000000000003,1.31,177.46,-0.21281607449054718,0.1796663999557495,-0.14738436043262482,-0.1804170310497284,1.6686192750930786,0.10888909548521042,-2.1642210483551025,-0.15,0.11,0.24,264.27
1679660635.35967803,119298871,2,-0.18,1.59,176.79,-0.20265959203243256,0.18839597702026367,-0.15155576169490814,-0.1644057184457779,1.6482248306274414,0.12335066497325897,-2.1800644397735596,-0.15,0.11,0.24,264.27
1679660635.45964289,119398836,2,0.18,1.35,176.46,-0.17965847253799438,0.1998063623905182,-0.1711386889219284,-0.19616059958934784,1.6343746185302734,0.13312236964702606,-2.199993133544922,-0.14,0.11,0.24,264.27
1679660635.55962491,119498818,2,0.33,1.3800000000000001,176.6,-0.14611802995204926,0.1811012476682663,-0.18360324203968048,-0.23958703875541687,1.6263371706008911,0.13811112940311432,-2.223403215408325,-0.14,0.11,0.24,264.27
1679660635.65962195,119598815,2,0.4,1.56,177.02,-0.12470369040966034,0.14635922014713287,-0.2134566307067871,-0.2649218738079071,1.6239169836044312,0.13594697415828705,-2.2467904090881348,-0.14,0.11,0.24,264.27
1679660635.75966001,119698853,2,0.59,1.6400000000000001,177.59,-0.09681964665651321,0.1220899298787117,-0.2081395387649536,-0.259844571352005,1.6249735355377197,0.12997235357761383,-2.2727322578430176,-0.14,0.11,0.24,264.27
1679660635.85967708,119798870,2,0.61,1.78,178.26,-0.06642962247133255,0.09067226201295853,-0.23311109840869904,-0.29060328006744385,1.6289103031158447,0.11677885055541992,-2.300241231918335,-0.14,0.11,0.24,264.27
1679660635.95967889,119898872,2,0.77,1.84,178.95000000000002,-0.031757205724716187,0.0513133741915226,-0.25543439388275146,-0.3173360228538513,1.6346275806427002,0.09993365406990051,-2.3302621841430664,-0.14,0.11,0.24,264.27
1679660636.05969405,119998887,2,1.57,1.86,179.48,0.0007245168671943247,-0.004938980098813772,-0.264965683221817,-0.3451831042766571,1.6423591375350952,0.07668053358793259,-2.3639743328094482,-0.14,0.11,0.24,264.27
1679660636.15966511,120098858,2,2.47,1.82,179.73,0.02212188020348549,-0.057316675782203674,-0.27051737904548645,-0.37356987595558167,1.6517155170440674,0.04964509606361389,-2.4004218578338623,-0.14,0.11,0.24,264.27
1679660636.25968409,120198877,2,2.68,1.71,179.54,0.053027570247650146,-0.1106075569987297,-0.27337074279785156,-0.40008673071861267,1.6611390113830566,0.01870778203010559,-2.4397687911987305,-0.14,0.11,0.24,264.27
1679660636.35966110,120298854,2,2.19,1.52,178.97,0.07211224734783173,-0.16130635142326355,-0.24765583872795105,-0.37247005105018616,1.6710604429244995,-0.014384586364030838,-2.4762988090515137,-0.14,0.11,0.24,264.27
1679660636.45962811,120398821,2,1.08,1.41,178.12,0.0850968137383461,-0.19276854395866394,-0.21775250136852264,-0.3163968324661255,1.6797734498977661,-0.046583060175180435,-2.5087268352508545,-0.14,0.11,0.24,264.27
1679660636.55962300,120498816,2,0.13,1.26,177.18,0.09283090382814407,-0.21576744318008423,-0.2055617719888687,-0.29583439230918884,1.688062071800232,-0.07720687985420227,-2.538982391357422,-0.14,0.11,0.24,264.27
1679660636.65962696,120598820,2,-0.21,1.2,176.27,0.09850370138883591,-0.21472594141960144,-0.21055079996585846,-0.3047707974910736,1.6917657852172852,-0.10162854939699173,-2.5701725482940674,-0.14,0.11,0.24,264.27
1679660636.75967097,120698864,2,-0.31,1.16,175.4,0.10005857795476913,-0.19977226853370667,-0.23511721193790436,-0.3196222484111786,1.6936994791030884,-0.12116297334432602,-2.6005899906158447,-0.14,0.11,0.24,264.27
1679660636.85975695,120798950,2,-0.39,1.06,174.59,0.10263720899820328,-0.18312886357307434,-0.24949076771736145,-0.32661351561546326,1.6927587985992432,-0.13294701278209686,-2.632291316986084,-0.14,0.11,0.24,264.27
1679660636.95969892,120898892,2,-0.26,0.99,173.84,0.09413452446460724,-0.1545918583869934,-0.2806316912174225,-0.3582085371017456,1.6916943788528442,-0.14039959013462067,-2.6659252643585205,-0.14,0.11,0.24,264.27
1679660637.05966401,120998857,2,-0.06,0.96,173.17000000000002,0.09691523015499115,-0.14351122081279755,-0.30259209871292114,-0.36056607961654663,1.6858545541763306,-0.1446983516216278,-2.700432300567627,-0.14,0.11,0.24,264.27
1679660637.15967989,121098873,2,-0.03,0.89,172.62,0.07891874760389328,-0.1273171752691269,-0.3205546736717224,-0.36036059260368347,1.678620457649231,-0.14713482558727264,-2.7353219985961914,-0.14,0.11,0.24,264.27
1679660637.25964999,121198843,2,-0.04,0.86,172.21,0.07321097701787949,-0.10076466202735901,-0.34187713265419006,-0.3789726197719574,1.6709407567977905,-0.1471792608499527,-2.7736265659332275,-0.14,0.11,0.24,264.27
1679660637.35961294,121298806,2,-0.11,0.9,171.93,0.07140067964792252,-0.096150703728199,-0.36756324768066406,-0.4029240012168884,1.6643306016921997,-0.14627616107463837,-2.8131794929504395,-0.14,0.11,0.25,264.27
1679660637.45962000,121398813,2,-0.26,0.88,171.78,0.060980357229709625,-0.08541909605264664,-0.3890167474746704,-0.4011659026145935,1.653436541557312,-0.14937828481197357,-2.853154420852661,-0.14,0.11,0.24,264.27
1679660637.55962300,121498816,2,-0.33,0.74,171.72,0.04814771190285683,-0.07328339666128159,-0.425574392080307,-0.4203571379184723,1.6416192054748535,-0.15422745048999786,-2.894084930419922,-0.14,0.11,0.24,264.27
1679660637.65967703,121598870,2,-0.29,0.6,171.74,0.03748561814427376,-0.06968551129102707,-0.4248791038990021,-0.4423697292804718,1.6290868520736694,-0.15987415611743927,-2.9403316974639893,-0.14,0.11,0.24,264.27
1679660637.75972605,121698919,2,-0.22,-0.11,171.84,0.01550132967531681,-0.05733460560441017,-0.4213276505470276,-0.4809969663619995,1.6167241334915161,-0.1653003692626953,-2.9880459308624268,-0.14,0.11,0.24,264.27
1679660637.85968804,121798881,2,-0.14,-0.47000000000000003,171.99,6.33757736068219e-05,-0.05316804721951485,-0.41128966212272644,-0.5071020126342773,1.6033860445022583,-0.1695588231086731,-3.039693832397461,-0.14,0.11,0.24,264.27
1679660637.95967889,121898872,2,-0.13,0.42,172.18,-0.016083143651485443,-0.040431637316942215,-0.36469346284866333,-0.4738216698169708,1.590641975402832,-0.17279177904129028,-3.087024450302124,-0.14,0.11,0.24,264.27
1679660638.05967689,121998870,2,-0.16,1.22,172.38,-0.024240436032414436,-0.03682548552751541,-0.3169190287590027,-0.39068394899368286,1.576430082321167,-0.1792713850736618,-3.1262154579162598,-0.14,0.11,0.24,264.27
1679660638.15964198,122098835,2,0.11,1.03,172.58,-0.0372527651488781,-0.051762960851192474,-0.2481098175048828,-0.2948228120803833,1.5626651048660278,-0.18726806342601776,-3.1589839458465576,-0.14,0.11,0.24,264.27
1679660638.25961494,122198808,2,1.28,0.24,172.8,-0.049114082008600235,-0.06707113236188889,-0.19994555413722992,-0.2487783432006836,1.548595666885376,-0.2017025351524353,-3.1878509521484375,-0.14,0.11,0.24,264.27
1679660638.35962605,122298819,2,2.52,-0.26,173.06,-0.06472518295049667,-0.10190743952989578,-0.1695042848587036,-0.21795077621936798,1.53464937210083,-0.2200559675693512,-3.2113680839538574,-0.14,0.11,0.24,264.27
1679660638.45963192,122398825,2,3.56,-0.26,173.32,-0.08353768289089203,-0.1525816023349762,-0.13452163338661194,-0.16984504461288452,1.5217753648757935,-0.24316969513893127,-3.230295419692993,-0.14,0.11,0.24,264.27
1679660638.55968189,122498875,2,3.68,-0.36,173.53,-0.11047972738742828,-0.210714191198349,-0.13642218708992004,-0.16366450488567352,1.5086992979049683,-0.2708451449871063,-3.247283458709717,-0.14,0.11,0.24,264.27
1679660638.65973496,122598928,2,2.0100000000000002,-1.03,173.67000000000002,-0.13870473206043243,-0.2399265170097351,-0.09818871319293976,-0.13268712162971497,1.494258999824524,-0.29922646284103394,-3.2633581161499023,-0.14,0.11,0.24,264.27
1679660638.75966692,122698860,2,0.08,-1.92,173.82,-0.17631813883781433,-0.2547084093093872,-0.10291440039873123,-0.1359347552061081,1.4774185419082642,-0.3284827172756195,-3.276491641998291,-0.14,0.11,0.24,264.27
1679660638.85966206,122798855,2,-0.63,-2.45,174.01,-0.21660320460796356,-0.25356972217559814,-0.08639160543680191,-0.11350028961896896,1.4614806175231934,-0.3519844114780426,-3.2879369258880615,-0.14,0.11,0.24,264.27
1679660638.95968103,122898874,2,-0.61,-2.31,174.20000000000002,-0.2519409656524658,-0.23042114078998566,-0.07879698276519775,-0.10358034074306488,1.443479061126709,-0.37137237191200256,-3.2980892658233643,-0.14,0.11,0.24,264.27
1679660639.05964088,122998834,2,-0.53,-0.86,174.32,-0.26512062549591064,-0.20045368373394012,-0.053641438484191895,-0.06917792558670044,1.4315160512924194,-0.3815537691116333,-3.305704355239868,-0.14,0.11,0.24,264.27
1679660639.15965009,123098843,2,-0.47000000000000003,0.99,174.32,-0.2614428997039795,-0.17211215198040009,-0.014073982834815979,-0.01610913872718811,1.421621322631836,-0.38739609718322754,-3.3097829818725586,-0.14,0.11,0.24,264.27
1679660639.25961494,123198808,2,-0.45,1.83,174.23,-0.22444452345371246,-0.14834660291671753,0.0187406986951828,0.017695125192403793,1.4215744733810425,-0.3905518054962158,-3.310311794281006,-0.14,0.11,0.24,264.27
1679660639.35961795,123298811,2,-0.43,1.79,174.1,-0.1900940090417862,-0.1341526061296463,0.07119310647249222,0.07948698103427887,1.4260162115097046,-0.39293649792671204,-3.3056681156158447,-0.14,0.11,0.24,264.27
1679660639.45966506,123398858,2,-0.41000000000000003,1.67,174.03,-0.14747393131256104,-0.12031613290309906,0.0776614099740982,0.08643130213022232,1.4424370527267456,-0.39575889706611633,-3.298443555831909,-0.14,0.1,0.24,264.27
1679660639.55972791,123498921,2,-0.08,1.6,173.93,-0.10705260187387466,-0.10467980802059174,0.11327961087226868,0.11863339692354202,1.4632683992385864,-0.3992101848125458,-3.2887909412384033,-0.14,0.1,0.24,264.27
1679660639.65968490,123598878,2,0.68,1.46,173.85,-0.060875896364450455,-0.10770585387945175,0.14253969490528107,0.1525399088859558,1.4868881702423096,-0.40548256039619446,-3.2758703231811523,-0.14,0.1,0.24,264.27
1679660639.75967002,123698863,2,1.12,1.36,173.77,-0.02981482446193695,-0.11955204606056213,0.14431865513324738,0.1561160683631897,1.5102381706237793,-0.41371288895606995,-3.261329412460327,-0.14,0.1,0.24,264.27
1679660639.85967398,123798867,2,1.67,1.34,173.70000000000002,-0.002889250637963414,-0.14457109570503235,0.14214514195919037,0.14791332185268402,1.535496711730957,-0.42465630173683167,-3.246133804321289,-0.14,0.1,0.24,264.27
1679660639.95964599,123898839,2,2.44,1.29,173.65,0.017666831612586975,-0.1728435903787613,0.1255759596824646,0.12470509111881256,1.559807300567627,-0.439117431640625,-3.231790065765381,-0.14,0.1,0.24,264.27
1679660640.05961609,123998809,2,1.85,1.28,173.61,0.04826637730002403,-0.19494029879570007,0.09319671988487244,0.09717152267694473,1.5856719017028809,-0.4545366168022156,-3.219367265701294,-0.14,0.1,0.24,264.27
1679660640.15962791,124098821,2,0.45,1.24,173.57,0.06671586632728577,-0.2087668478488922,0.07247856259346008,0.08715865015983582,1.6086164712905884,-0.4718051850795746,-3.208995819091797,-0.14,0.1,0.24,264.27
1679660640.25962996,124198823,2,-0.32,1.2,173.56,0.08716947585344315,-0.20711477100849152,0.026108551770448685,0.020597543567419052,1.6327420473098755,-0.48760905861854553,-3.2052645683288574,-0.14,0.1,0.24,264.27
1679660640.35970902,124298902,2,-0.47000000000000003,1.19,173.57,0.10294434428215027,-0.18712517619132996,-0.035915836691856384,-0.07207595556974411,1.6556440591812134,-0.5013435482978821,-3.2092928886413574,-0.14,0.1,0.24,264.27
1679660640.45968294,124398876,2,-0.53,1.16,173.62,0.1224500834941864,-0.1726772040128708,-0.08978359401226044,-0.12795893847942352,1.6770610809326172,-0.5106686353683472,-3.2192230224609375,-0.14,0.1,0.24,264.27
1679660640.55969405,124498887,2,-0.52,1.16,173.71,0.13610875606536865,-0.14835450053215027,-0.16842417418956757,-0.20112824440002441,1.6974517107009888,-0.5163097977638245,-3.234726905822754,-0.14,0.1,0.24,264.27
1679660640.65966606,124598859,2,-0.37,1.1500000000000001,173.95000000000002,0.14518481492996216,-0.12854664027690887,-0.21183015406131744,-0.2585075795650482,1.716488242149353,-0.5193479657173157,-3.2582995891571045,-0.14,0.1,0.24,264.27
1679660640.75967503,124698868,2,-0.27,0.9,174.24,0.1559918373823166,-0.11248259991407394,-0.2627146542072296,-0.3187405467033386,1.7345685958862305,-0.5214936137199402,-3.286905288696289,-0.14,0.1,0.24,264.27
1679660640.85964608,124798839,2,-0.14,0.1,174.53,0.1626439243555069,-0.08783342689275742,-0.2967478930950165,-0.3617742657661438,1.7501269578933716,-0.5219681262969971,-3.321230173110962,-0.14,0.1,0.24,264.27
1679660640.95962596,124898819,2,0.01,-0.23,174.91,0.15099139511585236,-0.08135617524385452,-0.3363982141017914,-0.413900226354599,1.7637851238250732,-0.5219894051551819,-3.3596115112304688,-0.14,0.1,0.24,264.27
1679660641.05962110,124998814,2,0.06,0.15,175.36,0.14476604759693146,-0.06649433821439743,-0.35926491022109985,-0.4115191698074341,1.77528715133667,-0.523322343826294,-3.3988442420959473,-0.14,0.1,0.24,264.27
1679660641.15962195,125098815,2,-0.03,0.8,175.77,0.13671143352985382,-0.061814285814762115,-0.35670748353004456,-0.3788253366947174,1.7848776578903198,-0.5260798335075378,-3.4378819465637207,-0.14,0.1,0.24,264.27
1679660641.25966597,125198859,2,-0.13,1.27,176.15,0.14410972595214844,-0.05195344239473343,-0.3518751263618469,-0.38436421751976013,1.7952097654342651,-0.5309478640556335,-3.4781172275543213,-0.14,0.1,0.24,264.27
1679660641.35964394,125298837,2,-0.17,1.42,176.5,0.15194988250732422,-0.05038575828075409,-0.3602096438407898,-0.41624704003334045,1.8066819906234741,-0.5367875099182129,-3.51916766166687,-0.14,0.1,0.24,264.27
1679660641.45967507,125398868,2,-0.16,1.48,176.83,0.16173690557479858,-0.04211748391389847,-0.35756492614746094,-0.4136604964733124,1.8203092813491821,-0.5423975586891174,-3.559671401977539,-0.14,0.1,0.24,264.27
1679660641.55966687,125498860,2,0.47000000000000003,1.51,177.11,0.17742672562599182,-0.04790714010596275,-0.3577226400375366,-0.40736883878707886,1.8359407186508179,-0.5482003092765808,-3.600205183029175,-0.14,0.1,0.24,264.27
1679660641.65967607,125598869,2,1.9000000000000001,1.53,177.37,0.18927879631519318,-0.0705476775765419,-0.33103257417678833,-0.3741287887096405,1.8497741222381592,-0.5609196424484253,-3.638784170150757,-0.14,0.1,0.24,264.27
1679660641.75965905,125698852,2,2.8000000000000003,1.47,177.55,0.2058597058057785,-0.10686842352151871,-0.310783714056015,-0.35517215728759766,1.8637648820877075,-0.5779125690460205,-3.675312042236328,-0.14,0.1,0.24,264.27
1679660641.85967207,125798865,2,2.88,1.45,177.70000000000002,0.21753738820552826,-0.1413353681564331,-0.2817755937576294,-0.3201887011528015,1.8792816400527954,-0.5963722467422485,-3.707890748977661,-0.14,0.1,0.24,264.27
1679660641.95962906,125898822,2,2.45,1.44,177.82,0.22454394400119781,-0.1858586072921753,-0.2680019438266754,-0.2804790139198303,1.8961517810821533,-0.6164518594741821,-3.736119508743286,-0.14,0.1,0.24,264.27
1679660642.05962896,125998822,2,1.31,1.41,177.89000000000001,0.22599823772907257,-0.19248893857002258,-0.2370549887418747,-0.2573593258857727,1.9098479747772217,-0.6361598372459412,-3.76440691947937,-0.14,0.11,0.24,264.27
1679660642.15967989,126098873,2,-0.07,1.37,177.93,0.2428024262189865,-0.20933809876441956,-0.2296057641506195,-0.2628794312477112,1.9235378503799438,-0.655615508556366,-3.790473461151123,-0.14,0.11,0.24,264.27
1679660642.25973606,126198929,2,-0.72,1.34,177.96,0.24314095079898834,-0.18918509781360626,-0.18913212418556213,-0.21489425003528595,1.9350498914718628,-0.6685246229171753,-3.8134539127349854,-0.14,0.11,0.24,264.27
1679660642.35968995,126298883,2,-0.86,1.25,177.97,0.25460827350616455,-0.17334286868572235,-0.17094631493091583,-0.19710244238376617,1.947484016418457,-0.6780142188072205,-3.8341546058654785,-0.14,0.11,0.24,264.27
1679660642.45966506,126398858,2,-0.8300000000000001,1.2,177.94,0.24525903165340424,-0.13767555356025696,-0.13089747726917267,-0.15609927475452423,1.9555468559265137,-0.6798786520957947,-3.851428985595703,-0.13,0.11,0.24,264.27
1679660642.55967188,126498865,2,-0.8,1.1300000000000001,177.86,0.23959201574325562,-0.10860226303339005,-0.10866695642471313,-0.12525984644889832,1.9634430408477783,-0.678053617477417,-3.864945411682129,-0.14,0.11,0.24,264.27
1679660642.65964699,126598840,2,-0.7000000000000001,1.08,177.72,0.24662426114082336,-0.0689300000667572,-0.08281464874744415,-0.10751406103372574,1.968330979347229,-0.6720136404037476,-3.8773841857910156,-0.13,0.11,0.24,264.27
1679660642.75960994,126698803,2,-0.61,1.05,177.57,0.24854151904582977,-0.04562947526574135,-0.05520005524158478,-0.10500660538673401,1.973861575126648,-0.6644113659858704,-3.889019727706909,-0.13,0.11,0.24,264.27
1679660642.85961103,126798804,2,-0.52,1.04,177.4,0.23484481871128082,-0.018725691363215446,-0.030633768066763878,-0.08252765238285065,1.9759615659713745,-0.6564832329750061,-3.897498846054077,-0.13,0.12,0.24,264.27
1679660642.95962906,126898822,2,-0.47000000000000003,1.05,177.24,0.2379356324672699,-0.00801697839051485,-0.006555898115038872,-0.051311228424310684,1.9787054061889648,-0.6487029194831848,-3.9036028385162354,-0.13,0.12,0.24,264.27
1679660643.05967307,126998866,2,-0.4,1.07,177.07,0.22770321369171143,0.0054661063477396965,0.03246196731925011,-0.00875917263329029,1.979359745979309,-0.6423513889312744,-3.9071435928344727,-0.13,0.12,0.24,264.27
1679660643.15965009,127098843,2,-0.39,1.08,176.91,0.22494788467884064,0.017668342217803,0.03315247222781181,-0.0022354074753820896,1.981469988822937,-0.6365630030632019,-3.9080374240875244,-0.13,0.12,0.24,264.27
1679660643.25969195,127198885,2,-0.36,1.08,176.75,0.21561940014362335,0.03382158279418945,0.044102657586336136,0.028061257675290108,1.9803895950317383,-0.6330366730690002,-3.9042866230010986,-0.14,0.12,0.24,264.27
1679660643.35967708,127298870,2,-0.28,1.08,176.62,0.21907657384872437,0.05158768594264984,0.0758441686630249,0.08116047084331512,1.9807960987091064,-0.6301930546760559,-3.8977932929992676,-0.14,0.12,0.24,264.27
1679660643.45967698,127398870,2,-0.27,1.04,176.52,0.21227936446666718,0.046119168400764465,0.09446266293525696,0.11989448964595795,1.9788707494735718,-0.6300621628761292,-3.8867433071136475,-0.14,0.12,0.24,264.27
1679660643.55964494,127498838,2,-0.26,0.98,176.41,0.20523592829704285,0.05586043745279312,0.09851385653018951,0.143808975815773,1.9785369634628296,-0.6304841041564941,-3.873680830001831,-0.14,0.12,0.24,264.27
1679660643.65961504,127598808,2,-0.22,0.9500000000000001,176.34,0.1968708634376526,0.07058046758174896,0.13194161653518677,0.1897384226322174,1.975495457649231,-0.6341719031333923,-3.8564815521240234,-0.14,0.12,0.24,264.27
1679660643.75961804,127698811,2,-0.22,0.98,176.3,0.19896768033504486,0.06067170575261116,0.123270183801651,0.19996435940265656,1.9739036560058594,-0.6383259892463684,-3.8378806114196777,-0.14,0.12,0.24,264.27
1679660643.85961294,127798806,2,-0.14,1.02,176.27,0.1889742910861969,0.06392240524291992,0.1368294060230255,0.2047657072544098,1.9697856903076172,-0.6452015042304993,-3.8189220428466797,-0.14,0.13,0.24,264.27
1679660643.95966697,127898860,2,0.11,1.04,176.26,0.1852409988641739,0.06751924753189087,0.14616930484771729,0.20338751375675201,1.9672101736068726,-0.6520573496818542,-3.800265312194824,-0.14,0.13,0.24,264.27
1679660644.05973005,127998923,2,0.32,1.06,176.29,0.18120695650577545,0.054596979171037674,0.14114806056022644,0.1927613765001297,1.9613221883773804,-0.6621611714363098,-3.7809455394744873,-0.14,0.13,0.24,264.27
1679660644.15969110,128098884,2,0.39,1.09,176.32,0.17154669761657715,0.0469568707048893,0.14868591725826263,0.19857114553451538,1.956884503364563,-0.6725903749465942,-3.762477397918701,-0.14,0.13,0.24,264.27
1679660644.25966907,128198862,2,0.41000000000000003,1.11,176.39000000000001,0.16471152007579803,0.03199603408575058,0.13189873099327087,0.16778694093227386,1.9493075609207153,-0.686068058013916,-3.745140790939331,-0.15,0.13,0.24,264.27
1679660644.35968804,128298881,2,0.3,1.12,176.45000000000002,0.16514188051223755,0.017269201576709747,0.12521325051784515,0.14766864478588104,1.9432673454284668,-0.6996017098426819,-3.729353666305542,-0.15,0.13,0.24,264.27
1679660644.45965099,128398844,2,-0.03,1.09,176.51,0.15206386148929596,0.01884523034095764,0.12716875970363617,0.14941053092479706,1.933394432067871,-0.7150269150733948,-3.7128374576568604,-0.15,0.14,0.24,264.27
1679660644.55961490,128498808,2,-0.1,1.08,176.59,0.14777298271656036,0.014416332356631756,0.13625402748584747,0.16074395179748535,1.9248408079147339,-0.7295820713043213,-3.697664260864258,-0.15,0.14,0.24,264.27
1679660644.65961790,128598811,2,0.1,0.84,176.66,0.13936565816402435,0.003061366733163595,0.12785182893276215,0.15395298600196838,1.9123531579971313,-0.7457639575004578,-3.6816723346710205,-0.15,0.14,0.24,264.27
1679660644.75962806,128698821,2,0.27,-0.01,176.74,0.11588311940431595,0.0030148173682391644,0.11751824617385864,0.14961378276348114,1.900295376777649,-0.760784387588501,-3.6665596961975098,-0.15,0.14,0.24,264.27
1679660644.85969090,128798884,2,0.5,-1.01,176.79,0.07885006070137024,-0.010337981395423412,0.11278942227363586,0.1493469625711441,1.8840652704238892,-0.7780941128730774,-3.6500446796417236,-0.15,0.14,0.24,264.27
1679660644.95973802,128898931,2,0.85,-1.95,176.83,0.035156965255737305,-0.021986309438943863,0.10829821974039078,0.15370489656925201,1.868944764137268,-0.7936246395111084,-3.6349408626556396,-0.15,0.14,0.24,264.27
1679660645.05968904,128998882,2,1.03,-2.5100000000000002,176.87,-0.01910352148115635,-0.03487250208854675,0.0976703092455864,0.12560854852199554,1.8458285331726074,-0.8126335740089417,-3.6217257976531982,-0.15,0.14,0.24,264.27
1679660645.15966702,129098860,2,1.09,-2.73,176.91,-0.08751533180475235,-0.05704659968614578,0.08139117807149887,0.09348532557487488,1.8178009986877441,-0.8325799107551575,-3.6108388900756836,-0.15,0.14,0.24,264.27
1679660645.25967789,129198871,2,1.2,-3.22,176.93,-0.15953436493873596,-0.07675951719284058,0.08052580058574677,0.08773559331893921,1.786571741104126,-0.8529008626937866,-3.601318836212158,-0.15,0.14,0.24,264.27
1679660645.35965109,129298844,2,1.3,-3.43,176.97,-0.23921477794647217,-0.09137437492609024,0.04014955833554268,0.04958242177963257,1.7514936923980713,-0.8734151124954224,-3.59371280670166,-0.16,0.14,0.24,264.27
1679660645.45962310,129398816,2,1.33,-2.5300000000000002,177.06,-0.2853928208351135,-0.11220093071460724,0.03393298760056496,0.04209659621119499,1.7180904150009155,-0.8947513103485107,-3.588046073913574,-0.16,0.14,0.24,264.27
1679660645.55963087,129498824,2,1.3900000000000001,-1.22,177.16,-0.32931166887283325,-0.1364654004573822,0.008527788333594799,0.01961386203765869,1.6859233379364014,-0.9170389175415039,-3.5839180946350098,-0.16,0.14,0.24,264.27
1679660645.65963888,129598832,2,1.57,0.11,177.22,-0.3352319598197937,-0.14994435012340546,0.009699493646621704,0.013231514021754265,1.6605318784713745,-0.9386945366859436,-3.5816335678100586,-0.16,0.14,0.24,264.27
1679660645.75970793,129698901,2,1.72,1.11,177.31,-0.32880887389183044,-0.17661412060260773,-0.01511675026267767,-0.014910305850207806,1.641659140586853,-0.9603654146194458,-3.5809030532836914,-0.16,0.14,0.24,264.27
1679660645.85972595,129798919,2,1.72,1.32,177.35,-0.3050538897514343,-0.19488494098186493,0.007822845131158829,0.010591116733849049,1.6340984106063843,-0.9819324016571045,-3.5807015895843506,-0.15,0.13,0.23,264.27
1679660645.95969009,129898883,2,1.46,1.17,177.38,-0.26694318652153015,-0.21510516107082367,-0.013187895528972149,0.0006474796682596207,1.6352988481521606,-1.0037027597427368,-3.5807197093963623,-0.15,0.13,0.23,264.27
1679660646.05967093,129998864,2,1.04,1.22,177.42000000000002,-0.22809401154518127,-0.21647989749908447,-0.041994109749794006,-0.03060026653110981,1.6474609375,-1.0238584280014038,-3.5823607444763184,-0.15,0.12,0.23,264.27
1679660646.15967202,130098865,2,0.26,1.3,177.47,-0.18950416147708893,-0.21893171966075897,-0.04488035663962364,-0.045006994158029556,1.6630544662475586,-1.0428688526153564,-3.585906744003296,-0.15,0.12,0.23,264.27
1679660646.25965405,130198847,2,-0.36,1.23,177.51,-0.15062187612056732,-0.21515685319900513,-0.0499141700565815,-0.05833619460463524,1.6848074197769165,-1.0561782121658325,-3.5903191566467285,-0.15,0.12,0.24,264.27
1679660646.35962892,130298822,2,-0.5700000000000001,1.2,177.57,-0.11706974357366562,-0.18295317888259888,-0.05651801452040672,-0.07628601789474487,1.7074823379516602,-1.066174030303955,-3.5967392921447754,-0.15,0.12,0.23,264.27
1679660646.45962691,130398820,2,-0.55,1.19,177.63,-0.0806318148970604,-0.1501384973526001,-0.06000632792711258,-0.09941747039556503,1.734055995941162,-1.0700392723083496,-3.6052334308624268,-0.15,0.12,0.23,264.27
1679660646.55962396,130498817,2,-0.49,1.17,177.70000000000002,-0.04729543626308441,-0.13497091829776764,-0.07931461185216904,-0.15213534235954285,1.7603970766067505,-1.070818305015564,-3.618391275405884,-0.15,0.12,0.23,264.27
1679660646.65969896,130598892,2,-0.26,1.1300000000000001,177.75,-0.018525654450058937,-0.10792813450098038,-0.1004178449511528,-0.19683945178985596,1.7878011465072632,-1.0693211555480957,-3.63478422164917,-0.15,0.11,0.23,264.27
1679660646.75966096,130698854,2,-0.17,1.1400000000000001,177.79,0.005877676419913769,-0.08146655559539795,-0.10553993284702301,-0.1994270384311676,1.813765287399292,-1.066881775856018,-3.652985095977783,-0.15,0.11,0.23,264.27
1679660646.85968804,130798881,2,-0.2,1.1500000000000001,177.84,0.03569638729095459,-0.06237839534878731,-0.12195005267858505,-0.2221250981092453,1.8402100801467896,-1.0632163286209106,-3.6741886138916016,-0.15,0.11,0.23,264.27
1679660646.95968008,130898873,2,-0.12,1.17,177.89000000000001,0.05552981421351433,-0.050238803029060364,-0.13460595905780792,-0.23774276673793793,1.8653011322021484,-1.0593291521072388,-3.696406602859497,-0.15,0.11,0.23,264.27
1679660647.05967808,130998871,2,-0.12,1.2,177.92000000000002,0.07745115458965302,-0.038143228739500046,-0.15597644448280334,-0.23232023417949677,1.8901971578598022,-1.0560424327850342,-3.7173430919647217,-0.15,0.11,0.23,264.27
1679660647.15964293,131098836,2,-0.06,1.1400000000000001,177.96,0.09225884079933167,-0.01498350314795971,-0.1750117391347885,-0.23733428120613098,1.9137418270111084,-1.0531777143478394,-3.740213632583618,-0.15,0.11,0.23,264.27
1679660647.25962710,131198820,2,-0.01,0.77,178.0,0.0987255722284317,-0.009233273565769196,-0.17710958421230316,-0.24795673787593842,1.9352595806121826,-1.0513659715652466,-3.7657716274261475,-0.15,0.11,0.23,264.27
1679660647.35966301,131298856,2,-0.02,0.26,178.02,0.09929675608873367,-0.002765130018815398,-0.21024785935878754,-0.2800673246383667,1.9543455839157104,-1.049887776374817,-3.7928013801574707,-0.15,0.11,0.23,264.27
1679660647.45962095,131398814,2,0.0,0.15,178.05,0.09359677135944366,0.009837386198341846,-0.25840437412261963,-0.3255942463874817,1.9701300859451294,-1.0508731603622437,-3.822791814804077,-0.15,0.11,0.23,264.27
1679660647.55967999,131498873,2,-0.03,0.22,178.07,0.09099379926919937,0.008031636476516724,-0.2889273166656494,-0.35840871930122375,1.9829747676849365,-1.0524526834487915,-3.8564157485961914,-0.15,0.11,0.23,264.27
1679660647.65967488,131598868,2,-0.01,0.18,178.06,0.08518349379301071,0.017392808571457863,-0.2943660020828247,-0.34509560465812683,1.9959439039230347,-1.0549170970916748,-3.8902416229248047,-0.15,0.11,0.23,264.27
1679660647.75969410,131698887,2,-0.02,-0.24,178.05,0.07226693630218506,0.025325682014226913,-0.33935150504112244,-0.36184144020080566,2.0075974464416504,-1.0570528507232666,-3.9247827529907227,-0.15,0.11,0.23,264.27
1679660647.85966992,131798863,2,0.06,-0.99,178.03,0.05211067199707031,0.02694668062031269,-0.3633647561073303,-0.38038063049316406,2.0188002586364746,-1.062382698059082,-3.9617252349853516,-0.15,0.11,0.23,264.27
1679660647.95967507,131898868,2,0.46,-1.04,177.99,0.03258766606450081,0.01961384154856205,-0.36472177505493164,-0.3948898911476135,2.0278561115264893,-1.0685068368911743,-4.001845359802246,-0.15,0.11,0.23,264.27
1679660648.05964398,131998837,2,1.52,-0.59,177.99,0.014554166235029697,0.00712115503847599,-0.37382522225379944,-0.41168925166130066,2.0396206378936768,-1.0768104791641235,-4.04286003112793,-0.15,0.11,0.23,264.27
1679660648.15961099,132098804,2,2.59,-0.27,181.82,0.008785473182797432,-0.022753916680812836,-0.37883102893829346,-0.4324515163898468,2.0505197048187256,-1.0867021083831787,-4.085768222808838,-0.15,0.11,0.23,264.27
1679660648.25961494,132198808,2,3.54,0.44,182.47,0.012456179596483707,-0.07874607294797897,-0.34191471338272095,-0.41073065996170044,2.0623950958251953,-1.1009405851364136,-4.127827167510986,-0.15,0.11,0.23,264.27
1679660648.35964799,132298841,2,4.8,1.22,183.52,0.025460543110966682,-0.14319553971290588,-0.2917547821998596,-0.37681153416633606,2.0781614780426025,-1.1224937438964844,-4.167510509490967,-0.15,0.11,0.23,264.27
1679660648.45968199,132398875,2,5.57,1.62,184.46,0.055336084216833115,-0.22930467128753662,-0.275860071182251,-0.3459905683994293,2.0985968112945557,-1.147923231124878,-4.200663089752197,-0.15,0.11,0.23,264.27
1679660648.55971193,132498905,2,5.57,1.68,185.36,0.09111598879098892,-0.30017220973968506,-0.23907214403152466,-0.2666940987110138,2.1236352920532227,-1.177973985671997,-4.2278056144714355,-0.15,0.11,0.23,264.27
1679660648.65969801,132598891,2,4.86,1.56,186.24,0.13422136008739471,-0.35592326521873474,-0.21112194657325745,-0.23032543063163757,2.154867649078369,-1.2080016136169434,-4.252005577087402,-0.15,0.1,0.23,264.27
1679660648.75967407,132698867,2,2.45,1.37,187.0,0.16480828821659088,-0.3735486567020416,-0.19030135869979858,-0.20329543948173523,2.1911873817443848,-1.2365936040878296,-4.273662090301514,-0.15,0.1,0.23,264.27
1679660648.85966992,132798863,2,-0.17,1.48,187.58,0.2054070383310318,-0.3572719097137451,-0.17681613564491272,-0.18768827617168427,2.229217529296875,-1.2558159828186035,-4.293297290802002,-0.15,0.1,0.23,264.27
1679660648.95965099,132898844,2,-1.33,1.49,187.97,0.22929571568965912,-0.32270076870918274,-0.12500883638858795,-0.13942202925682068,2.2685799598693848,-1.2648875713348389,-4.310808181762695,-0.15,0.1,0.23,264.27
1679660649.05961108,132998804,2,-1.3,1.3,188.1,0.2526434063911438,-0.24776484072208405,-0.10355719923973083,-0.1141778975725174,2.30767822265625,-1.2576316595077515,-4.322322845458984,-0.15,0.1,0.23,264.27
1679660649.15961409,133098807,2,-0.98,1.1,188.09,0.2718077301979065,-0.17211833596229553,-0.04096198454499245,-0.05728952959179878,2.346036911010742,-1.2350623607635498,-4.330996036529541,-0.15,0.1,0.23,264.27
1679660649.25961995,133198813,2,-0.7000000000000001,1.04,187.69,0.2783094644546509,-0.08319103717803955,-0.012169203720986843,-0.039907101541757584,2.3832061290740967,-1.2017875909805298,-4.336187839508057,-0.15,0.1,0.23,264.27
1679660649.35969710,133298890,2,-0.48,1.0,187.05,0.2762688398361206,-0.015953145921230316,0.0283319391310215,0.018581701442599297,2.4185726642608643,-1.1595779657363892,-4.336496353149414,-0.15,0.1,0.23,264.27
1679660649.45974398,133398937,2,-0.64,1.06,186.21,0.28837674856185913,0.0530024953186512,0.055086418986320496,0.04308299347758293,2.4518704414367676,-1.1113002300262451,-4.334812641143799,-0.15,0.11,0.23,264.27
1679660649.55967689,133498870,2,-1.27,1.16,185.39000000000001,0.2808432877063751,0.12766483426094055,0.05831541866064072,0.03651890531182289,2.4838409423828125,-1.057267665863037,-4.3315935134887695,-0.15,0.11,0.24,264.27
1679660649.65966892,133598862,2,-1.85,1.1500000000000001,184.72,0.2883733808994293,0.20337438583374023,0.07649698853492737,0.05083587393164635,2.513230085372925,-0.9995161294937134,-4.326896667480469,-0.15,0.11,0.24,264.27
1679660649.75969505,133698888,2,-2.07,1.01,184.52,0.27754631638526917,0.2814589738845825,0.09435365349054337,0.0744829997420311,2.5410358905792236,-0.9418932199478149,-4.321037769317627,-0.15,0.1,0.23,264.27
1679660649.85964298,133798836,2,-1.51,0.81,185.08,0.28181108832359314,0.3401567041873932,0.0781307965517044,0.06485103815793991,2.568369150161743,-0.8785054683685303,-4.313317775726318,-0.15,0.1,0.23,264.27
1679660649.95962310,133898816,2,-0.23,0.63,186.56,0.26347705721855164,0.38886556029319763,0.12537895143032074,0.12331073731184006,2.5956060886383057,-0.8144116401672363,-4.302865505218506,-0.15,0.1,0.23,264.27
1679660650.05962396,133998817,2,0.07,0.48,188.78,0.2652947008609772,0.4231199324131012,0.10545728355646133,0.1122475415468216,2.621607780456543,-0.7544587254524231,-4.289291858673096,-0.14,0.1,0.23,264.27
1679660650.15964198,134098835,2,-0.66,0.37,191.5,0.250864714384079,0.4496222138404846,0.14923784136772156,0.17529349029064178,2.6462879180908203,-0.6997596621513367,-4.271824836730957,-0.14,0.1,0.23,264.27
1679660650.25968409,134198877,2,-0.17,0.62,194.43,0.24184231460094452,0.4478497803211212,0.15665806829929352,0.17954783141613007,2.670964002609253,-0.6535918712615967,-4.253519535064697,-0.14,0.1,0.23,264.27
1679660650.35974598,134298939,2,0.74,0.86,197.55,0.23328076303005219,0.46658623218536377,0.18916822969913483,0.20467258989810944,2.6951801776885986,-0.6147425770759583,-4.234414100646973,-0.14,0.1,0.23,264.27
1679660650.45966601,134398859,2,0.59,0.85,200.85,0.24661193788051605,0.4529276192188263,0.1925012767314911,0.21741850674152374,2.72078800201416,-0.5802714228630066,-4.2124810218811035,-0.14,0.11,0.23,264.27
1679660650.55966687,134498860,2,0.66,0.9,204.12,0.23765331506729126,0.437987357378006,0.2174074500799179,0.25665897130966187,2.7475545406341553,-0.550773024559021,-4.188647270202637,-0.14,0.1,0.23,264.27
1679660650.65968204,134598875,2,1.2,1.01,207.07,0.2470698356628418,0.41589224338531494,0.221860870718956,0.2568320333957672,2.7758371829986572,-0.5262829661369324,-4.164427757263184,-0.14,0.1,0.23,264.27
1679660650.75964904,134698842,2,2.72,1.2,209.62,0.28669288754463196,0.36918905377388,0.1982612907886505,0.22130726277828217,2.8064143657684326,-0.5070415735244751,-4.141592979431152,-0.14,0.11,0.23,264.27
1679660650.85962796,134798821,2,5.21,1.43,211.72,0.33322834968566895,0.30959025025367737,0.19142960011959076,0.21034035086631775,2.842198371887207,-0.49236902594566345,-4.118712425231934,-0.14,0.11,0.23,264.27
1679660650.95963097,134898824,2,5.25,1.1,213.23000000000002,0.367923766374588,0.2566230893135071,0.20070533454418182,0.22986873984336853,2.8829197883605957,-0.4822222590446472,-4.096158504486084,-0.14,0.11,0.23,264.27
1679660651.05963302,134998826,2,2.63,0.62,214.11,0.3977687358856201,0.2297293245792389,0.17846781015396118,0.19325537979602814,2.926394462585449,-0.4691001772880554,-4.07724142074585,-0.14,0.1,0.23,264.27
1679660651.15968990,135098883,2,0.27,0.54,214.69,0.41727107763290405,0.21115100383758545,0.16494710743427277,0.1585727483034134,2.9716498851776123,-0.4525429904460907,-4.061054229736328,-0.14,0.11,0.23,264.27
1679660651.25966597,135198859,2,-0.45,0.68,215.44,0.41610777378082275,0.2289079874753952,0.18617549538612366,0.16853109002113342,3.014319658279419,-0.42334917187690735,-4.04508113861084,-0.15,0.11,0.23,264.27
1679660651.35969400,135298887,2,-0.54,0.6900000000000001,216.44,0.4037722647190094,0.2763863503932953,0.18938986957073212,0.16069148480892181,3.05436372756958,-0.3813159465789795,-4.029098987579346,-0.15,0.11,0.24,264.27
1679660651.45966506,135398858,2,-0.92,0.72,217.39000000000001,0.3939303159713745,0.33080175518989563,0.15220916271209717,0.12041623890399933,3.091151475906372,-0.3250759541988373,-4.013751983642578,-0.15,0.11,0.24,264.27
1679660651.55967593,135498869,2,-1.52,0.97,218.35,0.376531183719635,0.39482516050338745,0.1703047901391983,0.15077944099903107,3.124584436416626,-0.25616520643234253,-3.9984965324401855,-0.15,0.11,0.24,264.27
1679660651.65964389,135598837,2,-2.21,1.23,219.55,0.3424616754055023,0.4700354039669037,0.14704056084156036,0.13587833940982819,3.1550140380859375,-0.17823496460914612,-3.983708381652832,-0.15,0.11,0.24,264.27
1679660651.75961304,135698806,2,-2.64,1.29,221.04,0.313261479139328,0.5469664931297302,0.13442538678646088,0.124751515686512,3.18190860748291,-0.09228422492742538,-3.970248222351074,-0.15,0.11,0.24,264.27
1679660651.85961890,135798812,2,-2.68,1.41,222.44,0.2726087272167206,0.6316003203392029,0.13805493712425232,0.13926059007644653,3.20621919631958,-0.0016573003958910704,-3.9563002586364746,-0.15,0.11,0.24,264.27
1679660651.95962095,135898814,2,-3.12,1.68,223.62,0.2371172159910202,0.7100955247879028,0.08009106665849686,0.1052636057138443,3.2269866466522217,0.0937432125210762,-3.943892478942871,-0.15,0.11,0.24,264.27
1679660652.05968094,135998874,2,-4.08,2.0300000000000002,224.62,0.18540146946907043,0.7998306155204773,0.07461205124855042,0.08455910533666611,3.2452468872070312,0.19053472578525543,-3.9358112812042236,-0.15,0.11,0.24,264.27
1679660652.15973592,136098929,2,-4.91,2.38,225.45000000000002,0.1358942836523056,0.8723092675209045,0.04863293841481209,0.03507470339536667,3.261234760284424,0.2889755964279175,-3.931082248687744,-0.15,0.11,0.24,264.27
1679660652.25968599,136198879,2,-5.53,2.86,225.96,0.08743118494749069,0.9724904298782349,0.028746167197823524,0.007170519791543484,3.274667501449585,0.3858282268047333,-3.9285309314727783,-0.15,0.11,0.24,264.27
1679660652.35967302,136298866,2,-6.09,3.08,226.33,0.021758735179901123,1.064012050628662,0.017402932047843933,-0.0025789267383515835,3.283780813217163,0.4836834669113159,-3.928443670272827,-0.15,0.11,0.24,264.27
1679660652.45967102,136398864,2,-6.22,2.62,226.70000000000002,-0.04497745260596275,1.14823317527771,-0.03170672804117203,-0.046877421438694,3.2879984378814697,0.5764210820198059,-3.9299421310424805,-0.15,0.11,0.24,264.27
1679660652.55964899,136498842,2,-5.91,1.95,227.04,-0.12413621693849564,1.216531753540039,-0.010575683787465096,-0.003074312349781394,3.2855868339538574,0.6670069098472595,-3.931485176086426,-0.15,0.11,0.24,264.27
1679660652.65961909,136598812,2,-5.55,1.57,227.32,-0.19448617100715637,1.2661465406417847,-0.05791732296347618,-0.0583977997303009,3.2786905765533447,0.7467767000198364,-3.937771797180176,-0.15,0.11,0.23,264.27
1679660652.75961089,136698804,2,-4.99,1.23,227.54,-0.2617853879928589,1.2861502170562744,-0.0747915655374527,-0.10960913449525833,3.266148328781128,0.8190839290618896,-3.948631525039673,-0.15,0.11,0.23,264.27
1679660652.85964608,136798839,2,-3.13,0.6900000000000001,227.77,-0.3118218779563904,1.26801335811615,-0.11442042142152786,-0.18039442598819733,3.2508339881896973,0.8749310374259949,-3.9649276733398438,-0.15,0.11,0.23,264.27
1679660652.95968199,136898875,2,-0.5,0.27,228.0,-0.3560202717781067,1.230425238609314,-0.12788213789463043,-0.2312656193971634,3.2333390712738037,0.9178676009178162,-3.9868454933166504,-0.15,0.11,0.23,264.27
1679660653.05965996,136998853,2,0.18,0.41000000000000003,228.33,-0.359310120344162,1.171026587486267,-0.16566139459609985,-0.28204408288002014,3.2213191986083984,0.9410108923912048,-4.011104106903076,-0.15,0.11,0.23,264.27
1679660653.15969706,137098890,2,-1.09,0.84,228.58,-0.36248016357421875,1.1166545152664185,-0.15856704115867615,-0.2608613073825836,3.2109971046447754,0.9633435010910034,-4.034953594207764,-0.15,0.11,0.23,264.27
1679660653.25967002,137198863,2,-2.5,1.07,228.82,-0.3569006621837616,1.0685970783233643,-0.1599981039762497,-0.2526912987232208,3.20652174949646,0.9657227993011475,-4.059681415557861,-0.16,0.11,0.23,264.27
1679660653.35967803,137298871,2,-3.36,0.99,229.09,-0.37755537033081055,1.0284367799758911,-0.1728755533695221,-0.25375649333000183,3.208284616470337,0.9535348415374756,-4.084595203399658,-0.16,0.11,0.23,264.27
1679660653.45964694,137398840,2,-3.85,0.6900000000000001,229.73000000000002,-0.3776344060897827,0.9907881021499634,-0.16482575237751007,-0.23926092684268951,3.2101991176605225,0.9378058314323425,-4.10906457901001,-0.16,0.11,0.23,264.27
1679660653.55961299,137498806,2,-3.65,0.44,230.94,-0.4103408455848694,0.9623638987541199,-0.14659331738948822,-0.20016668736934662,3.2098028659820557,0.9221510887145996,-4.130927562713623,-0.16,0.11,0.23,264.27
1679660653.65962911,137598822,2,-2.25,0.41000000000000003,232.65,-0.419439435005188,0.9099469184875488,-0.1531243622303009,-0.1756577044725418,3.2109570503234863,0.8994370102882385,-4.149474143981934,-0.16,0.11,0.23,264.27
1679660653.75963688,137698830,2,-0.23,0.66,234.69,-0.411344051361084,0.8576953411102295,-0.14560481905937195,-0.1433345377445221,3.212460994720459,0.8728030323982239,-4.164646148681641,-0.16,0.11,0.23,264.27
1679660653.85969591,137798889,2,0.97,1.03,236.84,-0.3887411057949066,0.7847152352333069,-0.12308527529239655,-0.09463765472173691,3.219395637512207,0.8360959887504578,-4.175503253936768,-0.17,0.11,0.23,264.27
1679660653.95966101,137898854,2,1.1,2.12,238.92000000000002,-0.3348340094089508,0.729121208190918,-0.13805800676345825,-0.0904485285282135,3.23215389251709,0.7936503887176514,-4.184168338775635,-0.17,0.11,0.23,264.27
1679660654.05968809,137998881,2,0.75,4.68,240.9,-0.2659994661808014,0.6844809055328369,-0.08848414570093155,-0.04793877899646759,3.253370761871338,0.7465011477470398,-4.192057132720947,-0.17,0.11,0.22,264.27
1679660654.15967393,138098867,2,0.58,6.24,242.59,-0.19104227423667908,0.6652950644493103,-0.047072671353816986,-0.014286642894148827,3.282315969467163,0.6993322968482971,-4.196252822875977,-0.17,0.11,0.23,264.27
1679660654.25968289,138198876,2,0.71,6.29,243.79,-0.1184653788805008,0.6673010587692261,0.0003405562601983547,0.017804782837629318,3.315614700317383,0.6557207107543945,-4.19661808013916,-0.18,0.11,0.23,264.27
1679660654.35965490,138298848,2,0.81,5.07,244.36,-0.05478358641266823,0.6640887260437012,0.013834858313202858,0.013566717505455017,3.3530938625335693,0.6188955307006836,-4.194953441619873,-0.18,0.11,0.23,264.27
1679660654.45962811,138398821,2,0.79,2.47,244.46,-0.008563023991882801,0.6350426077842712,0.04017799347639084,0.021442696452140808,3.389303684234619,0.583404004573822,-4.193346977233887,-0.18,0.11,0.22,264.27
1679660654.55962896,138498822,2,1.16,0.71,244.39000000000001,0.05034315213561058,0.5801423788070679,0.04264172911643982,-0.006561478599905968,3.4236042499542236,0.5496818423271179,-4.193402290344238,-0.18,0.11,0.23,264.27
1679660654.65963888,138598832,2,2.82,0.77,244.21,0.0919535681605339,0.5207355618476868,0.0546894297003746,-0.01698155142366886,3.4533746242523193,0.5107305645942688,-4.1945085525512695,-0.19,0.12,0.23,264.27
1679660654.75968695,138698880,2,3.2,0.89,243.88,0.12157058715820312,0.4424173831939697,0.05935434252023697,-0.01494772732257843,3.479292631149292,0.4676298201084137,-4.194578647613525,-0.19,0.12,0.23,264.27
1679660654.85976005,138798953,2,1.56,0.62,243.45000000000002,0.14856462180614471,0.3723757565021515,0.08620817959308624,0.02830018848180771,3.4998185634613037,0.4227810502052307,-4.19215202331543,-0.19,0.12,0.23,264.27
1679660654.95969296,138898886,2,0.13,0.46,242.97,0.16336554288864136,0.3106633722782135,0.08378845453262329,0.046104833483695984,3.5161216259002686,0.37860846519470215,-4.187626361846924,-0.19,0.12,0.23,264.27
1679660655.05967307,138998866,2,-0.16,0.55,242.5,0.1515408456325531,0.25263211131095886,0.09549759328365326,0.0768766775727272,3.5243124961853027,0.3333819508552551,-4.179769515991211,-0.19,0.13,0.23,264.27
1679660655.15967393,139098867,2,-0.08,0.7000000000000001,242.02,0.1285620927810669,0.2216978222131729,0.11039523035287857,0.10949457436800003,3.525045871734619,0.2888306677341461,-4.169035911560059,-0.19,0.13,0.23,264.27
1679660655.25964499,139198838,2,-0.03,0.75,241.52,0.09899908304214478,0.175727978348732,0.13401491940021515,0.1377207338809967,3.5193352699279785,0.24633964896202087,-4.157155513763428,-0.19,0.13,0.23,264.27
1679660655.35961795,139298811,2,0.06,0.8200000000000001,241.0,0.08233247697353363,0.14106905460357666,0.1252368688583374,0.1298406422138214,3.5087990760803223,0.2068670690059662,-4.144866943359375,-0.19,0.13,0.23,264.27
1679660655.45961809,139398811,2,0.18,0.84,240.5,0.06526119261980057,0.1114639937877655,0.12410708516836166,0.1254761666059494,3.494536876678467,0.16811490058898926,-4.132143497467041,-0.19,0.13,0.23,264.27
1679660655.55961990,139498813,2,0.26,0.89,240.02,0.04713762179017067,0.08078034222126007,0.12234611809253693,0.130378857254982,3.4778265953063965,0.1311526596546173,-4.118840217590332,-0.19,0.13,0.23,264.27
1679660655.65967393,139598867,2,0.29,0.92,239.6,0.02905118465423584,0.05734700337052345,0.12746228277683258,0.13368435204029083,3.4591400623321533,0.09378983080387115,-4.105990409851074,-0.19,0.14,0.23,264.27
1679660655.75974488,139698938,2,0.31,0.9400000000000001,239.38,0.009388862177729607,0.03379770368337631,0.10174547135829926,0.09979787468910217,3.439208984375,0.05719612166285515,-4.095020294189453,-0.19,0.14,0.23,264.27
1679660655.85968494,139798878,2,0.35000000000000003,0.93,239.49,0.005482214502990246,0.008475929498672485,0.07666809111833572,0.05858408287167549,3.417144775390625,0.02112291008234024,-4.087435722351074,-0.19,0.14,0.23,264.27
1679660655.95966887,139898862,2,0.39,0.9400000000000001,240.01,-0.01963995024561882,-0.014131437987089157,0.09689587354660034,0.06575269997119904,3.3933537006378174,-0.013783689588308334,-4.0817790031433105,-0.19,0.14,0.23,264.27
1679660656.05967689,139998870,2,0.39,0.91,240.9,-0.04259851574897766,-0.03693578764796257,0.09318199753761292,0.06293544918298721,3.3672168254852295,-0.050987858325242996,-4.076087474822998,-0.19,0.14,0.23,264.27
1679660656.15964389,140098837,2,0.46,0.84,242.03,-0.056555189192295074,-0.06379867345094681,0.10868705809116364,0.07831557840108871,3.339949607849121,-0.08903856575489044,-4.069421768188477,-0.19,0.14,0.23,264.27
1679660656.25961494,140198808,2,0.51,0.77,243.23000000000002,-0.0672803595662117,-0.08670241385698318,0.09016270190477371,0.07529174536466599,3.311157703399658,-0.12965597212314606,-4.059754371643066,-0.19,0.15,0.23,264.27
1679660656.35961890,140298812,2,0.67,0.78,244.34,-0.08469826728105545,-0.11386699974536896,0.10438446700572968,0.1178698018193245,3.281313419342041,-0.17171116173267365,-4.048170566558838,-0.19,0.15,0.23,264.27
1679660656.45961809,140398811,2,0.85,0.79,245.36,-0.07932554185390472,-0.14221079647541046,0.11354786157608032,0.1268988847732544,3.2497987747192383,-0.2142861783504486,-4.0378618240356445,-0.2,0.15,0.23,264.27
1679660656.55966592,140498859,2,0.92,0.77,246.22,-0.09582440555095673,-0.1657201200723648,0.08187045902013779,0.080331951379776,3.217831611633301,-0.25679105520248413,-4.028746604919434,-0.2,0.15,0.23,264.27
1679660656.65975189,140598945,2,0.93,0.74,246.78,-0.10014723986387253,-0.1982736438512802,0.08317141234874725,0.08286846429109573,3.1854705810546875,-0.3005430996417999,-4.020003795623779,-0.2,0.15,0.23,264.27
1679660656.75969410,140698887,2,0.8,0.73,246.93,-0.11344971507787704,-0.21194137632846832,0.05256200581789017,0.06376390159130096,3.1553125381469727,-0.34309497475624084,-4.0133514404296875,-0.2,0.15,0.23,264.27
1679660656.85966802,140798861,2,0.55,0.76,246.79,-0.1224573627114296,-0.23800508677959442,0.041098978370428085,0.04256056621670723,3.1208996772766113,-0.3875311315059662,-4.008922576904297,-0.2,0.15,0.23,264.27
1679660656.95968604,140898879,2,0.38,0.78,246.54,-0.13725771009922028,-0.2638515532016754,0.057262152433395386,0.044029850512742996,3.0824766159057617,-0.43362540006637573,-4.004433631896973,-0.2,0.15,0.23,264.27
