timestamp,TimeUS,C,Q1,Q2,Q3,Q4
1679660629.35961699,113298810,2,0.9748662114143372,-0.00016697515093255788,-0.0060843778774142265,-0.2227078229188919
1679660629.45962811,113398821,2,0.9748573899269104,-0.00017158624541480094,-0.0061245812103152275,-0.22274544835090637
1679660629.55967903,113498872,2,0.9748444557189941,-0.00016201937978621572,-0.006151219829916954,-0.22280125319957733
1679660629.65969992,113598893,2,0.9748209714889526,-0.00011832452582893893,-0.006135700736194849,-0.2229045033454895
1679660629.75967789,113698871,2,0.9747945070266724,-9.61364567046985e-05,-0.0061648222617805,-0.2230193316936493
1679660629.85966301,113798856,2,0.9747615456581116,-0.00012287528079468757,-0.006197589915245771,-0.22316250205039978
1679660629.95967197,113898865,2,0.9747490286827087,-0.00011811155127361417,-0.006171567365527153,-0.22321783006191254
1679660630.05964589,113998839,2,0.9747323393821716,-0.00013643200509250164,-0.006206774618476629,-0.22328974306583405
1679660630.15961504,114098808,2,0.9747008085250854,-0.00014621586888097227,-0.006173956673592329,-0.2234283685684204
1679660630.25960803,114198801,2,0.9747073650360107,-0.0001871502900030464,-0.006142191123217344,-0.2234005182981491
1679660630.35961390,114298807,2,0.9746915698051453,-0.0002483287244103849,-0.006119611673057079,-0.22346992790699005
1679660630.45967793,114398871,2,0.9746872186660767,-0.00021217981702648103,-0.0061158970929682255,-0.22348912060260773
1679660630.55965996,114498853,2,0.9746794700622559,-0.0002387140120845288,-0.006145982537418604,-0.22352206707000732
1679660630.65968895,114598882,2,0.9746832847595215,-0.00018092288519255817,-0.006143470760434866,-0.22350560128688812
1679660630.75965309,114698846,2,0.9746894240379333,-0.0001743881293805316,-0.006192408502101898,-0.22347736358642578
1679660630.85966587,114798859,2,0.9747044444084167,-0.00017536990344524384,-0.006165590602904558,-0.22341272234916687
1679660630.95964193,114898835,2,0.9747007489204407,-0.0001831096305977553,-0.006142309866845608,-0.22342944145202637
1679660631.05960488,114998798,2,0.9746968150138855,-0.00016470163245685399,-0.006154181901365519,-0.22344619035720825
1679660631.15960407,115098797,2,0.9746924042701721,-0.0001379164750687778,-0.0061016203835606575,-0.22346682846546173
1679660631.25961494,115198808,2,0.9746825098991394,-0.00014926445146556944,-0.0061032394878566265,-0.22351007163524628
1679660631.35966802,115298861,2,0.9746620059013367,-0.00013558509817812592,-0.006111322436481714,-0.22359910607337952
1679660631.45964003,115398833,2,0.974644660949707,-0.0002168231294490397,-0.006085702683776617,-0.22367532551288605
1679660631.55968690,115498880,2,0.9746296405792236,-0.0002207590005127713,-0.006049984134733677,-0.22374173998832703
1679660631.65966511,115598858,2,0.9746289253234863,-0.00021307225688360631,-0.006026292685419321,-0.22374555468559265
1679660631.75967407,115698867,2,0.9746230244636536,-0.00019040750339627266,-0.005997586064040661,-0.22377203404903412
1679660631.85966301,115798856,2,0.9746084809303284,-0.00021815263608004898,-0.0059637646190822124,-0.22383640706539154
1679660631.95963407,115898827,2,0.9745966196060181,-0.00026831624563783407,-0.005908147897571325,-0.22388948500156403
1679660632.05962396,115998817,2,0.9745884537696838,-0.00023173702356871217,-0.005910483188927174,-0.22392499446868896
1679660632.15965009,116098843,2,0.9745763540267944,-0.0002917896490544081,-0.005891427863389254,-0.2239779680967331
1679660632.25969505,116198888,2,0.9745805859565735,-0.0002825045958161354,-0.005903017241507769,-0.22395917773246765
1679660632.35967803,116298871,2,0.9745430946350098,-0.0003454270481597632,-0.005900121759623289,-0.2241223305463791
1679660632.45968199,116398875,2,0.9745840430259705,-0.0004688516492024064,-0.005829405505210161,-0.22394579648971558
1679660632.55966306,116498856,2,0.9744930267333984,-0.0002461746335029602,-0.0058467332273721695,-0.2243415117263794
1679660632.65968394,116598877,2,0.9745338559150696,-0.0003993873542640358,-0.005572339054197073,-0.22417089343070984
1679660632.75965190,116698845,2,0.9745668768882751,0.00011626852938206866,-0.005142443813383579,-0.22403770685195923
1679660632.85962510,116798818,2,0.9744735956192017,-0.00023759987379889935,-0.004922715947031975,-0.2244480550289154
1679660632.95963287,116898826,2,0.9744494557380676,-0.00011856410856125876,-0.005196016281843185,-0.2245466411113739
1679660633.05961108,116998804,2,0.9744729399681091,3.0697901820531115e-05,-0.0052342782728374004,-0.22444403171539307
1679660633.15966392,117098857,2,0.9743786454200745,-0.0002970612549688667,-0.005005118437111378,-0.22485800087451935
1679660633.25972009,117198913,2,0.9743738174438477,6.012908124830574e-05,-0.004747053608298302,-0.22488462924957275
1679660633.35968709,117298880,2,0.9743502140045166,4.780399194714846e-06,-0.00412161648273468,-0.22499938309192657
1679660633.45966005,117398853,2,0.9743181467056274,0.00045561729348264635,-0.002978930715471506,-0.225155770778656
1679660633.55967093,117498864,2,0.9743249416351318,0.002009469782933593,0.0018942782189697027,-0.2251296043395996
1679660633.65965295,117598846,2,0.9741387963294983,0.00706426240503788,0.009043165482580662,-0.22565892338752747
1679660633.75961208,117698805,2,0.973615825176239,0.011643234640359879,0.012472099624574184,-0.22755470871925354
1679660633.85961604,117798809,2,0.9730733036994934,0.013351920060813427,0.013131411746144295,-0.22973376512527466
1679660633.95965791,117898851,2,0.9725015759468079,0.010168014094233513,0.012241753749549389,-0.23235194385051727
1679660634.05969501,117998888,2,0.9720645546913147,0.0021425012964755297,0.0012684229295700788,-0.23470035195350647
1679660634.15967393,118098867,2,0.9714908599853516,-0.0013175159692764282,-0.00861517433077097,-0.23691679537296295
1679660634.25969100,118198884,2,0.9710653424263,0.0014280300820246339,-0.0021505190525203943,-0.23879989981651306
1679660634.35967398,118298867,2,0.9706584215164185,0.004430423956364393,0.005978853441774845,-0.24034743010997772
1679660634.45967388,118398867,2,0.9702585339546204,0.004600711166858673,0.0048345946706831455,-0.24197910726070404
1679660634.55964303,118498836,2,0.9699468612670898,0.001018438138999045,0.0024423329159617424,-0.2433023452758789
1679660634.65961695,118598810,2,0.008429182693362236,-0.008167273364961147,0.007603354752063751,0.9999021887779236
1679660634.75961304,118698806,2,0.010290968231856823,-0.0007383300107903779,-0.0012379015097394586,0.9999459981918335
1679660634.85962105,118798814,2,0.012407893314957619,0.012398803606629372,-0.012776396237313747,0.9997645020484924
1679660634.95968795,118898881,2,0.012250088155269623,0.01869232766330242,-0.017082128673791885,0.9996042847633362
1679660635.05965400,118998847,2,0.01286109909415245,0.01623956486582756,-0.0132994269952178,0.9996969699859619
1679660635.15968299,119098876,2,0.01603538729250431,0.0010828449157997966,-0.006744557525962591,0.9998480677604675
1679660635.25966907,119198862,2,0.022071996703743935,-0.01153623592108488,-0.003368991892784834,0.9996841549873352
1679660635.35967803,119298871,2,0.027976730838418007,-0.013936772011220455,-0.0012450936483219266,0.999510645866394
1679660635.45964289,119398836,2,0.030825693160295486,-0.011784303933382034,0.0019415465649217367,0.9994534254074097
1679660635.55962491,119498818,2,0.02965366095304489,-0.011984279379248619,0.003299902193248272,0.9994829297065735
1679660635.65962195,119598815,2,0.02597414143383503,-0.013565189205110073,0.00392555259168148,0.9995628595352173
1679660635.75966001,119698853,2,0.021094415336847305,-0.01421187911182642,0.005453731864690781,0.9996616244316101
1679660635.85967708,119798870,2,0.015258465893566608,-0.015511411242187023,0.005602556746453047,0.9997475743293762
1679660635.95967889,119898872,2,0.009248432703316212,-0.016041768714785576,0.006944072432816029,0.9998044371604919
1679660636.05969405,119998887,2,0.0047349510714411736,-0.016252189874649048,0.013789302669465542,0.9997616410255432
1679660636.15966511,120098858,2,0.00268867751583457,-0.01588359661400318,0.02164544351398945,0.9996359348297119
1679660636.25968409,120198877,2,0.004336575046181679,-0.014865717850625515,0.023475930094718933,0.9996044635772705
1679660636.35966110,120298854,2,0.009238707832992077,-0.013154873624444008,0.01930055022239685,0.9996845126152039
1679660636.45962811,120398821,2,0.016502071171998978,-0.012151320464909077,0.009697502478957176,0.9997429847717285
1679660636.55962300,120498816,2,0.024600915610790253,-0.011015591211616993,0.0014415911864489317,0.999635636806488
1679660636.65962696,120598820,2,0.032477229833602905,-0.010555488057434559,-0.0015523674665018916,0.9994155168533325
1679660636.75967097,120698864,2,0.04008184373378754,-0.010263497941195965,-0.0023343758657574654,0.9991409778594971
1679660636.85975695,120798950,2,0.04715456813573837,-0.00943192932754755,-0.0029684915207326412,0.9988386631011963
1679660636.95969892,120898892,2,0.05366930738091469,-0.008762283250689507,-0.0018712847959250212,0.9985185861587524
1679660637.05966401,120998857,2,0.05952543020248413,-0.008398088626563549,-7.084728713380173e-05,0.9981914758682251
1679660637.15967989,121098873,2,0.06430244445800781,-0.007825527340173721,0.00023514450003858656,0.9978997707366943
1679660637.25964999,121198843,2,0.06785839796066284,-0.007596196141093969,0.00016228701861109585,0.99766606092453
1679660637.35961294,121298806,2,0.07028200477361679,-0.007933623157441616,-0.000412183057051152,0.9974955320358276
1679660637.45962000,121398813,2,0.07160548865795135,-0.007841644808650017,-0.0017408772837370634,0.99740070104599
1679660637.55962300,121498816,2,0.07216702401638031,-0.0067290873266756535,-0.002422189572826028,0.9973669052124023
1679660637.65967703,121598870,2,0.07197092473506927,-0.005468857940286398,-0.0022034591529518366,0.9973893165588379
1679660637.75972605,121698919,2,0.07114969193935394,0.0008223577751778066,-0.0020327195525169373,0.9974632263183594
1679660637.85968804,121798881,2,0.06983562558889389,0.004009448457509279,-0.001532885362394154,0.997549295425415
1679660637.95967889,121898872,2,0.06817489117383957,-0.003816580167040229,-0.0009370581246912479,0.9976656436920166
1679660638.05967689,121998870,2,0.0663827583193779,-0.010755525901913643,-0.0006930502713657916,0.9977360367774963
1679660638.15964198,122098835,2,0.06466520577669144,-0.008906071074306965,0.0015773851191625,0.9978660345077515
1679660638.25961494,122198808,2,0.06275541335344315,-0.0014493366470560431,0.01128434669226408,0.997964084148407
1679660638.35962605,122298819,2,0.060388244688510895,0.0036286229733377695,0.021815191954374313,0.9979299306869507
1679660638.45963192,122398825,2,0.05810874328017235,0.004115726333111525,0.030950870364904404,0.9978218674659729
1679660638.55968189,122498875,2,0.056246496737003326,0.004996157251298428,0.031916867941617966,0.9978941082954407
1679660638.65973496,122598928,2,0.054982367902994156,0.009969661012291908,0.017041712999343872,0.998292088508606
1679660638.75966692,122698860,2,0.05387333780527115,0.01679225079715252,-0.00013134811888448894,0.9984065890312195
1679660638.85966206,122798855,2,0.05226781219244003,0.021068332716822624,-0.006605592090636492,0.9983890056610107
1679660638.95968103,122898874,2,0.05063943192362785,0.01986767165362835,-0.0063418238423764706,0.9984992146492004
1679660639.05964088,122998834,2,0.0495256669819355,0.007321133278310299,-0.005034222267568111,0.9987333416938782
1679660639.15965009,123098843,2,0.04948925971984863,-0.008841291069984436,-0.0036812808830291033,0.9987287521362305
1679660639.25961494,123198808,2,0.05023546889424324,-0.01618134044110775,-0.003123689442873001,0.9986014366149902
1679660639.35961795,123298811,2,0.05132833123207092,-0.01582975499331951,-0.0029673599638044834,0.9985519647598267
1679660639.45966506,123398858,2,0.052011940628290176,-0.014808528125286102,-0.002813665894791484,0.9985327124595642
1679660639.55972791,123498921,2,0.05285634845495224,-0.013997857458889484,4.05606442654971e-05,0.9985040426254272
1679660639.65968490,123598878,2,0.0536564365029335,-0.012407029047608376,0.006633890327066183,0.9984603524208069
1679660639.75967002,123698863,2,0.05438438430428505,-0.011399686336517334,0.010411564260721207,0.9984006881713867
1679660639.85967398,123798867,2,0.055090371519327164,-0.010945329442620277,0.01527482457458973,0.998304545879364
1679660639.95964599,123898839,2,0.05557367950677872,-0.010124650783836842,0.021966006606817245,0.9981616139411926
1679660640.05961609,123998809,2,0.055837683379650116,-0.01032263319939375,0.016765696927905083,0.9982457160949707
1679660640.15962791,124098821,2,0.05605810508131981,-0.0106276860460639,0.004602028988301754,0.9983603358268738
1679660640.25962996,124198823,2,0.056135471910238266,-0.010682535357773304,-0.0022128887940198183,0.9983635544776917
1679660640.35970902,124298902,2,0.05599746108055115,-0.010677602142095566,-0.0035525811836123466,0.9983674883842468
1679660640.45968294,124398876,2,0.05557253211736679,-0.010398400947451591,-0.004132960457354784,0.9983919262886047
1679660640.55969405,124498887,2,0.05473998561501503,-0.010360974818468094,-0.004057904239743948,0.9984386563301086
1679660640.65966606,124598859,2,0.05267105624079704,-0.010219893418252468,-0.0027785664424300194,0.9985557794570923
1679660640.75967503,124698868,2,0.050165921449661255,-0.008002779446542263,-0.002014453522861004,0.9987068176269531
1679660640.85964608,124798839,2,0.04767145216464996,-0.0009942660108208656,-0.001175804529339075,0.9988619089126587
1679660640.95962596,124898819,2,0.04438205808401108,0.0020708355586975813,6.102388579165563e-05,0.9990124702453613
1679660641.05962110,124998814,2,0.04045429825782776,-0.0013144208351150155,0.0005826700362376869,0.9991803765296936
1679660641.15962195,125098815,2,0.036851875483989716,-0.007002171128988266,-8.997099939733744e-05,0.9992961883544922
1679660641.25966597,125198859,2,0.033501751720905304,-0.011171161197125912,-0.0008330213604494929,0.9993758797645569
1679660641.35964394,125298837,2,0.03050321340560913,-0.012444082647562027,-0.0011882282560691237,0.999456524848938
1679660641.45967507,125398868,2,0.027630725875496864,-0.012971076183021069,-0.0010600935202091932,0.999533474445343
1679660641.55966687,125498860,2,0.02524624392390251,-0.013149397447705269,0.004461318254470825,0.9995847940444946
1679660641.65967607,125598869,2,0.023155327886343002,-0.013020040467381477,0.016964295879006386,0.9995031356811523
1679660641.75965905,125698852,2,0.021628975868225098,-0.01236053742468357,0.024776441976428032,0.9993825554847717
1679660641.85967207,125798865,2,0.020310498774051666,-0.012204778380692005,0.02540729008615017,0.9993963241577148
1679660641.95962906,125898822,2,0.01925094798207283,-0.01221619825810194,0.021630626171827316,0.9995059967041016
1679660642.05962896,125998822,2,0.018549665808677673,-0.012107950635254383,0.011702598072588444,0.9996861219406128
1679660642.15967989,126098873,2,0.01797020435333252,-0.01199896726757288,-0.00047669882769696414,0.9997664093971252
1679660642.25973606,126198929,2,0.017647605389356613,-0.011827864684164524,-0.006135092582553625,0.9997555017471313
1679660642.35968995,126298883,2,0.01757778413593769,-0.011058188043534756,-0.00732773682102561,0.9997574687004089
1679660642.45966506,126398858,2,0.01789584755897522,-0.010641245171427727,-0.007093616295605898,0.9997580647468567
1679660642.55967188,126498865,2,0.018565557897090912,-0.01001096609979868,-0.006849107798188925,0.9997540712356567
1679660642.65964699,126598840,2,0.01979638822376728,-0.009629623033106327,-0.005984851624816656,0.9997397661209106
1679660642.75960994,126698803,2,0.021137945353984833,-0.00935765914618969,-0.005204657558351755,0.9997192025184631
1679660642.85961103,126798804,2,0.022571295499801636,-0.009209884330630302,-0.004350254312157631,0.9996933341026306
1679660642.95962906,126898822,2,0.024012459442019463,-0.009294272400438786,-0.003891299944370985,0.9996609091758728
1679660643.05967307,126998866,2,0.02552763745188713,-0.00950208306312561,-0.0033302942756563425,0.9996234178543091
1679660643.15965009,127098843,2,0.026915408670902252,-0.009532538242638111,-0.0031657859217375517,0.9995872378349304
1679660643.25969195,127198885,2,0.028272224590182304,-0.009540085680782795,-0.0029326966032385826,0.999550461769104
1679660643.35967708,127298870,2,0.029390139505267143,-0.009539431892335415,-0.002229168079793453,0.9995200037956238
1679660643.45967698,127398870,2,0.03027900494635105,-0.009172922000288963,-0.0021510228980332613,0.9994970560073853
1679660643.55964494,127498838,2,0.031247129663825035,-0.008649974130094051,-0.002066507935523987,0.9994721412658691
1679660643.65961504,127598808,2,0.03188280388712883,-0.00843039806932211,-0.0016935499152168632,0.9994546175003052
1679660643.75961804,127698811,2,0.0322578065097332,-0.008675672113895416,-0.001714326674118638,0.9994404315948486
1679660643.85961294,127798806,2,0.03249434754252434,-0.008977185934782028,-0.0009761648252606392,0.9994311332702637
1679660643.95966697,127898860,2,0.03262488171458244,-0.009091034531593323,0.001331655541434884,0.9994254112243652
1679660644.05973005,127998923,2,0.032383084297180176,-0.009225891903042793,0.003093474078923464,0.9994281530380249
1679660644.15969110,128098884,2,0.03210701793432236,-0.009442652575671673,0.003788512898609042,0.9994326233863831
1679660644.25966907,128198862,2,0.03150852769613266,-0.009606488049030304,0.003925170749425888,0.999449610710144
1679660644.35968804,128298881,2,0.03093649446964264,-0.00974141526967287,0.0029252371750772,0.9994695782661438
1679660644.45965099,128398844,2,0.03038981556892395,-0.009542006999254227,3.3409710340492893e-06,0.9994925856590271
1679660644.55961490,128498808,2,0.029680397361516953,-0.009465220384299755,-0.0006027453346177936,0.9995144605636597
1679660644.65961790,128598811,2,0.02910822443664074,-0.007322367280721664,0.0011591457296162844,0.9995487928390503
1679660644.75962806,128698821,2,0.028443176299333572,0.00022865635401103646,0.002400096971541643,0.9995924830436707
1679660644.85969090,128798884,2,0.02796710468828678,0.009008804336190224,0.004154656082391739,0.9995596408843994
1679660644.95973802,128898931,2,0.027467191219329834,0.017224425449967384,0.007005384657531977,0.9994497299194336
1679660645.05968904,128998882,2,0.02706976793706417,0.022213764488697052,0.0084296315908432,0.9993511438369751
1679660645.15966702,129098860,2,0.02666630409657955,0.024110663682222366,0.008940503001213074,0.9993135929107666
1679660645.25967789,129198871,2,0.026452742516994476,0.028378762304782867,0.009776348248124123,0.9991993308067322
1679660645.35965109,129298844,2,0.026021471247076988,0.030261361971497536,0.010609031654894352,0.9991469383239746
1679660645.45962310,129398816,2,0.025323666632175446,0.022372441366314888,0.011082317680120468,0.9993674755096436
1679660645.55963087,129498824,2,0.024624835699796677,0.010985472239553928,0.011933364905416965,0.9995651841163635
1679660645.65963888,129598832,2,0.02419608272612095,-0.0006566428928636014,0.013771707192063332,0.9996121525764465
1679660645.75970793,129698901,2,0.02354308031499386,-0.009383156895637512,0.015242832712829113,0.9995625615119934
1679660645.85972595,129798919,2,0.023214248940348625,-0.011236678808927536,0.015277006663382053,0.9995506405830383
1679660645.95969009,129898883,2,0.022926131263375282,-0.009933139197528362,0.0130447493866086,0.9996026754379272
1679660646.05967093,129998864,2,0.022563181817531586,-0.010508866049349308,0.009323853999376297,0.9996467232704163
1679660646.15967202,130098865,2,0.022084098309278488,-0.011322464793920517,0.0025308597832918167,0.9996888041496277
1679660646.25965405,130198847,2,0.021662423387169838,-0.010825498029589653,-0.0029571272898465395,0.9997023344039917
1679660646.35962892,130298822,2,0.02107124589383602,-0.010576457716524601,-0.004777808673679829,0.9997106194496155
1679660646.45962691,130398820,2,0.020569320768117905,-0.010503976605832577,-0.004617577418684959,0.9997225999832153
1679660646.55962396,130498817,2,0.01998487487435341,-0.010361898690462112,-0.004109578672796488,0.9997381567955017
1679660646.65969896,130598892,2,0.01956818252801895,-0.009929523803293705,-0.0021338537335395813,0.999756932258606
1679660646.75966096,130698854,2,0.0192423015832901,-0.009982151910662651,-0.0013195278588682413,0.9997641444206238
1679660646.85968804,130798881,2,0.018748071044683456,-0.010066756047308445,-0.0015669121639803052,0.999772310256958
1679660646.95968008,130898873,2,0.018386784940958023,-0.010305624455213547,-0.00089554104488343,0.9997774362564087
1679660647.05967808,130998871,2,0.018075084313750267,-0.010504018515348434,-0.0009173302096314728,0.9997810125350952
1679660647.15964293,131098836,2,0.017716504633426666,-0.009972404688596725,-0.0004165595455560833,0.9997932314872742
1679660647.25962710,131198820,2,0.017387082800269127,-0.006740680895745754,-4.54718065157067e-05,0.9998261332511902
1679660647.35966301,131298856,2,0.017200298607349396,-0.002306972397491336,-0.00016597115609329194,0.9998493790626526
1679660647.45962095,131398814,2,0.016930799931287766,-0.001395142637193203,7.790253584971651e-05,0.9998556971549988
1679660647.55967999,131498873,2,0.016835227608680725,-0.0019898274913430214,-0.0002495667722541839,0.9998562932014465
1679660647.65967488,131598868,2,0.01690554991364479,-0.001584974816069007,-0.00014078913955017924,0.9998558163642883
1679660647.75969410,131698887,2,0.016953520476818085,0.0021085136104375124,-0.00028732410282827914,0.9998540282249451
1679660647.85966992,131798863,2,0.017171667888760567,0.008712942712008953,0.0003821918508037925,0.999814510345459
1679660647.95967507,131898868,2,0.01743336208164692,0.009219279512763023,0.0039241560734808445,0.9997978210449219
1679660648.05964398,131998837,2,0.017422806471586227,0.005379847716540098,0.01318558119237423,0.9997467994689941
1679660648.15961099,132098804,2,-0.015942396596074104,0.0020086506847292185,0.022655704990029335,0.9996141791343689
1679660648.25961494,132198808,2,-0.02146764099597931,-0.004557791631668806,0.030874552205204964,0.9992823004722595
1679660648.35964799,132298841,2,-0.030241284519433975,-0.011944672092795372,0.04159669950604439,0.9986052513122559
1679660648.45968199,132398875,2,-0.03819011524319649,-0.01604364812374115,0.048029832541942596,0.9979866147041321
1679660648.55971193,132498905,2,-0.04605020210146904,-0.016985876485705376,0.04788515716791153,0.997646152973175
1679660648.65969801,132598891,2,-0.053814250975847244,-0.01591869443655014,0.041604816913604736,0.9975568652153015
1679660648.75967407,132698867,2,-0.06084776297211647,-0.01331917755305767,0.020638812333345413,0.9978447556495667
1679660648.85966992,132798863,2,-0.0661151185631752,-0.012834038585424423,-0.0023440569639205933,0.9977266788482666
1679660648.95965099,132898844,2,-0.06970334053039551,-0.012249438092112541,-0.01248842477798462,0.9974143505096436
1679660649.05961108,132998804,2,-0.0708269253373146,-0.010529826395213604,-0.012161463499069214,0.9973589181900024
1679660649.15961409,133098807,2,-0.07064962387084961,-0.008993033319711685,-0.009270008653402328,0.9974175691604614
1679660649.25961995,133198813,2,-0.06715232878923416,-0.008667784743010998,-0.006782060023397207,0.9976820349693298
1679660649.35969710,133298890,2,-0.061529383063316345,-0.00853047613054514,-0.004794996231794357,0.9980573058128357
1679660649.45974398,133398937,2,-0.05427701026201248,-0.008954293094575405,-0.006154143251478672,0.9984667897224426
1679660649.55967689,133498870,2,-0.04714740812778473,-0.009606222622096539,-0.011594442650675774,0.9987744688987732
1679660649.65966892,133598862,2,-0.04141131788492203,-0.009366270154714584,-0.01662331074476242,0.9989599585533142
1679660649.75969505,133698888,2,-0.03965318575501442,-0.008158998563885689,-0.01845761202275753,0.9990096688270569
1679660649.85964298,133798836,2,-0.04444584622979164,-0.006507669109851122,-0.013508932664990425,0.9988992810249329
1679660649.95962310,133898816,2,-0.05724416673183441,-0.005396556109189987,-0.002400845754891634,0.998342752456665
1679660650.05962396,133998817,2,-0.07661796361207962,-0.004302910063415766,0.0003270237357355654,0.9970511794090271
1679660650.15964198,134098835,2,-0.10027682781219482,-0.0026614763773977757,-0.006102954037487507,0.9949373006820679
1679660650.25968409,134198877,2,-0.12562590837478638,-0.005178798455744982,-0.002190614817664027,0.9920617341995239
1679660650.35974598,134298939,2,-0.15254516899585724,-0.008469450287520885,0.0053012315183877945,0.988245964050293
1679660650.45966601,134398859,2,-0.18092282116413116,-0.008287446573376656,0.0037637779023498297,0.9834551811218262
1679660650.55966687,134498860,2,-0.20888136327266693,-0.008901616558432579,0.004038410261273384,0.9778921604156494
1679660650.65968204,134598875,2,-0.23397648334503174,-0.011079411022365093,0.008164387196302414,0.9721448421478271
1679660650.75964904,134698842,2,-0.2553688883781433,-0.01623173989355564,0.020301153883337975,0.9664942622184753
1679660650.85962796,134798821,2,-0.2725149691104889,-0.024496542289853096,0.04030719771981239,0.9609947204589844
1679660650.95963097,134898824,2,-0.28526628017425537,-0.022329699248075485,0.04121170565485954,0.9573014974594116
1679660651.05963302,134998826,2,-0.293146014213562,-0.01193767599761486,0.020378807559609413,0.9557759165763855
1679660651.15968990,135098883,2,-0.29812154173851013,-0.005284708458930254,0.0009039330761879683,0.9545128345489502
1679660651.25966597,135198859,2,-0.3044317960739136,-0.004490847699344158,-0.005559164565056562,0.9525073170661926
1679660651.35969400,135298887,2,-0.3127555251121521,-0.004241799935698509,-0.006417535711079836,0.9498025178909302
1679660651.45966506,135398858,2,-0.3206031918525696,-0.0034346631728112698,-0.009649825282394886,0.9471582174301147
1679660651.55967593,135498869,2,-0.32855403423309326,-0.003668632358312607,-0.015340890735387802,0.944353461265564
1679660651.65964389,135598837,2,-0.3385092318058014,-0.0035658644046634436,-0.021816100925207138,0.9407033920288086
1679660651.75961304,135698806,2,-0.35070404410362244,-0.002462150529026985,-0.02560337260365486,0.9361330270767212
1679660651.85961890,135798812,2,-0.36212706565856934,-0.003010156564414501,-0.02629220113158226,0.9317529797554016
1679660651.95962095,135898814,2,-0.3717256188392639,-0.0035190184134989977,-0.030740953981876373,0.9278268814086914
1679660652.05968094,135998874,2,-0.37996697425842285,-0.0028778410051018,-0.03967774659395218,0.9241442084312439
1679660652.15973592,136098929,2,-0.3867299556732178,-0.002623453503474593,-0.047600459307432175,0.9209599494934082
1679660652.25968599,136198879,2,-0.391023188829422,-0.004142834804952145,-0.05416783690452576,0.9187760949134827
1679660652.35967302,136298866,2,-0.3940596282482147,-0.0037838146090507507,-0.05942106992006302,0.9171541929244995
1679660652.45967102,136398864,2,-0.3968283236026764,0.0005024899146519601,-0.05891859158873558,0.9159998297691345
1679660652.55964899,136498842,2,-0.39932921528816223,0.004918466322124004,-0.05408303812146187,0.9151977896690369
1679660652.65961909,136598812,2,-0.4014260470867157,0.006836764048784971,-0.049859337508678436,0.9145077466964722
1679660652.75961089,136698804,2,-0.40313974022865295,0.007700810208916664,-0.044242676347494125,0.9140359163284302
1679660652.85964608,136798839,2,-0.404920369386673,0.005571847781538963,-0.027489153668284416,0.9139216542243958
1679660652.95968199,136898875,2,-0.4067603647708893,-0.0003770797629840672,-0.004955801647156477,0.9135213494300842
1679660653.05965996,136998853,2,-0.4093720018863678,-0.003980241250246763,3.103467679466121e-05,0.9123588800430298
1679660653.15969706,137098890,2,-0.4114552438259125,-0.002825119998306036,-0.011737187393009663,0.9113500118255615
1679660653.25967002,137198863,2,-0.4133561849594116,0.00048243897617794573,-0.023829778656363487,0.9102573990821838
1679660653.35967803,137298871,2,-0.4154442250728607,0.0043390775099396706,-0.030289821326732635,0.9091038703918457
1679660653.45964694,137398840,2,-0.4204804301261902,0.008684683591127396,-0.03308878839015961,0.9066564440727234
1679660653.55961299,137498806,2,-0.42998042702674866,0.010203766636550426,-0.03044302761554718,0.9022670984268188
1679660653.65962911,137598822,2,-0.44350922107696533,0.005446360446512699,-0.019217420369386673,0.8960472345352173
1679660653.75963688,137698830,2,-0.4593662917613983,-0.004255163948982954,-0.004499996080994606,0.8882253170013428
1679660653.85969591,137798889,2,-0.4758983552455902,-0.012024245224893093,0.003175028134137392,0.8794123530387878
1679660653.95966101,137898854,2,-0.4915759563446045,-0.020860841497778893,-0.0007455438026227057,0.8705844879150391
1679660654.05968809,137998881,2,-0.5061758160591125,-0.03858151659369469,-0.015023407526314259,0.8614358901977539
1679660654.15967393,138098867,2,-0.5184820294380188,-0.04918721318244934,-0.023893527686595917,0.8533382415771484
1679660654.25968289,138198876,2,-0.5273396968841553,-0.04989003762602806,-0.023743486031889915,0.8478561639785767
1679660654.35965490,138298848,2,-0.5318310260772705,-0.04127087444067001,-0.017526842653751373,0.8456626534461975
1679660654.45962811,138398821,2,-0.5330992937088013,-0.021978534758090973,-0.005662267096340656,0.845748245716095
1679660654.55962896,138498822,2,-0.5327674746513367,-0.010708846151828766,0.005224096123129129,0.8461777567863464
1679660654.65963888,138598832,2,-0.531231164932251,-0.018815308809280396,0.017244592308998108,0.8468424081802368
1679660654.75968695,138698880,2,-0.5286349058151245,-0.02145514450967312,0.019608044996857643,0.8483515381813049
1679660654.85976005,138798953,2,-0.5257482528686523,-0.011784528382122517,0.008742455393075943,0.8505136370658875
1679660654.95969296,138898886,2,-0.5223161578178406,-0.004093407653272152,-0.001088126446120441,0.8527414202690125
1679660655.05967307,138998866,2,-0.5187828540802002,-0.00340818939730525,-0.003706109942868352,0.8548912405967712
1679660655.15967393,139098867,2,-0.5152007937431335,-0.004868054296821356,-0.0038189624901860952,0.8570472002029419
1679660655.25964499,139198838,2,-0.5114652514457703,-0.005530127789825201,-0.003643950680270791,0.8592784404754639
1679660655.35961795,139298811,2,-0.5075228810310364,-0.006508390419185162,-0.0031333176884800196,0.8616080284118652
1679660655.45961809,139398811,2,-0.5037501454353333,-0.007212717551738024,-0.002311341231688857,0.8638162016868591
1679660655.55961990,139498813,2,-0.5001537799835205,-0.007880155928432941,-0.0018975932616740465,0.8658986687660217
1679660655.65967393,139598867,2,-0.49697330594062805,-0.008267655968666077,-0.0017721314216032624,0.8677246570587158
1679660655.75974488,139698938,2,-0.4953024685382843,-0.008571196347475052,-0.0016816233983263373,0.8686766624450684
1679660655.85968494,139798878,2,-0.4961128830909729,-0.008602682501077652,-0.001311790314503014,0.8682144284248352
1679660655.95966887,139898862,2,-0.5000890493392944,-0.00885921809822321,-0.001132829231210053,0.8659279346466064
1679660656.05967689,139998870,2,-0.5067687034606934,-0.008647521026432514,-0.0011089559411630034,0.8620379567146301
1679660656.15964389,140098837,2,-0.5152246952056885,-0.008398910984396935,-0.0002686921798158437,0.8570139408111572
1679660656.25961494,140198808,2,-0.5242369174957275,-0.008129253052175045,0.00024295737966895103,0.8515336513519287
1679660656.35961890,140298812,2,-0.5323835015296936,-0.008932886645197868,0.0013121438678354025,0.8464550971984863
1679660656.45961809,140398811,2,-0.5399280786514282,-0.0098356232047081,0.0025475320871919394,0.8416498303413391
1679660656.55966592,140498859,2,-0.5462286472320557,-0.010079816915094852,0.003086585085839033,0.8375697731971741
1679660656.65975189,140598945,2,-0.5503013730049133,-0.009963137097656727,0.003235418349504471,0.8349003791809082
1679660656.75969410,140698887,2,-0.5514264106750488,-0.009230372495949268,0.0023595711681991816,0.8341691493988037
1679660656.85966802,140798861,2,-0.5503945350646973,-0.00822887010872364,0.00035287922946736217,0.83486407995224
1679660656.95968604,140898879,2,-0.5485965609550476,-0.007558513432741165,-0.0009789103642106056,0.8360524773597717
1679660657.05965495,140998848,2,-0.5464246273040771,-0.006647489499300718,0.0003749330062419176,0.8374817967414856
1679660657.15962696,141098820,2,-0.543561577796936,0.001533251954242587,0.004702643491327763,0.8393546938896179
1679660657.25962806,141198821,2,-0.5400129556655884,0.020628957077860832,0.015332979150116444,0.8412641286849976
1679660657.35963798,141298831,2,-0.5367228984832764,0.031780555844306946,0.022127941250801086,0.8428694605827332
1679660657.45969009,141398883,2,-0.5342876315116882,0.028596429154276848,0.02194695547223091,0.8445338010787964
1679660657.55973506,141498928,2,-0.5323466658592224,0.018979158252477646,0.02502470277249813,0.8459435701370239
1679660657.65968895,141598882,2,-0.5307720899581909,0.004564279690384865,0.03266483172774315,0.8468725681304932
1679660657.75967002,141698863,2,-0.5290206670761108,-0.006513412110507488,0.035816386342048645,0.8478277921676636
1679660657.85967398,141798867,2,-0.5273860096931458,-0.009395606815814972,0.03442294895648956,0.8488761782646179
1679660657.95966291,141898856,2,-0.5259677767753601,-0.008336753584444523,0.02842680551111698,0.8499884009361267
1679660658.05962992,141998823,2,-0.5245607495307922,-0.006939603015780449,0.019399117678403854,0.8511236906051636
1679660658.15962791,142098821,2,-0.5230318903923035,-0.003835601033642888,0.012144205160439014,0.852217972278595
1679660658.25963402,142198827,2,-0.5215606093406677,0.0006372827338054776,0.007465397007763386,0.8531813025474548
1679660658.35968208,142298875,2,-0.5203679203987122,0.005506100598722696,0.004560405854135752,0.8539122343063354
1679660658.45965409,142398847,2,-0.5192533135414124,0.007939863950014114,0.0033992952667176723,0.8545767068862915
1679660658.55968189,142498875,2,-0.5183015465736389,0.007690152153372765,0.0029842921067029238,0.8551581501960754
1679660658.65966702,142598860,2,-0.517652690410614,0.006332913879305124,0.0028523828368633986,0.8555626273155212
1679660658.75967002,142698863,2,-0.5174862146377563,0.0028772400692105293,0.0018313777400180697,0.855684757232666
1679660658.85964203,142798835,2,-0.5174870491027832,-0.0032069366425275803,-0.0011531463824212551,0.8556842803955078
1679660658.95962191,142898815,2,-0.5178024172782898,-0.007031341083347797,-0.0029716903809458017,0.8554661870002747
1679660659.05961108,142998804,2,-0.5184145569801331,-0.007886712439358234,-0.0030893355142325163,0.8550874590873718
1679660659.15963197,143098825,2,-0.5191036462783813,-0.008899683132767677,-0.003086501732468605,0.854659378528595
1679660659.25967908,143198872,2,-0.5198259949684143,-0.011195460334420204,-0.004514941480010748,0.8541868925094604
1679660659.35975003,143298943,2,-0.5206511616706848,-0.012864815071225166,-0.005352057050913572,0.8536558151245117
1679660659.45967698,143398870,2,-0.5214543342590332,-0.01293274573981762,-0.005256838630884886,0.8531649708747864
1679660659.55967498,143498868,2,-0.5221795439720154,-0.012514336034655571,-0.0050237542018294334,0.8527289628982544
1679660659.65967202,143598865,2,-0.5229784250259399,-0.011939281597733498,-0.004736876580864191,0.8522491455078125
1679660659.75964499,143698838,2,-0.5236101150512695,-0.011235520243644714,-0.004202977288514376,0.851873517036438
1679660659.85961199,143798805,2,-0.5242450833320618,-0.0105260219424963,-0.003919560462236404,0.8514933586120605
1679660659.95961499,143898808,2,-0.5250245928764343,-0.010385365225374699,-0.0036616178695112467,0.8510158061981201
1679660660.05961609,143998809,2,-0.5257590413093567,-0.010309589095413685,-0.0032573731150478125,0.8505648374557495
1679660660.15967607,144098869,2,-0.5266087651252747,-0.010433959774672985,-0.0028197206556797028,0.8500390648841858
1679660660.25974107,144198934,2,-0.5275088548660278,-0.012165360152721405,-0.00022132237791083753,0.8494623899459839
1679660660.35968995,144298883,2,-0.5282599925994873,-0.013442971743643284,0.002132775727659464,0.8489735722541809
1679660660.45966506,144398858,2,-0.5291635990142822,-0.013716250658035278,0.0021685403771698475,0.848406195640564
1679660660.55968189,144498875,2,-0.5299679636955261,-0.012574814260005951,0.00118155381642282,0.8479236364364624
1679660660.65964699,144598840,2,-0.5306912660598755,-0.011443986557424068,-0.000509675417561084,0.8474878072738647
1679660660.75962496,144698818,2,-0.5313183069229126,-0.011769125238060951,-0.00010886341624427587,0.847090482711792
1679660660.85963011,144798823,2,-0.5318536758422852,-0.01625531166791916,0.006914081517606974,0.8466520309448242
1679660660.95963097,144898824,2,-0.5318450331687927,-0.025605469942092896,0.025046227499842644,0.8460838794708252
1679660661.05968308,144998876,2,-0.5317419767379761,-0.02908448874950409,0.044370073825120926,0.8452430963516235
1679660661.15966392,145098857,2,-0.5317210555076599,-0.02302270010113716,0.054828912019729614,0.844829261302948
1679660661.25970292,145198896,2,-0.5318356156349182,-0.01129008736461401,0.05792314559221268,0.8447889089584351
1679660661.35967088,145298864,2,-0.5319386720657349,0.003480287967249751,0.054082419723272324,0.845046877861023
1679660661.45968890,145398882,2,-0.5322014093399048,0.01759890466928482,0.04044976457953453,0.845467746257782
1679660661.55965400,145498847,2,-0.5327394604682922,0.023278899490833282,0.02593725360929966,0.8455613851547241
1679660661.65962911,145598822,2,-0.5339236259460449,0.02017040178179741,0.01572066731750965,0.8451458811759949
1679660661.75962591,145698819,2,-0.5351686477661133,0.013004566542804241,0.004851552192121744,0.8446311950683594
1679660661.85962701,145798820,2,-0.5363718271255493,0.006532609928399324,-0.00417858874425292,0.8439461588859558
1679660661.95967603,145898869,2,-0.5372200608253479,0.003513585077598691,-0.007337362039834261,0.8434028625488281
1679660662.05966687,145998860,2,-0.5380116701126099,0.003964919131249189,-0.0060512712225317955,0.8429063558578491
1679660662.15968895,146098882,2,-0.5382611155509949,0.013034242205321789,0.0009022286394611001,0.8426768183708191
1679660662.25966907,146198862,2,-0.5381855964660645,0.02325180172920227,0.008529196493327618,0.8424623608589172
1679660662.35967708,146298870,2,-0.5378006100654602,0.02526482194662094,0.011580516584217548,0.8426138162612915
1679660662.45964503,146398838,2,-0.5371151566505432,0.020970571786165237,0.009610422886908054,0.8431934714317322
1679660662.55962300,146498816,2,-0.5363206267356873,0.012386655434966087,0.005164273548871279,0.8439075946807861
1679660662.65962601,146598819,2,-0.5353648662567139,0.0026292239781469107,-0.0005083208088763058,0.8446166515350342
1679660662.75962400,146698817,2,-0.5342612862586975,-0.004621661733835936,-0.0045102485455572605,0.845294713973999
1679660662.85969400,146798887,2,-0.5328305959701538,-0.006372848991304636,-0.00562176713719964,0.8461792469024658
1679660662.95973992,146898933,2,-0.5313836932182312,-0.006996286101639271,-0.005335796158760786,0.8470855951309204
1679660663.05969000,146998883,2,-0.5299651622772217,-0.007996885105967522,-0.006250452250242233,0.8479586839675903
1679660663.15966296,147098856,2,-0.5285090208053589,-0.00966018158942461,-0.007551443297415972,0.8488391041755676
1679660663.25967598,147198869,2,-0.5269483923912048,-0.012013609521090984,-0.00882940273731947,0.8497664928436279
1679660663.35964394,147298837,2,-0.5254427194595337,-0.012859292328357697,-0.009383324533700943,0.8506800532341003
1679660663.45962000,147398813,2,-0.5241295695304871,-0.012230785563588142,-0.008522364310920238,0.8515080809593201
1679660663.55961394,147498807,2,-0.5229834914207458,-0.01160301361232996,-0.0077463663183152676,0.8522286415100098
1679660663.65962100,147598814,2,-0.522098958492279,-0.010813210159540176,-0.00709009263664484,0.8527868986129761
1679660663.75968909,147698882,2,-0.5212658643722534,-0.010253298096358776,-0.006770560517907143,0.8533058762550354
1679660663.85965800,147798851,2,-0.5207235217094421,-0.00990893505513668,-0.006971701048314571,0.8536394238471985
1679660663.95968890,147898882,2,-0.5204190611839294,-0.010363772511482239,-0.006895523052662611,0.853820264339447
1679660664.05967093,147998864,2,-0.5201768279075623,-0.01348682027310133,-0.008848038502037525,0.8539062738418579
1679660664.15967703,148098870,2,-0.5198774337768555,-0.018080884590744972,-0.0115272281691432,0.8539717197418213
1679660664.25964403,148198837,2,-0.5198861956596375,-0.019975993782281876,-0.012739475816488266,0.8539069294929504
1679660664.35962605,148298819,2,-0.5198401212692261,-0.024528488516807556,-0.015376043505966663,0.8537728786468506
1679660664.45962596,148398819,2,-0.5198718905448914,-0.03199921175837517,-0.02015443705022335,0.8534067273139954
1679660664.55962801,148498821,2,-0.5197381973266602,-0.03745078667998314,-0.024347100406885147,0.8531569838523865
1679660664.65968990,148598883,2,-0.5198108553886414,-0.041974905878305435,-0.02793128415942192,0.8527922630310059
1679660664.75973701,148698930,2,-0.5198121070861816,-0.0461030974984169,-0.03086814470589161,0.8524770140647888
1679660664.85966492,148798858,2,-0.519881546497345,-0.04721498861908913,-0.03152141347527504,0.8523498773574829
1679660664.95967197,148898865,2,-0.5200508832931519,-0.045221250504255295,-0.03025907836854458,0.8524004220962524
1679660665.05968690,148998880,2,-0.5201566219329834,-0.04568350315093994,-0.030061660334467888,0.8523182272911072
1679660665.15965509,149098848,2,-0.5200726985931396,-0.047769319266080856,-0.030670922249555588,0.8522334098815918
1679660665.25963187,149198825,2,-0.5204349756240845,-0.04811505973339081,-0.03089597076177597,0.8519846200942993
1679660665.35963988,149298833,2,-0.5206928849220276,-0.04770996421575546,-0.030793676152825356,0.8518535494804382
1679660665.45962095,149398814,2,-0.5210275053977966,-0.047191351652145386,-0.030667463317513466,0.8516823649406433
1679660665.55967593,149498869,2,-0.5213055610656738,-0.047174639999866486,-0.030968621373176575,0.8515021800994873
1679660665.65973496,149598928,2,-0.5215087532997131,-0.04758187755942345,-0.03127489611506462,0.8513439297676086
1679660665.75969100,149698884,2,-0.521931529045105,-0.04471789300441742,-0.029910944402217865,0.8512890934944153
1679660665.85967398,149798867,2,-0.5223515629768372,-0.03497767448425293,-0.024247577413916588,0.8516674637794495
1679660665.95967197,149898865,2,-0.5225908160209656,-0.02601580321788788,-0.01851562038064003,0.8519854545593262
1679660666.05964708,149998840,2,-0.522747278213501,-0.01517914142459631,-0.011883971281349659,0.85226970911026
1679660666.15961409,150098807,2,-0.5224558115005493,-0.00398827763274312,-0.004857345018535852,0.8526431918144226
1679660666.25962090,150198814,2,-0.5222735404968262,-0.00036286216345615685,-0.0023351828567683697,0.8527747392654419
1679660666.35962296,150298816,2,-0.5218828916549683,0.0005317298346199095,-0.005846988409757614,0.8529969453811646
1679660666.45966506,150398858,2,-0.5214935541152954,0.0026107646990567446,-0.012259813025593758,0.8531631231307983
1679660666.55965805,150498851,2,-0.5209758877754211,0.003225038293749094,-0.015800317749381065,0.8534190654754639
1679660666.65969896,150598892,2,-0.520422101020813,0.0021506380289793015,-0.0169240552932024,0.8537387251853943
1679660666.75966096,150698854,2,-0.5196157097816467,0.0029870381113141775,-0.020297663286328316,0.8541537523269653
1679660666.85967588,150798869,2,-0.5186855792999268,0.004449944011867046,-0.0244879312813282,0.8546027541160583
1679660666.95964599,150898839,2,-0.5176428556442261,0.005193913821130991,-0.027084633708000183,0.8551522493362427
1679660667.05961704,150998810,2,-0.5165641903877258,0.006495762150734663,-0.03163651376962662,0.8556391596794128
1679660667.15961695,151098810,2,-0.5153908133506775,0.0037119120825082064,-0.035225071012973785,0.856222927570343
1679660667.25962496,151198818,2,-0.5141997933387756,-0.011087494902312756,-0.028666090220212936,0.8571195602416992
1679660667.35966802,151298861,2,-0.5129696726799011,-0.03078281693160534,-0.019086340442299843,0.8576422929763794
1679660667.45973206,151398925,2,-0.5119748711585999,-0.04797381907701492,-0.019167952239513397,0.8574455380439758
1679660667.55968499,151498878,2,-0.5113368630409241,-0.050604261457920074,-0.014533231034874916,0.8577660322189331
1679660667.65966392,151598857,2,-0.5103326439857483,-0.04281018674373627,0.011166098527610302,0.8588383197784424
1679660667.75968003,151698873,2,-0.5098093748092651,-0.034562040120363235,0.03320053592324257,0.8589514493942261
1679660667.85964203,151798835,2,-0.5102415680885315,-0.022150082513689995,0.025459961965680122,0.8593687415122986
1679660667.95963192,151898825,2,-0.5110641121864319,-0.009169484488666058,0.005485734902322292,0.8594762086868286
1679660668.05961490,151998808,2,-0.5117505788803101,-0.0037501805927604437,-0.004757819231599569,0.8591126799583435
1679660668.15962791,152098821,2,-0.5126135945320129,-0.003375320928171277,-0.006184685509651899,0.8585904836654663
1679660668.25968194,152198875,2,-0.5133750438690186,-0.004836798179894686,-0.006375402677804232,0.8581270575523376
1679660668.35974288,152298936,2,-0.5143299102783203,-0.0058962819166481495,-0.0065553379245102406,0.8575471043586731
1679660668.45967793,152398871,2,-0.5151056051254272,-0.007103194948285818,-0.005721604451537132,0.8570781946182251
1679660668.55967093,152498864,2,-0.5158692598342896,-0.007712284103035927,-0.005444481503218412,0.8566153049468994
1679660668.65967894,152598872,2,-0.5165313482284546,-0.008037067018449306,-0.004913724958896637,0.8562164306640625
1679660668.75964189,152698835,2,-0.5170924663543701,-0.008240880444645882,-0.0047524189576506615,0.8558766841888428
1679660668.85961294,152798806,2,-0.5174717903137207,-0.0081863421946764,-0.004404357168823481,0.8556497693061829
1679660668.95961499,152898808,2,-0.5178256034851074,-0.009736415930092335,-0.005251588299870491,0.8554146885871887
1679660669.05962610,152998819,2,-0.5180221199989319,-0.0196433924138546,-0.01069101132452488,0.8550747632980347
1679660669.15966892,153098862,2,-0.5179096460342407,-0.03670812025666237,-0.02092684619128704,0.8543910980224609
1679660669.25967693,153198870,2,-0.5175372958183289,-0.05275324359536171,-0.030561380088329315,0.8534859418869019
1679660669.35968590,153298879,2,-0.5173202157020569,-0.060674186795949936,-0.03573794290423393,0.8528899550437927
1679660669.45967197,153398865,2,-0.5169680714607239,-0.062406860291957855,-0.03712628781795502,0.8529191017150879
1679660669.55967999,153498873,2,-0.5166463851928711,-0.06050267443060875,-0.03590620681643486,0.8533033728599548
1679660669.65965605,153598849,2,-0.5162618160247803,-0.05525510758161545,-0.03312680870294571,0.8540042042732239
1679660669.75962901,153698822,2,-0.5160894989967346,-0.03541066497564316,-0.021516961976885796,0.8555318117141724
1679660669.85962296,153798816,2,-0.5154253244400024,-0.008135261945426464,-0.004869395866990089,0.8568820357322693
1679660669.95963001,153898823,2,-0.5144398212432861,0.004531184211373329,0.00315689854323864,0.8575087189674377
1679660670.05970597,153998899,2,-0.5137379169464111,0.004477336071431637,0.0032544899731874466,0.8579293489456177
1679660670.15972996,154098923,2,-0.5132832527160645,0.002323528053238988,0.001635964959859848,0.8582145571708679
1679660670.25969005,154198883,2,-0.5129647850990295,0.0007603607373312116,0.0006625207606703043,0.85840904712677
1679660670.35967398,154298867,2,-0.5127750635147095,-0.00134290533605963,-0.0009778422536328435,0.8585214018821716
1679660670.45967507,154398868,2,-0.5127083659172058,-0.0029819330666214228,-0.00165201083291322,0.8585560321807861
1679660670.55961800,154498811,2,-0.5124579668045044,-0.004069630987942219,-0.0019649046007543802,0.8587003946304321
1679660670.65962291,154598816,2,-0.5122324228286743,-0.004219245631247759,-0.0017026461428031325,0.8588348031044006
1679660670.75961900,154698812,2,-0.5119949579238892,-0.002766708377748728,3.35226213792339e-05,0.8589839935302734
1679660670.85962510,154798818,2,-0.5116245746612549,-0.0007241917192004621,0.001688420306891203,0.8592071533203125
1679660670.95969510,154898888,2,-0.5112899541854858,-0.0022201628889888525,0.0016171608585864305,0.8594038486480713
1679660671.05974698,154998940,2,-0.5110157132148743,0.0004358926380518824,0.003160454798489809,0.8595654368400574
1679660671.15967393,155098867,2,-0.5104018449783325,0.022508999332785606,0.016397539526224136,0.8594849705696106
1679660671.25966311,155198856,2,-0.509175717830658,0.0467040091753006,0.031146429479122162,0.8588298559188843
1679660671.35967302,155298866,2,-0.5085482597351074,0.055125921964645386,0.03674822673201561,0.8584808707237244
1679660671.45964694,155398840,2,-0.5083737969398499,0.053524479269981384,0.035638004541397095,0.858732283115387
1679660671.55962610,155498819,2,-0.5082269310951233,0.05108276754617691,0.0337032824754715,0.8590459823608398
1679660671.65962195,155598815,2,-0.5080910921096802,0.04885314404964447,0.031839292496442795,0.8593270778656006
1679660671.75964499,155698838,2,-0.5078161954879761,0.046590257436037064,0.030172865837812424,0.8596752882003784
1679660671.85969090,155798884,2,-0.5076135993003845,0.04517232999205589,0.029186638072133064,0.8599046468734741
1679660671.95967388,155898867,2,-0.507312536239624,0.044726528227329254,0.028873132541775703,0.860116183757782
1679660672.05966210,155998855,2,-0.5070957541465759,0.044328492134809494,0.028551314026117325,0.860275387763977
1679660672.15967703,156098870,2,-0.5070555806159973,0.045554809272289276,0.028866274282336235,0.8602244853973389
1679660672.25967693,156198870,2,-0.507092297077179,0.04756655544042587,0.029702940955758095,0.8600654602050781
1679660672.35965395,156298847,2,-0.5072416663169861,0.04653936251997948,0.02890179492533207,0.8600608110427856
1679660672.45962191,156398815,2,-0.5075188875198364,0.041207071393728256,0.024808984249830246,0.8602970838546753
1679660672.55961204,156498805,2,-0.5085769295692444,0.017914293333888054,0.01068710908293724,0.8607638478279114
1679660672.65963387,156598827,2,-0.5092419981956482,-0.01142020896077156,-0.007146880496293306,0.8605179190635681
1679660672.75968003,156698873,2,-0.5098433494567871,-0.022510938346385956,-0.015250124037265778,0.8598374724388123
1679660672.85973597,156798929,2,-0.5102959275245667,-0.020049072802066803,-0.014930427074432373,0.8596355319023132
1679660672.95968509,156898878,2,-0.5109908580780029,-0.016859041526913643,-0.01278019044548273,0.8593257665634155
1679660673.05966210,156998855,2,-0.5115289092063904,-0.014951501041650772,-0.011445044539868832,0.859059751033783
1679660673.15967393,157098867,2,-0.5122658610343933,-0.012682756409049034,-0.010308926925063133,0.8586713671684265
1679660673.25964189,157198835,2,-0.512904167175293,-0.011670618318021297,-0.008760452270507812,0.8583218455314636
1679660673.35961509,157298808,2,-0.5133959650993347,-0.011033299379050732,-0.007934109307825565,0.8580442070960999
1679660673.45961809,157398811,2,-0.5136692523956299,-0.01176411285996437,-0.005036970600485802,0.8578928709030151
1679660673.55961990,157498813,2,-0.5137847661972046,-0.020548170432448387,0.010208160616457462,0.8576122522354126
1679660673.65966606,157598859,2,-0.5133141279220581,-0.033788975328207016,0.03369854763150215,0.8568729758262634
1679660673.75973511,157698928,2,-0.5129748582839966,-0.04131530597805977,0.046876728534698486,0.8561264276504517
1679660673.85969210,157798885,2,-0.5127768516540527,-0.04182731360197067,0.048234835267066956,0.8561447262763977
1679660673.95967507,157898868,2,-0.512663722038269,-0.04079778864979744,0.045784223824739456,0.8563966751098633
1679660674.05967999,157998873,2,-0.5123500227928162,-0.03948002681136131,0.04322481155395508,0.8567790985107422
1679660674.15964103,158098834,2,-0.5119546055793762,-0.0382503978908062,0.04034785181283951,0.8572114109992981
1679660674.25963593,158198829,2,-0.5116166472434998,-0.037263739854097366,0.03862536698579788,0.8575359582901001
1679660674.35962796,158298821,2,-0.5113741755485535,-0.03575151413679123,0.03554072231054306,0.8578782677650452
1679660674.45961595,158398809,2,-0.5116662979125977,-0.027740858495235443,0.022106053307652473,0.8584517240524292
1679660674.55966401,158498857,2,-0.5118707418441772,-0.013752816244959831,-0.0005747691029682755,0.8589522242546082
1679660674.65966988,158598863,2,-0.5117619037628174,-0.005483902059495449,-0.013834314420819283,0.8589984178543091
1679660674.75966907,158698862,2,-0.5118857622146606,-0.0040295016951859,-0.015524079091846943,0.8589038252830505
1679660674.85966206,158798855,2,-0.5116983652114868,-0.004235182423144579,-0.013748692348599434,0.8590447306632996
1679660674.95968390,158898877,2,-0.5117745399475098,-0.0013199938694015145,-0.01729499362409115,0.8589446544647217
1679660675.05965495,158998848,2,-0.5117137432098389,0.0060657006688416,-0.028686251491308212,0.858655571937561
1679660675.15962911,159098822,2,-0.5112752914428711,0.01596253179013729,-0.04508492723107338,0.8580851554870605
1679660675.25961494,159198808,2,-0.5105680227279663,0.021426977589726448,-0.05411664396524429,0.8578650951385498
1679660675.35963106,159298824,2,-0.5100618600845337,0.021166056394577026,-0.052775152027606964,0.8582562208175659
1679660675.45968699,159398880,2,-0.5092117190361023,0.019338730722665787,-0.04949602857232094,0.8589991927146912
1679660675.55970192,159498895,2,-0.5081087350845337,0.017958378419280052,-0.048455700278282166,0.8597412705421448
1679660675.65969205,159598885,2,-0.5068520307540894,0.015735488384962082,-0.046188145875930786,0.8606509566307068
1679660675.75967503,159698868,2,-0.5056215524673462,0.013687223196029663,-0.042667750269174576,0.8615909814834595
1679660675.85967493,159798868,2,-0.50448077917099,0.011523036286234856,-0.03855111077427864,0.862484872341156
1679660675.95964503,159898838,2,-0.503428041934967,0.008054603822529316,-0.03331094980239868,0.8633572459220886
1679660676.05961490,159998808,2,-0.5026265978813171,-0.0027429009787738323,-0.021544162184000015,0.864230751991272
1679660676.15961695,160098810,2,-0.501972496509552,-0.02517431043088436,-0.011609261855483055,0.8644391894340515
1679660676.25962400,160198817,2,-0.5016120076179504,-0.04566027596592903,-0.01285691000521183,0.8637912273406982
1679660676.35968494,160298878,2,-0.501814067363739,-0.05360274016857147,-0.017629466950893402,0.8631330132484436
1679660676.45964909,160398842,2,-0.5026223063468933,-0.04818567633628845,-0.01748010143637657,0.8629851341247559
1679660676.55968690,160498880,2,-0.5037258863449097,-0.04223635420203209,-0.01631930097937584,0.8626760840415955
1679660676.65967393,160598867,2,-0.5052255392074585,-0.04229426011443138,-0.01831081323325634,0.8617557883262634
1679660676.75967789,160698871,2,-0.5066661238670349,-0.04338002949953079,-0.021292557939887047,0.8607869744300842
1679660676.85964203,160798835,2,-0.508467972278595,-0.0425429604947567,-0.02279551513493061,0.859727144241333
1679660676.95963287,160898826,2,-0.5102536082267761,-0.04237921163439751,-0.023065848276019096,0.8586694598197937
1679660677.05962205,160998815,2,-0.5121435523033142,-0.041261959820985794,-0.02251252718269825,0.8576127290725708
1679660677.15962696,161098820,2,-0.5145281553268433,-0.03948581963777542,-0.021486593410372734,0.8562943339347839
1679660677.25968003,161198873,2,-0.5183956027030945,-0.03702067211270332,-0.020435594022274017,0.8540947437286377
1679660677.35966992,161298863,2,-0.5235595107078552,-0.03522632271051407,-0.020171890035271645,0.8510215282440186
1679660677.45968604,161398879,2,-0.5288197994232178,-0.03390906751155853,-0.020418943837285042,0.8478106260299683
1679660677.55966687,161498860,2,-0.5336848497390747,-0.03155572712421417,-0.019637910649180412,0.8448663353919983
1679660677.65968704,161598880,2,-0.5379312634468079,-0.028251390904188156,-0.01676884852349758,0.8423482775688171
1679660677.75965405,161698847,2,-0.541842520236969,-0.02132170833647251,-0.012175826355814934,0.840121328830719
1679660677.85963702,161798830,2,-0.545019805431366,-0.013768259435892105,-0.007716228719800711,0.8382745981216431
1679660677.95963192,161898825,2,-0.547690212726593,-0.010456155054271221,-0.005970372352749109,0.8365945816040039
1679660678.05962300,161998816,2,-0.5496394038200378,-0.014146764762699604,-0.008356576785445213,0.8352404236793518
1679660678.15967202,162098865,2,-0.5509604215621948,-0.025923099368810654,-0.01543493289500475,0.8339858055114746
1679660678.25972509,162198918,2,-0.5515778064727783,-0.04153158888220787,-0.025520864874124527,0.832697868347168
1679660678.35968995,162298883,2,-0.5516723394393921,-0.0519280731678009,-0.03187774494290352,0.8318322896957397
1679660678.45966291,162398856,2,-0.5515317320823669,-0.05558942258358002,-0.03374329209327698,0.8316152691841125
1679660678.55967402,162498867,2,-0.5507349371910095,-0.0626295655965805,-0.037132378667593,0.8314985036849976
1679660678.65965009,162598843,2,-0.5492228269577026,-0.07256985455751419,-0.042703885585069656,0.8314230442047119
1679660678.75961304,162698806,2,-0.5478256344795227,-0.07286045700311661,-0.04295101389288902,0.8323062062263489
1679660678.85961795,162798811,2,-0.5466815829277039,-0.06428749859333038,-0.03790861368179321,0.834007978439331
1679660678.95961905,162898812,2,-0.5451945662498474,-0.05727292224764824,-0.03346793353557587,0.8356809616088867
1679660679.05968094,162998874,2,-0.5437605977058411,-0.05130144581198692,-0.029963787645101547,0.837134838104248
1679660679.15970898,163098902,2,-0.5423868298530579,-0.0437777079641819,-0.025960521772503853,0.8385857939720154
1679660679.25968909,163198882,2,-0.5412453413009644,-0.033437103033065796,-0.019800109788775444,0.8399662971496582
1679660679.35966992,163298863,2,-0.5401127934455872,-0.020408995449543,-0.011815422214567661,0.84126216173172
1679660679.45967889,163398872,2,-0.5391373038291931,-0.010705369524657726,-0.005795463919639587,0.8421298861503601
1679660679.55964708,163498840,2,-0.5380550026893616,-0.0021980220917612314,-0.0009357921662740409,0.8429063558578491
1679660679.65962911,163598822,2,-0.5371150970458984,0.0021121972240507603,0.001872868975624442,0.8435042500495911
1679660679.75963187,163698825,2,-0.536337673664093,0.0022772664669901133,0.0023178295232355595,0.8439972400665283
1679660679.85962796,163798821,2,-0.5355246067047119,0.0015812159981578588,0.0016117750201374292,0.8445166349411011
1679660679.95969892,163898892,2,-0.5346945524215698,0.0008617561543360353,0.0006247175042517483,0.845044732093811
1679660680.05973887,163998932,2,-0.5337705612182617,-0.0003540281322784722,-0.000458687572972849,0.8456291556358337
1679660680.15968704,164098880,2,-0.5328750014305115,-0.0015142502961680293,-0.0016084660310298204,0.8461911082267761
1679660680.25967097,164198864,2,-0.5319424867630005,-0.0019990045111626387,-0.0026297594886273146,0.8467740416526794
1679660680.35970306,164298896,2,-0.53086918592453,-0.001209689537063241,-0.004999173805117607,0.8474381566047668
1679660680.45965910,164398852,2,-0.529914379119873,0.0029812848661094904,-0.011745131574571133,0.8479645252227783
1679660680.55962896,164498822,2,-0.5291414260864258,0.011987387202680111,-0.013424896635115147,0.8483427166938782
1679660680.65963101,164598824,2,-0.5283307433128357,0.03246680274605751,-0.0019244945142418146,0.8484154939651489
1679660680.75963187,164698825,2,-0.5273323655128479,0.04967141151428223,0.011057034134864807,0.8481338620185852
1679660680.85967207,164798865,2,-0.5269827246665955,0.04932110756635666,0.01961083896458149,0.8482170104980469
1679660680.95974207,164898935,2,-0.5269613265991211,0.04386173561215401,0.025709524750709534,0.8483672142028809
1679660681.05968404,164998877,2,-0.5270258188247681,0.03555414453148842,0.024014849215745926,0.8487655520439148
1679660681.15966392,165098857,2,-0.5275304913520813,0.025649502873420715,0.017978940159082413,0.848958432674408
1679660681.25967598,165198869,2,-0.528328537940979,0.01878185383975506,0.014191167429089546,0.8487136363983154
1679660681.35964394,165298837,2,-0.5291791558265686,0.017534635961055756,0.013460823334753513,0.8482221364974976
1679660681.45961404,165398807,2,-0.5300963521003723,0.025313183665275574,0.017485767602920532,0.8473790884017944
1679660681.55961895,165498812,2,-0.5313165187835693,0.03227687627077103,0.022358572110533714,0.8462629914283752
