timestamp,TimeUS,DesRoll,Roll,DesPitch,Pitch,DesYaw,Yaw,ErrRP,ErrYaw,AEKF
1678916759.97982597,98401052,0.0,1.12,0.0,-0.78,334.66,334.67,0.0,0.01,3
1678916760.07984400,98501070,0.0,1.12,0.0,-0.79,334.66,334.67,0.0,0.01,3
1678916760.17976904,98600995,0.0,1.12,0.0,-0.79,334.66,334.66,0.0,0.02,3
1678916760.27999187,98701218,0.0,1.1300000000000001,0.0,-0.8,334.66,334.66,0.0,0.02,3
1678916760.37971306,98800939,0.0,1.12,0.0,-0.8,334.66,334.64,0.0,0.02,3
1678916760.47970009,98900926,0.0,1.1400000000000001,0.0,-0.8,334.66,334.63,0.01,0.02,3
1678916760.57965493,99000881,0.0,1.1300000000000001,0.0,-0.8,334.66,334.61,0.01,0.02,3
1678916760.67970896,99100935,0.0,1.1400000000000001,0.0,-0.8,334.66,334.6,0.01,0.02,3
1678916760.77976704,99200993,0.0,1.1400000000000001,0.0,-0.81,334.66,334.59000000000003,0.01,0.02,3
1678916760.87977886,99301005,0.0,1.1400000000000001,0.0,-0.81,334.66,334.59000000000003,0.01,0.02,3
1678916760.97982001,99401046,0.0,1.1500000000000001,0.0,-0.81,334.66,334.58,0.01,0.02,3
1678916761.08001590,99501242,0.0,1.1400000000000001,0.0,-0.8200000000000001,334.66,334.58,0.01,0.02,3
1678916761.18007588,99601302,0.0,1.16,0.0,-0.8200000000000001,334.66,334.58,0.01,0.01,3
1678916761.28026891,99701495,0.0,1.1500000000000001,0.0,-0.8200000000000001,334.66,334.58,0.01,0.01,3
1678916761.37966204,99800888,0.0,1.17,0.0,-0.8300000000000001,334.66,334.58,0.01,0.01,3
1678916761.47999597,99901222,0.0,1.16,0.0,-0.8300000000000001,334.66,334.57,0.01,0.01,3
1678916761.58009505,100001321,0.0,1.16,0.0,-0.84,334.66,334.57,0.01,0.01,3
1678916761.67992306,100101149,0.0,1.18,0.0,-0.8300000000000001,334.66,334.56,0.01,0.0,3
1678916761.77998996,100201216,0.0,1.17,0.0,-0.84,334.66,334.56,0.01,0.01,3
1678916761.88009596,100301322,0.0,1.19,0.0,-0.84,334.66,334.56,0.01,0.01,3
1678916761.98004389,100401270,0.0,1.19,0.0,-0.84,334.54,334.55,0.01,0.01,3
1678916762.08001304,100501239,0.0,1.2,0.0,-0.84,334.54,334.55,0.01,0.01,3
1678916762.18021297,100601439,0.0,1.2,0.0,-0.84,334.54,334.55,0.01,0.01,3
1678916762.28003693,100701263,0.0,1.2,0.0,-0.85,334.54,334.55,0.01,0.01,3
1678916762.38002396,100801250,0.0,1.22,0.0,-0.85,334.53000000000003,334.54,0.01,0.01,3
1678916762.47975397,100900980,0.0,1.21,0.0,-0.85,334.52,334.53000000000003,0.01,0.01,3
1678916762.57974696,101000973,0.0,1.23,0.0,-0.86,334.52,334.54,0.01,0.01,3
1678916762.67978787,101101014,0.0,1.22,0.0,-0.86,334.52,334.52,0.0,0.01,3
1678916762.77986789,101201094,0.0,1.23,0.0,-0.87,334.52,334.52,0.0,0.01,3
1678916762.87985086,101301077,0.0,1.23,0.0,-0.87,334.52,334.51,0.01,0.01,3
1678916762.97977805,101401004,0.0,1.24,0.0,-0.87,334.52,334.52,0.01,0.01,3
1678916763.07968307,101500909,0.0,1.24,0.0,-0.89,334.52,334.5,0.01,0.01,3
1678916763.17968702,101600913,0.0,1.25,0.0,-0.9,334.52,334.49,0.01,0.01,3
1678916763.27968001,101700906,0.0,1.25,0.0,-0.9,334.52,334.49,0.01,0.02,3
1678916763.37971807,101800944,0.0,1.17,0.0,-0.87,334.52,334.46,0.01,0.03,3
1678916763.47976995,101900996,0.0,1.22,0.0,-0.87,334.52,334.46,0.01,0.03,3
1678916763.57982087,102001047,0.0,1.2,0.0,-0.87,334.52,334.43,0.01,0.03,3
1678916763.67983890,102101065,0.0,1.21,0.0,-0.89,334.52,334.42,0.01,0.02,3
1678916763.77976704,102200993,0.0,1.29,0.0,-0.89,334.52,334.41,0.01,0.02,3
1678916763.87968588,102300912,0.0,1.28,0.27,-0.91,334.52,334.37,0.01,0.02,3
1678916763.98011708,102401343,0.0,1.26,0.88,-0.8300000000000001,334.52,334.35,0.01,0.03,3
1678916764.07968497,102500911,0.0,1.22,0.9,-0.78,334.52,334.37,0.01,0.04,3
1678916764.17970705,102600933,0.0,1.24,0.54,-0.89,334.52,334.35,0.01,0.04,3
1678916764.27971506,102700941,0.0,1.27,0.32,-0.93,334.52,334.38,0.01,0.03,3
1678916764.37973189,102800958,0.0,1.29,0.17,-0.92,334.52,334.37,0.01,0.02,3
1678916764.47983193,102901058,-0.19,1.27,0.12,-0.9,334.52,334.39,0.01,0.02,3
1678916764.57985592,103001082,-0.48,1.23,0.2,-0.9,334.52,334.37,0.01,0.02,3
1678916764.68004107,103101267,-0.5700000000000001,1.29,1.03,-0.91,334.52,334.39,0.01,0.02,3
1678916764.78006697,103201293,-1.25,1.27,0.9,-0.88,334.52,334.35,0.01,0.02,3
1678916764.87992787,103301154,-2.14,0.96,0.48,-0.86,334.52,334.37,0.01,0.02,3
1678916764.97989392,103401120,-2.65,1.12,0.24,-0.98,334.52,334.33,0.01,0.02,3
1678916765.07983899,103501065,-3.02,1.24,0.12,-1.07,334.52,334.26,0.01,0.06,3
1678916765.17995787,103601184,-2.97,0.74,0.06,-1.17,334.52,334.0,0.01,0.08,3
1678916765.28014588,103701372,-2.77,-0.02,0.03,-1.35,334.52,333.62,0.01,0.09,3
1678916765.38017893,103801405,-2.43,-0.9500000000000001,0.46,-1.57,334.52,333.15000000000003,0.01,0.1,3
1678916765.48009205,103901318,-1.69,-1.8800000000000001,1.6400000000000001,-1.26,334.52,332.61,0.01,0.1,3
1678916765.58005905,104001285,-1.1400000000000001,-2.04,2.66,0.43,334.52,332.11,0.01,0.08,3
1678916765.67969990,104100926,-1.42,-1.75,2.47,2.48,334.52,331.67,0.01,0.09,3
1678916765.77972794,104200954,-1.3,-1.94,2.02,2.68,334.52,331.37,0.01,0.18,3
1678916765.87971902,104300945,-0.71,-2.12,1.16,1.84,334.87,331.1,0.01,0.23,3
1678916765.97969389,104400920,-0.36,-0.9,0.59,0.5700000000000001,335.90000000000003,330.94,0.01,0.24,3
1678916766.07972908,104500955,-0.18,0.58,0.3,-0.56,336.81,331.04,0.01,0.23,3
1678916766.17975092,104600977,-0.09,1.52,0.15,-0.9,336.96,331.27,0.01,0.19,3
1678916766.27981496,104701041,-0.04,1.77,0.07,-1.11,336.96,331.48,0.01,0.22,3
1678916766.37986302,104801089,-0.47000000000000003,1.44,0.04,-1.08,336.96,331.63,0.01,0.25,3
1678916766.48009300,104901319,-0.9,0.68,0.19,-0.9400000000000001,336.96,331.81,0.02,0.25,3
1678916766.58007598,105001302,-1.33,-0.23,0.72,-0.71,336.96,331.96,0.02,0.26,3
1678916766.68002987,105101256,-1.7,-0.45,1.0,0.03,336.96,332.19,0.02,0.23,3
1678916766.77966809,105200894,-2.16,-0.71,1.07,0.85,336.96,332.44,0.02,0.21,3
1678916766.87999105,105301217,-2.67,-1.75,1.6500000000000001,0.89,336.96,332.68,0.02,0.23,3
1678916766.98007488,105401301,-3.37,-2.62,1.93,1.21,336.96,332.97,0.02,0.19,3
1678916767.07993507,105501161,-4.25,-3.61,2.41,1.59,336.96,333.22,0.01,0.15,3
1678916767.17999601,105601222,-4.08,-4.5200000000000005,2.94,2.04,336.96,333.49,0.01,0.12,3
1678916767.28005290,105701279,-3.69,-4.82,3.15,2.67,336.96,333.74,0.02,0.11,3
1678916767.38003492,105801261,-3.48,-4.1,3.25,2.8000000000000003,336.96,334.09000000000003,0.02,0.09,3
1678916767.48006606,105901292,-2.7,-3.56,3.0500000000000003,2.7600000000000002,336.96,334.5,0.02,0.11,3
1678916767.58000302,106001229,-1.85,-2.87,2.83,2.57,336.96,334.93,0.02,0.1,3
1678916767.68002009,106101246,-1.1300000000000001,-1.58,2.77,2.32,336.96,335.36,0.02,0.08,3
1678916767.78029609,106201522,-0.58,-0.51,2.7,2.2600000000000002,336.96,335.85,0.02,0.07,3
1678916767.87972999,106300956,-0.29,0.32,2.8000000000000003,2.34,336.78000000000003,336.26,0.02,0.07,3
1678916767.97974086,106400967,-0.15,0.49,3.45,2.45,335.85,336.62,0.02,0.06,3
1678916768.07979798,106501024,-0.07,0.58,4.2700000000000005,3.19,334.63,336.75,0.02,0.05,3
1678916768.17991209,106601138,-0.03,0.6900000000000001,4.44,4.44,333.14,336.6,0.02,0.04,3
1678916768.27978587,106701012,-0.02,0.29,4.42,4.96,331.45,336.13,0.01,0.06,3
1678916768.37974596,106800972,-0.01,-0.09,4.15,4.75,329.64,335.29,0.01,0.07,3
1678916768.48005390,106901280,0.89,0.76,2.69,4.2700000000000005,156.15,161.68,0.02,0.07,3
1678916768.57968593,107000912,0.43,0.28,1.37,2.0100000000000002,155.99,160.3,0.02,0.08,3
1678916768.67968202,107100908,0.0,-0.62,0.7000000000000001,-0.35000000000000003,156.25,159.05,0.02,0.07,3
1678916768.77972698,107200953,-0.37,-1.07,0.55,-1.4000000000000001,157.36,157.91,0.02,0.07,3
1678916768.87973499,107300961,-0.68,-1.1500000000000001,1.05,-1.21,159.11,156.87,0.02,0.06,3
1678916768.97979307,107401019,-0.46,-0.65,1.46,0.08,161.17000000000002,156.08,0.02,0.06,3
1678916769.07982707,107501053,-0.41000000000000003,-0.05,1.78,1.35,163.21,155.49,0.02,0.07,3
1678916769.17978001,107601006,-0.5,0.25,2.0100000000000002,1.98,164.55,155.39000000000001,0.02,0.12,3
1678916769.27977991,107701006,-0.7000000000000001,0.11,1.6600000000000001,2.25,166.08,155.8,0.03,0.14,3
1678916769.38002706,107801253,-1.04,-0.41000000000000003,1.21,1.51,166.82,156.75,0.03,0.18,3
1678916769.47972202,107900948,-0.8200000000000001,-0.62,1.06,0.53,166.87,158.07,0.02,0.19,3
1678916769.57967496,108000901,-0.43,-0.39,0.81,0.13,166.87,159.48,0.02,0.16,3
1678916769.67994404,108101170,-0.22,-0.03,0.8,0.51,166.87,160.8,0.02,0.14,3
1678916769.77986789,108201094,-0.11,0.32,1.17,0.66,166.87,161.86,0.02,0.13,3
1678916769.87994194,108301168,-0.05,0.18,1.45,1.11,166.87,162.57,0.03,0.12,3
1678916769.98003006,108401256,-0.02,-0.08,1.59,1.3800000000000001,166.87,163.07,0.03,0.1,3
1678916770.07999301,108501219,-0.01,0.11,1.76,1.46,166.87,163.45000000000002,0.02,0.1,3
1678916770.17998195,108601208,-0.16,0.02,2.1,1.6300000000000001,166.87,163.74,0.02,0.08,3
1678916770.28004694,108701273,-0.46,-0.07,2.87,1.83,166.87,163.98,0.02,0.07,3
1678916770.37987804,108801104,-0.72,-0.73,4.17,2.62,166.87,164.15,0.02,0.06,3
1678916770.47997308,108901199,-0.86,-1.1400000000000001,4.63,4.19,166.68,164.3,0.02,0.07,3
1678916770.57993507,109001161,-0.91,-1.28,4.96,4.91,166.49,164.34,0.02,0.08,3
1678916770.67986894,109101095,-1.02,-1.1300000000000001,5.18,4.93,166.18,164.37,0.02,0.07,3
1678916770.78015304,109201379,-1.78,-1.6400000000000001,4.79,4.79,165.22,164.29,0.02,0.08,3
1678916770.88003993,109301266,-2.46,-2.14,4.55,4.37,164.18,164.09,0.02,0.07,3
1678916770.98003888,109401265,-2.74,-3.48,4.58,4.0,163.3,163.66,0.02,0.08,3
1678916771.08003807,109501264,-2.92,-3.81,4.63,3.88,162.89000000000001,163.08,0.02,0.08,3
1678916771.18001294,109601239,-3.0700000000000003,-3.54,4.66,3.87,162.89000000000001,162.57,0.02,0.11,3
1678916771.28001690,109701243,-3.19,-3.65,4.69,4.0600000000000005,162.89000000000001,162.02,0.02,0.12,3
1678916771.38024902,109801475,-3.52,-3.46,4.98,4.26,162.89000000000001,161.46,0.02,0.11,3
1678916771.48009086,109901317,-3.83,-4.3100000000000005,5.08,4.58,162.89000000000001,160.99,0.02,0.11,3
1678916771.57992387,110001150,-4.1,-4.36,5.08,4.94,162.89000000000001,160.63,0.02,0.11,3
1678916771.67999101,110101217,-4.51,-4.46,5.08,4.98,162.89000000000001,160.38,0.03,0.1,3
1678916771.77984095,110201067,-4.5,-5.11,5.08,4.93,162.89000000000001,160.26,0.03,0.11,3
1678916771.87979102,110301017,-4.64,-5.05,5.01,4.7700000000000005,162.89000000000001,160.22,0.02,0.11,3
1678916771.97981000,110401036,-4.88,-5.45,4.7700000000000005,4.58,162.89000000000001,160.21,0.02,0.12,3
1678916772.07968187,110500908,-4.75,-5.39,4.63,4.1,162.89000000000001,160.23,0.02,0.13,3
1678916772.17968607,110600912,-4.49,-5.59,4.53,3.86,162.89000000000001,160.24,0.02,0.15,3
1678916772.27967691,110700903,-4.21,-5.57,4.5,3.83,162.89000000000001,160.27,0.02,0.16,3
1678916772.37971902,110800945,-3.45,-4.74,4.32,3.98,162.89000000000001,160.27,0.02,0.18,3
1678916772.47977400,110901000,-2.71,-3.5100000000000002,4.12,3.74,162.89000000000001,160.33,0.02,0.18,3
1678916772.57979798,111001024,-1.73,-2.79,3.64,3.37,162.89000000000001,160.41,0.02,0.18,3
1678916772.67985702,111101083,-1.09,-1.51,3.5300000000000002,3.19,162.89000000000001,160.48,0.02,0.19,3
1678916772.77978396,111201010,-0.78,-0.74,3.5100000000000002,3.08,162.89000000000001,160.55,0.02,0.19,3
1678916772.88003588,111301262,-0.59,-0.16,3.34,2.97,162.89000000000001,160.79,0.01,0.18,3
1678916772.98001504,111401241,-0.62,0.1,3.2600000000000002,2.91,162.89000000000001,160.91,0.01,0.17,3
1678916773.07967901,111500905,-0.8,-0.24,3.34,2.7800000000000002,162.89000000000001,161.11,0.01,0.15,3
1678916773.17969108,111600917,-0.9400000000000001,-0.4,3.45,2.89,162.89000000000001,161.34,0.01,0.15,3
1678916773.27972794,111700954,-0.93,-0.73,3.48,3.13,162.89000000000001,161.58,0.01,0.15,3
1678916773.37972403,111800950,-0.78,-1.18,3.37,3.3000000000000003,162.89000000000001,161.86,0.01,0.16,3
1678916773.47984409,111901070,-0.66,-0.99,3.2600000000000002,2.96,162.89000000000001,162.12,0.02,0.16,3
1678916773.57986689,112001093,-0.49,-0.74,3.38,2.54,162.89000000000001,162.29,0.02,0.18,3
1678916773.67979288,112101019,-0.46,-0.52,3.54,2.4,162.89000000000001,162.48,0.01,0.21,3
1678916773.77974486,112200971,-1.18,-0.8,3.48,2.64,162.87,162.57,0.01,0.24,3
1678916773.87967706,112300903,-1.6400000000000001,-1.31,2.77,2.92,162.22,162.61,0.01,0.26,3
1678916773.97968292,112400909,-1.76,-2.44,1.95,2.37,160.92000000000002,162.39000000000001,0.01,0.26,3
1678916774.07967305,112500899,-1.8900000000000001,-3.0100000000000002,1.77,1.09,159.88,161.97,0.01,0.25,3
1678916774.17976904,112600995,-1.93,-3.16,1.79,0.68,159.67000000000002,161.32,0.01,0.3,3
1678916774.27974606,112700972,-1.75,-2.87,1.69,0.74,159.67000000000002,160.61,0.01,0.33,3
1678916774.37980008,112801026,-1.44,-2.81,1.3800000000000001,0.81,159.67000000000002,160.01,0.01,0.34,3
1678916774.47996807,112901194,-0.91,-1.61,1.11,0.64,159.67000000000002,159.46,0.01,0.34,3
1678916774.58003402,113001260,-0.46,-0.81,1.12,0.37,159.67000000000002,158.96,0.01,0.35000000000000003,3
1678916774.67998695,113101213,-0.23,-0.05,0.88,0.63,159.67000000000002,158.51,0.01,0.36,3
1678916774.77996206,113201188,-0.12,0.48,0.8300000000000001,0.78,159.67000000000002,158.11,0.01,0.34,3
1678916774.87987995,113301106,-0.06,1.1300000000000001,1.24,0.68,159.67000000000002,157.83,0.02,0.31,3
1678916774.97995400,113401180,-0.03,0.98,1.51,1.42,159.67000000000002,157.6,0.02,0.31,3
1678916775.07993388,113501160,-0.01,1.0,1.53,1.72,159.67000000000002,157.6,0.02,0.29,3
1678916775.17991304,113601139,0.0,0.74,1.46,1.94,159.67000000000002,157.5,0.02,0.26,3
1678916775.27994204,113701168,0.0,0.63,1.46,2.0,159.67000000000002,157.49,0.01,0.25,3
1678916775.38004208,113801268,0.0,0.64,1.26,1.84,159.67000000000002,157.6,0.01,0.25,3
1678916775.48003697,113901263,0.0,0.32,0.71,1.75,159.67000000000002,157.69,0.01,0.24,3
1678916775.58004189,114001268,0.0,0.26,0.5700000000000001,1.07,159.67000000000002,157.86,0.01,0.24,3
1678916775.68002486,114101251,0.0,0.0,0.6,0.63,159.67000000000002,157.99,0.02,0.25,3
1678916775.78004289,114201269,0.0,0.11,0.91,0.67,159.67000000000002,158.20000000000002,0.02,0.28,3
1678916775.88001800,114301244,0.0,0.11,1.9000000000000001,1.1400000000000001,159.67000000000002,158.45000000000002,0.01,0.28,3
1678916775.98006892,114401295,0.0,0.29,2.7600000000000002,2.2600000000000002,159.67000000000002,158.57,0.01,0.3,3
1678916776.07990789,114501134,0.0,-0.26,2.65,3.42,159.67000000000002,158.78,0.02,0.3,3
1678916776.18005490,114601281,0.0,-0.12,1.74,3.48,159.67000000000002,158.98,0.02,0.28,3
1678916776.28003907,114701265,0.0,-0.21,1.11,2.41,159.67000000000002,159.16,0.01,0.25,3
1678916776.38008404,114801310,0.0,-0.71,0.67,1.03,159.67000000000002,159.37,0.01,0.27,3
1678916776.48007894,114901305,0.0,-0.84,0.34,0.06,159.67000000000002,159.55,0.02,0.29,3
1678916776.58013892,115001365,0.0,-0.8200000000000001,0.17,-0.43,159.67000000000002,159.70000000000002,0.02,0.31,3
1678916776.68002009,115101246,0.0,-0.64,0.08,-0.55,159.67000000000002,159.84,0.01,0.34,3
1678916776.77999997,115201226,-0.13,-0.44,0.04,-0.43,159.67000000000002,159.96,0.01,0.39,3
1678916776.88007402,115301300,-0.25,-0.35000000000000003,0.02,-0.4,159.67000000000002,160.04,0.01,0.42,3
1678916776.97995186,115401178,-0.55,-0.28,0.03,0.0,159.67000000000002,160.03,0.01,0.44,3
1678916777.08000088,115501227,-1.23,-0.86,0.05,0.0,159.42000000000002,159.93,0.01,0.44,3
1678916777.18005800,115601284,-2.12,-1.45,0.35000000000000003,0.1,158.39000000000001,159.74,0.01,0.46,3
1678916777.28004408,115701270,-2.57,-2.61,0.8300000000000001,0.71,156.85,159.36,0.02,0.48,3
1678916777.38002586,115801252,-2.71,-2.91,1.32,1.25,155.09,158.76,0.02,0.49,3
1678916777.48004699,115901273,-2.65,-3.31,1.68,2.0300000000000002,153.39000000000001,157.81,0.01,0.5,3
1678916777.58000898,116001235,-2.13,-3.54,2.02,2.46,152.21,156.82,0.01,0.52,3
1678916777.68025088,116101477,-1.11,-2.2600000000000002,2.7800000000000002,2.89,151.67000000000002,155.78,0.01,0.52,3
1678916777.78035498,116201581,-0.5700000000000001,-0.88,3.31,3.61,151.64000000000001,154.78,0.01,0.5,3
1678916777.87992001,116301146,-0.29,0.4,3.5300000000000002,4.38,151.64000000000001,153.9,0.02,0.49,3
1678916777.98004103,116401267,-0.18,0.67,3.77,4.69,151.64000000000001,153.1,0.02,0.46,3
1678916778.07983208,116501058,-0.67,0.81,3.69,4.87,151.64000000000001,152.4,0.01,0.42,3
1678916778.17985892,116601085,-2.05,0.09,3.5100000000000002,4.86,151.64000000000001,151.76,0.01,0.37,3
1678916778.27978992,116701016,-2.95,-2.16,3.39,4.46,151.64000000000001,151.11,0.02,0.35000000000000003,3
1678916778.37968302,116800909,-3.36,-4.08,3.08,3.7800000000000002,151.64000000000001,150.69,0.02,0.33,3
1678916778.47977400,116901000,-3.47,-4.5,2.94,3.15,151.64000000000001,150.42000000000002,0.02,0.32,3
1678916778.57967091,117000897,-3.0700000000000003,-3.85,2.98,2.64,151.64000000000001,150.32,0.02,0.33,3
1678916778.67973900,117100965,-1.95,-2.98,3.49,2.86,151.64000000000001,150.14000000000001,0.02,0.35000000000000003,3
1678916778.77973509,117200961,-1.46,-1.67,3.73,3.54,151.64000000000001,150.05,0.02,0.36,3
1678916778.87980795,117301034,-1.48,-0.45,3.87,4.3500000000000005,151.64000000000001,150.0,0.02,0.35000000000000003,3
1678916778.98004603,117401272,-1.61,-0.01,4.07,4.55,151.64000000000001,149.96,0.02,0.33,3
1678916779.07998896,117501215,-1.97,-0.6900000000000001,3.7800000000000002,4.41,151.64000000000001,149.93,0.01,0.31,3
1678916779.17996597,117601192,-2.67,-0.86,3.42,3.94,151.64000000000001,150.0,0.01,0.28,3
1678916779.27994895,117701175,-3.0500000000000003,-2.5300000000000002,3.54,3.19,151.64000000000001,150.08,0.01,0.27,3
1678916779.37988687,117801113,-3.24,-3.54,3.7800000000000002,3.11,151.64000000000001,150.23,0.01,0.28,3
1678916779.48000693,117901233,-3.36,-3.5300000000000002,3.91,3.39,151.64000000000001,150.43,0.02,0.31,3
1678916779.58026695,118001493,-3.38,-3.35,3.95,3.8200000000000003,151.64000000000001,150.58,0.02,0.33,3
1678916779.67975307,118100979,-3.18,-3.0,4.07,4.24,151.64000000000001,150.74,0.02,0.34,3
1678916779.77980995,118201036,-2.72,-2.79,4.15,4.48,151.64000000000001,150.85,0.02,0.35000000000000003,3
1678916779.87985492,118301081,-2.2,-2.13,4.0600000000000005,4.48,151.64000000000001,150.9,0.02,0.35000000000000003,3
1678916779.97984886,118401075,-1.84,-1.37,3.61,4.18,151.64000000000001,151.02,0.02,0.36,3
1678916780.07978487,118501011,-1.61,-1.44,3.31,3.5300000000000002,151.64000000000001,151.08,0.02,0.36,3
1678916780.18003702,118601263,-1.35,-1.27,3.13,2.96,151.64000000000001,151.14000000000001,0.02,0.37,3
1678916780.27993298,118701159,-1.3,-1.11,3.09,2.57,151.64000000000001,151.17000000000002,0.02,0.38,3
1678916780.37968397,118800910,-1.45,-0.9500000000000001,3.27,2.5500000000000003,151.64000000000001,151.18,0.02,0.37,3
1678916780.47976589,118900992,-1.46,-0.87,3.6,2.85,151.64000000000001,151.19,0.02,0.4,3
1678916780.57973504,119000961,-0.88,-0.84,3.18,3.38,151.64000000000001,151.1,0.02,0.4,3
1678916780.67980409,119101030,-0.45,-0.12,2.36,3.21,151.64000000000001,151.06,0.04,0.38,3
1678916780.77991104,119201137,-0.23,0.62,1.94,2.27,151.64000000000001,151.05,0.04,0.36,3
1678916780.87978101,119301007,-0.11,1.2,1.56,1.62,151.64000000000001,151.03,0.05,0.39,3
1678916780.97978806,119401014,-0.06,0.73,0.9400000000000001,0.93,151.64000000000001,151.04,0.05,0.4,3
1678916781.07971597,119500942,-0.04,0.17,0.77,0.2,151.64000000000001,150.99,0.07,0.38,3
1678916781.17967606,119600902,-0.27,0.11,1.06,-0.08,151.64000000000001,151.0,0.07,0.39,3
1678916781.27968407,119700910,-0.44,0.1,1.22,0.44,151.64000000000001,150.99,0.08,0.43,3
1678916781.37971592,119800942,-0.5,-0.05,1.3,1.08,151.64000000000001,151.05,0.08,0.46,3
1678916781.47995305,119901179,-0.55,-0.63,1.32,1.57,151.64000000000001,151.03,0.06,0.44,3
1678916781.57999301,120001219,-0.5700000000000001,-0.87,1.34,1.8,151.64000000000001,151.15,0.06,0.44,3
1678916781.68005300,120101279,-0.6900000000000001,1.06,1.35,0.71,151.64000000000001,151.23,0.05,0.43,3
1678916781.78006291,120201289,-0.9,3.29,1.3900000000000001,-0.33,151.64000000000001,151.44,0.05,0.49,3
1678916781.88005090,120301277,-1.19,2.43,1.6500000000000001,-1.09,151.64000000000001,151.99,0.07,0.42,3
1678916781.98002696,120401253,-1.6600000000000001,1.6300000000000001,2.59,-1.8900000000000001,151.64000000000001,152.73,0.07,0.53,3
1678916782.07992697,120501153,-2.3000000000000003,2.38,3.6,-2.5300000000000002,151.64000000000001,152.53,0.13,0.46,3
1678916782.18024802,120601474,-2.72,2.11,4.0600000000000005,-2.56,151.64000000000001,152.04,0.13,0.41000000000000003,3
1678916782.27972507,120700951,-3.0500000000000003,2.27,4.32,-2.36,151.64000000000001,152.21,0.14,0.4,3
1678916782.37977505,120801001,-3.3000000000000003,2.09,4.49,-2.14,151.64000000000001,152.38,0.14,0.37,3
1678916782.48000193,120901228,-3.33,2.15,4.49,-2.15,151.64000000000001,152.09,0.13,0.32,3
1678916782.58003306,121001259,-2.82,2.16,3.96,-2.29,151.64000000000001,152.03,0.13,0.28,3
1678916782.67999506,121101221,-1.93,2.11,3.52,-2.37,151.64000000000001,152.25,0.11,0.27,3
1678916782.77996707,121201193,-1.41,2.13,3.61,-2.2800000000000002,151.64000000000001,152.15,0.11,0.24,3
1678916782.88000393,121301230,-1.16,2.22,3.99,-2.21,151.64000000000001,151.97,0.1,0.22,3
1678916782.97987890,121401105,-1.5,2.18,3.8000000000000003,-2.2,151.64000000000001,152.08,0.1,0.2,3
1678916783.07984900,121501075,-1.76,2.15,3.72,-2.29,151.64000000000001,152.14000000000001,0.08,0.2,3
1678916783.17991805,121601144,-1.54,2.17,3.72,-2.3000000000000003,151.64000000000001,151.98,0.08,0.19,3
1678916783.28009200,121701318,-1.18,2.19,3.64,-2.2800000000000002,151.64000000000001,152.0,0.07,0.18,3
1678916783.38015103,121801377,-1.04,2.16,3.06,-2.23,151.64000000000001,152.07,0.07,0.17,3
1678916783.48006701,121901293,-0.87,2.17,2.7800000000000002,-2.22,151.98,151.98,0.06,0.15,3
1678916783.58009696,122001323,-0.79,2.15,2.81,-2.3000000000000003,151.93,151.93,0.06,0.14,3
1678916783.67969203,122100918,-0.8,2.16,2.5300000000000002,-2.32,151.92000000000002,151.92000000000002,0.05,0.15,3
1678916783.77966595,122200892,-0.71,2.23,2.0100000000000002,-2.31,151.76,151.76,0.05,0.17,3
1678916783.87965488,122300881,-0.36,2.2800000000000002,1.59,-2.3000000000000003,151.52,151.52,0.04,0.19,3
1678916783.97964287,122400869,-0.18,2.22,1.3900000000000001,-2.32,151.37,151.37,0.04,0.2,3
1678916784.07969689,122500923,-0.09,2.27,1.1500000000000001,-2.31,151.18,151.18,0.03,0.2,3
1678916784.17990494,122601131,-0.04,2.27,0.73,-2.32,150.92000000000002,150.92000000000002,0.03,0.21,3
1678916784.27998805,122701214,-0.02,2.29,0.38,-2.32,150.73,150.73,0.03,0.22,3
1678916784.38002706,122801253,-0.01,2.3000000000000003,0.19,-2.33,150.55,150.55,0.03,0.23,3
1678916784.47987890,122901105,0.0,2.3000000000000003,0.1,-2.33,150.28,150.28,0.02,0.23,3
1678916784.57979393,123001020,0.0,2.34,0.05,-2.31,150.08,150.08,0.02,0.22,3
1678916784.68000698,123101233,0.0,2.33,0.02,-2.3000000000000003,149.93,149.93,0.02,0.22,3
1678916784.77967596,123200902,0.0,2.37,0.01,-2.3000000000000003,149.67000000000002,149.67000000000002,0.02,0.23,3
1678916784.87966394,123300890,0.0,2.37,0.0,-2.29,149.48,149.48,0.01,0.22,3
1678916784.97971702,123400943,0.0,2.4,0.0,-2.2800000000000002,149.33,149.33,0.01,0.22,3
1678916785.07971406,123500940,0.0,2.39,0.0,-2.27,149.09,149.09,0.01,0.21,3
1678916785.17978787,123601014,0.0,2.42,0.0,-2.27,148.88,148.88,0.01,0.21,3
1678916785.27983403,123701060,0.0,2.41,0.0,-2.2600000000000002,148.73,148.73,0.01,0.21,3
1678916785.38007092,123801297,0.0,2.44,0.0,-2.27,148.52,148.52,0.01,0.21,3
1678916785.47980809,123901034,0.0,2.42,0.0,-2.27,148.28,148.28,0.01,0.2,3
1678916785.57970309,124000929,0.0,2.45,0.0,-2.27,148.14000000000001,148.14000000000001,0.01,0.2,3
1678916785.67992806,124101154,0.0,2.44,0.0,-2.2600000000000002,147.94,147.94,0.0,0.2,3
1678916785.77999687,124201223,0.0,2.46,0.0,-2.27,147.71,147.71,0.0,0.2,3
1678916785.87996602,124301192,0.0,2.47,0.0,-2.27,147.55,147.55,0.0,0.2,3
1678916785.97992086,124401147,0.0,2.46,0.0,-2.2600000000000002,147.37,147.37,0.0,0.19,3
1678916786.07997704,124501203,0.0,2.49,0.0,-2.2600000000000002,147.14000000000001,147.14000000000001,0.0,0.19,3
1678916786.18004298,124601269,0.0,2.47,0.0,-2.2600000000000002,146.97,146.97,0.0,0.2,3
1678916786.28003097,124701257,0.0,2.5,0.0,-2.2600000000000002,146.81,146.81,0.0,0.2,3
1678916786.38003898,124801265,0.0,2.49,0.0,-2.25,146.59,146.59,0.0,0.2,3
1678916786.48025393,124901480,0.0,2.5100000000000002,0.0,-2.25,146.4,146.4,0.0,0.19,3
1678916786.58025408,125001480,0.0,2.5100000000000002,0.0,-2.25,146.24,146.24,0.0,0.19,3
1678916786.67963886,125100865,0.0,2.5100000000000002,0.0,-2.25,146.03,146.03,0.0,0.18,3
1678916786.77969503,125200921,0.0,2.5300000000000002,0.0,-2.24,145.85,145.85,0.0,0.18,3
1678916786.87970996,125300936,-0.04,2.45,0.02,-2.21,345.14,345.15000000000003,0.0,0.18,3
1678916786.97981000,125401036,-0.02,2.49,0.01,-2.22,344.91,344.92,0.0,0.18,3
1678916787.07988906,125501115,-0.01,2.52,0.0,-2.22,344.65000000000003,344.66,0.0,0.18,3
1678916787.17977095,125600997,0.0,2.5500000000000003,0.0,-2.23,344.44,344.45,0.0,0.17,3
1678916787.27968097,125700907,0.0,2.57,0.0,-2.24,344.28000000000003,344.29,0.0,0.17,3
1678916787.37965202,125800878,0.0,2.59,0.0,-2.24,344.19,344.2,0.0,0.17,3
1678916787.47969890,125900925,0.0,2.6,0.0,-2.25,344.21,344.22,0.0,0.16,3
1678916787.57998490,126001211,0.0,2.59,0.0,-2.2600000000000002,344.26,344.27,0.0,0.16,3
1678916787.67968607,126100912,0.0,2.6,0.0,-2.2600000000000002,344.33,344.34000000000003,0.0,0.15,3
1678916787.77971387,126200940,0.0,2.57,0.0,-2.27,344.45,344.46,0.0,0.16,3
1678916787.87991095,126301137,0.0,2.57,0.0,-2.27,344.53000000000003,344.54,0.0,0.16,3
1678916787.97997403,126401200,0.0,2.56,0.0,-2.2800000000000002,344.55,344.56,0.0,0.16,3
1678916788.07996202,126501188,0.0,2.5500000000000003,0.0,-2.2800000000000002,344.56,344.57,0.0,0.15,3
1678916788.17992496,126601151,0.0,2.56,0.0,-2.2800000000000002,344.56,344.57,0.0,0.16,3
1678916788.27991104,126701137,0.0,2.54,0.0,-2.27,344.5,344.51,0.0,0.16,3
1678916788.38016105,126801387,0.0,2.57,0.0,-2.2600000000000002,344.45,344.46,0.0,0.16,3
1678916788.48000288,126901229,0.0,2.5500000000000003,0.0,-2.2600000000000002,344.39,344.40000000000003,0.0,0.15,3
1678916788.57969499,127000921,0.0,2.56,0.0,-2.2600000000000002,344.32,344.33,0.0,0.15,3
1678916788.67972493,127100951,0.0,2.56,0.0,-2.2600000000000002,344.29,344.3,0.0,0.15,3
1678916788.77977300,127200999,0.0,2.54,0.0,-2.25,344.27,344.28000000000003,0.0,0.15,3
1678916788.87982488,127301051,0.0,2.5500000000000003,0.0,-2.25,344.22,344.23,0.0,0.15,3
1678916788.97977901,127401005,0.0,2.54,0.0,-2.25,344.19,344.2,0.0,0.15,3
1678916789.07967901,127500905,0.0,2.54,0.0,-2.25,344.16,344.17,0.0,0.15,3
1678916789.17974997,127600976,0.0,2.5300000000000002,0.0,-2.24,344.12,344.13,0.0,0.14,3
1678916789.27965498,127700881,0.0,2.5300000000000002,0.0,-2.23,344.09000000000003,344.1,0.0,0.14,3
1678916789.37965202,127800878,0.0,2.5300000000000002,0.0,-2.23,344.1,344.11,0.0,0.13,3
1678916789.47975087,127900977,0.0,2.52,0.0,-2.23,344.1,344.11,0.0,0.13,3
1678916789.57968688,128000913,0.0,2.5300000000000002,0.0,-2.24,344.12,344.13,0.0,0.13,3
1678916789.68000293,128101229,0.0,2.52,0.0,-2.24,344.15000000000003,344.16,0.0,0.12,3
1678916789.78001904,128201245,0.0,2.5300000000000002,0.0,-2.24,344.18,344.19,0.0,0.11,3
1678916789.88001609,128301242,0.0,2.52,0.0,-2.25,344.2,344.21,0.0,0.11,3
1678916789.98002195,128401248,0.0,2.5500000000000003,0.0,-2.25,344.25,344.26,0.0,0.11,3
1678916790.07995200,128501178,0.0,2.54,0.0,-2.24,344.27,344.28000000000003,0.0,0.12,3
1678916790.17991996,128601146,0.0,2.5500000000000003,0.0,-2.24,344.27,344.28000000000003,0.0,0.13,3
1678916790.28024197,128701468,0.0,2.57,0.0,-2.23,344.27,344.28000000000003,0.0,0.13,3
1678916790.38036299,128801589,0.0,2.5500000000000003,0.0,-2.23,344.26,344.27,0.0,0.13,3
1678916790.47994900,128901175,0.0,2.58,0.0,-2.24,344.21,344.22,0.0,0.13,3
1678916790.57997990,129001206,0.0,2.5500000000000003,0.0,-2.24,344.18,344.19,0.0,0.13,3
1678916790.67984700,129101073,0.0,2.57,0.0,-2.24,344.14,344.15000000000003,0.0,0.13,3
1678916790.77977300,129200999,0.0,2.56,0.0,-2.24,344.08,344.09000000000003,0.0,0.12,3
1678916790.87968993,129300916,0.0,2.57,0.0,-2.24,344.05,344.06,0.0,0.12,3
1678916790.97966790,129400894,0.0,2.57,0.0,-2.23,344.03000000000003,344.04,0.0,0.13,3
1678916791.07965088,129500877,0.0,2.57,0.0,-2.23,344.0,344.01,0.0,0.13,3
1678916791.17991805,129601144,0.0,2.58,0.0,-2.24,343.97,343.98,0.0,0.12,3
1678916791.27970505,129700931,0.0,2.57,0.0,-2.23,343.96,343.97,0.0,0.13,3
1678916791.37971687,129800943,0.0,2.59,0.0,-2.23,343.93,343.94,0.0,0.12,3
1678916791.47996688,129901193,0.0,2.58,0.0,-2.24,343.91,343.92,0.0,0.11,3
1678916791.57995391,130001180,0.0,2.59,0.0,-2.24,343.90000000000003,343.91,0.0,0.11,3
1678916791.67998099,130101207,0.0,2.59,0.0,-2.24,343.90000000000003,343.91,0.0,0.11,3
1678916791.77998400,130201210,0.0,2.59,0.0,-2.24,343.90000000000003,343.91,0.0,0.11,3
1678916791.87993908,130301165,0.0,2.6,0.0,-2.25,343.89,343.90000000000003,0.0,0.11,3
1678916791.97986507,130401091,0.0,2.59,0.0,-2.25,343.89,343.90000000000003,0.0,0.11,3
1678916792.08018303,130501409,0.0,2.6,0.0,-2.25,343.88,343.89,0.0,0.11,3
1678916792.17992902,130601155,0.0,2.61,0.0,-2.25,343.87,343.88,0.0,0.11,3
1678916792.27987790,130701104,0.0,2.62,0.0,-2.25,343.86,343.87,0.0,0.1,3
1678916792.37993598,130801162,0.0,2.61,0.0,-2.25,343.85,343.86,0.0,0.1,3
1678916792.48004293,130901269,0.0,2.62,0.0,-2.25,343.83,343.84000000000003,0.0,0.1,3
1678916792.58030200,131001528,0.0,2.62,0.0,-2.25,343.83,343.84000000000003,0.0,0.11,3
1678916792.67996001,131101186,0.0,2.63,0.0,-2.25,343.81,343.82,0.0,0.11,3
1678916792.77996302,131201189,0.0,2.64,0.0,-2.25,343.78000000000003,343.79,0.0,0.11,3
1678916792.87985492,131301081,0.0,2.63,0.0,-2.2600000000000002,343.76,343.77,0.0,0.11,3
1678916792.97984505,131401071,0.0,2.65,0.0,-2.2600000000000002,343.74,343.75,0.0,0.1,3
1678916793.07991409,131501140,0.0,2.64,0.0,-2.2600000000000002,343.72,343.73,0.0,0.09,3
1678916793.17986798,131601094,0.0,2.65,0.0,-2.2600000000000002,343.7,343.71,0.0,0.09,3
1678916793.28016686,131701393,0.0,2.65,0.0,-2.27,343.7,343.71,0.0,0.08,3
1678916793.38031602,131801542,0.0,2.65,0.0,-2.27,343.71,343.72,0.0,0.08,3
1678916793.48007202,131901298,0.0,2.65,0.0,-2.27,343.73,343.74,0.0,0.08,3
1678916793.58002687,132001253,0.0,2.65,0.0,-2.27,343.74,343.75,0.0,0.08,3
1678916793.67966604,132100892,0.0,2.66,0.0,-2.27,343.75,343.76,0.0,0.08,3
1678916793.77968192,132200908,0.0,2.66,0.0,-2.27,343.75,343.76,0.0,0.08,3
1678916793.87965703,132300883,0.0,2.67,0.0,-2.27,343.76,343.77,0.0,0.08,3
1678916793.97973108,132400957,0.0,2.66,0.0,-2.27,343.76,343.77,0.0,0.07,3
1678916794.07990909,132501135,0.0,2.68,0.0,-2.27,343.76,343.77,0.0,0.08,3
1678916794.18000388,132601230,0.0,2.67,0.0,-2.27,343.76,343.77,0.0,0.07,3
1678916794.27984786,132701074,0.0,2.68,0.0,-2.27,343.75,343.76,0.0,0.08,3
1678916794.37978601,132801012,0.0,2.68,0.0,-2.27,343.75,343.76,0.0,0.08,3
1678916794.47981286,132901039,0.0,2.68,0.0,-2.27,343.74,343.75,0.0,0.08,3
1678916794.57991409,133001140,0.0,2.69,0.0,-2.27,343.73,343.74,0.0,0.08,3
1678916794.67965508,133100881,0.0,2.68,0.0,-2.2800000000000002,343.71,343.72,0.0,0.08,3
1678916794.78002286,133201249,0.0,2.69,0.0,-2.27,343.69,343.7,0.0,0.08,3
1678916794.87973499,133300961,0.0,2.69,0.0,-2.2600000000000002,343.66,343.67,0.0,0.08,3
1678916794.97971296,133400939,0.0,2.7,0.0,-2.27,343.67,343.68,0.0,0.09,3
1678916795.07998490,133501211,0.0,2.7,0.0,-2.27,343.67,343.68,0.0,0.08,3
1678916795.18005586,133601282,0.0,2.7,0.0,-2.2600000000000002,343.63,343.64,0.0,0.09,3
1678916795.28004003,133701266,0.0,2.7,0.0,-2.2600000000000002,343.62,343.63,0.0,0.09,3
1678916795.38004708,133801273,0.0,2.69,0.0,-2.27,343.62,343.63,0.0,0.09,3
1678916795.48014498,133901371,0.0,2.7,0.0,-2.27,343.58,343.59000000000003,0.0,0.09,3
1678916795.58003902,134001265,0.0,2.69,0.0,-2.27,343.55,343.56,0.0,0.09,3
1678916795.68001509,134101241,0.0,2.7,0.0,-2.2800000000000002,343.55,343.56,0.0,0.08,3
1678916795.78001809,134201244,0.0,2.7,0.0,-2.2800000000000002,343.51,343.52,0.0,0.09,3
1678916795.88026905,134301495,0.0,2.73,0.0,-2.23,343.38,343.39,0.0,0.08,3
1678916795.98023796,134401464,0.0,2.7,0.0,-2.2,343.43,343.44,0.0,0.08,3
1678916796.07983208,134501058,0.0,2.6,0.0,-2.2,343.52,343.53000000000003,0.0,0.07,3
1678916796.17979193,134601018,0.0,2.34,0.0,-1.84,343.64,343.65000000000003,0.0,0.07,3
1678916796.27968693,134700913,0.0,2.38,0.0,-1.21,343.38,343.39,0.01,0.07,3
1678916796.37966299,134800889,0.0,2.69,0.0,-0.53,342.65000000000003,342.66,0.01,0.06,3
1678916796.47970486,134900931,0.0,2.63,0.0,0.1,341.53000000000003,341.54,0.02,0.05,3
1678916796.57967305,135000899,0.0,2.16,0.0,0.58,340.0,340.01,0.02,0.04,3
1678916796.67970705,135100933,0.0,1.86,0.0,0.92,338.36,338.37,0.01,0.04,3
1678916796.77995586,135201182,0.0,1.99,0.0,1.19,336.91,336.92,0.01,0.03,3
1678916796.87998509,135301211,0.0,1.75,0.0,1.4000000000000001,335.75,335.76,0.01,0.03,3
1678916796.97984600,135401072,0.0,0.98,0.0,1.44,334.92,334.93,0.01,0.03,3
1678916797.07976699,135500993,0.0,0.03,0.0,1.28,334.34000000000003,334.35,0.01,0.04,3
1678916797.17978787,135601014,0.0,-0.3,0.0,1.04,333.93,333.94,0.01,0.04,3
1678916797.27965903,135700885,0.0,-0.46,0.0,0.8,333.79,333.8,0.03,0.04,3
1678916797.37964797,135800874,0.0,-0.6900000000000001,0.0,0.44,333.84000000000003,333.85,0.03,0.04,3
1678916797.47969794,135900924,0.0,-0.46,0.0,-0.1,334.21,334.22,0.03,0.04,3
1678916797.57972407,136000950,0.0,0.05,0.0,-0.59,334.79,334.8,0.03,0.03,3
1678916797.67971587,136100942,0.0,0.01,0.0,-1.07,335.22,335.23,0.03,0.04,3
1678916797.77998805,136201214,0.0,0.59,0.0,-1.45,335.41,335.42,0.03,0.04,3
1678916797.87997293,136301199,0.0,1.1,0.0,-1.79,335.33,335.34000000000003,0.02,0.03,3
1678916797.97998786,136401214,0.0,1.28,0.0,-1.85,335.18,335.19,0.02,0.03,3
1678916798.07990599,136501132,0.0,1.52,0.0,-1.83,335.09000000000003,335.1,0.02,0.02,3
1678916798.17993999,136601166,0.0,1.48,0.0,-1.74,335.13,335.14,0.02,0.02,3
1678916798.27986598,136701092,0.0,1.69,0.0,-1.85,335.21,335.22,0.02,0.02,3
1678916798.37994909,136801175,0.0,1.62,0.0,-2.07,335.27,335.28000000000003,0.02,0.02,3
1678916853.47998190,191901208,0.0,1.59,0.0,-2.12,336.46,336.47,0.0,0.01,3
1678916853.57998896,192001215,0.0,1.59,0.0,-2.12,336.46,336.48,0.0,0.01,3
1678916853.68004799,192101274,0.0,1.59,0.0,-2.12,336.46,336.5,0.0,0.01,3
1678916853.78021502,192201441,0.0,1.59,0.0,-2.12,336.46,336.51,0.0,0.01,3
1678916853.87967992,192300906,0.0,1.59,0.0,-2.12,336.46,336.51,0.0,0.01,3
1678916853.97965789,192400884,0.0,1.59,0.0,-2.12,336.46,336.53000000000003,0.0,0.01,3
1678916854.07971501,192500941,0.0,1.59,0.0,-2.12,336.46,336.53000000000003,0.0,0.01,3
1678916854.17965102,192600877,0.0,1.59,0.0,-2.12,336.46,336.53000000000003,0.0,0.0,3
1678916854.27970409,192700930,0.0,1.59,0.0,-2.12,336.46,336.55,0.0,0.01,3
1678916854.37969708,192800923,0.0,1.59,0.0,-2.12,336.46,336.56,0.0,0.01,3
1678916854.47981191,192901038,0.0,1.59,0.0,-2.12,336.46,336.56,0.01,0.01,3
1678916854.57983589,193001062,0.0,1.59,0.0,-2.12,336.46,336.58,0.01,0.01,3
1678916854.67977691,193101003,0.0,1.59,0.0,-2.12,336.46,336.59000000000003,0.01,0.01,3
1678916854.77973390,193200960,0.0,1.59,0.0,-2.12,336.46,336.59000000000003,0.01,0.01,3
1678916854.88001990,193301246,0.0,1.59,0.0,-2.12,336.46,336.6,0.01,0.01,3
1678916854.97963786,193400864,0.0,1.6,0.0,-2.12,336.46,336.61,0.01,0.01,3
1678916855.07983994,193501066,0.0,1.6,0.0,-2.12,336.46,336.61,0.01,0.01,3
1678916855.17991590,193601142,0.0,1.6,0.0,-2.12,336.46,336.62,0.01,0.01,3
1678916855.27985096,193701077,0.0,1.59,0.0,-2.12,336.46,336.63,0.01,0.01,3
1678916855.37991190,193801138,0.0,1.6,0.0,-2.12,336.46,336.63,0.01,0.01,3
1678916855.47998190,193901208,0.0,1.59,0.0,-2.12,336.63,336.64,0.01,0.01,3
1678916855.57997489,194001201,0.0,1.6,0.0,-2.12,336.64,336.65000000000003,0.01,0.01,3
1678916855.67995596,194101182,0.0,1.6,0.0,-2.13,336.64,336.65000000000003,0.0,0.01,3
1678916855.77992105,194201147,0.0,1.6,0.0,-2.13,336.65000000000003,336.66,0.0,0.01,3
1678916855.87991691,194301143,0.0,1.6,0.0,-2.13,336.66,336.67,0.0,0.02,3
1678916855.97982597,194401052,0.0,1.6,0.0,-2.13,336.66,336.67,0.0,0.02,3
1678916856.07992101,194501147,0.0,1.6,0.0,-2.14,336.66,336.67,0.0,0.02,3
1678916856.17985988,194601086,0.0,1.61,0.0,-2.14,336.66,336.68,0.0,0.02,3
1678916856.27991891,194701145,0.0,1.61,0.0,-2.14,336.66,336.68,0.0,0.02,3
1678916856.38003206,194801258,0.0,1.61,0.0,-2.13,336.66,336.67,0.0,0.02,3
1678916856.48020101,194901427,0.0,1.59,0.0,-2.14,336.66,336.69,0.0,0.02,3
1678916856.57992196,195001148,0.0,1.58,0.0,-2.13,336.66,336.69,0.0,0.04,3
1678916856.68001199,195101238,0.0,1.59,0.0,-2.13,336.66,336.67,0.01,0.03,3
1678916856.77992201,195201148,0.0,1.54,0.0,-2.07,336.66,336.67,0.01,0.02,3
1678916856.87998295,195301209,-0.01,1.51,0.14,-2.0,336.66,336.74,0.01,0.02,3
1678916856.97996306,195401189,-0.34,1.55,0.2,-1.99,336.66,336.69,0.01,0.05,3
1678916857.07990408,195501130,-0.87,1.5,0.25,-2.0100000000000002,336.66,336.7,0.01,0.06,3
1678916857.17999387,195601220,-1.26,1.5,0.46,-2.0100000000000002,336.66,336.77,0.01,0.05,3
1678916857.28003597,195701262,-1.5,1.5,0.5700000000000001,-2.0,336.66,336.77,0.01,0.05,3
1678916857.38021088,195801437,-1.83,1.49,0.68,-2.0300000000000002,336.66,336.78000000000003,0.01,0.05,3
1678916857.48006105,195901287,-2.0300000000000002,1.53,0.97,-2.04,336.66,336.86,0.01,0.05,3
1678916857.57999587,196001222,-1.98,1.53,0.98,-2.0300000000000002,336.66,336.87,0.01,0.05,3
1678916857.67993188,196101158,-1.59,1.52,1.04,-2.0100000000000002,336.66,336.86,0.01,0.04,3
1678916857.77998209,196201208,-1.1,1.6,1.06,-2.02,336.66,336.92,0.01,0.04,3
1678916857.87997198,196301198,-0.66,1.59,1.06,-2.0,336.66,336.93,0.01,0.04,3
1678916857.97991109,196401137,-0.47000000000000003,1.61,0.9400000000000001,-1.97,336.66,336.93,0.01,0.04,3
1678916858.07997608,196501202,-0.31,1.61,0.74,-1.98,336.66,336.98,0.01,0.03,3
1678916858.18003798,196601264,-0.16,1.6,0.38,-2.0100000000000002,336.66,336.97,0.01,0.03,3
1678916858.28002787,196701254,-0.08,1.6,0.19,-2.0300000000000002,336.66,337.0,0.01,0.03,3
1678916858.38023186,196801458,-0.04,1.6400000000000001,0.1,-2.04,336.66,337.05,0.01,0.03,3
1678916858.48017097,196901397,-0.02,1.75,0.05,-1.97,336.66,337.09000000000003,0.0,0.04,3
1678916858.57969093,197000917,-0.24,1.57,0.02,-1.82,336.66,337.16,0.0,0.04,3
1678916858.67967701,197100903,-0.73,1.53,0.01,-1.22,336.66,337.25,0.0,0.04,3
1678916858.77972388,197200950,-1.5,0.98,0.0,-0.92,336.66,337.29,0.0,0.04,3
1678916858.87973595,197300962,-2.61,-0.33,0.0,-1.01,336.66,337.24,0.01,0.04,3
1678916858.97978687,197401013,-3.3200000000000003,-2.41,0.0,-1.07,336.66,337.16,0.01,0.04,3
1678916859.07985187,197501078,-2.98,-4.15,0.0,-0.45,336.66,337.03000000000003,0.01,0.09,3
1678916859.18029809,197601524,-1.58,-4.16,0.07,0.4,336.66,336.92,0.01,0.07,3
1678916859.28005004,197701276,-0.81,-2.23,0.04,0.71,336.66,336.94,0.02,0.06,3
1678916859.37970996,197800936,-0.41000000000000003,-0.36,0.02,0.28,336.66,337.0,0.02,0.08,3
1678916859.47972298,197900949,-7.11,-6.69,0.52,0.43,149.01,149.45000000000002,0.01,0.11,3
1678916859.57969308,198000919,-4.04,-3.9,0.29,-0.08,149.01,149.38,0.01,0.12,3
1678916859.67973804,198100964,-2.29,0.9500000000000001,0.22,-0.61,149.01,149.32,0.02,0.14,3
1678916859.77976704,198200993,-1.3800000000000001,4.3,0.35000000000000003,-0.88,149.01,149.85,0.02,0.13,3
1678916859.87978506,198301011,-1.17,5.18,0.61,-0.8300000000000001,149.01,151.03,0.03,0.12,3
1678916859.97986102,198401087,-2.5300000000000002,3.85,1.27,-0.27,149.01,152.39000000000001,0.03,0.17,3
1678916860.07977295,198500999,-3.67,0.88,1.55,0.88,149.01,153.74,0.04,0.17,3
1678916860.18000197,198601228,-3.59,-2.74,1.92,2.02,149.01,154.92000000000002,0.04,0.15,3
1678916860.27972388,198700950,-3.5100000000000002,-4.32,2.42,2.69,149.01,155.47,0.04,0.15,3
1678916860.37992287,198801149,-3.59,-4.17,2.92,3.16,149.01,155.49,0.04,0.14,3
1678916860.48003793,198901264,-3.96,-3.85,3.4,3.61,149.05,154.74,0.03,0.17,3
1678916860.58006096,199001287,-4.36,-3.79,3.8000000000000003,3.99,149.76,153.32,0.03,0.18,3
1678916860.67992902,199101155,-4.84,-4.09,4.07,4.04,150.38,151.52,0.03,0.17,3
1678916860.77998495,199201211,-5.18,-4.43,3.92,3.96,150.4,149.74,0.03,0.14,3
1678916860.87998605,199301212,-4.45,-4.74,3.19,3.44,150.79,148.24,0.03,0.11,3
1678916860.97999096,199401217,-2.96,-3.62,2.58,2.5100000000000002,151.38,147.27,0.03,0.1,3
1678916861.07996202,199501188,-1.59,-1.55,2.38,1.56,151.39000000000001,146.85,0.03,0.12,3
1678916861.18030906,199601535,-0.87,0.38,2.12,1.23,151.64000000000001,146.83,0.03,0.1,3
1678916861.27988696,199701113,-1.05,0.77,2.33,1.3,152.26,147.01,0.03,0.1,3
1678916861.37990499,199801131,-1.46,0.0,2.75,1.79,152.43,147.44,0.03,0.15,3
1678916861.48001790,199901244,-1.82,-1.3900000000000001,3.11,2.48,152.43,148.05,0.03,0.19,3
1678916861.57988596,200001112,-1.98,-2.11,3.5500000000000003,3.04,152.43,148.81,0.03,0.23,3
1678916861.68017292,200101399,-1.32,-2.17,3.48,3.31,152.43,149.61,0.02,0.23,3
1678916861.77999902,200201225,-0.68,-1.21,3.2,3.0700000000000003,152.43,150.44,0.02,0.23,3
1678916861.88004804,200301274,-0.34,-0.14,2.81,2.44,152.43,151.12,0.03,0.23,3
1678916861.98003507,200401261,-0.17,0.6900000000000001,2.9,2.0100000000000002,152.43,151.64000000000001,0.03,0.22,3
1678916862.08002591,200501252,-0.09,0.6,3.48,2.24,152.43,151.96,0.02,0.21,3
1678916862.18007088,200601297,-0.04,0.81,3.87,3.09,152.43,152.18,0.02,0.21,3
1678916862.28023505,200701461,-0.02,0.62,4.18,3.86,152.43,152.25,0.02,0.23,3
1678916862.38007188,200801298,-0.01,0.05,4.08,4.15,152.43,152.26,0.02,0.26,3
1678916862.47996593,200901192,0.0,-0.33,3.56,3.9,152.43,152.28,0.02,0.27,3
1678916862.57999396,201001220,0.0,-0.26,2.45,3.0300000000000002,152.43,152.31,0.02,0.29,3
1678916862.68015409,201101380,0.04,-0.11,1.67,1.55,152.43,152.33,0.02,0.29,3
1678916862.78004193,201201268,0.88,0.01,1.12,0.38,152.55,152.35,0.02,0.29,3
1678916862.88005304,201301279,1.3800000000000001,0.6900000000000001,0.96,-0.21,152.59,152.28,0.03,0.29,3
1678916862.98003101,201401257,1.52,1.56,1.07,-0.15,152.72,152.22,0.03,0.3,3
1678916863.08000994,201501236,1.58,2.15,1.53,0.48,153.57,152.14000000000001,0.04,0.31,3
1678916863.18026900,201601495,1.45,2.11,1.92,1.51,154.91,152.25,0.04,0.34,3
1678916863.28007197,201701298,1.06,2.32,2.34,2.23,155.82,152.6,0.04,0.38,3
1678916863.37974596,201800972,0.81,1.79,2.81,2.65,157.01,153.13,0.04,0.42,3
1678916863.47984004,201901066,0.68,1.4000000000000001,3.2800000000000002,3.16,158.43,153.84,0.06,0.43,3
1678916863.57985592,202001082,0.4,1.07,3.5500000000000003,3.83,159.39000000000001,154.82,0.06,0.45,3
1678916863.67984700,202101073,0.27,0.78,3.5,4.0200000000000005,159.55,155.84,0.05,0.45,3
1678916863.77977896,202201005,0.32,0.1,2.87,3.86,159.55,156.69,0.05,0.46,3
1678916863.88003993,202301266,0.28,0.42,2.58,2.99,159.55,157.39000000000001,0.05,0.46,3
1678916863.97991896,202401145,0.37,0.36,3.14,2.07,159.55,158.03,0.05,0.44,3
1678916864.07969904,202500925,1.51,0.49,3.5700000000000003,2.34,159.55,158.58,0.04,0.37,3
1678916864.17973590,202600962,2.75,1.85,3.92,3.08,159.55,159.0,0.04,0.36,3
1678916864.27973795,202700964,3.43,3.49,4.39,3.71,159.55,159.24,0.03,0.4,3
1678916864.37981391,202801040,3.63,4.6000000000000005,4.51,4.18,159.55,159.42000000000002,0.03,0.39,3
1678916864.47988796,202901114,3.1,5.07,4.53,4.24,159.55,159.48,0.03,0.41000000000000003,3
1678916864.58004308,203001269,1.8900000000000001,4.47,4.73,4.05,159.55,159.44,0.03,0.43,3
1678916864.68006992,203101296,0.97,1.97,4.84,4.11,159.55,159.31,0.03,0.43,3
1678916864.78011703,203201343,0.5,0.18,4.1,4.13,159.55,159.22,0.03,0.43,3
1678916864.87967587,203300902,0.25,-1.1300000000000001,3.58,3.48,159.55,159.0,0.04,0.45,3
1678916864.97966599,203400892,0.13,-1.76,2.59,2.31,159.55,158.84,0.04,0.43,3
1678916865.07971692,203500943,0.06,-1.94,1.32,0.89,159.55,158.57,0.03,0.38,3
1678916865.17972398,203600950,0.03,-1.57,0.67,-0.76,159.55,158.4,0.03,0.36,3
1678916865.27980399,203701030,0.01,-1.27,0.34,-1.54,159.55,158.15,0.03,0.3,3
1678916865.37984991,203801076,0.0,-1.04,0.4,-1.34,159.55,157.93,0.03,0.24,3
1678916865.48007107,203901297,0.0,-0.88,1.34,-0.49,159.55,157.72,0.04,0.22,3
1678916865.57977486,204001001,0.0,-0.58,2.23,1.37,159.55,157.61,0.04,0.21,3
1678916865.67996788,204101194,0.0,-0.14,2.8000000000000003,2.77,159.55,157.57,0.03,0.22,3
1678916865.77987599,204201102,0.0,-0.3,3.12,3.56,159.55,157.55,0.03,0.25,3
1678916865.87990499,204301131,0.0,0.07,3.3200000000000003,3.7800000000000002,159.55,157.69,0.03,0.26,3
1678916865.97993588,204401162,0.0,-0.23,3.5100000000000002,4.03,159.55,157.87,0.03,0.28,3
1678916866.07988191,204501108,0.0,-0.6900000000000001,3.67,4.28,159.55,158.12,0.03,0.28,3
1678916866.17993999,204601166,0.0,-0.8,3.75,4.48,159.55,158.37,0.03,0.28,3
1678916866.28000402,204701230,0.0,-0.76,3.65,4.2700000000000005,159.55,158.68,0.03,0.28,3
1678916866.38017201,204801398,0.0,-0.3,3.0500000000000003,3.65,159.55,158.97,0.03,0.28,3
1678916866.47983193,204901058,0.0,-0.1,2.13,2.5300000000000002,159.55,159.22,0.03,0.27,3
1678916866.57973409,205000960,0.0,-0.08,1.53,1.33,159.55,159.41,0.03,0.28,3
1678916866.67967200,205100898,0.0,0.06,1.52,0.64,159.55,159.51,0.02,0.26,3
1678916866.77967405,205200900,0.0,0.04,1.94,0.72,159.55,159.59,0.02,0.24,3
1678916866.87972307,205300949,-0.06,-0.35000000000000003,2.13,1.49,159.55,159.6,0.02,0.22,3
1678916866.97991586,205401142,-0.38,-0.46,2.09,2.37,159.55,159.57,0.02,0.23,3
1678916867.07999206,205501218,-0.86,-0.74,2.08,2.12,159.55,159.5,0.02,0.26,3
1678916867.17986488,205601091,-1.78,-1.45,1.97,1.87,159.55,159.37,0.02,0.24,3
1678916867.27984691,205701073,-2.62,-2.61,2.0300000000000002,1.61,159.55,159.15,0.03,0.21,3
1678916867.37978005,205801006,-3.18,-3.42,2.24,1.6,159.55,158.83,0.03,0.2,3
1678916867.47975302,205900979,-3.49,-4.22,2.27,1.81,159.55,158.4,0.02,0.18,3
1678916867.57967091,206000897,-3.63,-4.3100000000000005,2.27,2.18,159.55,157.94,0.02,0.17,3
1678916867.67966390,206100890,-3.68,-3.85,2.25,2.4,159.56,157.54,0.03,0.17,3
1678916867.77971506,206200941,-3.7600000000000002,-3.71,2.27,2.4,159.98,157.18,0.03,0.15,3
1678916867.87972307,206300949,-3.72,-3.7600000000000002,2.31,2.25,160.38,156.99,0.03,0.16,3
1678916867.98001003,206401236,-3.72,-3.77,2.34,2.16,160.65,156.91,0.03,0.15,3
1678916868.07984495,206501071,-3.74,-3.39,2.4,2.04,161.37,156.91,0.03,0.16,3
1678916868.17979097,206601017,-3.7600000000000002,-3.63,2.44,2.12,161.89000000000001,157.0,0.03,0.16,3
1678916868.27997804,206701204,-3.7800000000000002,-3.44,2.59,2.25,161.91,157.21,0.02,0.16,3
1678916868.37995005,206801176,-3.86,-3.71,2.64,2.42,161.91,157.39000000000001,0.02,0.16,3
1678916868.47993088,206901157,-4.14,-3.9,2.57,2.19,161.91,157.58,0.02,0.15,3
1678916868.57983804,207001064,-4.19,-3.73,2.29,1.94,161.91,157.91,0.02,0.13,3
1678916868.67992806,207101154,-4.13,-4.09,1.94,1.74,161.91,158.20000000000002,0.02,0.12,3
1678916868.78009200,207201318,-4.12,-4.16,1.73,1.22,161.91,158.52,0.02,0.13,3
1678916868.87998796,207301214,-3.75,-3.92,1.28,0.93,161.91,158.79,0.02,0.11,3
1678916868.97991395,207401140,-3.06,-3.95,1.04,0.56,161.91,159.13,0.02,0.09,3
1678916869.08002901,207501255,-2.2,-2.39,1.06,0.49,161.91,159.46,0.02,0.08,3
1678916869.18003392,207601260,-1.12,-1.28,1.17,0.46,161.91,159.73,0.02,0.06,3
1678916869.28002286,207701249,-0.5700000000000001,-0.03,1.07,0.68,161.91,160.03,0.02,0.07,3
1678916869.37992597,207801152,-0.29,0.55,0.96,0.76,161.91,160.23,0.02,0.07,3
1678916869.48026609,207901492,-0.14,0.78,1.09,0.68,161.91,160.47,0.02,0.08,3
1678916869.57999206,208001218,-0.07,0.8200000000000001,1.47,0.72,161.91,160.64000000000001,0.02,0.12,3
1678916869.67991495,208101141,0.01,0.32,1.6600000000000001,1.1400000000000001,161.91,160.83,0.03,0.13,3
1678916869.77997398,208201200,0.54,0.27,1.47,1.71,161.91,161.0,0.03,0.13,3
1678916869.88003397,208301260,0.38,0.97,1.31,1.4000000000000001,161.91,161.17000000000002,0.03,0.16,3
1678916869.98003197,208401258,0.19,0.92,1.33,1.12,161.91,161.33,0.03,0.15,3
1678916870.08002687,208501253,-0.24,0.14,1.6500000000000001,1.1500000000000001,161.9,161.44,0.02,0.13,3
1678916870.18000603,208601232,-1.35,-0.55,1.87,1.44,161.9,161.5,0.02,0.12,3
1678916870.28001499,208701241,-2.52,-1.8,2.04,1.9000000000000001,161.9,161.55,0.02,0.1,3
1678916870.38020992,208801436,-3.79,-3.99,2.3000000000000003,2.0100000000000002,161.9,161.51,0.02,0.08,3
1678916870.48008990,208901316,-4.94,-5.43,2.37,1.97,161.9,161.45000000000002,0.02,0.09,3
1678916870.57972002,209000946,-5.58,-6.66,2.42,2.09,161.9,161.41,0.02,0.09,3
1678916870.67980504,209101031,-5.84,-7.23,2.56,2.3000000000000003,161.9,161.27,0.01,0.1,3
1678916870.77986002,209201086,-5.96,-6.96,2.7800000000000002,2.56,161.9,161.18,0.01,0.13,3
1678916870.87978387,209301010,-5.63,-6.12,2.97,2.88,161.9,161.03,0.02,0.15,3
1678916870.97969604,209400922,-4.19,-5.65,3.52,3.46,161.91,160.86,0.02,0.16,3
1678916871.08009791,209501324,-2.14,-4.01,3.91,4.19,161.91,160.68,0.03,0.15,3
1678916871.18001509,209601241,-1.09,-1.33,3.94,4.67,161.91,160.69,0.03,0.12,3
1678916871.27967596,209700902,-0.55,0.46,4.5200000000000005,4.7,161.91,160.72,0.03,0.11,3
1678916871.37972307,209800949,-0.25,0.9400000000000001,4.51,4.98,161.91,160.79,0.03,0.09,3
1678916871.47977996,209901006,-0.12,0.26,4.74,5.14,161.91,160.87,0.03,0.08,3
1678916871.57980204,210001028,-0.06,-0.19,5.2,5.16,161.91,161.04,0.03,0.12,3
1678916871.67987704,210101103,-0.03,-0.5,5.43,5.45,161.88,161.31,0.03,0.1,3
1678916871.78004694,210201273,-0.01,-0.65,5.29,5.92,161.43,161.46,0.03,0.09,3
1678916871.88005304,210301279,0.51,-0.39,4.7,5.79,160.37,161.6,0.02,0.09,3
1678916871.98002791,210401254,1.9000000000000001,0.51,4.15,4.92,159.33,161.49,0.02,0.1,3
1678916872.07965994,210500886,3.21,2.17,3.34,3.7800000000000002,158.28,161.19,0.02,0.09,3
1678916872.17966390,210600890,3.86,4.05,2.83,2.6,157.23,160.73,0.02,0.08,3
1678916872.27973509,210700961,2.59,5.01,3.04,1.86,156.57,160.04,0.02,0.06,3
1678916872.37974787,210800974,1.32,3.61,3.52,2.33,156.55,159.37,0.02,0.05,3
1678916872.47985005,210901076,0.67,1.01,4.0200000000000005,3.33,156.55,158.66,0.02,0.06,3
1678916872.57985806,211001084,0.34,-0.48,4.2700000000000005,4.25,156.55,157.97,0.02,0.11,3
1678916872.67980599,211101032,0.17,-1.03,4.24,4.58,156.55,157.38,0.02,0.13,3
1678916872.78005409,211201280,0.05,-0.48,4.23,4.4,156.64000000000001,156.83,0.02,0.13,3
1678916872.88003707,211301263,-0.52,-0.79,4.25,4.42,157.33,156.39000000000001,0.02,0.11,3
1678916872.97966409,211400890,-1.1400000000000001,-0.99,4.26,4.36,158.47,156.14000000000001,0.02,0.1,3
1678916873.07989407,211501120,-1.76,-0.9400000000000001,4.14,4.36,158.94,156.12,0.02,0.11,3
1678916873.17995596,211601182,-2.2800000000000002,-2.43,4.08,4.14,158.94,156.16,0.02,0.12,3
1678916873.27987599,211701102,-2.83,-3.0100000000000002,3.63,3.91,159.04,156.23,0.02,0.11,3
1678916873.37996387,211801190,-2.92,-3.11,3.4,3.2800000000000002,159.22,156.38,0.02,0.09,3
1678916873.48003292,211901259,-2.25,-3.48,3.22,2.89,159.22,156.54,0.02,0.07,3
1678916873.57999992,212001226,-1.59,-2.37,3.08,2.63,159.22,156.89000000000001,0.02,0.06,3
1678916873.68001699,212101243,-1.24,-1.47,3.04,2.72,159.22,157.06,0.02,0.05,3
1678916873.77992797,212201154,-0.97,-0.3,3.1,2.75,159.22,157.37,0.02,0.06,3
1678916873.87987995,212301106,-0.5,-0.23,3.5,2.97,159.22,157.61,0.02,0.05,3
1678916873.98020196,212401428,-0.25,0.09,3.77,3.46,159.22,157.92000000000002,0.02,0.04,3
1678916874.07972503,212500951,-0.13,0.61,3.89,3.93,159.22,158.15,0.02,0.04,3
1678916874.17972803,212600954,-0.06,0.09,3.58,4.26,159.22,158.4,0.02,0.06,3
1678916874.28000093,212701227,-0.06,0.18,2.92,4.14,159.22,158.54,0.02,0.08,3
1678916874.38005686,212801283,-0.1,-0.3,2.31,3.23,159.22,158.71,0.02,0.09,3
1678916874.48010802,212901334,-0.18,-0.36,1.8800000000000001,2.24,159.22,158.85,0.02,0.09,3
1678916874.58003592,213001262,-0.3,-0.62,1.6600000000000001,1.57,159.19,159.02,0.02,0.08,3
1678916874.68021393,213101440,-0.4,-0.8,1.68,1.43,158.85,159.0,0.02,0.07,3
1678916874.78022504,213201451,-0.4,-0.61,1.6,1.71,158.38,158.99,0.02,0.05,3
1678916874.87998295,213301209,-0.39,-0.75,1.17,1.83,157.78,158.88,0.02,0.06,3
1678916874.97971797,213400944,-0.52,-0.6,0.78,1.3800000000000001,157.38,158.66,0.02,0.05,3
1678916875.07973003,213500956,-0.6,-0.88,0.44,0.77,157.3,158.4,0.01,0.04,3
1678916875.17979407,213601020,-0.77,-0.89,0.24,0.11,157.3,158.13,0.01,0.04,3
1678916875.27990794,213701134,-1.22,-1.05,0.19,-0.06,157.3,157.84,0.01,0.05,3
1678916875.37979007,213801016,-1.9000000000000001,-1.6400000000000001,0.4,0.15,157.3,157.59,0.01,0.06,3
1678916875.47981906,213901045,-2.99,-2.12,0.32,0.62,157.3,157.26,0.01,0.06,3
1678916875.58002186,214001248,-4.55,-3.18,0.36,0.54,157.3,156.92000000000002,0.01,0.05,3
1678916875.67967796,214100904,-5.63,-4.75,0.4,0.53,157.3,156.61,0.02,0.07,3
1678916875.77965498,214200881,-6.11,-6.07,0.45,0.5700000000000001,157.3,156.33,0.02,0.1,3
1678916875.87972093,214300947,-6.26,-6.59,0.78,0.78,157.3,156.05,0.02,0.09,3
1678916875.97972894,214400955,-6.34,-6.07,1.03,1.1500000000000001,157.3,155.85,0.02,0.11,3
1678916876.07981086,214501037,-6.3,-5.66,1.22,1.6600000000000001,157.3,155.66,0.02,0.15,3
1678916876.17985296,214601079,-6.17,-5.26,1.34,2.04,157.3,155.54,0.02,0.17,3
1678916876.27988505,214701111,-6.13,-5.25,1.31,2.14,157.3,155.5,0.02,0.16,3
1678916876.38004494,214801271,-5.92,-4.9,1.07,1.85,157.3,155.46,0.02,0.17,3
1678916876.48007202,214901298,-4.88,-4.75,0.79,1.37,157.3,155.58,0.02,0.17,3
1678916876.57966304,215000889,-2.57,-3.5700000000000003,0.7000000000000001,1.06,157.3,155.63,0.02,0.16,3
1678916876.67990804,215101134,-1.3,-1.06,0.55,0.85,157.3,155.74,0.02,0.14,3
1678916876.77992702,215201153,0.19,1.43,0.35000000000000003,0.87,157.12,155.81,0.02,0.14,3
1678916876.87987590,215301102,1.59,3.0300000000000002,0.18,0.66,156.52,155.9,0.03,0.15,3
1678916876.97994494,215401171,2.32,4.13,0.15,0.39,155.62,155.81,0.03,0.14,3
1678916877.07999086,215501217,2.98,4.69,0.23,0.04,154.25,155.64000000000001,0.03,0.13,3
1678916877.17998695,215601213,3.96,4.68,0.93,-0.04,152.32,155.20000000000002,0.03,0.14,3
1678916877.27998400,215701210,4.5200000000000005,5.23,1.84,0.64,150.42000000000002,154.54,0.03,0.15,3
1678916877.38024187,215801468,4.47,5.17,2.42,1.76,148.94,153.71,0.03,0.14,3
1678916877.47971106,215900937,3.39,4.64,3.27,2.64,148.33,152.78,0.03,0.18,3
1678916877.57967806,216000904,1.77,2.46,4.3,3.62,148.32,151.84,0.03,0.21,3
1678916877.67972398,216100950,0.9,0.28,5.16,4.62,148.32,150.98,0.03,0.21,3
1678916877.77972698,216200953,0.46,-1.6500000000000001,5.58,5.76,148.34,150.1,0.03,0.22,3
1678916877.87979293,216301019,0.23,-1.86,5.64,6.36,148.75,149.38,0.03,0.24,3
1678916877.97985792,216401084,0.12,-1.33,5.58,6.22,149.47,148.77,0.03,0.24,3
1678916878.07978606,216501012,0.06,-0.65,5.23,6.0,149.73,148.37,0.03,0.23,3
1678916878.17979002,216601016,0.03,-0.4,4.18,5.2700000000000005,149.73,148.05,0.03,0.22,3
1678916878.28001690,216701243,0.18,-0.18,3.45,4.11,149.74,147.74,0.04,0.24,3
1678916878.37966800,216800894,0.44,0.28,2.86,2.64,150.12,147.55,0.04,0.25,3
1678916878.47970295,216900929,0.53,0.36,2.58,1.8,150.48,147.38,0.04,0.24,3
1678916878.57971787,217000944,0.52,0.85,2.63,1.57,150.48,147.42000000000002,0.04,0.23,3
1678916878.67972708,217100953,0.61,0.53,2.89,1.77,150.48,147.45000000000002,0.03,0.25,3
1678916878.77979302,217201019,0.92,0.84,3.19,2.31,150.48,147.51,0.03,0.25,3
1678916878.87985206,217301078,1.25,1.41,3.29,2.92,150.48,147.6,0.03,0.27,3
1678916878.98003793,217401264,1.42,1.8800000000000001,3.25,3.44,150.48,147.88,0.03,0.29,3
1678916879.07978797,217501014,1.6,2.27,3.02,3.43,150.48,148.17000000000002,0.03,0.3,3
1678916879.17970705,217600933,1.75,1.7,2.84,3.02,150.48,148.45000000000002,0.03,0.33,3
1678916879.27967596,217700902,1.95,1.62,2.47,2.5,150.48,148.75,0.03,0.35000000000000003,3
1678916879.37966490,217800891,2.21,2.23,1.96,1.96,150.48,149.15,0.03,0.35000000000000003,3
1678916879.47976398,217900990,2.54,2.5100000000000002,1.76,1.51,150.48,149.49,0.03,0.37,3
1678916879.57973504,218000961,2.83,3.31,1.82,1.24,150.48,149.93,0.03,0.35000000000000003,3
1678916879.67980289,218101029,2.94,3.41,1.9000000000000001,1.59,150.48,150.33,0.03,0.35000000000000003,3
1678916879.77984595,218201072,3.0100000000000002,3.33,2.04,1.72,150.48,150.67000000000002,0.03,0.37,3
1678916879.87978792,218301014,3.0700000000000003,3.13,2.29,2.0,150.48,150.92000000000002,0.03,0.38,3
1678916879.97977304,218400999,2.89,2.59,2.85,2.44,150.48,151.15,0.03,0.39,3
1678916880.08001709,218501243,2.73,2.05,3.44,3.22,150.48,151.27,0.03,0.38,3
1678916880.17970300,218600929,2.59,1.81,4.45,4.08,150.48,151.4,0.03,0.37,3
1678916880.27998495,218701211,2.31,1.75,4.95,4.99,150.48,151.44,0.03,0.38,3
1678916880.38005805,218801284,1.98,1.85,5.15,5.37,150.48,151.44,0.03,0.37,3
1678916880.47996402,218901190,1.26,1.96,5.25,5.0,150.48,151.4,0.03,0.38,3
1678916880.57997799,219001204,0.64,1.43,5.3,4.63,150.53,151.36,0.03,0.37,3
1678916880.68004489,219101271,0.32,0.37,5.37,4.76,150.65,151.41,0.03,0.35000000000000003,3
1678916880.78002405,219201250,0.16,-0.55,5.5200000000000005,5.23,150.92000000000002,151.44,0.03,0.36,3
1678916880.88002992,219301256,0.08,-1.58,5.44,5.54,151.02,151.56,0.03,0.36,3
1678916880.98001409,219401240,0.04,-1.16,4.99,5.59,151.1,151.63,0.03,0.37,3
1678916881.07992601,219501152,0.02,-1.41,4.45,4.9,151.11,151.71,0.02,0.37,3
1678916881.18023992,219601466,0.01,-0.85,3.5500000000000003,3.94,151.11,151.83,0.02,0.35000000000000003,3
1678916881.27973700,219700963,0.0,-0.5700000000000001,2.59,2.68,151.11,151.93,0.02,0.33,3
1678916881.37974191,219800968,0.0,0.19,2.16,1.34,151.11,152.01,0.02,0.32,3
1678916881.48000598,219901232,0.0,0.27,1.95,0.6,151.11,152.09,0.02,0.3,3
1678916881.58009005,220001316,0.0,-0.2,1.92,0.6,151.26,152.13,0.02,0.29,3
1678916881.67999196,220101218,0.0,-0.55,1.9000000000000001,0.93,152.04,152.1,0.02,0.3,3
1678916881.77997088,220201197,-0.2,-0.68,2.43,1.59,152.70000000000002,152.24,0.02,0.32,3
1678916881.88015509,220301381,-0.5,-0.44,3.15,2.07,153.18,152.55,0.02,0.33,3
1678916881.97988105,220401107,-0.91,-0.85,3.45,3.11,153.28,152.74,0.02,0.3,3
1678916882.07996607,220501192,-1.55,-1.26,3.62,3.72,153.28,152.96,0.02,0.31,3
1678916882.17995000,220601176,-2.08,-2.57,3.71,3.73,153.28,153.11,0.02,0.31,3
1678916882.27989888,220701125,-1.95,-3.0700000000000003,3.65,3.58,153.28,153.3,0.02,0.29,3
1678916882.37995005,220801176,-1.85,-3.72,3.37,3.42,153.28,153.43,0.02,0.29,3
1678916882.48005104,220901277,-1.92,-2.97,3.25,3.14,153.28,153.61,0.02,0.28,3
1678916882.57999706,221001223,-1.8900000000000001,-2.72,3.34,3.02,153.28,153.75,0.02,0.25,3
1678916882.68001103,221101237,-1.9000000000000001,-2.1,3.35,3.3000000000000003,153.28,153.89000000000001,0.02,0.24,3
1678916882.78016686,221201393,-2.0,-1.77,3.2800000000000002,3.36,153.28,154.0,0.02,0.24,3
1678916882.87993288,221301159,-2.13,-1.95,3.3200000000000003,3.21,153.28,154.06,0.02,0.23,3
1678916882.97999501,221401221,-2.39,-2.37,3.04,2.79,153.28,154.12,0.02,0.23,3
1678916883.07972693,221500953,-2.54,-2.56,2.7800000000000002,2.65,153.28,154.05,0.02,0.22,3
1678916883.17973590,221600962,-2.67,-2.94,2.65,2.21,153.28,153.96,0.02,0.22,3
1678916883.27981806,221701044,-2.79,-2.13,2.6,1.97,153.28,153.82,0.02,0.2,3
1678916883.37985587,221801082,-3.04,-2.31,2.72,2.2600000000000002,153.28,153.56,0.02,0.18,3
1678916883.47992206,221901148,-3.35,-2.4,2.73,2.63,153.28,153.32,0.02,0.19,3
1678916883.57977986,222001006,-3.83,-3.04,2.64,2.84,153.28,153.04,0.02,0.2,3
1678916883.68012786,222101354,-4.3500000000000005,-4.09,2.42,2.89,153.28,152.79,0.02,0.21,3
1678916883.77967405,222200900,-4.68,-4.67,2.15,2.3000000000000003,153.28,152.69,0.02,0.22,3
1678916883.87966299,222300889,-4.89,-5.24,1.99,1.74,153.28,152.54,0.02,0.21,3
1678916883.97971892,222400945,-5.07,-4.88,1.97,1.41,153.28,152.53,0.02,0.18,3
1678916884.07972097,222500947,-4.73,-5.0200000000000005,2.2800000000000002,1.67,153.28,152.36,0.02,0.16,3
1678916884.17980194,222601028,-4.3500000000000005,-4.4,2.45,2.3000000000000003,153.28,152.22,0.02,0.15,3
1678916884.27985597,222701082,-3.5700000000000003,-3.84,2.66,2.7800000000000002,153.28,152.12,0.02,0.15,3
1678916884.37980294,222801029,-2.0,-2.64,2.82,3.0500000000000003,153.28,152.02,0.02,0.17,3
1678916884.47983408,222901060,-1.02,-0.9,2.61,3.27,153.28,151.98,0.02,0.18,3
