timestamp,TimeUS,I,Status,GMS,GWk,NSats,HDop,Lat,Lng,Alt,Spd,GCrs,VZ,Yaw,U
1678916760.00000000,98421226,0,3,337578000,2253,14,0.7000000000000001,42.688185399999995,-84.49153629999999,273.56,0.01702938787639141,93.366455078125,0.020000001415610313,0.0,1
1678916760.19973993,98620966,0,3,337578200,2253,14,0.7000000000000001,42.688185399999995,-84.4915362,273.57,0.010440307669341564,16.699243545532227,0.09000000357627869,0.0,1
1678916760.39947009,98820696,0,3,337578400,2253,14,0.7000000000000001,42.688185399999995,-84.49153609999999,273.56,0.044598210602998734,160.34616088867188,0.11100000888109207,0.0,1
1678916760.57940006,99000626,0,3,337578600,2253,14,0.7000000000000001,42.6881853,-84.49153609999999,273.55,0.014142136089503765,278.1300964355469,0.0430000014603138,0.0,1
1678916760.79961205,99220838,0,3,337578800,2253,14,0.7000000000000001,42.6881853,-84.49153609999999,273.55,0.04118252173066139,299.0545959472656,0.046000003814697266,0.0,1
1678916760.99943709,99420663,0,3,337579000,2253,14,0.7000000000000001,42.6881853,-84.49153609999999,273.53000000000003,0.01649242267012596,194.0362548828125,0.026000000536441803,0.0,1
1678916761.19948196,99620708,0,3,337579200,2253,14,0.7000000000000001,42.6881853,-84.49153609999999,273.53000000000003,0.004000000189989805,180.0,0.023000001907348633,0.0,1
1678916761.39951396,99820740,0,3,337579400,2253,14,0.7000000000000001,42.6881852,-84.491536,273.53000000000003,0.02523886039853096,146.30992126464844,0.07900000363588333,0.0,1
1678916761.59982109,100021047,0,3,337579600,2253,14,0.7000000000000001,42.6881852,-84.4915359,273.52,0.01664331741631031,32.73522186279297,-0.01100000087171793,0.0,1
1678916761.79952407,100220750,0,3,337579800,2253,14,0.7000000000000001,42.6881852,-84.4915359,273.52,0.022472206503152847,290.8544616699219,0.046000003814697266,0.0,1
1678916761.97987103,100401097,0,3,337580000,2253,14,0.7000000000000001,42.6881852,-84.4915359,273.51,0.031827662140131,226.2730255126953,0.05900000408291817,0.0,1
1678916762.19946194,100620688,0,3,337580200,2253,14,0.7000000000000001,42.6881852,-84.4915359,273.51,0.008544004522264004,69.4439468383789,-0.0690000057220459,0.0,1
1678916762.39951801,100820744,0,3,337580400,2253,14,0.7000000000000001,42.6881852,-84.4915359,273.51,0.009000000543892384,180.0,0.04100000113248825,0.0,1
1678916762.59961987,101020846,0,3,337580600,2253,14,0.7000000000000001,42.6881852,-84.4915359,273.5,0.014560219831764698,105.94538879394531,-0.026000000536441803,0.0,1
1678916762.79981589,101221042,0,3,337580800,2253,14,0.7000000000000001,42.6881851,-84.4915358,273.51,0.037643060088157654,219.61068725585938,0.09300000220537186,0.0,1
1678916762.99972105,101420947,0,3,337581000,2253,14,0.7000000000000001,42.6881851,-84.4915358,273.5,0.03807886689901352,193.67132568359375,0.10300000756978989,0.0,1
1678916763.17947102,101600697,0,3,337581200,2253,14,0.7000000000000001,42.6881851,-84.4915359,273.49,0.018601076677441597,233.7461700439453,-0.017000000923871994,0.0,1
1678916763.39958286,101820809,0,3,337581400,2253,14,0.7000000000000001,42.6881851,-84.4915358,273.5,0.013341664336621761,12.994616508483887,0.09100000560283661,0.0,1
1678916763.59975600,102020982,0,3,337581600,2253,14,0.7000000000000001,42.6881851,-84.4915358,273.49,0.008062257431447506,119.744873046875,-0.02200000174343586,0.0,1
1678916763.79966307,102220889,0,3,337581800,2253,14,0.7000000000000001,42.6881851,-84.4915358,273.5,0.0255538672208786,149.42076110839844,0.04500000178813934,0.0,1
1678916763.97978997,102401016,0,3,337582000,2253,14,0.7000000000000001,42.688185,-84.4915358,273.5,0.020591260865330696,150.94540405273438,-0.010000000707805157,0.0,1
1678916764.19991088,102621137,0,3,337582200,2253,14,0.7000000000000001,42.688185,-84.4915357,273.51,0.03047950379550457,131.0090789794922,-0.005000000353902578,0.0,1
1678916764.37950587,102800732,0,3,337582400,2253,14,0.7000000000000001,42.688185,-84.4915357,273.51,0.012041594833135605,4.763641834259033,-0.0020000000949949026,0.0,1
1678916764.57961488,103000841,0,3,337582600,2253,14,0.7000000000000001,42.688185,-84.4915357,273.51,0.03939543291926384,246.0375213623047,0.11700000613927841,0.0,1
1678916764.77980304,103201029,0,3,337582800,2253,14,0.7000000000000001,42.688185,-84.4915358,273.51,0.006708203814923763,243.43496704101562,-0.027000000700354576,0.0,1
1678916764.99977708,103421003,0,3,337583000,2253,14,0.7000000000000001,42.688185,-84.4915357,273.51,0.04525483772158623,45.0,0.009000000543892384,0.0,1
1678916765.17972302,103600949,0,3,337583200,2253,14,0.7000000000000001,42.6881851,-84.4915357,273.52,0.00824621133506298,14.036242485046387,-0.0020000000949949026,0.0,1
1678916765.37998295,103801209,0,3,337583400,2253,14,0.7000000000000001,42.6881851,-84.4915357,273.56,0.08807383477687836,12.458245277404785,-0.5049999952316284,0.0,1
1678916765.57987905,104001105,0,3,337583600,2253,14,0.7000000000000001,42.6881853,-84.49153559999999,273.67,0.10024470090866089,4.0041728019714355,-0.5320000052452087,0.0,1
1678916765.79973197,104220958,0,3,337583800,2253,14,0.7000000000000001,42.688185499999996,-84.4915357,273.77,0.18811167776584625,338.48138427734375,-0.47300001978874207,0.0,1
1678916765.97948503,104400711,0,3,337584000,2253,14,0.7000000000000001,42.6881858,-84.4915358,273.83,0.1312173753976822,345.4342346191406,-0.29100000858306885,0.0,1
1678916766.19962001,104620846,0,3,337584200,2253,14,0.7000000000000001,42.688186099999996,-84.4915357,273.89,0.17147012054920197,9.736987113952637,-0.17600001394748688,0.0,1
1678916766.39945698,104820683,0,3,337584400,2253,14,0.7000000000000001,42.6881864,-84.49153559999999,273.91,0.20429880917072296,6.46407413482666,-0.06000000238418579,0.0,1
1678916766.59948802,105020714,0,3,337584600,2253,14,0.7000000000000001,42.6881868,-84.49153539999999,273.94,0.34398403763771057,20.59503173828125,-0.0560000017285347,0.0,1
1678916766.79953694,105220763,0,3,337584800,2253,14,0.7000000000000001,42.6881874,-84.4915351,273.95,0.3811837136745453,23.336746215820312,0.15800000727176666,0.0,1
1678916766.99958897,105420815,0,3,337585000,2253,14,0.7000000000000001,42.6881881,-84.4915347,273.94,0.4472605884075165,19.73137664794922,-0.018000001087784767,0.0,1
1678916767.19985390,105621080,0,3,337585200,2253,14,0.7000000000000001,42.6881887,-84.4915343,273.94,0.37157100439071655,18.191137313842773,0.06700000166893005,0.0,1
1678916767.39946198,105820688,0,3,337585400,2253,14,0.7000000000000001,42.6881893,-84.4915341,273.91,0.3410058915615082,0.33604177832603455,0.12400000542402267,0.0,1
1678916767.59948397,106020710,0,3,337585600,2253,14,0.7000000000000001,42.688189799999996,-84.4915341,273.89,0.3213098347187042,342.2417297363281,0.04800000041723251,0.0,1
1678916767.79953194,106220758,0,3,337585800,2253,14,0.7000000000000001,42.688190299999995,-84.4915343,273.88,0.28982236981391907,334.2306823730469,-0.006000000052154064,0.0,1
1678916767.99963403,106420860,0,3,337586000,2253,14,0.7000000000000001,42.6881906,-84.4915346,273.90000000000003,0.22622555494308472,323.9912414550781,-0.10300000756978989,0.0,1
1678916768.19982505,106621051,0,3,337586200,2253,15,0.68,42.6881908,-84.4915348,273.91,0.14629080891609192,328.7004089355469,-0.12200000882148743,0.0,1
1678916768.39949107,106820717,0,3,337586400,2253,15,0.68,42.688190899999995,-84.491535,273.94,0.08154140412807465,303.49517822265625,-0.07300000637769699,0.0,1
1678916768.59971595,107020942,0,3,337586600,2253,15,0.68,42.688190899999995,-84.4915351,273.97,0.05954829975962639,220.91439819335938,-0.15400001406669617,0.0,1
1678916768.79997301,107221199,0,3,337586800,2253,15,0.68,42.6881908,-84.4915352,274.02,0.07203471660614014,283.6504211425781,-0.16500000655651093,0.0,1
1678916768.99953389,107420760,0,3,337587000,2253,15,0.68,42.6881908,-84.49153539999999,274.07,0.06935416907072067,298.41265869140625,-0.16700001060962677,0.0,1
1678916769.19975305,107620979,0,3,337587200,2253,15,0.68,42.688190899999995,-84.4915355,274.12,0.052009616047143936,322.0284118652344,-0.2150000035762787,0.0,1
1678916769.39974308,107820969,0,3,337587400,2253,15,0.68,42.688190999999996,-84.49153559999999,274.18,0.13152948021888733,331.87628173828125,-0.06000000238418579,0.0,1
1678916769.59996605,108021192,0,3,337587600,2253,15,0.68,42.6881912,-84.49153559999999,274.26,0.19209372997283936,345.5296936035156,-0.28300002217292786,0.0,1
1678916769.79989100,108221117,0,3,337587800,2253,15,0.68,42.688191499999995,-84.49153559999999,274.3,0.16118623316287994,21.47136688232422,-0.17400000989437103,0.0,1
1678916769.97986698,108401093,0,3,337588000,2253,15,0.68,42.6881918,-84.49153539999999,274.35,0.24101868271827698,19.63783073425293,-0.1420000046491623,0.0,1
1678916770.19947600,108620702,0,3,337588200,2253,15,0.68,42.6881923,-84.4915352,274.38,0.33010604977607727,23.380916595458984,-0.08100000023841858,0.0,1
1678916770.39952898,108820755,0,3,337588400,2253,15,0.68,42.688192699999995,-84.4915348,274.42,0.31732162833213806,28.826614379882812,-0.18900001049041748,0.0,1
1678916770.59959102,109020817,0,3,337588600,2253,15,0.68,42.6881931,-84.4915343,274.47,0.31297287344932556,51.225826263427734,-0.16600000858306885,0.0,1
1678916770.79954100,109220767,0,3,337588800,2253,15,0.68,42.6881935,-84.4915336,274.52,0.35711345076560974,58.04563522338867,-0.18300001323223114,0.0,1
1678916770.99975300,109420979,0,3,337589000,2253,15,0.68,42.6881937,-84.4915329,274.57,0.2854645550251007,67.11766052246094,-0.24400001764297485,0.0,1
1678916771.19949198,109620718,0,3,337589200,2253,15,0.68,42.688193899999995,-84.4915322,274.61,0.3039029538631439,71.98239135742188,-0.14300000667572021,0.0,1
1678916771.38002396,109801250,0,3,337589400,2253,15,0.68,42.688193999999996,-84.4915316,274.62,0.22989781200885773,71.4862289428711,-0.026000000536441803,0.0,1
1678916771.59963894,110020865,0,3,337589600,2253,15,0.68,42.6881941,-84.4915311,274.63,0.18650737404823303,78.87080383300781,-0.15000000596046448,0.0,1
1678916771.79946399,110220690,0,3,337589800,2253,15,0.68,42.6881941,-84.4915307,274.65000000000003,0.15400001406669617,90.0,-0.05900000408291817,0.0,1
1678916771.99948692,110420713,0,3,337590000,2253,15,0.68,42.6881941,-84.4915304,274.67,0.09121403843164444,127.87498474121094,-0.06800000369548798,0.0,1
1678916772.19975901,110620985,0,3,337590200,2253,15,0.68,42.688193899999995,-84.4915303,274.68,0.08354640007019043,222.08917236328125,-0.1300000101327896,0.0,1
1678916772.39985299,110821079,0,3,337590400,2253,15,0.68,42.6881937,-84.4915305,274.72,0.1768191158771515,219.72259521484375,-0.21700000762939453,0.0,1
1678916772.59953403,111020760,0,3,337590600,2253,15,0.68,42.688193399999996,-84.49153079999999,274.77,0.20738612115383148,227.5404815673828,-0.12000000476837158,0.0,1
1678916772.77953506,111200761,0,3,337590800,2253,15,0.68,42.6881931,-84.4915312,274.81,0.24600204825401306,220.8791961669922,-0.08100000023841858,0.0,1
1678916772.99966502,111420891,0,3,337591000,2253,15,0.68,42.688192799999996,-84.4915315,274.83,0.2058057337999344,214.30780029296875,-0.14300000667572021,0.0,1
1678916773.19973397,111620960,0,3,337591200,2253,15,0.68,42.6881924,-84.49153179999999,274.85,0.19669774174690247,203.0456085205078,-0.0650000050663948,0.0,1
1678916773.39984894,111821075,0,3,337591400,2253,15,0.68,42.688192099999995,-84.4915319,274.86,0.21037349104881287,186.5507354736328,-0.014000000432133675,0.0,1
1678916773.60004687,112021273,0,3,337591600,2253,15,0.68,42.6881917,-84.49153199999999,274.86,0.180269256234169,192.4943389892578,0.06800000369548798,0.0,1
1678916773.79947305,112220699,0,3,337591800,2253,15,0.68,42.6881914,-84.49153199999999,274.85,0.21700231730937958,179.73594665527344,0.06200000271201134,0.0,1
1678916773.99976587,112420992,0,3,337592000,2253,15,0.68,42.688190999999996,-84.4915321,274.85,0.21292488276958466,196.647705078125,0.11900000274181366,0.0,1
1678916774.19983697,112621063,0,3,337592200,2253,15,0.68,42.6881907,-84.4915322,274.83,0.15742935240268707,207.21612548828125,0.01900000125169754,0.0,1
1678916774.39988899,112821115,0,3,337592400,2253,15,0.68,42.688190399999996,-84.49153249999999,274.82,0.1903943419456482,230.54119873046875,0.11000000685453415,0.0,1
1678916774.59974790,113020974,0,3,337592600,2253,15,0.68,42.688190299999995,-84.4915329,274.81,0.14610272645950317,252.0611114501953,0.07900000363588333,0.0,1
1678916774.80001402,113221240,0,3,337592800,2253,15,0.68,42.6881902,-84.49153319999999,274.8,0.13776792585849762,256.5689697265625,0.16700001060962677,0.0,1
1678916774.99977899,113421005,0,3,337593000,2253,15,0.68,42.6881902,-84.4915334,274.78000000000003,0.07532595843076706,264.6678466796875,0.07900000363588333,0.0,1
1678916775.19964886,113620875,0,3,337593200,2253,15,0.68,42.6881901,-84.4915336,274.77,0.04200000315904617,270.0,0.203000009059906,0.0,1
1678916775.39946008,113820686,0,3,337593400,2253,15,0.68,42.6881901,-84.4915336,274.75,0.03635932132601738,121.5042495727539,-0.03800000250339508,0.0,1
1678916775.59946394,114020690,0,3,337593600,2253,15,0.68,42.68819,-84.4915335,274.76,0.015000000596046448,143.13009643554688,-0.01100000087171793,0.0,1
1678916775.79954004,114220766,0,3,337593800,2253,15,0.68,42.68819,-84.4915334,274.78000000000003,0.06328506767749786,58.5704345703125,-0.07300000637769699,0.0,1
1678916775.99983191,114421058,0,3,337594000,2253,15,0.68,42.6881901,-84.49153319999999,274.81,0.07495332509279251,76.89078521728516,0.05300000309944153,0.0,1
1678916776.19987893,114621105,0,3,337594200,2253,15,0.68,42.6881901,-84.49153299999999,274.82,0.09400532394647598,90.60950469970703,0.05400000140070915,0.0,1
1678916776.39945793,114820684,0,3,337594400,2253,15,0.68,42.6881901,-84.4915328,274.84000000000003,0.08746428042650223,67.83364868164062,-0.09200000762939453,0.0,1
1678916776.59948802,115020714,0,3,337594600,2253,15,0.68,42.6881901,-84.49153249999999,274.86,0.1434050351381302,74.21924591064453,-0.039000000804662704,0.0,1
1678916776.77971101,115200937,0,3,337594800,2253,15,0.68,42.6881902,-84.4915321,274.88,0.18648862838745117,63.57234573364258,-0.03500000014901161,0.0,1
1678916776.99963999,115420866,0,3,337595000,2253,15,0.68,42.688190399999996,-84.4915317,274.88,0.2560175955295563,37.541297912597656,0.164000004529953,0.0,1
1678916777.19980407,115621030,0,3,337595200,2253,15,0.68,42.6881907,-84.49153129999999,274.85,0.29680466651916504,41.585445404052734,0.20900000631809235,0.0,1
1678916777.39948106,115820707,0,3,337595400,2253,15,0.68,42.6881912,-84.4915309,274.82,0.3457065522670746,27.009767532348633,0.26200002431869507,0.0,1
1678916777.59974194,116020968,0,3,337595600,2253,15,0.68,42.6881918,-84.49153059999999,274.79,0.41686931252479553,17.304828643798828,0.14100000262260437,0.0,1
1678916777.79978204,116221008,0,3,337595800,2253,15,0.68,42.6881925,-84.4915303,274.76,0.3781600296497345,16.278385162353516,0.20000000298023224,0.0,1
1678916777.99978304,116421009,0,3,337596000,2253,15,0.68,42.688193,-84.49153,274.72,0.3447027802467346,18.960582733154297,0.2120000123977661,0.0,1
1678916778.17955208,116600778,0,3,337596200,2253,15,0.68,42.6881935,-84.4915298,274.7,0.25603124499320984,28.967660903930664,0.164000004529953,0.0,1
1678916778.40000892,116821235,0,3,337596400,2253,15,0.68,42.688193899999995,-84.4915295,274.67,0.19751709699630737,34.89696502685547,0.17100000381469727,0.0,1
1678916778.59952188,117020748,0,3,337596600,2253,15,0.68,42.6881942,-84.4915292,274.65000000000003,0.19601021707057953,28.657115936279297,0.16900001466274261,0.0,1
1678916778.79963493,117220861,0,3,337596800,2253,15,0.68,42.6881944,-84.491529,274.63,0.15179592370986938,11.013832092285156,0.3060000240802765,0.0,1
1678916778.99944997,117420676,0,3,337597000,2253,15,0.68,42.6881947,-84.491529,274.58,0.13031117618083954,3.9603111743927,0.2200000137090683,0.0,1
1678916779.19946599,117620692,0,3,337597200,2253,15,0.68,42.6881949,-84.491529,274.55,0.09066973626613617,6.968256950378418,0.320000022649765,0.0,1
1678916779.39975786,117820984,0,3,337597400,2253,15,0.68,42.688195,-84.491529,274.51,0.07762087881565094,345.0685729980469,0.406000018119812,0.0,1
1678916779.57996988,118001196,0,3,337597600,2253,15,0.68,42.6881951,-84.491529,274.46,0.0414004847407341,307.1466979980469,0.33100003004074097,0.0,1
1678916779.80008292,118221309,0,3,337597800,2253,15,0.68,42.6881951,-84.4915291,274.42,0.07816009223461151,286.3481750488281,0.2600000202655792,0.0,1
1678916779.99945903,118420685,0,3,337598000,2253,15,0.68,42.6881951,-84.49152939999999,274.38,0.155666321516037,249.7024383544922,0.35500001907348633,0.0,1
1678916780.19947195,118620698,0,3,337598200,2253,15,0.68,42.688195,-84.4915298,274.31,0.1554155796766281,240.3008575439453,0.3850000202655792,0.0,1
1678916780.39976406,118820990,0,3,337598400,2253,15,0.68,42.6881949,-84.4915302,274.26,0.1955019235610962,265.89349365234375,0.26200002431869507,0.0,1
1678916780.59962606,119020852,0,3,337598600,2253,15,0.68,42.6881947,-84.49153059999999,274.15000000000003,0.24000000953674316,216.86990356445312,0.5879999995231628,0.0,1
1678916780.79968905,119220915,0,3,337598800,2253,15,0.68,42.6881945,-84.4915309,274.04,0.09656604379415512,285.619384765625,0.6150000095367432,0.0,1
1678916780.97944999,119400676,0,3,337599000,2253,15,0.68,42.6881944,-84.4915312,273.90000000000003,0.28751346468925476,209.59657287597656,0.9080000519752502,0.0,1
1678916781.19972491,119620951,0,3,337599200,2253,15,0.68,42.6881941,-84.4915314,273.75,0.08450444042682648,249.20590209960938,0.7190000414848328,0.0,1
1678916781.39978695,119821013,0,3,337599400,2253,15,0.68,42.688193999999996,-84.4915316,273.61,0.06046487018465996,235.7843017578125,0.8220000267028809,0.0,1
1678916781.59977603,120021002,0,3,337599600,2253,15,0.68,42.688193999999996,-84.4915316,273.45,0.020615529268980026,202.8336639404297,0.7470000386238098,0.0,1
1678916781.79976106,120220987,0,3,337599800,2253,15,0.68,42.6881941,-84.4915312,273.40000000000003,0.41020119190216064,74.87963104248047,-0.289000004529953,0.0,1
1678916781.99948907,120420715,0,3,337600000,2253,15,0.68,42.6881943,-84.4915307,273.42,0.1513274610042572,352.4053649902344,0.21700000762939453,0.0,1
1678916782.19953394,120620760,0,3,337600200,2253,15,0.68,42.6881944,-84.4915305,273.41,0.17114323377609253,80.92294311523438,0.05700000375509262,0.0,1
1678916782.39963388,120820860,0,3,337600400,2253,15,0.68,42.6881944,-84.4915303,273.41,0.0766615942120552,210.57923889160156,0.1210000067949295,0.0,1
1678916782.59945798,121020684,0,3,337600600,2253,15,0.68,42.6881943,-84.4915303,273.39,0.03827532008290291,33.27488708496094,0.05900000408291817,0.0,1
1678916782.79946494,121220691,0,3,337600800,2253,15,0.68,42.6881943,-84.4915303,273.40000000000003,0.02200000174343586,180.0,0.010000000707805157,0.0,1
1678916782.99952197,121420748,0,3,337601000,2253,15,0.68,42.6881943,-84.4915303,273.40000000000003,0.015652475878596306,206.56504821777344,0.017000000923871994,0.0,1
1678916783.19958806,121620814,0,3,337601200,2253,15,0.68,42.6881943,-84.4915302,273.40000000000003,0.0454532727599144,50.3558235168457,0.0560000017285347,0.0,1
1678916783.39955091,121820777,0,3,337601400,2253,15,0.68,42.6881943,-84.4915302,273.39,0.030413813889026642,170.5376739501953,0.032999999821186066,0.0,1
1678916783.57985806,122001084,0,3,337601600,2253,15,0.68,42.6881943,-84.49153009999999,273.39,0.0058309524320065975,59.0362434387207,0.04100000113248825,0.0,1
1678916783.79945493,122220681,0,3,337601800,2253,15,0.68,42.6881942,-84.49153009999999,273.38,0.005000000353902578,270.0,-0.006000000052154064,0.0,1
1678916783.99949789,122420724,0,3,337602000,2253,15,0.68,42.6881942,-84.49153009999999,273.38,0.027018513530492783,182.12110900878906,0.10500000417232513,0.0,1
1678916784.19987607,122621102,0,3,337602200,2253,15,0.68,42.6881942,-84.49153009999999,273.38,0.01664331741631031,237.2647705078125,0.10600000619888306,0.0,1
1678916784.39981294,122821039,0,3,337602400,2253,15,0.68,42.6881941,-84.49153009999999,273.37,0.02376972883939743,255.37913513183594,0.021000001579523087,0.0,1
1678916784.59969401,123020920,0,3,337602600,2253,15,0.68,42.6881941,-84.49153009999999,273.36,0.02370654046535492,297.6459655761719,0.0690000057220459,0.0,1
1678916784.79972792,123220954,0,3,337602800,2253,15,0.68,42.6881941,-84.4915302,273.36,0.0382099486887455,276.0090026855469,0.03100000135600567,0.0,1
1678916784.97949696,123400723,0,3,337603000,2253,15,0.68,42.6881941,-84.4915302,273.36,0.009219544939696789,192.52880859375,0.05300000309944153,0.0,1
1678916785.19951797,123620744,0,3,337603200,2253,15,0.68,42.6881941,-84.49153009999999,273.36,0.026419691741466522,119.47587585449219,0.04500000178813934,0.0,1
1678916785.39965796,123820884,0,3,337603400,2253,15,0.68,42.688193999999996,-84.49153009999999,273.35,0.0353553369641304,171.86988830566406,0.11100000888109207,0.0,1
1678916785.59964204,124020868,0,3,337603600,2253,15,0.68,42.688193999999996,-84.49153,273.35,0.009055386297404766,173.65980529785156,0.07300000637769699,0.0,1
1678916785.79989600,124221122,0,3,337603800,2253,15,0.68,42.688193999999996,-84.49153,273.35,0.0072111026383936405,303.6900634765625,0.06400000303983688,0.0,1
1678916785.99961591,124420842,0,3,337604000,2253,15,0.68,42.688193899999995,-84.49153,273.35,0.02500000037252903,163.7397918701172,-0.006000000052154064,0.0,1
1678916786.19942188,124620648,0,3,337604200,2253,15,0.68,42.688193899999995,-84.49153,273.35,0.02280350960791111,217.87498474121094,0.03100000135600567,0.0,1
1678916786.37979102,124801017,0,3,337604400,2253,15,0.68,42.6881938,-84.49152989999999,273.35,0.010816654190421104,123.6900634765625,0.0650000050663948,0.0,1
1678916786.59949589,125020722,0,3,337604600,2253,15,0.68,42.6881938,-84.49152989999999,273.34000000000003,0.024413112550973892,145.00796508789062,0.02500000037252903,0.0,1
1678916786.79982591,125221052,0,3,337604800,2253,15,0.68,42.6881938,-84.49152989999999,273.35,0.016970563679933548,225.0,0.04400000348687172,0.0,1
1678916786.99952197,125420748,0,3,337605000,2253,15,0.68,42.6881937,-84.4915298,273.34000000000003,0.007280109915882349,195.94540405273438,0.06200000271201134,0.0,1
1678916787.19939899,125620625,0,3,337605200,2253,15,0.68,42.6881937,-84.4915298,273.34000000000003,0.022090723738074303,174.80557250976562,-0.004000000189989805,0.0,1
1678916787.39942288,125820649,0,3,337605400,2253,15,0.68,42.6881936,-84.4915298,273.34000000000003,0.024698179215192795,211.7594757080078,0.013000000268220901,0.0,1
1678916787.59950709,126020733,0,3,337605600,2253,15,0.68,42.6881936,-84.4915298,273.34000000000003,0.03201562166213989,231.34019470214844,0.06100000441074371,0.0,1
1678916787.79962301,126220849,0,3,337605800,2253,15,0.68,42.6881935,-84.4915298,273.33,0.006324555724859238,161.56504821777344,-0.04800000041723251,0.0,1
1678916787.99985003,126421076,0,3,337606000,2253,15,0.68,42.6881935,-84.4915298,273.33,0.0022360680159181356,63.4349479675293,0.01600000075995922,0.0,1
1678916788.19940209,126620628,0,3,337606200,2253,15,0.68,42.688193399999996,-84.4915298,273.32,0.011180341243743896,153.43495178222656,-0.005000000353902578,0.0,1
1678916788.39974189,126820968,0,3,337606400,2253,15,0.68,42.688193399999996,-84.4915297,273.31,0.0036055513191968203,236.3099365234375,0.04500000178813934,0.0,1
1678916788.59981608,127021042,0,3,337606600,2253,15,0.68,42.688193299999995,-84.4915297,273.31,0.00412310566753149,345.9637451171875,0.02800000086426735,0.0,1
1678916788.80007386,127221300,0,3,337606800,2253,15,0.68,42.688193299999995,-84.49152959999999,273.31,0.014422205276787281,146.30992126464844,0.03200000151991844,0.0,1
1678916788.99939203,127420618,0,3,337607000,2253,15,0.68,42.6881932,-84.49152959999999,273.31,0.03982461616396904,208.4956512451172,0.12200000882148743,0.0,1
1678916789.19942188,127620648,0,3,337607200,2253,15,0.68,42.6881932,-84.49152959999999,273.3,0.03894868493080139,299.1974792480469,0.036000002175569534,0.0,1
1678916789.39952803,127820754,0,3,337607400,2253,15,0.68,42.6881932,-84.49152959999999,273.3,0.018439089879393578,12.528807640075684,0.03500000014901161,0.0,1
1678916789.59962606,128020852,0,3,337607600,2253,15,0.68,42.6881932,-84.49152959999999,273.3,0.019026298075914383,266.9872131347656,0.10500000417232513,0.0,1
1678916789.79979205,128221018,0,3,337607800,2253,15,0.68,42.6881931,-84.4915295,273.29,0.03047950379550457,138.99090576171875,0.09800000488758087,0.0,1
1678916789.99940491,128420631,0,3,337608000,2253,15,0.68,42.6881931,-84.49152939999999,273.29,0.011401754803955555,142.12501525878906,0.09100000560283661,0.0,1
1678916790.19970202,128620928,0,3,337608200,2253,15,0.68,42.6881931,-84.4915293,273.28000000000003,0.013000000268220901,270.0,0.11000000685453415,0.0,1
1678916790.39978600,128821012,0,3,337608400,2253,15,0.68,42.6881931,-84.4915293,273.27,0.03100000135600567,270.0,0.08300000429153442,0.0,1
1678916790.59976006,129020986,0,3,337608600,2253,15,0.68,42.6881931,-84.4915293,273.26,0.011401754803955555,52.1250114440918,0.03700000047683716,0.0,1
1678916790.79997492,129221201,0,3,337608800,2253,15,0.68,42.688193,-84.4915293,273.24,0.030083218589425087,195.42218017578125,0.023000001907348633,0.0,1
1678916790.99946189,129420688,0,3,337609000,2253,15,0.68,42.688193,-84.4915292,273.23,0.039115212857723236,184.39871215820312,0.07200000435113907,0.0,1
1678916791.19950509,129620731,0,3,337609200,2253,15,0.68,42.6881929,-84.4915292,273.22,0.027018513530492783,231.00901794433594,0.11800000816583633,0.0,1
1678916791.39961386,129820840,0,3,337609400,2253,15,0.68,42.6881929,-84.4915292,273.21,0.03220248594880104,323.841796875,0.02200000174343586,0.0,1
1678916791.59941196,130020638,0,3,337609600,2253,15,0.68,42.6881929,-84.4915292,273.19,0.019416488707065582,235.49148559570312,0.03100000135600567,0.0,1
1678916791.77965999,130200886,0,3,337609800,2253,15,0.68,42.688192799999996,-84.4915292,273.19,0.015620499849319458,140.1944122314453,0.07500000298023224,0.0,1
1678916791.99950790,130420734,0,3,337610000,2253,15,0.68,42.688192799999996,-84.4915291,273.18,0.02376973070204258,202.2490234375,0.09200000762939453,0.0,1
1678916792.19957709,130620803,0,3,337610200,2253,15,0.68,42.688192799999996,-84.4915292,273.16,0.023537205532193184,257.7352294921875,0.007000000216066837,0.0,1
1678916792.39952493,130820751,0,3,337610400,2253,15,0.68,42.688192699999995,-84.4915291,273.16,0.004472136031836271,333.4349365234375,0.09700000286102295,0.0,1
1678916792.59938598,131020612,0,3,337610600,2253,15,0.68,42.688192699999995,-84.4915291,273.14,0.009433981962502003,212.00538635253906,0.030000001192092896,0.0,1
1678916792.79969501,131220921,0,3,337610800,2253,15,0.68,42.688192699999995,-84.4915291,273.13,0.016552945598959923,154.9831085205078,0.04800000041723251,0.0,1
1678916792.97963905,131400865,0,3,337611000,2253,15,0.68,42.688192699999995,-84.4915291,273.14,0.044407207518815994,324.162353515625,0.003000000026077032,0.0,1
1678916793.17969799,131600924,0,3,337611200,2253,15,0.68,42.688192699999995,-84.4915292,273.14,0.0305941179394722,258.6900634765625,0.04000000283122063,0.0,1
1678916793.39978886,131821015,0,3,337611400,2253,15,0.68,42.6881926,-84.4915292,273.13,0.030083218589425087,201.44773864746094,0.005000000353902578,0.0,1
1678916793.59969807,132020924,0,3,337611600,2253,15,0.68,42.6881926,-84.4915292,273.13,0.02828427217900753,261.8699035644531,0.10100000351667404,0.0,1
1678916793.79976201,132220988,0,3,337611800,2253,15,0.68,42.6881925,-84.4915292,273.12,0.06537584215402603,173.85337829589844,0.04700000211596489,0.0,1
1678916793.97950697,132400733,0,3,337612000,2253,15,0.68,42.6881924,-84.4915292,273.11,0.03176476061344147,331.8214111328125,0.02200000174343586,0.0,1
1678916794.19984388,132621070,0,3,337612200,2253,15,0.68,42.6881924,-84.4915292,273.09000000000003,0.015264337882399559,121.60749816894531,0.04500000178813934,0.0,1
1678916794.37951493,132800741,0,3,337612400,2253,15,0.68,42.6881924,-84.4915292,273.09000000000003,0.009219544939696789,220.60130310058594,0.046000003814697266,0.0,1
1678916794.57938886,133000615,0,3,337612600,2253,15,0.68,42.6881923,-84.4915292,273.08,0.07990619540214539,188.63714599609375,0.06400000303983688,0.0,1
1678916794.79952598,133220752,0,3,337612800,2253,15,0.68,42.688192199999996,-84.4915291,273.09000000000003,0.0766615942120552,120.5792236328125,0.015000000596046448,0.0,1
1678916794.99960709,133420833,0,3,337613000,2253,15,0.68,42.688192099999995,-84.4915291,273.11,0.057140178978443146,212.85572814941406,-0.09700000286102295,0.0,1
1678916795.17988300,133601109,0,3,337613200,2253,15,0.68,42.688192099999995,-84.4915292,273.09000000000003,0.039115212857723236,32.47119140625,0.10100000351667404,0.0,1
1678916795.37979102,133801017,0,3,337613400,2253,15,0.68,42.688192099999995,-84.4915293,273.09000000000003,0.1283160150051117,291.9672546386719,-0.030000001192092896,0.0,1
1678916795.59969306,134020919,0,3,337613600,2253,15,0.68,42.688192,-84.4915295,273.11,0.19004473090171814,191.8420867919922,-0.03100000135600567,0.0,1
1678916795.79975986,134220986,0,3,337613800,2253,15,0.68,42.6881917,-84.49152939999999,273.08,0.15600000321865082,112.61985778808594,0.09200000762939453,0.0,1
1678916795.98001790,134401244,0,3,337614000,2253,15,0.68,42.6881917,-84.49152939999999,273.03000000000003,0.15065523982048035,313.6552734375,0.0010000000474974513,0.0,1
1678916796.19996595,134621192,0,3,337614200,2253,15,0.68,42.6881918,-84.4915295,273.02,0.04123105853796005,75.96375274658203,0.16700001060962677,0.0,1
1678916796.37937808,134800604,0,3,337614400,2253,15,0.68,42.6881917,-84.49152959999999,273.01,0.22102037072181702,232.35238647460938,-0.12300000339746475,0.0,1
1678916796.57944489,135000671,0,3,337614600,2253,15,0.68,42.688191499999995,-84.4915302,273.02,0.34294751286506653,256.1663818359375,-0.17400000989437103,0.0,1
1678916796.79960489,135220831,0,3,337614800,2253,15,0.68,42.6881914,-84.4915309,273.03000000000003,0.23837997019290924,260.3401184082031,0.04800000041723251,0.0,1
1678916796.99977994,135421006,0,3,337615000,2253,15,0.68,42.6881914,-84.4915316,273.02,0.33778396248817444,273.90435791015625,0.16100001335144043,0.0,1
1678916797.19940805,135620634,0,3,337615200,2253,15,0.68,42.688191499999995,-84.4915323,272.96,0.21350644528865814,287.16192626953125,0.1550000011920929,0.0,1
1678916797.39949608,135820722,0,3,337615400,2253,15,0.68,42.688191499999995,-84.4915326,272.92,0.08500000834465027,244.9423828125,0.20000000298023224,0.0,1
1678916797.59956694,136020793,0,3,337615600,2253,15,0.68,42.688191499999995,-84.4915327,272.88,0.008602325804531574,324.4623107910156,0.15300001204013824,0.0,1
1678916797.79953003,136220756,0,3,337615800,2253,15,0.68,42.688191599999996,-84.4915326,272.87,0.0751664862036705,33.05582046508789,0.08900000154972076,0.0,1
1678916797.99977589,136421002,0,3,337616000,2253,15,0.68,42.688191599999996,-84.49153249999999,272.84000000000003,0.08300602436065674,90.69026947021484,-0.0020000000949949026,0.0,1
1678916798.19938993,136620616,0,3,337616200,2253,15,0.68,42.688191599999996,-84.4915324,272.83,0.05414794757962227,184.2364044189453,0.04200000315904617,0.0,1
1678916798.39974689,136820973,0,3,337616400,2253,15,0.68,42.688191499999995,-84.4915324,272.82,0.058180756866931915,28.76764488220215,-0.0690000057220459,0.0,1
1678916853.59952307,192020749,0,3,337671600,2253,15,0.68,42.688193399999996,-84.4915334,273.36,0.027018513530492783,267.87890625,0.11400000751018524,0.0,1
1678916853.79943800,192220664,0,3,337671800,2253,15,0.68,42.688193299999995,-84.4915334,273.35,0.03157530725002289,169.04592895507812,0.0650000050663948,0.0,1
1678916853.99968386,192420910,0,3,337672000,2253,15,0.68,42.688193299999995,-84.4915334,273.35,0.01910497434437275,132.87889099121094,0.01100000087171793,0.0,1
1678916854.19975305,192620979,0,3,337672200,2253,15,0.68,42.688193299999995,-84.4915334,273.35,0.021000001579523087,0.0,0.021000001579523087,0.0,1
1678916854.39988399,192821110,0,3,337672400,2253,15,0.68,42.688193299999995,-84.4915334,273.35,0.0187882948666811,205.20114135742188,-0.0020000000949949026,0.0,1
1678916854.59943390,193020660,0,3,337672600,2253,15,0.68,42.688193299999995,-84.4915334,273.35,0.019416488707065582,101.8886489868164,-0.027000000700354576,0.0,1
1678916854.79946303,193220689,0,3,337672800,2253,15,0.68,42.6881932,-84.4915334,273.36,0.004472136031836271,206.56504821777344,-0.00800000037997961,0.0,1
1678916854.99950886,193420735,0,3,337673000,2253,15,0.68,42.6881932,-84.4915334,273.36,0.02121320553123951,188.13011169433594,-0.055000003427267075,0.0,1
1678916855.19957900,193620805,0,3,337673200,2253,15,0.68,42.6881932,-84.4915334,273.37,0.021931713446974754,294.2277526855469,0.018000001087784767,0.0,1
1678916855.39985108,193821077,0,3,337673400,2253,15,0.68,42.6881932,-84.4915334,273.38,0.009899495169520378,225.0,0.046000003814697266,0.0,1
1678916855.59973001,194020956,0,3,337673600,2253,15,0.68,42.6881932,-84.4915334,273.38,0.002828427357599139,315.0,0.0560000017285347,0.0,1
1678916855.79970694,194220933,0,3,337673800,2253,15,0.68,42.688193299999995,-84.4915334,273.39,0.00854400359094143,20.55604362487793,0.009000000543892384,0.0,1
1678916856.01962996,194440856,0,3,337674000,2253,15,0.68,42.688193299999995,-84.4915334,273.40000000000003,0.01100000087171793,0.0,0.07800000160932541,0.0,1
1678916856.19962692,194620853,0,3,337674200,2253,15,0.68,42.688193299999995,-84.4915334,273.40000000000003,0.021023796871304512,205.34617614746094,0.049000002443790436,0.0,1
1678916856.39944792,194820674,0,3,337674400,2253,15,0.68,42.688193299999995,-84.4915334,273.40000000000003,0.015000000596046448,126.8698959350586,-0.007000000216066837,0.0,1
1678916856.59946299,195020689,0,3,337674600,2253,15,0.68,42.6881932,-84.4915333,273.40000000000003,0.06444377452135086,138.14495849609375,0.007000000216066837,0.0,1
1678916856.79950309,195220729,0,3,337674800,2253,15,0.68,42.6881932,-84.49153319999999,273.42,0.02376973070204258,337.7509765625,-0.032999999821186066,0.0,1
1678916856.99958706,195420813,0,3,337675000,2253,15,0.68,42.6881932,-84.4915333,273.43,0.028425343334674835,219.28941345214844,0.04100000113248825,0.0,1
1678916857.19953609,195620762,0,3,337675200,2253,15,0.68,42.6881932,-84.4915333,273.42,0.007000000216066837,180.0,-0.017000000923871994,0.0,1
1678916857.39944792,195820674,0,3,337675400,2253,15,0.68,42.6881932,-84.49153319999999,273.43,0.01077033020555973,21.801406860351562,-0.0430000014603138,0.0,1
1678916857.59970403,196020930,0,3,337675600,2253,15,0.68,42.6881932,-84.49153319999999,273.43,0.00824621133506298,255.96377563476562,-0.03200000151991844,0.0,1
1678916857.79952598,196220752,0,3,337675800,2253,15,0.68,42.6881932,-84.49153319999999,273.44,0.018110772594809532,276.3402099609375,0.023000001907348633,0.0,1
1678916858.01943302,196440659,0,3,337676000,2253,15,0.68,42.6881932,-84.4915333,273.43,0.027802878990769386,217.69424438476562,0.014000000432133675,0.0,1
1678916858.21945500,196640681,0,3,337676200,2253,16,0.66,42.6881932,-84.4915333,273.44,0.010295630432665348,299.0545959472656,-0.03200000151991844,0.0,1
1678916858.39966297,196820889,0,3,337676400,2253,16,0.66,42.6881932,-84.4915333,273.45,0.009219544008374214,130.60128784179688,0.039000000804662704,0.0,1
1678916858.59970403,197020930,0,3,337676600,2253,16,0.66,42.6881932,-84.4915333,273.44,0.003162277862429619,71.56504821777344,0.0,0.0,1
1678916858.79978204,197221008,0,3,337676800,2253,16,0.66,42.6881932,-84.49153319999999,273.46,0.06414047628641129,59.0362434387207,-0.2670000195503235,0.0,1
1678916858.99976707,197420993,0,3,337677000,2253,16,0.66,42.688193299999995,-84.49153319999999,273.55,0.05948109179735184,333.004150390625,-0.5750000476837158,0.0,1
1678916859.19967198,197620898,0,3,337677200,2253,16,0.66,42.688193399999996,-84.4915331,273.66,0.12557467818260193,5.483590126037598,-0.4520000219345093,0.0,1
1678916859.39967394,197820900,0,3,337677400,2253,16,0.66,42.6881936,-84.4915331,273.73,0.1205528974533081,339.61083984375,-0.3230000138282776,0.0,1
1678916859.59972095,198020947,0,3,337677600,2253,16,0.66,42.688193899999995,-84.4915333,273.78000000000003,0.22475765645503998,330.6977844238281,-0.18400001525878906,0.0,1
1678916859.79983902,198221065,0,3,337677800,2253,16,0.66,42.6881943,-84.4915333,273.82,0.28085049986839294,26.65628433227539,-0.15800000727176666,0.0,1
1678916859.99967599,198420902,0,3,337678000,2253,16,0.66,42.6881948,-84.49153299999999,273.84000000000003,0.3162056505680084,27.294374465942383,-0.055000003427267075,0.0,1
1678916860.19971704,198620943,0,3,337678200,2253,16,0.66,42.6881954,-84.4915326,273.84000000000003,0.38560086488723755,36.988765716552734,0.06000000238418579,0.0,1
1678916860.39976287,198820989,0,3,337678400,2253,16,0.66,42.6881959,-84.4915319,273.84000000000003,0.39950597286224365,38.1894416809082,0.03200000151991844,0.0,1
1678916860.59982705,199021053,0,3,337678600,2253,16,0.66,42.6881965,-84.4915316,273.82,0.31827661395072937,9.403132438659668,0.01600000075995922,0.0,1
1678916860.79985094,199221077,0,3,337678800,2253,16,0.66,42.688196999999995,-84.4915316,273.81,0.25330811738967896,342.0657653808594,-0.04800000041723251,0.0,1
1678916861.00012493,199421351,0,3,337679000,2253,16,0.66,42.6881975,-84.49153199999999,273.81,0.3040411174297333,311.13275146484375,-0.0010000000474974513,0.0,1
1678916861.19948101,199620707,0,3,337679200,2253,16,0.66,42.6881978,-84.49153249999999,273.81,0.30550286173820496,309.4213562011719,-0.029000001028180122,0.0,1
1678916861.39952803,199820754,0,3,337679400,2253,16,0.66,42.688198199999995,-84.4915333,273.81,0.398577481508255,301.4568176269531,0.12300000339746475,0.0,1
1678916861.59963489,200020861,0,3,337679600,2253,16,0.66,42.6881986,-84.4915341,273.79,0.3956829607486725,300.19390869140625,0.11100000888109207,0.0,1
1678916861.79945397,200220680,0,3,337679800,2253,16,0.66,42.688199,-84.491535,273.77,0.47586557269096375,295.91888427734375,0.07600000500679016,0.0,1
1678916861.99971986,200420946,0,3,337680000,2253,16,0.66,42.688199399999995,-84.49153609999999,273.76,0.4761229157447815,294.57342529296875,-0.08900000154972076,0.0,1
1678916862.19952607,200620752,0,3,337680200,2253,16,0.66,42.6881997,-84.4915372,273.75,0.44065409898757935,285.8025207519531,-0.20500001311302185,0.0,1
1678916862.39960194,200820828,0,3,337680400,2253,16,0.66,42.6881999,-84.4915384,273.8,0.4989589750766754,282.0306091308594,-0.35600000619888306,0.0,1
1678916862.59989190,201021118,0,3,337680600,2253,16,0.66,42.688199999999995,-84.4915395,273.87,0.39900127053260803,269.8564147949219,-0.3400000035762787,0.0,1
1678916862.79975605,201220982,0,3,337680800,2253,16,0.66,42.688200099999996,-84.4915406,273.95,0.5110793113708496,268.990966796875,-0.527999997138977,0.0,1
1678916862.99947596,201420702,0,3,337681000,2253,16,0.66,42.688200099999996,-84.4915417,274.07,0.3642691373825073,272.2026062011719,-0.6740000247955322,0.0,1
1678916863.19954801,201620774,0,3,337681200,2253,16,0.66,42.6882003,-84.4915427,274.22,0.5133196115493774,289.4586181640625,-0.5580000281333923,0.0,1
1678916863.39964104,201820867,0,3,337681400,2253,16,0.66,42.6882005,-84.4915438,274.32,0.3165375292301178,281.6649169921875,-0.5120000243186951,0.0,1
1678916863.59944701,202020673,0,3,337681600,2253,16,0.66,42.688200699999996,-84.49154449999999,274.41,0.2997215688228607,286.0766906738281,-0.484000027179718,0.0,1
1678916863.79966593,202220892,0,3,337681800,2253,16,0.66,42.688200699999996,-84.49154519999999,274.49,0.27266281843185425,266.00421142578125,-0.2550000250339508,0.0,1
1678916863.99974704,202420973,0,3,337682000,2253,16,0.66,42.688200699999996,-84.4915458,274.52,0.2358495444059372,254.25482177734375,-0.19600000977516174,0.0,1
1678916864.19996786,202621194,0,3,337682200,2253,16,0.66,42.688200599999995,-84.4915463,274.54,0.1984061598777771,256.5941162109375,-0.06300000101327896,0.0,1
1678916864.39953089,202820757,0,3,337682400,2253,16,0.66,42.6882005,-84.49154659999999,274.54,0.07343024015426636,240.6422576904297,-0.03100000135600567,0.0,1
1678916864.59946108,203020687,0,3,337682600,2253,16,0.66,42.6882004,-84.49154659999999,274.53000000000003,0.10264989733695984,125.08345794677734,0.014000000432133675,0.0,1
1678916864.79952002,203220746,0,3,337682800,2253,16,0.66,42.6882003,-84.49154639999999,274.52,0.22193017601966858,124.90740203857422,0.06700000166893005,0.0,1
1678916864.99977207,203420998,0,3,337683000,2253,16,0.66,42.688200099999996,-84.4915458,274.49,0.3023326098918915,111.13275146484375,0.11600000411272049,0.0,1
1678916865.19964099,203620867,0,3,337683200,2253,16,0.66,42.6881999,-84.49154519999999,274.45,0.21060864627361298,108.26288604736328,0.07500000298023224,0.0,1
1678916865.39980698,203821033,0,3,337683400,2253,16,0.66,42.6881998,-84.4915446,274.41,0.20056171715259552,94.28914642333984,0.1900000125169754,0.0,1
1678916865.59971499,204020941,0,3,337683600,2253,16,0.66,42.6881999,-84.4915441,274.36,0.18696792423725128,73.21269989013672,0.37400001287460327,0.0,1
1678916865.79975986,204220986,0,3,337683800,2253,16,0.66,42.688200099999996,-84.4915437,274.29,0.22411827743053436,62.06285095214844,0.40800002217292786,0.0,1
1678916865.99983907,204421065,0,3,337684000,2253,16,0.66,42.6882002,-84.4915432,274.22,0.23119255900382996,68.4286880493164,0.3070000112056732,0.0,1
1678916866.19989586,204621122,0,3,337684200,2253,16,0.66,42.6882003,-84.4915427,274.19,0.19608671963214874,109.3589859008789,0.22100001573562622,0.0,1
1678916866.39975405,204820980,0,3,337684400,2253,16,0.66,42.688200099999996,-84.49154209999999,274.17,0.3121810555458069,115.8263168334961,0.09400000423192978,0.0,1
1678916866.59970593,205020932,0,3,337684600,2253,16,0.66,42.6881999,-84.4915414,274.17,0.32962101697921753,117.26468658447266,-0.039000000804662704,0.0,1
1678916866.79977989,205221006,0,3,337684800,2253,16,0.66,42.6881996,-84.4915406,274.21,0.39870041608810425,112.25505828857422,0.026000000536441803,0.0,1
1678916866.99989700,205421123,0,3,337685000,2253,16,0.66,42.688199399999995,-84.4915396,274.21,0.44845739006996155,111.58787536621094,-0.020000001415610313,0.0,1
1678916867.19981408,205621040,0,3,337685200,2253,16,0.66,42.6881991,-84.4915386,274.22,0.4310104548931122,104.6488265991211,-0.04000000283122063,0.0,1
1678916867.39970803,205820934,0,3,337685400,2253,16,0.66,42.688198899999996,-84.4915376,274.25,0.44363275170326233,112.1131820678711,-0.04200000315904617,0.0,1
1678916867.59977198,206020998,0,3,337685600,2253,16,0.66,42.6881986,-84.49153659999999,274.27,0.44880732893943787,113.3662109375,-0.10700000822544098,0.0,1
1678916867.79983306,206221059,0,3,337685800,2253,16,0.66,42.688198299999996,-84.4915357,274.31,0.36516982316970825,121.90559387207031,-0.14600001275539398,0.0,1
1678916867.97984695,206401073,0,3,337686000,2253,16,0.66,42.688198,-84.491535,274.34000000000003,0.3180015981197357,126.68971252441406,-0.08700000494718552,0.0,1
1678916868.20004201,206621268,0,3,337686200,2253,16,0.66,42.688197699999996,-84.49153439999999,274.36,0.27008333802223206,130.94644165039062,-0.11500000208616257,0.0,1
1678916868.39946198,206820688,0,3,337686400,2253,16,0.66,42.6881974,-84.4915339,274.39,0.27239128947257996,136.9339141845703,-0.12800000607967377,0.0,1
1678916868.59953094,207020757,0,3,337686600,2253,16,0.66,42.688196999999995,-84.4915335,274.42,0.24167127907276154,138.85867309570312,-0.14400000870227814,0.0,1
1678916868.79963303,207220859,0,3,337686800,2253,16,0.66,42.6881967,-84.4915331,274.45,0.20484142005443573,152.68438720703125,-0.020000001415610313,0.0,1
1678916868.99944997,207420676,0,3,337687000,2253,16,0.66,42.688196399999995,-84.4915329,274.47,0.16395732760429382,169.1012725830078,-0.10500000417232513,0.0,1
1678916869.19971204,207620938,0,3,337687200,2253,16,0.66,42.6881962,-84.4915328,274.48,0.10034441202878952,150.11346435546875,-0.19500000774860382,0.0,1
1678916869.39952087,207820747,0,3,337687400,2253,16,0.66,42.6881961,-84.4915326,274.54,0.05185557156801224,129.52261352539062,-0.017000000923871994,0.0,1
1678916869.59959292,208020819,0,3,337687600,2253,16,0.66,42.6881961,-84.4915324,274.54,0.1770000010728836,90.0,-0.08800000697374344,0.0,1
1678916869.79954386,208220770,0,3,337687800,2253,16,0.66,42.6881961,-84.4915319,274.55,0.23009781539440155,82.25726318359375,0.0820000022649765,0.0,1
1678916869.99975204,208420978,0,3,337688000,2253,16,0.66,42.6881963,-84.4915312,274.55,0.3320557177066803,68.99964904785156,0.10000000149011612,0.0,1
1678916870.19948697,208620713,0,3,337688200,2253,16,0.66,42.6881966,-84.4915304,274.55,0.3830939829349518,70.00410461425781,0.06000000238418579,0.0,1
1678916870.39953899,208820765,0,3,337688400,2253,16,0.66,42.6881968,-84.4915295,274.53000000000003,0.376426637172699,68.82041931152344,0.11700000613927841,0.0,1
1678916870.59962988,209020856,0,3,337688600,2253,16,0.66,42.6881971,-84.4915286,274.53000000000003,0.3578058183193207,56.976131439208984,0.14100000262260437,0.0,1
1678916870.79944801,209220674,0,3,337688800,2253,16,0.66,42.6881975,-84.4915281,274.52,0.25330811738967896,30.61463165283203,0.09600000083446503,0.0,1
1678916870.99966002,209420886,0,3,337689000,2253,16,0.66,42.6881979,-84.4915279,274.52,0.26295438408851624,353.0101013183594,0.22100001573562622,0.0,1
1678916871.19971204,209620938,0,3,337689200,2253,16,0.66,42.688198299999996,-84.491528,274.49,0.25930678844451904,341.5650634765625,0.08300000429153442,0.0,1
1678916871.40000296,209821229,0,3,337689400,2253,16,0.66,42.6881987,-84.4915283,274.49,0.2626194953918457,323.8282775878906,0.13300000131130219,0.0,1
1678916871.59955502,210020781,0,3,337689600,2253,16,0.66,42.688199,-84.49152869999999,274.47,0.18993157148361206,311.15753173828125,0.15900000929832458,0.0,1
1678916871.79945302,210220679,0,3,337689800,2253,16,0.66,42.6881992,-84.49152889999999,274.45,0.09571833908557892,302.19573974609375,0.11900000274181366,0.0,1
1678916871.99946904,210420695,0,3,337690000,2253,16,0.66,42.6881992,-84.4915291,274.44,0.05818935111165047,250.94229125976562,0.10100000351667404,0.0,1
1678916872.19975591,210620982,0,3,337690200,2253,16,0.66,42.6881991,-84.4915291,274.44,0.08127115666866302,124.47221374511719,0.12600000202655792,0.0,1
1678916872.39988708,210821113,0,3,337690400,2253,16,0.66,42.688199,-84.4915288,274.45,0.18173058331012726,105.6422348022461,0.11400000751018524,0.0,1
1678916872.59944296,211020669,0,3,337690600,2253,16,0.66,42.688198899999996,-84.4915283,274.44,0.262207955121994,109.60972595214844,0.11100000888109207,0.0,1
1678916872.79971504,211220941,0,3,337690800,2253,16,0.66,42.6881987,-84.4915276,274.42,0.29381969571113586,105.59716796875,0.03200000151991844,0.0,1
1678916872.99976206,211420988,0,3,337691000,2253,16,0.66,42.6881985,-84.49152699999999,274.41,0.3015327453613281,120.05126190185547,0.05300000309944153,0.0,1
1678916873.20001388,211621240,0,3,337691200,2253,16,0.66,42.688198199999995,-84.4915264,274.40000000000003,0.3104384243488312,131.0817413330078,0.018000001087784767,0.0,1
1678916873.39985204,211821078,0,3,337691400,2253,16,0.66,42.6881978,-84.49152579999999,274.40000000000003,0.2800000011920929,143.13009643554688,0.01100000087171793,0.0,1
1678916873.59980297,212021029,0,3,337691600,2253,16,0.66,42.6881974,-84.4915255,274.41,0.21256528794765472,160.20111083984375,0.018000001087784767,0.0,1
1678916873.79948807,212220714,0,3,337691800,2253,16,0.66,42.688196999999995,-84.49152529999999,274.41,0.19043634831905365,160.04258728027344,0.0690000057220459,0.0,1
1678916873.99953794,212420764,0,3,337692000,2253,16,0.66,42.6881966,-84.4915252,274.41,0.20199258625507355,174.317626953125,-0.04500000178813934,0.0,1
1678916874.19963789,212620864,0,3,337692200,2253,16,0.66,42.6881962,-84.49152509999999,274.42,0.2223263382911682,160.83155822753906,-0.08300000429153442,0.0,1
1678916874.39944291,212820669,0,3,337692400,2253,16,0.66,42.688195799999995,-84.4915248,274.44,0.26603007316589355,156.5186004638672,-0.029000001028180122,0.0,1
1678916874.59947491,213020701,0,3,337692600,2253,16,0.66,42.6881954,-84.4915245,274.45,0.2579922676086426,150.25511169433594,-0.1380000114440918,0.0,1
1678916874.79953408,213220760,0,3,337692800,2253,16,0.66,42.6881949,-84.49152409999999,274.48,0.25228753685951233,148.45201110839844,-0.0010000000474974513,0.0,1
1678916874.99961495,213420841,0,3,337693000,2253,16,0.66,42.6881945,-84.4915238,274.48,0.23286263644695282,141.80130004882812,-0.13300000131130219,0.0,1
1678916875.19989896,213621125,0,3,337693200,2253,16,0.66,42.6881942,-84.49152339999999,274.53000000000003,0.19743607938289642,137.2578125,0.01100000087171793,0.0,1
1678916875.39944291,213820669,0,3,337693400,2253,16,0.66,42.688193899999995,-84.491523,274.54,0.18160396814346313,126.49128723144531,-0.006000000052154064,0.0,1
1678916875.59965897,214020885,0,3,337693600,2253,16,0.66,42.6881938,-84.49152269999999,274.56,0.08660832047462463,121.30412292480469,-0.0690000057220459,0.0,1
1678916875.79992199,214221148,0,3,337693800,2253,16,0.66,42.6881937,-84.4915226,274.59000000000003,0.04373785853385925,280.5391845703125,0.04500000178813934,0.0,1
1678916875.99966002,214420886,0,3,337694000,2253,16,0.66,42.6881937,-84.49152289999999,274.61,0.1709883064031601,283.87371826171875,0.07700000703334808,0.0,1
1678916876.19944906,214620675,0,3,337694200,2253,16,0.66,42.6881938,-84.4915235,274.6,0.3655051290988922,283.7701110839844,0.06300000101327896,0.0,1
1678916876.39947295,214820699,0,3,337694400,2253,16,0.66,42.688193999999996,-84.4915245,274.6,0.5092445611953735,282.58984375,0.08000000566244125,0.0,1
1678916876.59952402,215020750,0,3,337694600,2253,16,0.66,42.6881942,-84.49152579999999,274.6,0.6509109139442444,281.4307861328125,0.07100000232458115,0.0,1
1678916876.79961300,215220839,0,3,337694800,2253,16,0.66,42.6881945,-84.4915273,274.6,0.6158003211021423,286.3160400390625,0.07300000637769699,0.0,1
1678916876.99989486,215421121,0,3,337695000,2253,16,0.66,42.6881949,-84.4915288,274.61,0.6435720920562744,287.7311096191406,0.10900000482797623,0.0,1
1678916877.19945788,215620684,0,3,337695200,2253,16,0.66,42.6881953,-84.49153009999999,274.61,0.5590572357177734,297.2525634765625,-0.003000000026077032,0.0,1
1678916877.39947486,215820701,0,3,337695400,2253,16,0.66,42.688195799999995,-84.4915311,274.6,0.4384084939956665,315.184814453125,0.13199999928474426,0.0,1
1678916877.59976292,216020989,0,3,337695600,2253,16,0.66,42.688196399999995,-84.4915317,274.59000000000003,0.3699851632118225,326.3528747558594,0.18800000846385956,0.0,1
1678916877.79964399,216220870,0,3,337695800,2253,16,0.66,42.6881968,-84.4915322,274.56,0.27989283204078674,320.5089416503906,0.04100000113248825,0.0,1
1678916877.99983501,216421061,0,3,337696000,2253,16,0.66,42.6881972,-84.4915327,274.55,0.2765881419181824,313.3885192871094,0.11500000208616257,0.0,1
1678916878.19971395,216620940,0,3,337696200,2253,16,0.66,42.6881974,-84.4915333,274.56,0.3110401928424835,270.92108154296875,0.03200000151991844,0.0,1
1678916878.39974904,216820975,0,3,337696400,2253,16,0.66,42.6881973,-84.491534,274.57,0.35305097699165344,263.82110595703125,-0.009000000543892384,0.0,1
1678916878.60001206,217021238,0,3,337696600,2253,16,0.66,42.6881973,-84.49153489999999,274.58,0.35743528604507446,264.8636169433594,-0.032999999821186066,0.0,1
1678916878.79954290,217220769,0,3,337696800,2253,16,0.66,42.6881973,-84.4915357,274.59000000000003,0.3262591063976288,272.2835998535156,-0.029000001028180122,0.0,1
1678916878.99945092,217420677,0,3,337697000,2253,16,0.66,42.6881973,-84.4915365,274.59000000000003,0.3021208643913269,265.0631103515625,-0.05900000408291817,0.0,1
1678916879.19970703,217620933,0,3,337697200,2253,16,0.66,42.6881973,-84.49153729999999,274.6,0.32301396131515503,270.53216552734375,0.03500000014901161,0.0,1
1678916879.39976501,217820991,0,3,337697400,2253,16,0.66,42.6881973,-84.49153799999999,274.59000000000003,0.2412509173154831,272.61334228515625,0.007000000216066837,0.0,1
1678916879.59988403,218021110,0,3,337697600,2253,16,0.66,42.6881974,-84.49153849999999,274.6,0.2059757262468338,282.61932373046875,0.017000000923871994,0.0,1
1678916879.79945087,218220677,0,3,337697800,2253,16,0.66,42.6881975,-84.4915389,274.6,0.13645879924297333,303.3406982421875,0.009000000543892384,0.0,1
1678916879.99966693,218420893,0,3,337698000,2253,16,0.66,42.688197699999996,-84.4915391,274.61,0.13805072009563446,352.92645263671875,0.05000000074505806,0.0,1
1678916880.19970798,218620934,0,3,337698200,2253,16,0.66,42.688198,-84.491539,274.61,0.15086418390274048,38.54117965698242,0.1120000034570694,0.0,1
1678916880.39978004,218821006,0,3,337698400,2253,16,0.66,42.688198199999995,-84.49153869999999,274.6,0.19170811772346497,66.6444320678711,0.07100000232458115,0.0,1
1678916880.60002208,219021248,0,3,337698600,2253,16,0.66,42.688198299999996,-84.4915383,274.6,0.22019310295581818,81.90669250488281,-0.009000000543892384,0.0,1
1678916880.79945707,219220683,0,3,337698800,2253,16,0.66,42.688198199999995,-84.4915378,274.6,0.2571167051792145,107.65977478027344,-0.007000000216066837,0.0,1
1678916880.99947000,219420696,0,3,337699000,2253,16,0.66,42.6881981,-84.49153729999999,274.6,0.24581702053546906,113.7494888305664,0.03200000151991844,0.0,1
1678916881.19954205,219620768,0,3,337699200,2253,16,0.66,42.6881979,-84.49153679999999,274.59000000000003,0.2701425552368164,123.98418426513672,0.046000003814697266,0.0,1
1678916881.39964199,219820868,0,3,337699400,2253,16,0.66,42.688197599999995,-84.4915362,274.58,0.2715308666229248,124.04119873046875,0.06200000271201134,0.0,1
1678916881.59944105,220020667,0,3,337699600,2253,16,0.66,42.6881974,-84.4915357,274.58,0.26774802803993225,113.78865814208984,0.02200000174343586,0.0,1
1678916881.79947090,220220697,0,3,337699800,2253,16,0.66,42.6881972,-84.491535,274.59000000000003,0.2942057251930237,103.56389617919922,0.0950000062584877,0.0,1
1678916881.99952507,220420751,0,3,337700000,2253,16,0.66,42.6881972,-84.49153439999999,274.57,0.29424479603767395,92.3373031616211,0.04700000211596489,0.0,1
1678916882.19984603,220621072,0,3,337700200,2253,16,0.66,42.6881972,-84.49153369999999,274.56,0.27136141061782837,92.95729064941406,0.14000000059604645,0.0,1
1678916882.39954209,220820768,0,3,337700400,2253,16,0.66,42.6881971,-84.4915331,274.55,0.2292182594537735,92.50040435791016,-0.020000001415610313,0.0,1
1678916882.59942794,221020654,0,3,337700600,2253,16,0.66,42.6881971,-84.4915326,274.56,0.2269206941127777,100.66617584228516,0.0650000050663948,0.0,1
1678916882.79948997,221220716,0,3,337700800,2253,16,0.66,42.688196999999995,-84.4915321,274.55,0.19865800440311432,104.87567901611328,0.05300000309944153,0.0,1
1678916882.99952602,221420752,0,3,337701000,2253,16,0.66,42.6881969,-84.4915316,274.54,0.1441839188337326,99.98495483398438,0.1080000028014183,0.0,1
1678916883.19963789,221620864,0,3,337701200,2253,16,0.66,42.6881969,-84.49153129999999,274.53000000000003,0.13315404951572418,104.34931945800781,-0.01900000125169754,0.0,1
1678916883.39944887,221820675,0,3,337701400,2253,16,0.66,42.6881968,-84.4915309,274.54,0.16079801321029663,95.71058654785156,0.1420000046491623,0.0,1
1678916883.59971690,222020943,0,3,337701600,2253,16,0.66,42.6881969,-84.49153059999999,274.54,0.12682665884494781,72.56512451171875,0.049000002443790436,0.0,1
1678916883.79976702,222220993,0,3,337701800,2253,16,0.66,42.6881969,-84.4915303,274.54,0.08796590566635132,49.61064529418945,0.09600000083446503,0.0,1
1678916884.00002694,222421253,0,3,337702000,2253,16,0.66,42.6881971,-84.4915302,274.55,0.0766550749540329,7.495857238769531,0.05100000277161598,0.0,1
1678916884.19954395,222620770,0,3,337702200,2253,16,0.66,42.6881972,-84.4915303,274.56,0.15065523982048035,316.3447265625,0.08700000494718552,0.0,1
1678916884.39966202,222820888,0,3,337702400,2253,16,0.66,42.6881975,-84.49153059999999,274.54,0.23547612130641937,315.51617431640625,0.036000002175569534,0.0,1
1678916884.59964895,223020875,0,3,337702600,2253,16,0.66,42.688197699999996,-84.4915309,274.54,0.16274213790893555,320.7353515625,-0.06700000166893005,0.0,1
1678916884.79973102,223220957,0,3,337702800,2253,16,0.66,42.688198,-84.4915312,274.54,0.21636313199996948,325.3551025390625,0.03500000014901161,0.0,1
1678916884.99984503,223421071,0,3,337703000,2253,16,0.66,42.688198299999996,-84.49153129999999,274.55,0.143282949924469,3.601278066635132,-0.036000002175569534,0.0,1
1678916885.19968486,223620911,0,3,337703200,2253,16,0.66,42.6881985,-84.4915312,274.56,0.1664121448993683,33.97654342651367,0.04400000348687172,0.0,1
1678916885.39966297,223820889,0,3,337703400,2253,16,0.66,42.688198799999995,-84.4915309,274.57,0.19940412044525146,45.0,0.07500000298023224,0.0,1
1678916885.59970689,224020933,0,3,337703600,2253,16,0.66,42.688199,-84.49153059999999,274.58,0.18902909755706787,29.820072174072266,-0.007000000216066837,0.0,1
1678916885.79996991,224221196,0,3,337703800,2253,16,0.66,42.6881993,-84.4915304,274.59000000000003,0.16648124158382416,28.720325469970703,0.08500000089406967,0.0,1
1678916885.99954700,224420773,0,3,337704000,2253,16,0.66,42.6881996,-84.4915303,274.59000000000003,0.2144574671983719,356.25701904296875,0.05400000140070915,0.0,1
1678916886.19947290,224620699,0,3,337704200,2253,16,0.66,42.688199999999995,-84.4915304,274.6,0.2552195191383362,340.78411865234375,0.10600000619888306,0.0,1
1678916886.39947891,224820705,0,3,337704400,2253,16,0.66,42.6882005,-84.49153059999999,274.59000000000003,0.27624085545539856,343.5987548828125,-0.003000000026077032,0.0,1
1678916886.59977198,225020998,0,3,337704600,2253,16,0.66,42.688201,-84.4915307,274.6,0.30645230412483215,342.33367919921875,0.10400000214576721,0.0,1
1678916886.79963493,225220861,0,3,337704800,2253,16,0.66,42.6882014,-84.4915309,274.59000000000003,0.23334524035453796,351.8699035644531,0.1940000057220459,0.0,1
1678916886.99944305,225420669,0,3,337705000,2253,16,0.66,42.688201799999995,-84.491531,274.58,0.22049491107463837,345.01837158203125,0.09200000762939453,0.0,1
1678916887.19947386,225620700,0,3,337705200,2253,16,0.66,42.6882021,-84.4915311,274.58,0.17010584473609924,357.9786376953125,0.020000001415610313,0.0,1
1678916887.39951205,225820738,0,3,337705400,2253,16,0.66,42.6882023,-84.4915311,274.58,0.06000833585858345,0.9548413157463074,0.03500000014901161,0.0,1
1678916887.59983897,226021065,0,3,337705600,2253,16,0.66,42.6882024,-84.4915311,274.59000000000003,0.01835756003856659,299.3577575683594,0.07800000160932541,0.0,1
1678916887.79953694,226220763,0,3,337705800,2253,16,0.66,42.6882023,-84.4915311,274.6,0.05994164198637009,207.8475799560547,-0.003000000026077032,0.0,1
1678916888.01945996,226440686,0,3,337706000,2253,16,0.66,42.6882021,-84.4915312,274.61,0.13582341372966766,193.62701416015625,0.04100000113248825,0.0,1
1678916888.19946194,226620688,0,3,337706200,2253,16,0.66,42.688201799999995,-84.4915312,274.61,0.16164468228816986,188.18023681640625,0.06599999964237213,0.0,1
1678916888.39952302,226820749,0,3,337706400,2253,16,0.66,42.6882015,-84.49153129999999,274.61,0.1742699146270752,186.92112731933594,-0.04500000178813934,0.0,1
1678916888.59964490,227020871,0,3,337706600,2253,16,0.66,42.6882011,-84.49153129999999,274.63,0.17917868494987488,182.55902099609375,0.0010000000474974513,0.0,1
1678916888.79944801,227220674,0,3,337706800,2253,16,0.66,42.6882008,-84.49153129999999,274.64,0.12801562249660492,179.1048126220703,0.07800000160932541,0.0,1
1678916888.99971294,227420939,0,3,337707000,2253,16,0.66,42.688200599999995,-84.49153129999999,274.64,0.1047377809882164,169.54835510253906,-0.11000000685453415,0.0,1
1678916889.19976497,227620991,0,3,337707200,2253,16,0.66,42.6882004,-84.49153129999999,274.65000000000003,0.055036354809999466,177.9174346923828,-0.030000001192092896,0.0,1
1678916889.40001392,227821240,0,3,337707400,2253,16,0.66,42.6882004,-84.49153129999999,274.67,0.021587034687399864,346.6075134277344,0.0860000029206276,0.0,1
1678916889.59956193,228020788,0,3,337707600,2253,16,0.66,42.6882005,-84.4915314,274.67,0.07600000500679016,0.0,0.020000001415610313,0.0,1
1678916889.79944897,228220675,0,3,337707800,2253,16,0.66,42.688200599999995,-84.4915314,274.67,0.13206058740615845,1.7357045412063599,-0.020000001415610313,0.0,1
1678916889.99948692,228420713,0,3,337708000,2253,16,0.66,42.6882008,-84.4915314,274.67,0.13121357560157776,10.53918170928955,0.164000004529953,0.0,1
1678916890.19978595,228621012,0,3,337708200,2253,16,0.66,42.688201,-84.49153129999999,274.66,0.12103719264268875,14.839937210083008,0.08300000429153442,0.0,1
1678916890.39963698,228820863,0,3,337708400,2253,16,0.66,42.688201199999995,-84.49153129999999,274.65000000000003,0.09518928825855255,3.6138806343078613,-0.02500000037252903,0.0,1
