timestamp,TimeUS,Lat,Lng,Alt,RelHomeAlt,RelOriginAlt
1678916759.97995901,98401185,42.6881869,-84.491537,273.47998046875,0.007619600743055344,1.307619571685791
1678916760.07999706,98501223,42.6881869,-84.491537,273.47998046875,0.005419235676527023,1.3054192066192627
1678916760.17998791,98601214,42.6881869,-84.4915369,273.47998046875,0.0038181357085704803,1.3038181066513062
1678916760.28014708,98701373,42.6881869,-84.4915369,273.47998046875,0.00010822340846061707,1.3001081943511963
1678916760.37995601,98801182,42.6881869,-84.4915369,273.4700012207031,-0.0035956092178821564,1.2964043617248535
1678916760.47990394,98901130,42.6881869,-84.4915369,273.4700012207031,-0.009932298213243484,1.2900676727294922
1678916760.57984900,99001075,42.6881869,-84.4915369,273.4599914550781,-0.015233892947435379,1.2847660779953003
1678916760.67992496,99101151,42.6881868,-84.4915369,273.4499816894531,-0.02024807408452034,1.2797518968582153
1678916760.77991199,99201138,42.688186699999996,-84.49153679999999,273.4499816894531,-0.02382173016667366,1.276178240776062
1678916760.87992597,99301152,42.688186699999996,-84.4915369,273.4499816894531,-0.02721502259373665,1.272784948348999
1678916760.97996807,99401194,42.688186699999996,-84.4915369,273.4499816894531,-0.029725331813097,1.2702746391296387
1678916761.08016992,99501396,42.688186699999996,-84.4915369,273.44000244140625,-0.030795235186815262,1.2692047357559204
1678916761.18024802,99601474,42.688186699999996,-84.4915369,273.44000244140625,-0.031177539378404617,1.268822431564331
1678916761.28044295,99701669,42.688186699999996,-84.4915369,273.44000244140625,-0.03165068104863167,1.268349289894104
1678916761.37987900,99801105,42.688186699999996,-84.4915369,273.44000244140625,-0.03198255971074104,1.2680174112319946
1678916761.48020005,99901426,42.688186599999995,-84.4915369,273.44000244140625,-0.03375377133488655,1.2662461996078491
1678916761.58029890,100001525,42.688186599999995,-84.4915369,273.44000244140625,-0.03469540551304817,1.2653045654296875
1678916761.68011594,100101342,42.6881865,-84.49153679999999,273.44000244140625,-0.033206600695848465,1.2667933702468872
1678916761.78018188,100201408,42.6881865,-84.49153679999999,273.44000244140625,-0.031754154711961746,1.268245816230774
1678916761.88027096,100301497,42.6881865,-84.49153679999999,273.44000244140625,-0.031361956149339676,1.268638014793396
1678916761.98019505,100401421,42.6881865,-84.49153679999999,273.44000244140625,-0.03136839345097542,1.2686315774917603
1678916762.08017492,100501401,42.6881864,-84.49153679999999,273.44000244140625,-0.0324031300842762,1.2675968408584595
1678916762.18036103,100601587,42.6881864,-84.49153679999999,273.44000244140625,-0.03281928971409798,1.2671806812286377
1678916762.28021908,100701445,42.6881864,-84.49153679999999,273.4499816894531,-0.02994527295231819,1.2700546979904175
1678916762.38023591,100801462,42.6881864,-84.49153679999999,273.4499816894531,-0.026240486651659012,1.2737594842910767
1678916762.47997093,100901197,42.6881864,-84.49153679999999,273.4499816894531,-0.023355741053819656,1.276644229888916
1678916762.57990098,101001127,42.6881863,-84.49153679999999,273.4499816894531,-0.02045394852757454,1.2795460224151611
1678916762.67993498,101101161,42.6881863,-84.49153679999999,273.4599914550781,-0.015386957675218582,1.284613013267517
1678916762.78002095,101201247,42.6881863,-84.49153679999999,273.4599914550781,-0.010583419352769852,1.2894165515899658
1678916762.88003302,101301259,42.6881863,-84.49153679999999,273.4700012207031,-0.009215611964464188,1.2907843589782715
1678916762.98001599,101401242,42.6881863,-84.4915367,273.4700012207031,-0.008511561900377274,1.2914884090423584
1678916763.07993889,101501165,42.6881862,-84.4915367,273.4599914550781,-0.010779161006212234,1.2892208099365234
1678916763.17988896,101601115,42.6881862,-84.4915367,273.4599914550781,-0.012729424983263016,1.2872705459594727
1678916763.27991199,101701138,42.6881862,-84.4915367,273.4599914550781,-0.011613268405199051,1.2883867025375366
1678916763.37993598,101801162,42.688186099999996,-84.4915367,273.4599914550781,-0.010404486209154129,1.2895954847335815
1678916763.47991109,101901137,42.688186099999996,-84.4915367,273.4599914550781,-0.011910099536180496,1.2880898714065552
1678916763.57997894,102001205,42.688186099999996,-84.4915367,273.4599914550781,-0.01298953965306282,1.2870104312896729
1678916763.67999792,102101224,42.688186099999996,-84.4915367,273.4599914550781,-0.011820454150438309,1.2881795167922974
1678916763.77998209,102201208,42.688186099999996,-84.4915367,273.4599914550781,-0.010463733226060867,1.2895362377166748
1678916763.87992287,102301149,42.688186099999996,-84.4915367,273.4599914550781,-0.01058926060795784,1.2894107103347778
1678916763.98026991,102401496,42.688186099999996,-84.4915367,273.4599914550781,-0.010874170809984207,1.2891258001327515
1678916764.07989693,102501123,42.688186099999996,-84.49153659999999,273.4700012207031,-0.008972901850938797,1.2910270690917969
1678916764.17995691,102601183,42.688186099999996,-84.49153659999999,273.4700012207031,-0.006564158946275711,1.29343581199646
1678916764.27993298,102701159,42.688186099999996,-84.49153659999999,273.4700012207031,-0.0028947778046131134,1.2971051931381226
1678916764.37987804,102801104,42.688186099999996,-84.49153659999999,273.47998046875,0.0011991076171398163,1.3011990785598755
1678916764.47998095,102901207,42.688186099999996,-84.4915365,273.47998046875,0.006922584027051926,1.3069225549697876
1678916764.58001089,103001237,42.6881862,-84.4915365,273.489990234375,0.012402873486280441,1.3124028444290161
1678916764.68019390,103101420,42.6881862,-84.4915365,273.489990234375,0.0123966746032238,1.3123966455459595
1678916764.78021598,103201442,42.6881862,-84.4915365,273.489990234375,0.013877850025892258,1.313877820968628
1678916764.88010693,103301333,42.6881862,-84.4915365,273.489990234375,0.018734436482191086,1.3187344074249268
1678916764.98015809,103401384,42.6881862,-84.4915365,273.5,0.023763757199048996,1.3237637281417847
1678916765.08011603,103501342,42.6881862,-84.4915365,273.5099792480469,0.03020523115992546,1.3302052021026611
1678916765.18023992,103601466,42.6881862,-84.4915364,273.5199890136719,0.04266439005732536,1.342664361000061
1678916765.28043795,103701664,42.6881862,-84.4915364,273.54998779296875,0.07632516324520111,1.3763251304626465
1678916765.38042402,103801650,42.6881863,-84.4915364,273.6099853515625,0.13343201577663422,1.4334319829940796
1678916765.48027706,103901503,42.6881865,-84.4915364,273.69000244140625,0.21386049687862396,1.5138604640960693
1678916765.58021188,104001438,42.688186699999996,-84.4915364,273.7599792480469,0.28617438673973083,1.5861743688583374
1678916765.68000007,104101226,42.6881868,-84.4915364,273.82000732421875,0.3434273898601532,1.6434273719787598
1678916765.77995586,104201182,42.6881869,-84.4915364,273.8699951171875,0.39070770144462585,1.6907076835632324
1678916765.87991786,104301144,42.6881871,-84.4915364,273.8999938964844,0.4270598590373993,1.7270598411560059
1678916765.97995687,104401183,42.6881872,-84.4915365,273.92999267578125,0.45642969012260437,1.756429672241211
1678916766.07996392,104501190,42.688187299999996,-84.4915365,273.9499816894531,0.4711333215236664,1.771133303642273
1678916766.17989898,104601125,42.6881875,-84.4915365,273.9599914550781,0.4861280620098114,1.786128044128418
1678916766.27995801,104701184,42.6881877,-84.4915364,273.9700012207031,0.493961900472641,1.7939618825912476
1678916766.38000607,104801232,42.688188,-84.4915364,273.97998046875,0.500523567199707,1.8005235195159912
1678916766.48024201,104901468,42.6881883,-84.49153629999999,273.97998046875,0.5026819705963135,1.8026819229125977
1678916766.58023691,105001463,42.6881887,-84.4915362,273.97998046875,0.5044229030609131,1.8044228553771973
1678916766.68019199,105101418,42.688189099999995,-84.491536,273.97998046875,0.5029195547103882,1.8029195070266724
1678916766.77988791,105201114,42.6881895,-84.4915359,273.9700012207031,0.49921926856040955,1.7992192506790161
1678916766.88018990,105301416,42.6881899,-84.4915357,273.9599914550781,0.48659953474998474,1.7865995168685913
1678916766.98028493,105401511,42.688190299999995,-84.4915355,273.9499816894531,0.47388479113578796,1.7738847732543945
1678916767.08019495,105501421,42.6881907,-84.4915353,273.94000244140625,0.46537384390830994,1.7653738260269165
1678916767.18017292,105601399,42.6881911,-84.4915352,273.92999267578125,0.4564654529094696,1.7564654350280762
1678916767.28020501,105701431,42.6881914,-84.491535,273.91998291015625,0.449561208486557,1.7495611906051636
1678916767.38018298,105801409,42.6881917,-84.491535,273.91998291015625,0.4435053765773773,1.7435053586959839
1678916767.48021507,105901441,42.6881919,-84.49153489999999,273.9100036621094,0.436031311750412,1.7360312938690186
1678916767.58015990,106001386,42.688192099999995,-84.491535,273.9100036621094,0.43025705218315125,1.7302570343017578
1678916767.68019891,106101425,42.688192199999996,-84.491535,273.9100036621094,0.4304271638393402,1.7304271459579468
1678916767.78048086,106201707,42.6881924,-84.4915351,273.9100036621094,0.43300387263298035,1.733003854751587
1678916767.87994504,106301171,42.6881925,-84.4915351,273.91998291015625,0.44013676047325134,1.740136742591858
1678916767.97988701,106401113,42.688192699999995,-84.4915351,273.91998291015625,0.4498398005962372,1.7498397827148438
1678916768.07995009,106501176,42.688192799999996,-84.4915351,273.94000244140625,0.46820172667503357,1.7682017087936401
1678916768.18006086,106601287,42.6881929,-84.4915351,273.9599914550781,0.4888025224208832,1.7888025045394897
1678916768.28000402,106701230,42.6881929,-84.491535,273.97998046875,0.5074465274810791,1.8074464797973633
1678916768.37998390,106801210,42.688193,-84.49153489999999,274.0,0.5262484550476074,1.8262484073638916
1678916768.48020697,106901433,42.6881929,-84.49153489999999,274.0299987792969,0.5504368543624878,1.850436806678772
1678916768.57989693,107001123,42.6881929,-84.49153489999999,274.04998779296875,0.574994683265686,1.8749946355819702
1678916768.67990208,107101128,42.6881929,-84.491535,274.0799865722656,0.6083353757858276,1.9083353281021118
1678916768.77994990,107201176,42.6881929,-84.4915351,274.1300048828125,0.6512774229049683,1.9512773752212524
1678916768.87987590,107301102,42.688192799999996,-84.4915352,274.16998291015625,0.6973546743392944,1.9973546266555786
1678916768.97994304,107401169,42.688192699999995,-84.4915353,274.2200012207031,0.7413535118103027,2.041353464126587
1678916769.07999587,107501222,42.6881925,-84.49153539999999,274.2599792480469,0.7868223190307617,2.086822271347046
1678916769.17999291,107601219,42.6881923,-84.49153539999999,274.30999755859375,0.833204984664917,2.133204936981201
1678916769.27998805,107701214,42.688192199999996,-84.49153559999999,274.3500061035156,0.8783938884735107,2.178393840789795
1678916769.38017201,107801398,42.688192,-84.4915357,274.3999938964844,0.9237074851989746,2.223707437515259
1678916769.48001099,107901237,42.6881918,-84.4915359,274.44000244140625,0.9644474983215332,2.2644474506378174
1678916769.57989192,108001118,42.6881917,-84.49153609999999,274.47998046875,1.0065813064575195,2.3065812587738037
1678916769.68017793,108101404,42.688191499999995,-84.49153629999999,274.5199890136719,1.048797607421875,2.348797559738159
1678916769.78004694,108201273,42.6881913,-84.4915364,274.55999755859375,1.0886998176574707,2.388699769973755
1678916769.88008595,108301312,42.6881912,-84.4915365,274.6000061035156,1.1211049556732178,2.421104907989502
1678916769.98017597,108401402,42.6881911,-84.4915365,274.6300048828125,1.1541550159454346,2.4541549682617188
1678916770.08014488,108501371,42.6881911,-84.4915364,274.66998291015625,1.1907670497894287,2.490767002105713
1678916770.18014288,108601369,42.688190999999996,-84.49153629999999,274.6999816894531,1.229848861694336,2.52984881401062
1678916770.28022408,108701450,42.6881911,-84.49153609999999,274.739990234375,1.2682244777679443,2.5682244300842285
1678916770.38012791,108801354,42.6881912,-84.491536,274.7799987792969,1.3079149723052979,2.607914924621582
1678916770.48018289,108901409,42.688191499999995,-84.4915357,274.8299865722656,1.3516640663146973,2.6516640186309814
1678916770.58018494,109001411,42.6881917,-84.49153539999999,274.8699951171875,1.397559404373169,2.697559356689453
1678916770.68004489,109101271,42.688192,-84.4915351,274.91998291015625,1.4405500888824463,2.7405500411987305
1678916770.78040099,109201627,42.6881923,-84.4915347,274.9599914550781,1.4824481010437012,2.7824480533599854
1678916770.88017988,109301406,42.6881926,-84.4915343,275.0,1.524144172668457,2.824144124984741
1678916770.98018909,109401415,42.688193,-84.4915339,275.0400085449219,1.5650629997253418,2.865062952041626
1678916771.08019495,109501421,42.688193299999995,-84.4915334,275.0799865722656,1.6063883304595947,2.906388282775879
1678916771.18015909,109601385,42.6881936,-84.4915328,275.1199951171875,1.6482329368591309,2.948232889175415
1678916771.28018498,109701411,42.688193899999995,-84.4915322,275.1600036621094,1.6890175342559814,2.9890174865722656
1678916771.38042808,109801654,42.6881942,-84.4915316,275.1999816894531,1.7294433116912842,3.0294432640075684
1678916771.48030496,109901531,42.6881944,-84.491531,275.22998046875,1.7572097778320312,3.0572097301483154
1678916771.58014607,110001372,42.6881947,-84.4915305,275.2599792480469,1.7868316173553467,3.086831569671631
1678916771.68017101,110101397,42.6881949,-84.49152989999999,275.2900085449219,1.8135559558868408,3.113555908203125
1678916771.78000689,110201233,42.6881951,-84.4915293,275.32000732421875,1.840299129486084,3.140299081802368
1678916771.88000607,110301232,42.6881953,-84.4915288,275.3399963378906,1.866391658782959,3.166391611099243
1678916771.98001289,110401239,42.6881955,-84.49152819999999,275.3699951171875,1.8952264785766602,3.1952264308929443
1678916772.07996392,110501190,42.6881956,-84.4915278,275.3999938964844,1.9236271381378174,3.2236270904541016
1678916772.17988801,110601114,42.6881957,-84.4915274,275.42999267578125,1.954270839691162,3.2542707920074463
1678916772.27989006,110701116,42.6881957,-84.4915271,275.4599914550781,1.9875469207763672,3.2875468730926514
1678916772.37995005,110801176,42.688195799999995,-84.4915268,275.5,2.022165536880493,3.3221654891967773
1678916772.47991896,110901145,42.6881957,-84.4915267,275.5299987792969,2.0546202659606934,3.3546202182769775
1678916772.57994699,111001173,42.6881957,-84.4915266,275.55999755859375,2.0891988277435303,3.3891987800598145
1678916772.68000102,111101227,42.6881956,-84.4915267,275.5899963378906,2.1198480129241943,3.4198479652404785
1678916772.78000307,111201229,42.6881954,-84.4915268,275.6199951171875,2.149827003479004,3.449826955795288
1678916772.88017797,111301404,42.6881951,-84.4915273,275.6499938964844,2.1752915382385254,3.4752914905548096
1678916772.98016286,111401389,42.6881949,-84.4915276,275.67999267578125,2.2000865936279297,3.500086545944214
1678916773.07989407,111501120,42.6881945,-84.4915281,275.6999816894531,2.2206125259399414,3.5206124782562256
1678916773.17989707,111601123,42.6881942,-84.4915285,275.7200012207031,2.2406325340270996,3.540632486343384
1678916773.27994299,111701169,42.688193899999995,-84.491529,275.72998046875,2.2538466453552246,3.553846597671509
1678916773.37987590,111801102,42.6881935,-84.49152939999999,275.739990234375,2.265972852706909,3.5659728050231934
1678916773.47999787,111901224,42.6881932,-84.4915298,275.75,2.2754933834075928,3.575493335723877
1678916773.58002806,112001254,42.6881929,-84.49153009999999,275.7599792480469,2.2871510982513428,3.587151050567627
1678916773.68000793,112101234,42.6881924,-84.4915304,275.7699890136719,2.2952635288238525,3.5952634811401367
1678916773.77993703,112201163,42.688192199999996,-84.4915307,275.7799987792969,2.302461624145508,3.602461576461792
1678916773.87994909,112301175,42.6881918,-84.49153079999999,275.7799987792969,2.305697202682495,3.6056971549987793
1678916773.97988987,112401116,42.688191499999995,-84.491531,275.7799987792969,2.3080942630767822,3.6080942153930664
1678916774.07989192,112501118,42.6881911,-84.4915311,275.7799987792969,2.3083653450012207,3.608365297317505
1678916774.18008208,112601308,42.6881908,-84.4915311,275.7900085449219,2.3100063800811768,3.610006332397461
1678916774.27989101,112701117,42.6881905,-84.4915312,275.7900085449219,2.3126726150512695,3.6126725673675537
1678916774.37995100,112801177,42.6881902,-84.4915311,275.7900085449219,2.3199055194854736,3.619905471801758
1678916774.48014498,112901371,42.688189799999996,-84.4915312,275.79998779296875,2.3284263610839844,3.6284263134002686
1678916774.58018494,113001411,42.6881895,-84.4915312,275.80999755859375,2.3346030712127686,3.6346030235290527
1678916774.68015099,113101377,42.6881892,-84.49153129999999,275.80999755859375,2.3378124237060547,3.637812376022339
1678916774.78012109,113201347,42.6881889,-84.4915314,275.82000732421875,2.340698480606079,3.6406984329223633
1678916774.88013697,113301363,42.6881887,-84.4915315,275.80999755859375,2.338136672973633,3.638136625289917
1678916774.98020005,113401426,42.6881884,-84.4915317,275.80999755859375,2.3375279903411865,3.6375279426574707
1678916775.08017206,113501398,42.6881882,-84.49153179999999,275.80999755859375,2.3358049392700195,3.6358048915863037
1678916775.18009901,113601325,42.688187899999996,-84.4915321,275.80999755859375,2.33561110496521,3.635611057281494
1678916775.28010392,113701330,42.6881877,-84.4915323,275.79998779296875,2.329561710357666,3.62956166267395
1678916775.38019800,113801424,42.6881875,-84.4915326,275.79998779296875,2.3257293701171875,3.6257293224334717
1678916775.48018909,113901415,42.6881874,-84.4915328,275.79998779296875,2.3267674446105957,3.62676739692688
1678916775.58019590,114001422,42.6881872,-84.49153299999999,275.80999755859375,2.3325324058532715,3.6325323581695557
1678916775.68016887,114101395,42.6881871,-84.49153319999999,275.80999755859375,2.338512659072876,3.63851261138916
1678916775.78025007,114201476,42.688187,-84.4915333,275.82000732421875,2.347961902618408,3.6479618549346924
1678916775.88023090,114301457,42.6881869,-84.4915334,275.8299865722656,2.35724139213562,3.6572413444519043
1678916775.98026705,114401493,42.688186699999996,-84.4915336,275.8399963378906,2.3677725791931152,3.6677725315093994
1678916776.08009505,114501321,42.688186699999996,-84.4915336,275.8500061035156,2.371758460998535,3.6717584133148193
1678916776.18032289,114601549,42.688186599999995,-84.49153369999999,275.8500061035156,2.3768398761749268,3.676839828491211
1678916776.28018403,114701410,42.688186699999996,-84.49153369999999,275.8599853515625,2.381361246109009,3.681361198425293
1678916776.38023186,114801458,42.688186599999995,-84.49153369999999,275.8699951171875,2.3904147148132324,3.6904146671295166
1678916776.48023200,114901458,42.688186699999996,-84.4915336,275.8800048828125,2.4028260707855225,3.7028260231018066
1678916776.58030009,115001526,42.688186699999996,-84.4915335,275.8899841308594,2.4155285358428955,3.7155284881591797
1678916776.68019891,115101425,42.688186699999996,-84.4915334,275.8999938964844,2.4225878715515137,3.722587823867798
1678916776.78021288,115201439,42.688186599999995,-84.49153319999999,275.8999938964844,2.425659418106079,3.7256593704223633
1678916776.88027906,115301505,42.688186599999995,-84.49153299999999,275.8999938964844,2.4200079441070557,3.72000789642334
1678916776.98021102,115401437,42.6881864,-84.4915328,275.8899841308594,2.410940647125244,3.7109405994415283
1678916777.08019090,115501417,42.6881865,-84.49153249999999,275.8699951171875,2.394258737564087,3.694258689880371
1678916777.18020988,115601436,42.6881864,-84.4915323,275.8500061035156,2.3750412464141846,3.6750411987304688
1678916777.28019404,115701420,42.6881865,-84.49153199999999,275.8299865722656,2.3581795692443848,3.658179521560669
1678916777.38017893,115801405,42.6881865,-84.4915317,275.82000732421875,2.3436965942382812,3.6436965465545654
1678916777.48019600,115901422,42.688186699999996,-84.4915312,275.79998779296875,2.3253748416900635,3.6253747940063477
1678916777.58019996,116001426,42.6881868,-84.49153079999999,275.7799987792969,2.30714750289917,3.607147455215454
1678916777.68042803,116101654,42.6881872,-84.4915303,275.7699890136719,2.2926464080810547,3.592646360397339
1678916777.78056192,116201788,42.6881875,-84.49152989999999,275.75,2.279844284057617,3.5798442363739014
1678916777.88014102,116301367,42.688188,-84.49152959999999,275.739990234375,2.2662179470062256,3.5662178993225098
1678916777.98032093,116401547,42.6881884,-84.4915293,275.72998046875,2.250061511993408,3.5500614643096924
1678916778.07998490,116501211,42.688189,-84.4915291,275.7099914550781,2.2332684993743896,3.533268451690674
1678916778.18003106,116601257,42.6881894,-84.491529,275.69000244140625,2.2176108360290527,3.517610788345337
1678916778.28001690,116701243,42.68819,-84.49152889999999,275.67999267578125,2.20143985748291,3.5014398097991943
1678916778.37995100,116801177,42.6881905,-84.4915288,275.6600036621094,2.18888258934021,3.488882541656494
1678916778.48003006,116901256,42.688190999999996,-84.49152869999999,275.6499938964844,2.175611734390259,3.475611686706543
1678916778.57990694,117001133,42.6881914,-84.4915286,275.6399841308594,2.1637768745422363,3.4637768268585205
1678916778.67996788,117101194,42.6881919,-84.4915283,275.6300048828125,2.151294708251953,3.4512946605682373
1678916778.77988005,117201106,42.6881924,-84.4915281,275.6099853515625,2.136251211166382,3.436251163482666
1678916778.87994909,117301175,42.688192799999996,-84.491528,275.5899963378906,2.1143240928649902,3.4143240451812744
1678916778.98019695,117401423,42.6881932,-84.4915278,275.57000732421875,2.092386245727539,3.3923861980438232
1678916779.08013701,117501363,42.6881935,-84.4915278,275.5400085449219,2.069483995437622,3.3694839477539062
1678916779.18012595,117601352,42.688193899999995,-84.4915278,275.5199890136719,2.048367977142334,3.348367929458618
1678916779.28011990,117701346,42.6881942,-84.4915279,275.5,2.0244083404541016,3.3244082927703857
1678916779.38013291,117801359,42.6881945,-84.4915279,275.47998046875,2.0015578269958496,3.301557779312134
1678916779.48021102,117901437,42.6881947,-84.491528,275.4499816894531,1.9705936908721924,3.2705936431884766
1678916779.58046293,118001689,42.688195,-84.491528,275.4100036621094,1.9396138191223145,3.2396137714385986
1678916779.67989993,118101126,42.688195199999996,-84.491528,275.3800048828125,1.9088940620422363,3.2088940143585205
1678916779.77995491,118201181,42.6881955,-84.4915279,275.3599853515625,1.8810205459594727,3.181020498275757
1678916779.88000393,118301230,42.6881957,-84.4915279,275.32000732421875,1.8472864627838135,3.1472864151000977
1678916779.98001194,118401238,42.6881959,-84.4915279,275.2900085449219,1.8122966289520264,3.1122965812683105
1678916780.08000898,118501235,42.6881961,-84.4915281,275.239990234375,1.7696850299835205,3.0696849822998047
1678916780.18018508,118601411,42.6881963,-84.49152819999999,275.1999816894531,1.7248969078063965,3.0248968601226807
1678916780.28019404,118701420,42.6881963,-84.49152839999999,275.1499938964844,1.6769275665283203,2.9769275188446045
1678916780.37996697,118801193,42.688196399999995,-84.4915285,275.1000061035156,1.6274497509002686,2.9274497032165527
1678916780.48001504,118901241,42.688196399999995,-84.49152869999999,275.04998779296875,1.5792577266693115,2.8792576789855957
1678916780.57988405,119001110,42.6881965,-84.491529,275.0099792480469,1.5310087203979492,2.8310086727142334
1678916780.67995000,119101176,42.688196399999995,-84.4915293,274.9499816894531,1.4739775657653809,2.773977518081665
1678916780.78008294,119201309,42.6881963,-84.4915295,274.8899841308594,1.4134416580200195,2.7134416103363037
1678916780.87999392,119301220,42.6881962,-84.4915298,274.82000732421875,1.3440227508544922,2.6440227031707764
1678916780.98002505,119401251,42.6881962,-84.49153009999999,274.75,1.2731215953826904,2.5731215476989746
1678916781.07996607,119501192,42.6881959,-84.4915304,274.6600036621094,1.1872217655181885,2.4872217178344727
1678916781.17988992,119601116,42.6881956,-84.4915307,274.5799865722656,1.1039032936096191,2.4039032459259033
1678916781.27990294,119701129,42.6881953,-84.491531,274.489990234375,1.0161426067352295,2.3161425590515137
1678916781.37993407,119801160,42.688195,-84.4915312,274.3999938964844,0.9244992733001709,2.224499225616455
1678916781.48021007,119901436,42.6881947,-84.4915315,274.30999755859375,0.8307366371154785,2.1307365894317627
1678916781.58017802,120001404,42.6881945,-84.4915317,274.2200012207031,0.7417535781860352,2.0417535305023193
1678916781.68020391,120101430,42.6881941,-84.4915319,274.16998291015625,0.6993433237075806,1.9993432760238647
1678916781.78022408,120201450,42.6881937,-84.4915323,274.16998291015625,0.6917537450790405,1.9917536973953247
1678916781.88019800,120301424,42.688193299999995,-84.4915323,274.19000244140625,0.7146050930023193,2.0146050453186035
1678916781.98017907,120401405,42.688193,-84.4915321,274.2099914550781,0.7313077449798584,2.0313076972961426
1678916782.08019996,120501426,42.688193,-84.49153179999999,274.2200012207031,0.749021053314209,2.049021005630493
1678916782.18042302,120601649,42.688193,-84.4915316,274.22998046875,0.7583703994750977,2.058370351791382
1678916782.27994895,120701175,42.6881931,-84.4915314,274.22998046875,0.7598400115966797,2.059839963912964
1678916782.37993002,120801156,42.6881932,-84.4915312,274.22998046875,0.7593438625335693,2.0593438148498535
1678916782.48017788,120901404,42.688193299999995,-84.491531,274.22998046875,0.7534644603729248,2.053464412689209
1678916782.58020496,121001431,42.688193299999995,-84.49153079999999,274.2200012207031,0.7470412254333496,2.047041177749634
1678916782.68014503,121101371,42.688193299999995,-84.49153059999999,274.2099914550781,0.7394816875457764,2.0394816398620605
1678916782.78013301,121201359,42.688193299999995,-84.4915305,274.2099914550781,0.7316317558288574,2.0316317081451416
1678916782.88019490,121301421,42.688193299999995,-84.4915303,274.1999816894531,0.7243080139160156,2.0243079662323
1678916782.98013091,121401357,42.688193299999995,-84.4915303,274.19000244140625,0.7170002460479736,2.017000198364258
1678916783.08013201,121501358,42.6881932,-84.4915302,274.19000244140625,0.7104566097259521,2.0104565620422363
1678916783.18016791,121601394,42.6881932,-84.49153009999999,274.17999267578125,0.7042536735534668,2.004253625869751
1678916783.28041005,121701636,42.6881932,-84.49153009999999,274.16998291015625,0.69681715965271,1.9968171119689941
1678916783.38039899,121801625,42.6881932,-84.49153,274.1600036621094,0.6892639398574829,1.989263892173767
1678916783.48027492,121901501,42.6881932,-84.49152989999999,274.1600036621094,0.6808379888534546,1.9808379411697388
1678916783.58028007,122001506,42.6881931,-84.4915298,274.1499938964844,0.6706143617630005,1.9706143140792847
1678916783.68002295,122101249,42.6881931,-84.4915297,274.1399841308594,0.6605677604675293,1.9605677127838135
1678916783.77998805,122201214,42.6881931,-84.4915297,274.1300048828125,0.651828408241272,1.9518283605575562
1678916783.87988901,122301115,42.6881931,-84.49152959999999,274.1199951171875,0.6421374082565308,1.942137360572815
1678916783.97984886,122401075,42.688193,-84.49152959999999,274.1099853515625,0.6329100131988525,1.9329099655151367
1678916784.07994699,122501173,42.688193,-84.4915295,274.1000061035156,0.6221444606781006,1.9221444129943848
1678916784.18019986,122601426,42.688193,-84.4915295,274.0899963378906,0.6108125448226929,1.910812497138977
1678916784.28019309,122701419,42.688193,-84.4915295,274.07000732421875,0.5968472957611084,1.8968472480773926
1678916784.38021088,122801437,42.6881929,-84.4915295,274.05999755859375,0.5827354192733765,1.8827353715896606
1678916784.48005199,122901278,42.6881929,-84.4915295,274.04998779296875,0.5728156566619873,1.8728156089782715
1678916784.58004498,123001271,42.6881929,-84.49152939999999,274.0400085449219,0.5628182888031006,1.8628182411193848
1678916784.68018603,123101412,42.6881929,-84.4915295,274.0299987792969,0.5527279376983643,1.8527278900146484
1678916784.77993608,123201162,42.6881929,-84.4915295,274.0199890136719,0.5435448884963989,1.843544840812683
1678916784.87995100,123301177,42.6881929,-84.4915295,274.0099792480469,0.5354986190795898,1.835498571395874
1678916784.97997689,123401203,42.6881929,-84.4915295,274.0,0.5288255214691162,1.8288254737854004
1678916785.07989788,123501124,42.6881929,-84.4915295,274.0,0.5234698057174683,1.8234697580337524
1678916785.17997003,123601196,42.688192799999996,-84.4915295,273.989990234375,0.5176458358764648,1.817645788192749
1678916785.28000593,123701232,42.688192799999996,-84.4915295,273.989990234375,0.5134710073471069,1.8134709596633911
1678916785.38024402,123801470,42.688192799999996,-84.4915295,273.989990234375,0.5108909606933594,1.8108909130096436
1678916785.48004198,123901268,42.688192799999996,-84.4915295,273.97998046875,0.5063546895980835,1.8063546419143677
1678916785.58000588,124001232,42.688192799999996,-84.4915295,273.9700012207031,0.4996444880962372,1.7996444702148438
1678916785.68020105,124101427,42.688192799999996,-84.4915295,273.9700012207031,0.4915580451488495,1.791558027267456
1678916785.78023195,124201458,42.688192699999995,-84.4915295,273.9599914550781,0.48340150713920593,1.7834014892578125
1678916785.88025999,124301486,42.688192699999995,-84.4915295,273.9499816894531,0.47697243094444275,1.7769724130630493
1678916785.98021102,124401437,42.688192699999995,-84.4915295,273.9499816894531,0.4713927209377289,1.7713927030563354
1678916786.08019209,124501418,42.688192699999995,-84.4915295,273.94000244140625,0.46847161650657654,1.768471598625183
1678916786.18021798,124601444,42.688192699999995,-84.4915295,273.94000244140625,0.4647544324398041,1.7647544145584106
1678916786.28020597,124701432,42.688192699999995,-84.4915295,273.94000244140625,0.460686057806015,1.7606860399246216
1678916786.38021588,124801442,42.6881926,-84.4915295,273.92999267578125,0.45528897643089294,1.7552889585494995
1678916786.48044801,124901674,42.6881926,-84.49152939999999,273.91998291015625,0.4498024880886078,1.7498024702072144
1678916786.58047104,125001697,42.6881926,-84.49152939999999,273.91998291015625,0.4451403319835663,1.7451403141021729
1678916786.67987800,125101104,42.6881926,-84.49152939999999,273.91998291015625,0.44055697321891785,1.7405569553375244
1678916786.77993703,125201163,42.6881926,-84.49152939999999,273.9100036621094,0.4357369840145111,1.7357369661331177
1678916786.87987399,125301100,42.6881926,-84.49152939999999,273.9100036621094,0.43143412470817566,1.7314341068267822
1678916786.97997499,125401201,42.6881925,-84.49152939999999,273.8999938964844,0.42742714285850525,1.7274271249771118
1678916787.08006501,125501291,42.6881926,-84.49152939999999,273.8999938964844,0.4237010180950165,1.723701000213623
1678916787.18000293,125601229,42.688192699999995,-84.49152939999999,273.8999938964844,0.4213608205318451,1.7213608026504517
1678916787.27997208,125701198,42.688192799999996,-84.49152939999999,273.8999938964844,0.42060455679893494,1.7206045389175415
1678916787.37994409,125801170,42.688192799999996,-84.49152939999999,273.8899841308594,0.41986021399497986,1.7198601961135864
1678916787.48000789,125901234,42.6881929,-84.49152939999999,273.8999938964844,0.42043349146842957,1.7204334735870361
1678916787.58023405,126001460,42.688193,-84.49152939999999,273.8999938964844,0.42001697421073914,1.7200169563293457
1678916787.67994189,126101168,42.6881932,-84.4915295,273.8899841308594,0.4186185300350189,1.7186185121536255
1678916787.77988291,126201109,42.688193299999995,-84.4915295,273.8899841308594,0.4164600074291229,1.7164599895477295
1678916787.88008809,126301314,42.688193399999996,-84.4915295,273.8899841308594,0.41615626215934753,1.716156244277954
1678916787.98014307,126401369,42.688193399999996,-84.4915295,273.8899841308594,0.41580113768577576,1.7158011198043823
1678916788.08014297,126501369,42.6881935,-84.49152959999999,273.8899841308594,0.4157414138317108,1.7157413959503174
1678916788.18015790,126601384,42.6881936,-84.49152959999999,273.8899841308594,0.4159923493862152,1.7159923315048218
1678916788.28012109,126701347,42.6881937,-84.49152959999999,273.8899841308594,0.41610559821128845,1.716105580329895
1678916788.38033009,126801556,42.6881938,-84.49152959999999,273.8899841308594,0.4154042899608612,1.7154042720794678
1678916788.48024297,126901469,42.688193899999995,-84.49152959999999,273.8899841308594,0.41451403498649597,1.7145140171051025
1678916788.57994795,127001174,42.688193899999995,-84.49152959999999,273.8899841308594,0.4135018289089203,1.7135018110275269
1678916788.67989707,127101123,42.688193999999996,-84.4915297,273.8899841308594,0.41305360198020935,1.713053584098816
1678916788.77995586,127201182,42.688193999999996,-84.4915297,273.8899841308594,0.4131641089916229,1.7131640911102295
1678916788.87999105,127301217,42.6881941,-84.4915297,273.8899841308594,0.4144061505794525,1.714406132698059
1678916788.98001695,127401243,42.6881941,-84.4915297,273.8899841308594,0.4159087836742401,1.7159087657928467
1678916789.08000994,127501236,42.6881941,-84.4915297,273.8899841308594,0.41715893149375916,1.7171589136123657
1678916789.18002105,127601247,42.6881941,-84.4915297,273.8899841308594,0.4173654019832611,1.7173653841018677
1678916789.27989388,127701120,42.6881941,-84.4915297,273.8899841308594,0.4187273681163788,1.7187273502349854
1678916789.37988687,127801113,42.6881941,-84.4915298,273.8999938964844,0.4211646020412445,1.721164584159851
1678916789.48007488,127901301,42.6881942,-84.4915298,273.8999938964844,0.42491766810417175,1.7249176502227783
1678916789.57987690,128001103,42.6881942,-84.4915298,273.8999938964844,0.4296509921550751,1.7296509742736816
1678916789.68021488,128101441,42.6881942,-84.4915298,273.9100036621094,0.4328734576702118,1.7328734397888184
1678916789.78019404,128201420,42.6881942,-84.4915298,273.9100036621094,0.4371386468410492,1.7371386289596558
1678916789.88018394,128301410,42.6881942,-84.4915298,273.91998291015625,0.4413631856441498,1.7413631677627563
1678916789.98019505,128401421,42.6881942,-84.4915298,273.91998291015625,0.44533225893974304,1.7453322410583496
1678916790.08016706,128501393,42.6881942,-84.4915298,273.91998291015625,0.44841358065605164,1.7484135627746582
1678916790.18020487,128601431,42.6881942,-84.4915298,273.92999267578125,0.45069798827171326,1.7506979703903198
1678916790.28044295,128701669,42.6881942,-84.4915298,273.92999267578125,0.4511156976222992,1.7511156797409058
1678916790.38060689,128801833,42.6881942,-84.4915297,273.92999267578125,0.45125314593315125,1.7512531280517578
1678916790.48023200,128901458,42.6881943,-84.4915297,273.92999267578125,0.45057055354118347,1.75057053565979
1678916790.58019090,129001417,42.6881943,-84.4915297,273.92999267578125,0.4501747786998749,1.7501747608184814
1678916790.68001103,129101237,42.6881943,-84.4915297,273.92999267578125,0.4502722918987274,1.750272274017334
1678916790.78000998,129201236,42.6881943,-84.4915297,273.91998291015625,0.4499145448207855,1.749914526939392
1678916790.88001394,129301240,42.6881943,-84.4915297,273.92999267578125,0.45123180747032166,1.7512317895889282
1678916790.97999001,129401216,42.6881943,-84.49152959999999,273.92999267578125,0.45394930243492126,1.7539492845535278
1678916791.07989693,129501123,42.6881942,-84.49152959999999,273.92999267578125,0.4567219913005829,1.7567219734191895
1678916791.18021393,129601440,42.6881942,-84.49152959999999,273.92999267578125,0.45869311690330505,1.7586930990219116
1678916791.27995896,129701185,42.6881942,-84.49152959999999,273.92999267578125,0.45888981223106384,1.7588897943496704
1678916791.37988806,129801114,42.6881942,-84.49152959999999,273.92999267578125,0.457904189825058,1.7579041719436646
1678916791.48016787,129901394,42.6881942,-84.49152959999999,273.92999267578125,0.45859596133232117,1.7585959434509277
1678916791.58013391,130001360,42.6881942,-84.4915295,273.92999267578125,0.4596249759197235,1.75962495803833
1678916791.68014789,130101374,42.6881942,-84.4915295,273.92999267578125,0.4597984254360199,1.7597984075546265
1678916791.78015208,130201378,42.6881942,-84.4915295,273.92999267578125,0.4599033296108246,1.7599033117294312
1678916791.88012099,130301347,42.6881941,-84.4915295,273.92999267578125,0.45954474806785583,1.7595447301864624
1678916791.98015094,130401377,42.6881941,-84.4915295,273.92999267578125,0.45869001746177673,1.7586899995803833
1678916792.08036089,130501587,42.6881941,-84.49152939999999,273.92999267578125,0.4561229646205902,1.7561229467391968
1678916792.18025494,130601481,42.6881941,-84.49152939999999,273.92999267578125,0.4530768096446991,1.7530767917633057
1678916792.28008103,130701307,42.6881941,-84.49152939999999,273.92999267578125,0.4518267810344696,1.7518267631530762
1678916792.38013887,130801365,42.6881941,-84.49152939999999,273.92999267578125,0.4514929950237274,1.751492977142334
1678916792.48021388,130901440,42.6881941,-84.4915293,273.91998291015625,0.44990846514701843,1.749908447265625
1678916792.58059001,131001816,42.6881941,-84.4915293,273.91998291015625,0.4481639564037323,1.7481639385223389
1678916792.68015695,131101383,42.6881941,-84.4915293,273.91998291015625,0.4480457007884979,1.7480456829071045
1678916792.78017187,131201398,42.6881941,-84.4915293,273.91998291015625,0.4485122859477997,1.7485122680664062
1678916792.88013601,131301362,42.6881941,-84.4915292,273.91998291015625,0.4488527476787567,1.7488527297973633
1678916792.98015809,131401384,42.6881941,-84.4915292,273.91998291015625,0.4490903317928314,1.749090313911438
1678916793.08018398,131501410,42.6881941,-84.4915292,273.92999267578125,0.45141932368278503,1.7514193058013916
1678916793.18007708,131601303,42.6881941,-84.4915292,273.92999267578125,0.4530279338359833,1.7530279159545898
1678916793.28043604,131701662,42.6881941,-84.4915292,273.92999267578125,0.45276495814323425,1.7527649402618408
1678916793.38066006,131801886,42.6881941,-84.4915292,273.92999267578125,0.45242878794670105,1.7524287700653076
1678916793.48024702,131901473,42.6881941,-84.4915292,273.92999267578125,0.45295414328575134,1.752954125404358
1678916793.58021188,132001438,42.6881941,-84.4915291,273.92999267578125,0.4533521831035614,1.753352165222168
1678916793.67998695,132101213,42.6881941,-84.4915291,273.92999267578125,0.4523005187511444,1.752300500869751
1678916793.78000689,132201233,42.6881941,-84.4915291,273.91998291015625,0.44988498091697693,1.7498849630355835
1678916793.87990093,132301127,42.688193999999996,-84.4915291,273.91998291015625,0.4474972188472748,1.7474972009658813
1678916793.97996807,132401194,42.688193999999996,-84.4915291,273.91998291015625,0.44601210951805115,1.7460120916366577
1678916794.08020592,132501432,42.688193999999996,-84.4915291,273.91998291015625,0.44520053267478943,1.745200514793396
1678916794.18021393,132601440,42.688193999999996,-84.4915291,273.91998291015625,0.44355353713035583,1.7435535192489624
1678916794.28001189,132701238,42.688193999999996,-84.4915291,273.91998291015625,0.44235655665397644,1.742356538772583
1678916794.38001299,132801239,42.688193999999996,-84.491529,273.91998291015625,0.44154760241508484,1.7415475845336914
1678916794.48005104,132901277,42.688193999999996,-84.491529,273.91998291015625,0.44159337878227234,1.741593360900879
1678916794.58012009,133001346,42.688193999999996,-84.491529,273.91998291015625,0.4420078694820404,1.742007851600647
1678916794.67988896,133101115,42.688193899999995,-84.491529,273.91998291015625,0.4434358775615692,1.7434358596801758
1678916794.78025603,133201482,42.6881938,-84.491529,273.91998291015625,0.4461275041103363,1.7461274862289429
1678916794.87998796,133301214,42.6881938,-84.49152889999999,273.91998291015625,0.44929561018943787,1.7492955923080444
1678916794.97989106,133401117,42.6881938,-84.49152889999999,273.92999267578125,0.4537214934825897,1.7537214756011963
1678916795.08019590,133501422,42.6881938,-84.49152889999999,273.94000244140625,0.46082696318626404,1.7608269453048706
1678916795.18026996,133601496,42.6881938,-84.4915288,273.94000244140625,0.46624085307121277,1.7662408351898193
1678916795.28021002,133701436,42.6881938,-84.4915288,273.94000244140625,0.46758338809013367,1.7675833702087402
1678916795.38021994,133801446,42.6881937,-84.49152869999999,273.94000244140625,0.4690910279750824,1.769091010093689
1678916795.48031807,133901544,42.6881937,-84.4915288,273.9499816894531,0.4730674922466278,1.7730674743652344
1678916795.58025503,134001481,42.6881938,-84.4915288,273.9499816894531,0.47737666964530945,1.777376651763916
1678916795.68024302,134101469,42.6881936,-84.49152889999999,273.9599914550781,0.4824638068675995,1.782463788986206
1678916795.78030205,134201528,42.6881935,-84.49152889999999,273.9599914550781,0.4852012097835541,1.7852011919021606
1678916795.88055086,134301777,42.6881935,-84.49152889999999,273.9599914550781,0.48501428961753845,1.785014271736145
1678916795.98056507,134401791,42.6881935,-84.4915288,273.9599914550781,0.4853636920452118,1.7853636741638184
1678916796.08001304,134501239,42.6881935,-84.49152889999999,273.9599914550781,0.48953065276145935,1.789530634880066
1678916796.18003297,134601259,42.688193399999996,-84.491529,273.97998046875,0.5035089254379272,1.8035088777542114
1678916796.28000188,134701228,42.6881932,-84.4915291,274.0,0.5227323770523071,1.8227323293685913
1678916796.37998295,134801209,42.688193,-84.4915293,274.0199890136719,0.5477726459503174,1.8477725982666016
1678916796.48001695,134901243,42.6881929,-84.4915295,274.04998779296875,0.5748220682144165,1.8748220205307007
1678916796.57997990,135001206,42.688192699999995,-84.4915298,274.0799865722656,0.6009082794189453,1.9009082317352295
1678916796.67995000,135101176,42.6881926,-84.4915302,274.1000061035156,0.6204773187637329,1.920477271080017
1678916796.78025794,135201484,42.6881924,-84.49153059999999,274.1000061035156,0.6255028247833252,1.9255027770996094
1678916796.88018394,135301410,42.6881923,-84.491531,274.0899963378906,0.6159408092498779,1.915940761566162
1678916796.98002100,135401247,42.6881923,-84.49153129999999,274.0799865722656,0.6028292179107666,1.9028291702270508
1678916797.08000708,135501233,42.6881923,-84.4915317,274.05999755859375,0.5870267152786255,1.8870266675949097
1678916797.18003988,135601266,42.6881924,-84.49153199999999,274.04998779296875,0.5699925422668457,1.8699924945831299
1678916797.27994990,135701176,42.6881925,-84.4915322,274.0299987792969,0.5581706762313843,1.8581706285476685
1678916797.37988400,135801110,42.6881926,-84.4915323,274.0199890136719,0.5486353635787964,1.8486353158950806
1678916797.47998500,135901211,42.688192699999995,-84.4915324,274.0199890136719,0.5428308248519897,1.842830777168274
1678916797.58006907,136001295,42.6881929,-84.4915324,274.0199890136719,0.542702317237854,1.8427022695541382
1678916797.67989302,136101119,42.6881929,-84.4915324,274.0199890136719,0.5447990894317627,1.8447990417480469
1678916797.78019595,136201422,42.6881931,-84.4915324,274.0199890136719,0.5459272861480713,1.8459272384643555
1678916797.88013697,136301363,42.6881932,-84.4915324,274.0199890136719,0.5465623140335083,1.8465622663497925
1678916797.98015499,136401381,42.688193299999995,-84.4915323,274.0299987792969,0.5509345531463623,1.8509345054626465
1678916798.08015800,136501384,42.688193399999996,-84.4915323,274.0299987792969,0.5587600469589233,1.8587599992752075
1678916798.18012786,136601354,42.688193399999996,-84.4915322,274.0400085449219,0.5647224187850952,1.8647223711013794
1678916798.28013706,136701363,42.688193399999996,-84.4915322,274.04998779296875,0.5703909397125244,1.8703908920288086
1678916798.38018489,136801411,42.6881935,-84.4915322,274.04998779296875,0.5753124952316284,1.8753124475479126
1678916853.48023987,191901466,42.6881945,-84.4915335,274.17999267578125,0.0009646862745285034,2.000964641571045
1678916853.58017993,192001406,42.6881945,-84.4915335,274.17999267578125,0.0030661076307296753,2.003066062927246
1678916853.68020201,192101428,42.6881945,-84.4915335,274.17999267578125,0.0020912140607833862,2.0020911693573
1678916853.78040099,192201627,42.688194599999996,-84.4915335,274.17999267578125,0.0009108036756515503,2.000910758972168
1678916853.87996387,192301190,42.6881945,-84.4915335,274.16998291015625,-0.0011683255434036255,1.9988316297531128
1678916853.97991586,192401142,42.6881945,-84.4915335,274.16998291015625,-0.003052070736885071,1.9969478845596313
1678916854.07992697,192501153,42.6881945,-84.4915336,274.16998291015625,-0.004314139485359192,1.9956858158111572
1678916854.17983103,192601057,42.6881945,-84.4915335,274.16998291015625,-0.005029395222663879,1.9949705600738525
1678916854.27993894,192701165,42.6881945,-84.4915336,274.16998291015625,-0.005669787526130676,1.9943301677703857
1678916854.37984896,192801075,42.6881945,-84.4915336,274.16998291015625,-0.006240323185920715,1.9937596321105957
1678916854.47995591,192901182,42.6881945,-84.4915336,274.16998291015625,-0.006734207272529602,1.9932657480239868
1678916854.57998991,193001216,42.6881945,-84.4915336,274.16998291015625,-0.007293298840522766,1.9927066564559937
1678916854.67998600,193101212,42.6881945,-84.4915336,274.16998291015625,-0.006677225232124329,1.993322730064392
1678916854.77996087,193201187,42.6881945,-84.4915336,274.16998291015625,-0.0055115967988967896,1.9944883584976196
1678916854.88016605,193301392,42.6881945,-84.4915336,274.16998291015625,-0.0041132718324661255,1.9958866834640503
1678916854.97986603,193401092,42.6881945,-84.4915336,274.16998291015625,-0.0024314671754837036,1.9975684881210327
1678916855.08014488,193501371,42.6881945,-84.4915336,274.17999267578125,0.0012140721082687378,2.001214027404785
1678916855.18015409,193601380,42.6881945,-84.4915336,274.17999267578125,0.005482479929924011,2.0054824352264404
1678916855.28003788,193701264,42.6881945,-84.4915336,274.17999267578125,0.009482666850090027,2.0094826221466064
1678916855.38005304,193801279,42.6881945,-84.4915336,274.19000244140625,0.013402983546257019,2.0134029388427734
1678916855.48012590,193901352,42.6881945,-84.4915336,274.19000244140625,0.01602630317211151,2.016026258468628
1678916855.58012390,194001350,42.6881945,-84.4915336,274.19000244140625,0.017972514033317566,2.017972469329834
1678916855.68012094,194101347,42.6881945,-84.4915336,274.19000244140625,0.01825718581676483,2.0182571411132812
1678916855.78009796,194201324,42.6881944,-84.4915336,274.19000244140625,0.018587633967399597,2.018587589263916
1678916855.88016009,194301386,42.6881944,-84.49153369999999,274.19000244140625,0.019485756754875183,2.0194857120513916
1678916855.98011494,194401341,42.6881944,-84.49153369999999,274.1999816894531,0.02108578383922577,2.021085739135742
1678916856.08018088,194501407,42.6881944,-84.49153369999999,274.1999816894531,0.0213039368391037,2.02130389213562
1678916856.18003798,194601264,42.6881944,-84.49153369999999,274.1999816894531,0.021281525492668152,2.0212814807891846
1678916856.28007007,194701296,42.6881944,-84.49153369999999,274.1999816894531,0.020982787013053894,2.0209827423095703
1678916856.38020802,194801434,42.6881944,-84.49153369999999,274.1999816894531,0.02192668616771698,2.0219266414642334
1678916856.48034096,194901567,42.6881944,-84.49153369999999,274.1999816894531,0.023996397852897644,2.023996353149414
1678916856.58013892,195001365,42.6881944,-84.49153369999999,274.1999816894531,0.026334092020988464,2.026334047317505
1678916856.68015695,195101383,42.6881944,-84.49153369999999,274.1999816894531,0.02917294204235077,2.029172897338867
1678916856.78017092,195201397,42.6881944,-84.4915336,274.2099914550781,0.03271512687206268,2.032715082168579
1678916856.88018298,195301409,42.6881944,-84.4915336,274.2099914550781,0.03739862143993378,2.03739857673645
1678916856.98024297,195401469,42.6881944,-84.4915336,274.2200012207031,0.04142431914806366,2.04142427444458
1678916857.08009005,195501316,42.6881944,-84.4915336,274.2200012207031,0.044887349009513855,2.0448873043060303
1678916857.18017793,195601404,42.6881944,-84.4915336,274.2200012207031,0.04857616126537323,2.0485761165618896
1678916857.28017688,195701403,42.6881943,-84.4915336,274.22998046875,0.0534244030714035,2.05342435836792
1678916857.38039494,195801621,42.6881943,-84.4915336,274.22998046875,0.058420464396476746,2.058420419692993
1678916857.48021293,195901439,42.6881943,-84.4915336,274.239990234375,0.06455712020397186,2.0645570755004883
1678916857.58016706,196001393,42.6881943,-84.4915336,274.25,0.07085375487804413,2.0708537101745605
1678916857.68018603,196101412,42.6881943,-84.4915336,274.25,0.07805471122264862,2.078054666519165
1678916857.78018188,196201408,42.6881943,-84.4915336,274.2599792480469,0.08501581847667694,2.0850157737731934
1678916857.88025093,196301477,42.6881943,-84.4915336,274.2699890136719,0.09184722602367401,2.0918471813201904
1678916857.98009205,196401318,42.6881943,-84.4915336,274.2699890136719,0.09858088195323944,2.098580837249756
1678916858.08016396,196501390,42.6881943,-84.4915336,274.2799987792969,0.10590057075023651,2.105900526046753
1678916858.18018699,196601413,42.6881943,-84.4915336,274.2900085449219,0.1133611649274826,2.113361120223999
1678916858.28016996,196701396,42.6881943,-84.4915336,274.29998779296875,0.12145166099071503,2.1214516162872314
1678916858.38040805,196801634,42.6881943,-84.4915336,274.30999755859375,0.1302807778120041,2.1302807331085205
1678916858.48031998,196901546,42.6881943,-84.4915336,274.30999755859375,0.1372254341840744,2.137225389480591
1678916858.57990003,197001126,42.6881943,-84.4915336,274.32000732421875,0.1470983475446701,2.1470983028411865
1678916858.67987704,197101103,42.6881943,-84.4915335,274.3500061035156,0.17313794791698456,2.173137903213501
1678916858.77994204,197201168,42.6881943,-84.4915335,274.3999938964844,0.22447781264781952,2.224477767944336
1678916858.87988091,197301107,42.6881944,-84.4915334,274.4700012207031,0.2939355969429016,2.293935537338257
1678916858.97992706,197401153,42.6881945,-84.4915334,274.5400085449219,0.3663373589515686,2.366337299346924
1678916859.08000207,197501228,42.688194599999996,-84.4915334,274.6099853515625,0.43517595529556274,2.435175895690918
1678916859.18048906,197601715,42.6881947,-84.4915335,274.66998291015625,0.4960635304450989,2.496063470840454
1678916859.28019691,197701423,42.6881948,-84.4915336,274.7200012207031,0.5429278016090393,2.5429277420043945
1678916859.37995791,197801184,42.6881949,-84.4915338,274.7599792480469,0.5825362801551819,2.582536220550537
1678916859.47992396,197901150,42.688195,-84.4915339,274.7900085449219,0.6125450730323792,2.6125450134277344
1678916859.57991290,198001139,42.6881951,-84.4915339,274.80999755859375,0.6364687085151672,2.6364686489105225
1678916859.67995000,198101176,42.688195199999996,-84.49153369999999,274.8299865722656,0.6547062993049622,2.6547062397003174
1678916859.77991796,198201144,42.688195199999996,-84.4915336,274.8500061035156,0.6711810231208801,2.6711809635162354
1678916859.87994695,198301173,42.688195199999996,-84.4915336,274.8599853515625,0.680061399936676,2.6800613403320312
1678916859.98000598,198401232,42.6881951,-84.4915338,274.8599853515625,0.681462824344635,2.6814627647399902
1678916860.07999706,198501223,42.6881949,-84.491534,274.8500061035156,0.6781349778175354,2.6781349182128906
1678916860.18016386,198601390,42.6881949,-84.4915343,274.8500061035156,0.6721885800361633,2.6721885204315186
1678916860.27996087,198701187,42.6881949,-84.4915345,274.8399963378906,0.664290726184845,2.6642906665802
1678916860.38017106,198801397,42.6881949,-84.4915347,274.8299865722656,0.6572943329811096,2.657294273376465
1678916860.48024487,198901471,42.6881951,-84.4915346,274.8299865722656,0.651083767414093,2.6510837078094482
1678916860.58034897,199001575,42.6881954,-84.4915345,274.82000732421875,0.6451783776283264,2.6451783180236816
1678916860.68014503,199101371,42.688195799999995,-84.49153419999999,274.80999755859375,0.6370711922645569,2.637071132659912
1678916860.78016305,199201389,42.6881963,-84.4915339,274.79998779296875,0.6265292763710022,2.6265292167663574
1678916860.88013792,199301364,42.6881969,-84.4915335,274.79998779296875,0.6212528347969055,2.6212527751922607
1678916860.98014307,199401369,42.6881975,-84.4915331,274.7900085449219,0.6192737221717834,2.6192736625671387
1678916861.08014989,199501376,42.688198,-84.4915329,274.7900085449219,0.6171966195106506,2.617196559906006
1678916861.18049192,199601718,42.6881984,-84.4915326,274.7900085449219,0.6137040257453918,2.613703966140747
1678916861.28013992,199701366,42.688198799999995,-84.49153249999999,274.7900085449219,0.6106336712837219,2.610633611679077
1678916861.38014007,199801366,42.6881991,-84.4915324,274.7799987792969,0.6074431538581848,2.60744309425354
1678916861.48025990,199901486,42.6881993,-84.49153249999999,274.7799987792969,0.6000173687934875,2.6000173091888428
1678916861.58007407,200001300,42.6881996,-84.4915327,274.7699890136719,0.5916128754615784,2.5916128158569336
1678916861.68041801,200101644,42.6881998,-84.4915329,274.7599792480469,0.5831227898597717,2.583122730255127
1678916861.78014803,200201374,42.688200099999996,-84.4915331,274.75,0.5776169896125793,2.5776169300079346
1678916861.88020205,200301428,42.6882003,-84.4915336,274.75,0.576221764087677,2.5762217044830322
1678916861.98018909,200401415,42.688200599999995,-84.491534,274.7599792480469,0.5825105309486389,2.582510471343994
1678916862.08017898,200501405,42.688200699999996,-84.4915345,274.7799987792969,0.6025965809822083,2.6025965213775635
1678916862.18022704,200601453,42.688201,-84.4915351,274.80999755859375,0.6330133080482483,2.6330132484436035
1678916862.28041291,200701639,42.6882011,-84.4915359,274.8500061035156,0.6744433045387268,2.674443244934082
1678916862.38026595,200801492,42.688201199999995,-84.49153659999999,274.8999938964844,0.7225175499916077,2.722517490386963
1678916862.48022389,200901450,42.688201299999996,-84.4915374,274.9499816894531,0.7782283425331116,2.778228282928467
1678916862.58018208,201001408,42.6882015,-84.4915382,275.0099792480469,0.8380351662635803,2.8380351066589355
1678916862.68033409,201101560,42.6882015,-84.491539,275.07000732421875,0.8990846276283264,2.8990845680236816
1678916862.78019190,201201418,42.6882016,-84.4915398,275.1399841308594,0.9651420712471008,2.965142011642456
1678916862.88020802,201301434,42.6882015,-84.4915405,275.2099914550781,1.0323312282562256,3.0323312282562256
1678916862.98018098,201401407,42.6882014,-84.4915413,275.2699890136719,1.0940945148468018,3.0940945148468018
1678916863.08020401,201501430,42.6882011,-84.491542,275.3299865722656,1.1562938690185547,3.1562938690185547
1678916863.18044901,201601675,42.6882009,-84.49154279999999,275.3899841308594,1.2190241813659668,3.219024181365967
1678916863.28027105,201701497,42.6882008,-84.4915436,275.4599914550781,1.2821505069732666,3.2821505069732666
1678916863.37989593,201801122,42.688200599999995,-84.49154449999999,275.5199890136719,1.3442976474761963,3.3442976474761963
1678916863.47998405,201901210,42.6882005,-84.4915453,275.5799865722656,1.4003896713256836,3.4003896713256836
1678916863.58001304,202001239,42.6882004,-84.4915461,275.6199951171875,1.4499168395996094,3.4499168395996094
1678916863.68001699,202101243,42.6882004,-84.4915468,275.66998291015625,1.4940152168273926,3.4940152168273926
1678916863.78000689,202201233,42.6882004,-84.49154759999999,275.7099914550781,1.5319383144378662,3.531938314437866
1678916863.88018799,202301414,42.6882004,-84.49154829999999,275.739990234375,1.5631649494171143,3.5631649494171143
1678916863.98018098,202401407,42.6882004,-84.49154899999999,275.7699890136719,1.5915307998657227,3.5915307998657227
1678916864.07991505,202501141,42.6882003,-84.49154949999999,275.7900085449219,1.6135361194610596,3.6135361194610596
1678916864.17995405,202601180,42.6882003,-84.4915501,275.80999755859375,1.6305394172668457,3.6305394172668457
1678916864.27988887,202701115,42.6882002,-84.4915506,275.82000732421875,1.641430377960205,3.641430377960205
1678916864.37996888,202801195,42.688200099999996,-84.49155119999999,275.82000732421875,1.6481482982635498,3.64814829826355
1678916864.48002887,202901255,42.688199999999995,-84.4915517,275.8299865722656,1.6539742946624756,3.6539742946624756
1678916864.58020687,203001433,42.6881998,-84.4915523,275.8399963378906,1.661909580230713,3.661909580230713
1678916864.68021798,203101444,42.6881996,-84.4915528,275.8500061035156,1.6700026988983154,3.6700026988983154
1678916864.78026390,203201490,42.688199499999996,-84.4915534,275.8500061035156,1.6756279468536377,3.6756279468536377
1678916864.87988591,203301112,42.6881993,-84.4915536,275.8500061035156,1.678765058517456,3.678765058517456
1678916864.97984791,203401074,42.6881991,-84.49155379999999,275.8500061035156,1.6773631572723389,3.677363157272339
1678916865.07994795,203501174,42.688198899999996,-84.4915536,275.8500061035156,1.6736278533935547,3.6736278533935547
1678916865.17987609,203601102,42.6881987,-84.4915535,275.8399963378906,1.6660053730010986,3.6660053730010986
1678916865.27996302,203701189,42.6881985,-84.491553,275.8299865722656,1.6597774028778076,3.6597774028778076
1678916865.37999201,203801218,42.688198199999995,-84.49155259999999,275.8299865722656,1.6503832340240479,3.650383234024048
1678916865.48023009,203901456,42.6881979,-84.49155189999999,275.80999755859375,1.6350908279418945,3.6350908279418945
1678916865.58001399,204001240,42.688197599999995,-84.49155139999999,275.7900085449219,1.6162822246551514,3.6162822246551514
1678916865.68012786,204101354,42.6881974,-84.49155069999999,275.7599792480469,1.5898327827453613,3.5898327827453613
1678916865.78012800,204201354,42.6881972,-84.49155019999999,275.739990234375,1.5627985000610352,3.562798500061035
1678916865.88014007,204301366,42.6881971,-84.4915496,275.7099914550781,1.5334899425506592,3.533489942550659
1678916865.98016596,204401392,42.6881971,-84.4915491,275.67999267578125,1.506073236465454,3.506073236465454
1678916866.08006692,204501293,42.6881972,-84.4915485,275.6600036621094,1.484527587890625,3.484527587890625
1678916866.18008208,204601308,42.6881972,-84.4915482,275.6399841308594,1.468599557876587,3.468599557876587
1678916866.28014398,204701370,42.6881974,-84.49154759999999,275.6300048828125,1.4591314792633057,3.4591314792633057
1678916866.38031697,204801543,42.6881975,-84.4915473,275.6399841308594,1.4612064361572266,3.4612064361572266
1678916866.48003888,204901265,42.688197599999995,-84.4915469,275.6499938964844,1.4736664295196533,3.4736664295196533
1678916866.58001494,205001241,42.688197599999995,-84.4915465,275.66998291015625,1.4912266731262207,3.4912266731262207
1678916866.67988586,205101112,42.688197599999995,-84.49154589999999,275.67999267578125,1.508934736251831,3.508934736251831
1678916866.77987599,205201102,42.688197599999995,-84.4915455,275.6999816894531,1.5252315998077393,3.5252315998077393
1678916866.87995005,205301176,42.6881975,-84.49154469999999,275.7099914550781,1.5392146110534668,3.539214611053467
1678916866.98009706,205401323,42.6881973,-84.49154419999999,275.72998046875,1.554466962814331,3.554466962814331
1678916867.08018208,205501408,42.6881972,-84.4915437,275.739990234375,1.5697734355926514,3.5697734355926514
1678916867.18001103,205601237,42.688196999999995,-84.4915431,275.7599792480469,1.585880994796753,3.585880994796753
1678916867.28001595,205701242,42.6881969,-84.49154229999999,275.7799987792969,1.6050333976745605,3.6050333976745605
1678916867.37997603,205801202,42.6881968,-84.49154159999999,275.79998779296875,1.6289374828338623,3.6289374828338623
1678916867.48001409,205901240,42.6881967,-84.4915408,275.8299865722656,1.6526973247528076,3.6526973247528076
1678916867.57988906,206001115,42.6881965,-84.49154,275.8500061035156,1.6760642528533936,3.6760642528533936
1678916867.67984295,206101069,42.6881965,-84.491539,275.8800048828125,1.7007336616516113,3.7007336616516113
1678916867.77992702,206201153,42.688196399999995,-84.4915381,275.8999938964844,1.725689172744751,3.725689172744751
1678916867.87986898,206301095,42.6881963,-84.4915371,275.91998291015625,1.7488725185394287,3.7488725185394287
1678916867.98018599,206401412,42.6881962,-84.4915362,275.9499816894531,1.7719964981079102,3.77199649810791
1678916868.07999396,206501220,42.6881961,-84.4915352,275.9700012207031,1.7905092239379883,3.7905092239379883
