timestamp,TimeUS,C,Q1,Q2,Q3,Q4
1678916759.97926092,98400487,2,0.9779324531555176,0.011582981795072556,-0.002255157334730029,-0.20858775079250336
1678916760.07920289,98500429,2,0.9779131412506104,0.011589935049414635,-0.0022749239578843117,-0.20867758989334106
1678916760.17917299,98600399,2,0.9778950810432434,0.011626855470240116,-0.0022372319363057613,-0.20876066386699677
1678916760.27917695,98700403,2,0.9778894186019897,0.01165720820426941,-0.0022629450540989637,-0.20878516137599945
1678916760.37917399,98800400,2,0.9778690934181213,0.011597814038395882,-0.002243146300315857,-0.20888401567935944
1678916760.47916889,98900395,2,0.9778478741645813,0.011662431061267853,-0.002307857619598508,-0.208979070186615
1678916760.57918406,99000410,2,0.977844774723053,0.011589325964450836,-0.002209962112829089,-0.20899862051010132
1678916760.67921305,99100439,2,0.977814793586731,0.011679784394800663,-0.002304534427821636,-0.20913267135620117
1678916760.77917695,99200403,2,0.9777924418449402,0.011600500904023647,-0.0023127805907279253,-0.20924155414104462
1678916760.87924290,99300469,2,0.9777824282646179,0.011632472276687622,-0.0022927187383174896,-0.20928679406642914
1678916760.97919893,99400425,2,0.9777852892875671,0.011621869169175625,-0.002340222243219614,-0.20927342772483826
1678916761.07916903,99500395,2,0.9777849316596985,0.0115660997107625,-0.0023224607575684786,-0.20927837491035461
1678916761.17917991,99600406,2,0.9777898788452148,0.011653752997517586,-0.0023271904792636633,-0.20925047993659973
1678916761.27917004,99700396,2,0.9777892231941223,0.011610791087150574,-0.0022306698374450207,-0.20925700664520264
1678916761.37917304,99800399,2,0.9777725338935852,0.011686383746564388,-0.002276836195960641,-0.2093302458524704
1678916761.47917604,99900402,2,0.9777597784996033,0.011564476415514946,-0.002285823691636324,-0.20939645171165466
1678916761.57923293,100000459,2,0.9777541756629944,0.011541767045855522,-0.002316079568117857,-0.20942340791225433
1678916761.67918205,100100408,2,0.9777504801750183,0.011599122546613216,-0.0023242924362421036,-0.20943738520145416
1678916761.77923799,100200464,2,0.9777441620826721,0.011404565535485744,-0.00226013851352036,-0.2094782590866089
1678916761.87920308,100300429,2,0.9777327179908752,0.011520192958414555,-0.0022064114455133677,-0.2095261514186859
1678916761.97918487,100400411,2,0.9777303338050842,0.011483057402074337,-0.0021675690077245235,-0.20953957736492157
1678916762.07918000,100500406,2,0.9777101874351501,0.01146484911441803,-0.0021311365999281406,-0.20963506400585175
1678916762.17918801,100600414,2,0.9776943922042847,0.011468423530459404,-0.0021674479357898235,-0.20970788598060608
1678916762.27917790,100700404,2,0.9776919484138489,0.011338728480041027,-0.002137500559911132,-0.20972684025764465
1678916762.37920308,100800429,2,0.9776862859725952,0.011436625383794308,-0.002170972293242812,-0.20974749326705933
1678916762.47921705,100900443,2,0.9776749610900879,0.011278674006462097,-0.0021450624335557222,-0.2098091095685959
1678916762.57925200,101000478,2,0.9776678681373596,0.011392365209758282,-0.002177784452214837,-0.2098357230424881
1678916762.67925501,101100481,2,0.977658212184906,0.011264164932072163,-0.002085962565615773,-0.20988863706588745
1678916762.77920389,101200430,2,0.9776349663734436,0.011273031122982502,-0.002133598318323493,-0.20999585092067719
1678916762.87918806,101300414,2,0.9776121973991394,0.011286526918411255,-0.0020931032486259937,-0.21010150015354156
1678916762.97919202,101400418,2,0.9776376485824585,0.011282358318567276,-0.0020604936871677637,-0.20998354256153107
1678916763.07918406,101500410,2,0.9775930643081665,0.011182785034179688,-0.002112472662702203,-0.210195854306221
1678916763.17917991,101600406,2,0.9775818586349487,0.011180523782968521,-0.002179674571380019,-0.21024733781814575
1678916763.27921200,101700438,2,0.9775782227516174,0.011143810115754604,-0.002170481253415346,-0.21026641130447388
1678916763.37923288,101800459,2,0.9775342345237732,0.010461259633302689,-0.0016120681539177895,-0.21051070094108582
1678916763.47918606,101900412,2,0.977537214756012,0.01080775260925293,-0.0015561628388240933,-0.2104799449443817
1678916763.57927990,102000506,2,0.9774775505065918,0.010623830370604992,-0.0014708023518323898,-0.21076680719852448
1678916763.67921400,102100440,2,0.9774595499038696,0.01074112206697464,-0.0016259020194411278,-0.21084323525428772
1678916763.77918291,102200409,2,0.9774413108825684,0.011149771511554718,-0.0017081984551623464,-0.21090587973594666
1678916763.87918806,102300414,2,0.9773779511451721,0.01091818604618311,-0.0015964669873937964,-0.21121206879615784
1678916763.97919703,102400423,2,0.9773498773574829,0.011034498922526836,-0.00083367177285254,-0.21134041249752045
1678916764.07918906,102500415,2,0.9773740172386169,0.010957421734929085,-0.0004113524919375777,-0.21123406291007996
1678916764.17921090,102600437,2,0.9773237705230713,0.01054026186466217,-0.0010195793583989143,-0.2114856243133545
1678916764.27922487,102700451,2,0.9773858189582825,0.010522635653614998,-0.0014820430660620332,-0.21119681000709534
1678916764.37918305,102800409,2,0.9773633480072021,0.010674843564629555,-0.0012253221357241273,-0.21129466593265533
1678916764.47925401,102900480,2,0.977392315864563,0.010610945522785187,-0.0009633203153498471,-0.2111651599407196
1678916764.57921290,103000439,2,0.9773627519607544,0.010135097429156303,-0.0008499760297127068,-0.2113257348537445
1678916764.67917800,103100404,2,0.977387547492981,0.010445772670209408,-0.0007993822218850255,-0.21119605004787445
1678916764.77917600,103200402,2,0.9773169159889221,0.010536120273172855,-0.0005455195205286145,-0.21151909232139587
1678916764.87918496,103300411,2,0.9773753881454468,0.007949400693178177,0.00017303391359746456,-0.21136242151260376
1678916764.97918892,103400415,2,0.9773116707801819,0.008955411612987518,-0.000995282782241702,-0.21161454916000366
1678916765.07919097,103500417,2,0.9771549701690674,0.008600116707384586,-0.0018770769238471985,-0.21234552562236786
1678916765.17922592,103600452,2,0.9767323732376099,0.005638595670461655,-0.0022924949880689383,-0.21437549591064453
1678916765.27918506,103700411,2,0.9759716987609863,-0.0016043444629758596,-0.0021414365619421005,-0.21788093447685242
1678916765.37925005,103800476,2,0.9750314354896545,-0.0100676529109478,-0.0022438194137066603,-0.22182710468769073
1678916765.47920489,103900431,2,0.9739335179328918,-0.01645473577082157,0.0024501110892742872,-0.22622272372245789
1678916765.57919002,104000416,2,0.9729025959968567,-0.015290865674614906,0.017583735287189484,-0.23003815114498138
1678916765.67917991,104100406,2,0.9719046950340271,-0.009249591268599033,0.03432595357298851,-0.23267458379268646
1678916765.77919388,104200420,2,0.9713048338890076,-0.010113170370459557,0.03692425787448883,-0.23473656177520752
1678916765.87917900,104300405,2,0.9710577726364136,-0.012196211144328117,0.029925065115094185,-0.23664863407611847
1678916765.97919989,104400426,2,0.9711098074913025,-0.005916399881243706,0.016363753005862236,-0.23799771070480347
1678916766.07921696,104500443,2,0.9714202880859375,0.0027940706349909306,0.004811360500752926,-0.23730076849460602
1678916766.17918706,104600413,2,0.9718918204307556,0.009126259945333004,-0.0001682154106674716,-0.235250785946846
1678916766.27925587,104700482,2,0.9723324775695801,0.01147567480802536,-0.002495075576007366,-0.23330579698085785
1678916766.37920499,104800431,2,0.9726956486701965,0.010460196994245052,-0.0019120245706290007,-0.23184065520763397
1678916766.47917604,104900402,2,0.9730677008628845,0.004980938509106636,0.0004478806513361633,-0.23046518862247467
1678916766.57918501,105000411,2,0.9734185338020325,-0.0014180863508954644,0.003918495960533619,-0.2289956659078598
1678916766.67917800,105100404,2,0.9738088846206665,-0.003832561196759343,0.011417129077017307,-0.22704879939556122
1678916766.77917504,105200401,2,0.9742329716682434,-0.005022984929382801,0.018579058349132538,-0.22472143173217773
1678916766.87920690,105300433,2,0.9746670126914978,-0.011399309150874615,0.02094745635986328,-0.2223859429359436
1678916766.97922206,105400448,2,0.9750491976737976,-0.018671493977308273,0.024991350248456,-0.21978594362735748
1678916767.07918286,105500409,2,0.9754075407981873,-0.02560705505311489,0.03010011464357376,-0.21683719754219055
1678916767.17925191,105600478,2,0.9758746027946472,-0.032537322491407394,0.03550449758768082,-0.21295428276062012
1678916767.27921009,105700436,2,0.9764538407325745,-0.03341425955295563,0.04122518002986908,-0.20909777283668518
1678916767.37918591,105800412,2,0.977432131767273,-0.027513472363352776,0.04127870127558708,-0.20534248650074005
1678916767.47918487,105900411,2,0.9784159064292908,-0.022711176425218582,0.03997175768017769,-0.20146651566028595
1678916767.57919502,106000421,2,0.9794268608093262,-0.017874347046017647,0.037418022751808167,-0.19749271869659424
1678916767.67917991,106100406,2,0.9804648756980896,-0.008980282582342625,0.03331664577126503,-0.19364386796951294
1678916767.77921796,106200444,2,0.9814103245735168,-2.6925868951366283e-05,0.030557798221707344,-0.18947306275367737
1678916767.87921906,106300445,2,0.9821982383728027,0.006330622360110283,0.029846912249922752,-0.18535283207893372
1678916767.97923398,106400460,2,0.9828218817710876,0.009174247272312641,0.030502645298838615,-0.18178726732730865
1678916768.07924604,106500472,2,0.9829179644584656,0.010582859627902508,0.03689848631620407,-0.1799965649843216
1678916768.17921090,106600437,2,0.9823711514472961,0.01241795439273119,0.047363121062517166,-0.18041475117206573
1678916768.27919006,106700416,2,0.9815954566001892,0.010284218937158585,0.052539121359586716,-0.18331444263458252
1678916768.37918591,106800412,2,0.9805904030799866,0.0076911174692213535,0.051126111298799515,-0.18912816047668457
1678916768.47918987,106900416,2,0.979213297367096,0.005295696668326855,0.043891116976737976,-0.19795668125152588
1678916768.57918596,107000412,2,0.19698019325733185,-0.05556197464466095,0.011618196964263916,0.9787628054618835
1678916768.67919493,107100421,2,0.2044273167848587,-0.035400938242673874,6.609762931475416e-05,0.9782413840293884
1678916768.77921605,107200442,2,0.20974193513393402,-0.021005507558584213,-0.006900278851389885,0.9775067567825317
1678916768.87924409,107300470,2,0.21496832370758057,-0.01595928519964218,-0.008296883665025234,0.9764553904533386
1678916768.97924995,107400476,2,0.21897923946380615,-0.0205876212567091,-0.003912202548235655,0.975504457950592
1678916769.07920408,107500430,2,0.22199490666389465,-0.025503091514110565,0.0027650760021060705,0.9747103452682495
1678916769.17917895,107600405,2,0.2217971235513687,-0.02822093293070793,0.004789508413523436,0.9746726155281067
1678916769.27918005,107700406,2,0.21702773869037628,-0.029435914009809494,0.002126180101186037,0.9757192134857178
1678916769.37917590,107800402,2,0.20731407403945923,-0.023410236462950706,-0.0015287308488041162,0.9779930710792542
1678916769.47917604,107900402,2,0.1947132796049118,-0.015158722177147865,-0.005342327989637852,0.9807285070419312
1678916769.57918787,108000414,2,0.18119828402996063,-0.012689527124166489,-0.0038334191776812077,0.9833572506904602
1678916769.67922187,108100448,2,0.16874413192272186,-0.014520371332764626,0.0006341575644910336,0.9855527281761169
1678916769.77918291,108200409,2,0.15881940722465515,-0.016998087987303734,0.0038491394370794296,0.9871538281440735
1678916769.87925196,108300478,2,0.15177848935127258,-0.02112056501209736,0.003076423890888691,0.9881840944290161
1678916769.97921300,108400439,2,0.14668108522891998,-0.023484136909246445,0.002543568843975663,0.9889017343521118
1678916770.07917500,108500401,2,0.14326365292072296,-0.024595187976956367,0.0018633300205692649,0.9893771409988403
1678916770.17917609,108600402,2,0.14051400125026703,-0.025354089215397835,0.002466648817062378,0.9897509217262268
1678916770.27919507,108700421,2,0.13847942650318146,-0.027569809928536415,0.0010205197613686323,0.9899809956550598
1678916770.37917495,108800401,2,0.13676466047763824,-0.035141561180353165,-0.0017941654659807682,0.9899784326553345
1678916770.47919703,108900423,2,0.13528499007225037,-0.04897483438253403,-0.004043228924274445,0.9895873069763184
1678916770.57922292,109000449,2,0.13501134514808655,-0.055888645350933075,-0.005115692503750324,0.9892533421516418
1678916770.67918706,109100413,2,0.13516837358474731,-0.05600013956427574,-0.004738278687000275,0.9892274737358093
1678916770.77924609,109200472,2,0.13571572303771973,-0.054927609860897064,-0.006501190364360809,0.9892026782035828
1678916770.87921286,109300439,2,0.13718768954277039,-0.05190262943506241,-0.012526150792837143,0.9891050457954407
1678916770.97917700,109400403,2,0.14050549268722534,-0.05011177808046341,-0.02175784483551979,0.9885715246200562
1678916771.07918501,109500411,2,0.1452910602092743,-0.049611128866672516,-0.026224635541439056,0.9877963066101074
1678916771.17919803,109600424,2,0.15040040016174316,-0.0504109226167202,-0.024807065725326538,0.9870274066925049
1678916771.27918100,109700407,2,0.15495333075523376,-0.05163734033703804,-0.02363819256424904,0.9862881302833557
1678916771.37919688,109800423,2,0.15967895090579987,-0.053683117032051086,-0.023471783846616745,0.9854287505149841
1678916771.47921586,109900442,2,0.16341786086559296,-0.05637529492378235,-0.025395357981324196,0.9846174120903015
1678916771.57918501,110000411,2,0.1662752777338028,-0.059938106685876846,-0.02774401567876339,0.983864963054657
1678916771.67925096,110100477,2,0.16848213970661163,-0.060688599944114685,-0.02995777502655983,0.9833784699440002
1678916771.77920604,110200432,2,0.16927966475486755,-0.061107635498046875,-0.0333840437233448,0.9831051826477051
1678916771.87917590,110300402,2,0.16972972452640533,-0.059542037546634674,-0.03303922712802887,0.9831352829933167
1678916771.97918797,110400414,2,0.17010913789272308,-0.05778304487466812,-0.03316507488489151,0.9831704497337341
1678916772.07918286,110500409,2,0.1697389781475067,-0.05484115332365036,-0.03629746288061142,0.9832922220230103
1678916772.17917991,110600406,2,0.16965484619140625,-0.052696969360113144,-0.036515746265649796,0.9834159016609192
1678916772.27919197,110700418,2,0.16946303844451904,-0.05211860314011574,-0.03525620698928833,0.9835257530212402
1678916772.37921691,110800443,2,0.16968634724617004,-0.05217660963535309,-0.030295703560113907,0.983649492263794
1678916772.47924089,110900467,2,0.16967448592185974,-0.04851545765995979,-0.02163560688495636,0.984067440032959
1678916772.57925200,111000478,2,0.1695202887058258,-0.04475640505552292,-0.012703018262982368,0.9844279289245605
1678916772.67920589,111100432,2,0.168984517455101,-0.04020978510379791,-0.0023228616919368505,0.9847953915596008
1678916772.77917504,111200401,2,0.1684608906507492,-0.037587568163871765,0.0044332584366202354,0.9849814176559448
1678916772.87918591,111300412,2,0.166778102517128,-0.03666049987077713,0.0074160280637443066,0.9852847456932068
1678916772.97918701,111400413,2,0.16536842286586761,-0.035671986639499664,0.007978059351444244,0.9855542182922363
1678916773.07917500,111500401,2,0.1632281243801117,-0.03443225100636482,0.006736909970641136,0.985964298248291
1678916773.17920303,111600429,2,0.1607867181301117,-0.0354202575981617,0.00555437384173274,0.9863377809524536
1678916773.27922106,111700447,2,0.15809760987758636,-0.03778498247265816,0.0027245047967880964,0.9866965413093567
1678916773.37923598,111800462,2,0.15537092089653015,-0.039547938853502274,0.0006563029601238668,0.987064003944397
1678916773.47924900,111900475,2,0.1534886509180069,-0.036871153861284256,-0.00041822934872470796,0.9874621629714966
1678916773.57921600,112000442,2,0.15188099443912506,-0.03301175683736801,0.0001701226137811318,0.9878473281860352
1678916773.67917991,112100406,2,0.15027622878551483,-0.031310465186834335,0.0022952717263251543,0.9881454706192017
1678916773.77917504,112200401,2,0.14926883578300476,-0.03385461866855621,0.0038577779196202755,0.9882093667984009
1678916773.87918401,112300410,2,0.14873649179935455,-0.03660742565989494,-0.0033511128276586533,0.9881933331489563
1678916773.97917986,112400406,2,0.1502220779657364,-0.03312666341662407,-0.012862353585660458,0.9880133867263794
1678916774.07919192,112500418,2,0.1542668640613556,-0.02316117100417614,-0.018057696521282196,0.9875926375389099
1678916774.17924094,112600467,2,0.15998081862926483,-0.019680537283420563,-0.01924821548163891,0.9867361783981323
1678916774.27924609,112700472,2,0.16591863334178925,-0.020314952358603477,-0.019052714109420776,0.9857460856437683
1678916774.37924695,112800473,2,0.17132076621055603,-0.020921532064676285,-0.01614277996122837,0.9848608374595642
1678916774.47920990,112900436,2,0.17627108097076416,-0.018273744732141495,-0.00786655955016613,0.9841405749320984
1678916774.57918000,113000406,2,0.18067309260368347,-0.014761497266590595,0.0005722027854062617,0.9834322333335876
1678916774.67917490,113100401,2,0.18424807488918304,-0.016125071793794632,0.006411300040781498,0.9827265739440918
1678916774.77917409,113200400,2,0.1875625103712082,-0.016050416976213455,0.010033417493104935,0.98207026720047
1678916774.87917805,113300404,2,0.19002020359039307,-0.015014871954917908,0.013592545874416828,0.9815712571144104
1678916774.97918391,113400410,2,0.19121471047401428,-0.02014203742146492,0.015075786970555782,0.9812257289886475
1678916775.07922006,113500446,2,0.19147925078868866,-0.02406095154583454,0.01565360650420189,0.9810768365859985
1678916775.17918587,113600412,2,0.19137535989284515,-0.025890910997986794,0.014550062827765942,0.9810674786567688
1678916775.27924991,113700476,2,0.1910637468099594,-0.025933172553777695,0.013990329578518867,0.9811352491378784
1678916775.37920809,113800434,2,0.19001805782318115,-0.02585233934223652,0.01129473652690649,0.9813751578330994
1678916775.47917891,113900405,2,0.18910792469978333,-0.024940555915236473,0.010300351306796074,0.9815855026245117
1678916775.57918501,114000411,2,0.18758144974708557,-0.01995904929935932,0.008020656183362007,0.9820135235786438
1678916775.67917895,114100405,2,0.18616589903831482,-0.015348754823207855,0.007457276340574026,0.982370138168335
1678916775.77917886,114200405,2,0.1842866837978363,-0.01594610884785652,0.007253930438309908,0.9827163815498352
1678916775.87918806,114300414,2,0.18249401450157166,-0.019576288759708405,0.009545812383294106,0.9829657077789307
1678916775.97922397,114400450,2,0.18093456327915192,-0.02895488776266575,0.010899067856371403,0.9830083847045898
1678916776.07918596,114500412,2,0.17899274826049805,-0.03970789909362793,0.010309183970093727,0.9829947352409363
1678916776.17926288,114600489,2,0.1773321032524109,-0.04058176651597023,0.010039199143648148,0.9832627773284912
1678916776.27921104,114700437,2,0.17572669684886932,-0.031033195555210114,0.006596269551664591,0.9839276075363159
1678916776.37918901,114800415,2,0.17418918013572693,-0.020088890567421913,0.001151462085545063,0.9845066070556641
1678916776.47918296,114900409,2,0.17266330122947693,-0.012075870297849178,-0.0024763948749750853,0.9849037528038025
1678916776.57920599,115000432,2,0.17139801383018494,-0.007368043065071106,-0.0027616231236606836,0.9851704239845276
1678916776.67917895,115100405,2,0.17021022737026215,-0.005676691886037588,-0.0004573369224090129,0.9853913187980652
1678916776.77919602,115200422,2,0.16947221755981445,-0.006259309593588114,0.00126161880325526,0.9855142831802368
1678916776.87922001,115300446,2,0.16886234283447266,-0.0068950532004237175,0.0013383376644924283,0.9856145977973938
1678916776.97918487,115400411,2,0.1691618710756302,-0.010007974691689014,0.00022745034948457032,0.9855374693870544
1678916777.07925892,115500485,2,0.1698552668094635,-0.010964157059788704,-0.002458123955875635,0.9854049682617188
1678916777.17920804,115600434,2,0.17143166065216064,-0.012506372295320034,-0.006895708851516247,0.9850925207138062
1678916777.27918196,115700408,2,0.17447620630264282,-0.0182188693434,-0.01424930989742279,0.9843897223472595
1678916777.37918186,115800408,2,0.1797269880771637,-0.02508697099983692,-0.01924368552863598,0.9832082986831665
1678916777.47918701,115900413,2,0.1869785338640213,-0.03197845071554184,-0.019743721932172775,0.981644868850708
1678916777.57918000,116000406,2,0.19543729722499847,-0.03594786673784256,-0.01903630793094635,0.9798722267150879
1678916777.67921901,116100445,2,0.20438513159751892,-0.03900193050503731,-0.011630895547568798,0.9780440926551819
1678916777.77922606,116200452,2,0.21316930651664734,-0.042368482798337936,0.003923874348402023,0.976088285446167
1678916777.87918591,116300412,2,0.2207081913948059,-0.046210672706365585,0.016953226178884506,0.9740970730781555
1678916777.97927690,116400503,2,0.22753553092479706,-0.0483178086578846,0.021178346127271652,0.9723396897315979
1678916778.07921004,116500436,2,0.23364202678203583,-0.050402842462062836,0.02062939666211605,0.9707962870597839
1678916778.17918205,116600408,2,0.2389480173587799,-0.052112337201833725,0.01373531948775053,0.9695357084274292
1678916778.27918196,116700408,2,0.24315646290779114,-0.05238395184278488,-0.004427664447575808,0.9685614109039307
1678916778.37918186,116800408,2,0.24639026820659637,-0.050748441368341446,-0.019771497696638107,0.967639148235321
1678916778.47917700,116900403,2,0.24857661128044128,-0.04627875238656998,-0.026126444339752197,0.9671531915664673
1678916778.57920003,117000426,2,0.25004512071609497,-0.04155142977833748,-0.023305965587496758,0.9670614004135132
1678916778.67922592,117100452,2,0.2513255774974823,-0.04114954546093941,-0.015377725474536419,0.9669052362442017
1678916778.77918005,117200406,2,0.25222793221473694,-0.043767787516117096,-0.001139334635809064,0.9666768312454224
1678916778.87926388,117300490,2,0.25293582677841187,-0.04759293794631958,0.01090194471180439,0.9662502408027649
1678916778.97920895,117400435,2,0.2533961236476898,-0.049728963524103165,0.013133511878550053,0.9659942984580994
1678916779.07917905,117500405,2,0.2534618377685547,-0.04899268224835396,0.010516921989619732,0.9660466909408569
1678916779.17918801,117600414,2,0.2527407109737396,-0.04599988833069801,0.002681691898033023,0.9664362072944641
1678916779.27919006,117700416,2,0.25142934918403625,-0.0427873469889164,-0.009258832782506943,0.9668850898742676
1678916779.37917590,117800402,2,0.24978390336036682,-0.04344072937965393,-0.016690626740455627,0.9671826958656311
1678916779.47922087,117900447,2,0.2480333298444748,-0.04647255316376686,-0.01799038238823414,0.9674689173698425
1678916779.57922006,118000446,2,0.24658049643039703,-0.049480780959129333,-0.01610570400953293,0.9677243232727051
1678916779.67926097,118100487,2,0.24527208507061005,-0.053163956850767136,-0.013505978509783745,0.9679012298583984
1678916779.77927709,118200503,2,0.24431507289409637,-0.05386687070131302,-0.008761391043663025,0.9681589603424072
1678916779.87920904,118300435,2,0.24399949610233307,-0.05286770686507225,-0.004461259581148624,0.9683229327201843
1678916779.97918701,118400413,2,0.2434048056602478,-0.04877026006579399,-0.0006525564240291715,0.9686976671218872
1678916780.07917690,118500403,2,0.24326981604099274,-0.04246643930673599,0.0010393578559160233,0.9690280556678772
1678916780.17917991,118600406,2,0.2431497424840927,-0.03728843480348587,0.0010602060938253999,0.969271183013916
1678916780.27918291,118700409,2,0.24306192994117737,-0.03378962352871895,0.0015331316972151399,0.969420850276947
1678916780.37919903,118800425,2,0.24312984943389893,-0.03347127139568329,0.0019290269119665027,0.9694141745567322
1678916780.47921586,118900442,2,0.2430187314748764,-0.03635801747441292,0.0016765068285167217,0.9693385362625122
1678916780.57924891,119000475,2,0.24353617429733276,-0.04052036255598068,0.0022242749109864235,0.9690424799919128
1678916780.67927790,119100504,2,0.2441309690475464,-0.03675461933016777,0.008320948109030724,0.9690097570419312
1678916780.77920699,119200433,2,0.2446432262659073,-0.027586555108428,0.014106420800089836,0.9691179990768433
1678916780.87917709,119300403,2,0.24501700699329376,-0.020746972411870956,0.015671931207180023,0.969170093536377
1678916780.97917986,119400406,2,0.24504542350769043,-0.015922708436846733,0.011531440541148186,0.9693122506141663
1678916781.07917595,119500402,2,0.2453581839799881,-0.009821351617574692,0.007171244826167822,0.9693562388420105
1678916781.17917895,119600405,2,0.24539297819137573,-0.007746752817183733,0.004584801383316517,0.9693818688392639
1678916781.27921200,119700438,2,0.24516133964061737,-0.01279098354279995,0.004847409203648567,0.9693858027458191
1678916781.37922001,119800446,2,0.24455954134464264,-0.018606867641210556,0.005009795073419809,0.9694427847862244
1678916781.47924304,119900469,2,0.24422234296798706,-0.02334868535399437,0.0024416253436356783,0.9694350361824036
1678916781.57928395,120000510,2,0.24344764649868011,-0.02638542279601097,0.00014773129078093916,0.9695550799369812
1678916781.67920995,120100436,2,0.2432587593793869,-0.013332881964743137,0.013567192479968071,0.9697749018669128
1678916781.77917695,120200403,2,0.24136541783809662,0.00034652624162845314,0.031693872064352036,0.9699165225028992
1678916781.87918591,120300412,2,0.23667579889297485,0.005276122596114874,0.021907242015004158,0.9713273644447327
1678916781.97919297,120400419,2,0.23038142919540405,0.010791439563035965,0.014074758626520634,0.9729387760162354
1678916782.07917500,120500401,2,0.23206815123558044,0.0178187545388937,0.01866360567510128,0.9723572134971619
1678916782.17920208,120600428,2,0.23625098168849945,0.017423592507839203,0.01641182042658329,0.9713972210884094
1678916782.27922988,120700456,2,0.23484617471694946,0.01595732569694519,0.01747213676571846,0.9717444777488708
1678916782.37926006,120800486,2,0.23344777524471283,0.0140835577622056,0.017467070370912552,0.9721104502677917
1678916782.47927403,120900500,2,0.23599684238433838,0.01395649928599596,0.017339786514639854,0.9714988470077515
1678916782.57922196,121000448,2,0.23640374839305878,0.015216408297419548,0.017162611708045006,0.9713841676712036
1678916782.67918205,121100408,2,0.23457252979278564,0.01571859046816826,0.01639394834637642,0.9718332886695862
1678916782.77918386,121200410,2,0.23533476889133453,0.015224341303110123,0.016967523843050003,0.9716469645500183
1678916782.87918806,121300414,2,0.23683713376522064,0.014702564105391502,0.01724717579782009,0.9712849855422974
1678916782.97917604,121400402,2,0.2357724905014038,0.014701343141496181,0.017146773636341095,0.9715457558631897
1678916783.07919908,121500425,2,0.23521651327610016,0.015296237543225288,0.016662152484059334,0.9716797471046448
1678916783.17921996,121600446,2,0.23640726506710052,0.01574692502617836,0.01695246808230877,0.97137850522995
1678916783.27925086,121700477,2,0.2362487018108368,0.015432063490152359,0.016879770904779434,0.9714234471321106
1678916783.37928104,121800507,2,0.23561495542526245,0.015048029832541943,0.016905151307582855,0.9715828895568848
1678916783.47919607,121900422,2,0.23621752858161926,0.015194791369140148,0.016971997916698456,0.971433162689209
1678916783.57916903,122000395,2,0.23656412959098816,0.01570786163210869,0.016873590648174286,0.9713423252105713
1678916783.67917299,122100399,2,0.2366735339164734,0.015944035723805428,0.016751941293478012,0.9713139533996582
1678916783.77916694,122200393,2,0.2379520982503891,0.016053618863224983,0.016988014802336693,0.9709956049919128
1678916783.87916994,122300396,2,0.2399744689464569,0.015940725803375244,0.017130883410573006,0.9704971313476562
1678916783.97917700,122400403,2,0.24119535088539124,0.016094356775283813,0.016904225572943687,0.9701958894729614
1678916784.07920909,122500435,2,0.24273937940597534,0.016277514398097992,0.017155079171061516,0.9698032736778259
1678916784.17918897,122600415,2,0.24492579698562622,0.016386467963457108,0.016934650018811226,0.9692553877830505
1678916784.27924490,122700471,2,0.24654024839401245,0.016410119831562042,0.01706942729651928,0.9688432812690735
1678916784.37919593,122800422,2,0.24797429144382477,0.01644871011376381,0.01704123616218567,0.9684770703315735
1678916784.47917008,122900396,2,0.2501054108142853,0.016484353691339493,0.016892937943339348,0.9679308533668518
1678916784.57918787,123000414,2,0.25171613693237305,0.016520457342267036,0.017133766785264015,0.9675083756446838
1678916784.67917895,123100405,2,0.2528943419456482,0.01645471155643463,0.017000101506710052,0.9672045707702637
1678916784.77917409,123200400,2,0.2550092935562134,0.016488179564476013,0.017193807289004326,0.9666451215744019
1678916784.87920690,123300433,2,0.2566373646259308,0.016376422718167305,0.01715579815208912,0.9662167429924011
1678916784.97921205,123400438,2,0.2578083872795105,0.01637374982237816,0.017299212515354156,0.9659023880958557
1678916785.07924294,123500469,2,0.2597598135471344,0.01630368083715439,0.017056718468666077,0.9653849601745605
1678916785.17926908,123600495,2,0.26154041290283203,0.016364850103855133,0.01724945195019245,0.9648995995521545
1678916785.27920103,123700427,2,0.2627353072166443,0.016316412016749382,0.017152216285467148,0.9645774960517883
1678916785.37917495,123800401,2,0.26444509625434875,0.01646101288497448,0.017215196043252945,0.964106559753418
1678916785.47916889,123900395,2,0.2663339078426361,0.016475630924105644,0.017039861530065536,0.9635893702507019
1678916785.57917500,124000401,2,0.2674763798713684,0.016539646312594414,0.017165256664156914,0.9632695317268372
1678916785.67917204,124100398,2,0.2690693438053131,0.0165614765137434,0.017046580091118813,0.9628275036811829
1678916785.77919698,124200423,2,0.2709701657295227,0.01661883480846882,0.01702122949063778,0.9622937440872192
1678916785.87921000,124300436,2,0.2722070515155792,0.01664745807647705,0.0170549675822258,0.961943507194519
1678916785.97924805,124400474,2,0.27358731627464294,0.01653287559747696,0.016976123675704002,0.9615552425384521
1678916786.07926989,124500496,2,0.2754499018192291,0.01664053648710251,0.017131589353084564,0.9610186815261841
1678916786.17920208,124600428,2,0.276837021112442,0.016613030806183815,0.016929520294070244,0.960624098777771
1678916786.27917409,124700400,2,0.2781004309654236,0.01664690673351288,0.017109666019678116,0.9602553248405457
1678916786.37916708,124800393,2,0.279915988445282,0.01656147465109825,0.017022939398884773,0.9597306847572327
1678916786.47917104,124900397,2,0.2814384996891022,0.016567783430218697,0.017105257138609886,0.959283709526062
1678916786.57917094,125000397,2,0.282694548368454,0.01656392589211464,0.01714012585580349,0.9589138031005859
1678916786.67918205,125100408,2,0.2843819260597229,0.01646372303366661,0.01704774983227253,0.958418071269989
1678916786.77920794,125200434,2,0.28592270612716675,0.01653876155614853,0.017169002443552017,0.9579561352729797
1678916786.87917590,125300402,2,0.2871657907962799,0.01649652235209942,0.016923829913139343,0.9575892686843872
1678916786.97926497,125400491,2,0.28871434926986694,0.01652291789650917,0.017096146941184998,0.9571200013160706
1678916787.07920408,125500430,2,0.989592432975769,0.019225243479013443,-0.013635286130011082,-0.14195533096790314
1678916787.17916894,125600395,2,0.989533007144928,0.019196484237909317,-0.01369479764252901,-0.1423671692609787
1678916787.27917004,125700396,2,0.989568829536438,0.019268469884991646,-0.013731041923165321,-0.14210465550422668
1678916787.37916708,125800393,2,0.9896888732910156,0.01924794726073742,-0.013727019540965557,-0.1412692815065384
1678916787.47917199,125900398,2,0.9899003505706787,0.019191676750779152,-0.01378636620938778,-0.13978168368339539
1678916787.57920289,126000429,2,0.9901001453399658,0.01910163089632988,-0.013790224678814411,-0.13837161660194397
1678916787.67921686,126100443,2,0.9902779459953308,0.019155416637659073,-0.013784504495561123,-0.1370863914489746
1678916787.77918386,126200410,2,0.9904804229736328,0.01893673837184906,-0.013741694390773773,-0.1356506496667862
1678916787.87923789,126300464,2,0.9906058311462402,0.01904607005417347,-0.013828050345182419,-0.1347077488899231
1678916787.97920990,126400436,2,0.9906338453292847,0.0189399104565382,-0.01384612638503313,-0.13451449573040009
1678916788.07916903,126500395,2,0.9906336665153503,0.018928660079836845,-0.013872820883989334,-0.13451476395130157
1678916788.17917609,126600402,2,0.9906075596809387,0.019050437957048416,-0.01390929240733385,-0.13468584418296814
1678916788.27918386,126700410,2,0.9905294179916382,0.018969932571053505,-0.013883422128856182,-0.13527321815490723
1678916788.37916589,126800392,2,0.9904384016990662,0.019165964797139168,-0.013856932520866394,-0.1359131783246994
1678916788.47917295,126900399,2,0.9903674125671387,0.01903586834669113,-0.013787427917122841,-0.13645489513874054
1678916788.57921100,127000437,2,0.9902838468551636,0.019137322902679443,-0.013778789900243282,-0.1370467245578766
1678916788.67924690,127100473,2,0.9902434349060059,0.019168486818671227,-0.013826543465256691,-0.13732928037643433
1678916788.77925897,127200485,2,0.9902196526527405,0.018997466191649437,-0.0137564018368721,-0.1375313699245453
1678916788.87919903,127300425,2,0.9901710152626038,0.019116630777716637,-0.013765484094619751,-0.13786394894123077
1678916788.97916794,127400394,2,0.9901285767555237,0.018983379006385803,-0.01375538855791092,-0.13818754255771637
1678916789.07917094,127500397,2,0.9901025295257568,0.019045021384954453,-0.013716349378228188,-0.13836944103240967
1678916789.17916799,127600394,2,0.9900620579719543,0.019020603969693184,-0.01364847831428051,-0.1386687010526657
1678916789.27917290,127700399,2,0.9900460243225098,0.019030611962080002,-0.013618105091154575,-0.1387850046157837
1678916789.37919807,127800424,2,0.9900647401809692,0.01905747875571251,-0.01362370140850544,-0.13864707946777344
1678916789.47921205,127900438,2,0.9900798201560974,0.018844889476895332,-0.013611282221972942,-0.13856986165046692
1678916789.57917500,128000401,2,0.9901105165481567,0.018993237987160683,-0.013637776486575603,-0.13832710683345795
1678916789.67926693,128100493,2,0.9901740550994873,0.018906280398368835,-0.013681158423423767,-0.1378791630268097
1678916789.77919698,128200423,2,0.990213930606842,0.01898190751671791,-0.01368197426199913,-0.1375821977853775
1678916789.87917900,128300405,2,0.9902632236480713,0.018859099596738815,-0.013681593351066113,-0.13724377751350403
1678916789.97918200,128400408,2,0.9903199672698975,0.019149906933307648,-0.01369749940931797,-0.1367918998003006
1678916790.07917595,128500402,2,0.9903594851493835,0.019031796604394913,-0.01361457072198391,-0.13653020560741425
1678916790.17916799,128600394,2,0.9903585314750671,0.01912347599864006,-0.013500960543751717,-0.13653555512428284
1678916790.27919292,128700419,2,0.9903561472892761,0.01918064057826996,-0.013529352843761444,-0.13654236495494843
1678916790.37921286,128800439,2,0.9903488159179688,0.019007423892617226,-0.013514853082597256,-0.13662117719650269
1678916790.47917891,128900405,2,0.9902970790863037,0.019155343994498253,-0.013553129509091377,-0.1369708925485611
1678916790.57927299,129000499,2,0.9902645945549011,0.01897381991147995,-0.013522372581064701,-0.13723410665988922
1678916790.67920089,129100427,2,0.9902212619781494,0.01899406872689724,-0.013499218970537186,-0.13754573464393616
1678916790.77916694,129200393,2,0.9901564121246338,0.018958894535899162,-0.013524746522307396,-0.1380140483379364
1678916790.87917089,129300397,2,0.9901129603385925,0.01907309703528881,-0.013504503294825554,-0.13831205666065216
1678916790.97917604,129400402,2,0.9901000261306763,0.019079891964793205,-0.013418312184512615,-0.1384120136499405
1678916791.07916689,129500393,2,0.9900745153427124,0.01903972402215004,-0.013319338671863079,-0.13860909640789032
1678916791.17918396,129600410,2,0.9900413751602173,0.019101612269878387,-0.013347593136131763,-0.13883459568023682
1678916791.27921200,129700438,2,0.9900330305099487,0.01899026520550251,-0.013296482153236866,-0.13891427218914032
1678916791.37918687,129800413,2,0.9900127053260803,0.019093424081802368,-0.0132749043405056,-0.1390470713376999
1678916791.47925997,129900486,2,0.9899922013282776,0.018942585214972496,-0.0132863475009799,-0.13921242952346802
1678916791.57919788,130000424,2,0.9899889826774597,0.019000323489308357,-0.013294610194861889,-0.13922680914402008
1678916791.67917991,130100406,2,0.9900004267692566,0.01897357404232025,-0.013269558548927307,-0.13915109634399414
1678916791.77917004,130200396,2,0.9900045394897461,0.01895797997713089,-0.013327284716069698,-0.1391185075044632
1678916791.87917495,130300401,2,0.9899908304214478,0.01900065504014492,-0.013328113593161106,-0.1392102986574173
1678916791.97917509,130400401,2,0.989986777305603,0.018936248496174812,-0.013247000053524971,-0.13925570249557495
1678916792.07920694,130500433,2,0.9899687170982361,0.019065450876951218,-0.013247626833617687,-0.1393662989139557
1678916792.17920995,130600436,2,0.9899665117263794,0.019086461514234543,-0.013239797204732895,-0.13937979936599731
1678916792.27925587,130700482,2,0.9899531006813049,0.019055284559726715,-0.013200250454246998,-0.13948290050029755
1678916792.37926888,130800495,2,0.9899327158927917,0.018947942182421684,-0.013190139085054398,-0.13964317739009857
1678916792.47919607,130900422,2,0.9899215698242188,0.018996328115463257,-0.01320395153015852,-0.13971422612667084
1678916792.57918787,131000414,2,0.9899114370346069,0.018934370949864388,-0.01323016732931137,-0.139791801571846
1678916792.67917609,131100402,2,0.9898937940597534,0.018906494602560997,-0.013182224705815315,-0.13992507755756378
1678916792.77918291,131200409,2,0.9898762702941895,0.018944457173347473,-0.013166270218789577,-0.14004544913768768
1678916792.87916803,131300394,2,0.9898608326911926,0.018872946500778198,-0.013199958950281143,-0.1401609629392624
1678916792.97918892,131400415,2,0.9898300170898438,0.01897002011537552,-0.013261617161333561,-0.14035959541797638
1678916793.07921195,131500438,2,0.9898035526275635,0.018892347812652588,-0.013275602832436562,-0.14055503904819489
1678916793.17918301,131600409,2,0.9897935390472412,0.018925873562693596,-0.013321986421942711,-0.140616774559021
1678916793.27925301,131700479,2,0.9897962212562561,0.018941771239042282,-0.013361097313463688,-0.1405922770500183
1678916793.37920690,131800433,2,0.98980313539505,0.019031237810850143,-0.013400763273239136,-0.1405276507139206
1678916793.47917795,131900404,2,0.9898219704627991,0.018973730504512787,-0.013307463377714157,-0.14041146636009216
1678916793.57916903,132000395,2,0.989845335483551,0.01896701380610466,-0.013278097845613956,-0.1402503401041031
1678916793.67917204,132100398,2,0.9898545145988464,0.01898125931620598,-0.013281093910336494,-0.14018334448337555
1678916793.77917290,132200399,2,0.989874541759491,0.018964562565088272,-0.013245763257145882,-0.1400473713874817
1678916793.87920403,132300430,2,0.9898806810379028,0.019038265570998192,-0.013223898597061634,-0.1399960219860077
1678916793.97922206,132400448,2,0.9898743629455566,0.018899600952863693,-0.013183586299419403,-0.14006322622299194
1678916794.07917190,132500398,2,0.9898806810379028,0.018997440114617348,-0.01317546796053648,-0.1400064080953598
1678916794.17925501,132600481,2,0.9898948669433594,0.01896427944302559,-0.013147829100489616,-0.1399131417274475
1678916794.27920294,132700429,2,0.9898897409439087,0.018961014226078987,-0.013169363141059875,-0.1399478167295456
1678916794.37916803,132800394,2,0.989886999130249,0.01893886923789978,-0.013184078969061375,-0.13996881246566772
1678916794.47916603,132900392,2,0.9898845553398132,0.01897241920232773,-0.013134549371898174,-0.13998618721961975
1678916794.57916999,133000396,2,0.9898670315742493,0.019007908180356026,-0.013120193034410477,-0.14010648429393768
1678916794.67916799,133100394,2,0.989838182926178,0.01895582303404808,-0.013207469135522842,-0.14030879735946655
1678916794.77920294,133200429,2,0.9898149371147156,0.019007496535778046,-0.013128490187227726,-0.14047326147556305
1678916794.87921691,133300443,2,0.9897788763046265,0.01889624446630478,-0.013040976598858833,-0.1407502144575119
1678916794.97917295,133400399,2,0.9897831082344055,0.01898529753088951,-0.013112985529005527,-0.1407017707824707
1678916795.07923698,133500463,2,0.9897992014884949,0.018892677500844002,-0.013054397888481617,-0.14060665667057037
1678916795.17919707,133600423,2,0.9897528290748596,0.018870729953050613,-0.012946704402565956,-0.14094561338424683
1678916795.27918005,133700406,2,0.9897329807281494,0.018916388973593712,-0.01292867586016655,-0.1410801112651825
1678916795.37917209,133800398,2,0.9897429943084717,0.01881362311542034,-0.01299363560974598,-0.1410176306962967
1678916795.47917891,133900405,2,0.9896907210350037,0.01886841654777527,-0.01299537718296051,-0.14137659966945648
1678916795.57917690,134000403,2,0.9896679520606995,0.018733227625489235,-0.012993326410651207,-0.14155423641204834
1678916795.67922401,134100450,2,0.989669919013977,0.01883813925087452,-0.013037342578172684,-0.14152228832244873
1678916795.77921796,134200444,2,0.9896217584609985,0.01875760406255722,-0.01307451818138361,-0.14186620712280273
1678916795.87918305,134300409,2,0.9894666075706482,0.01897338032722473,-0.012680530548095703,-0.14295125007629395
1678916795.97926593,134400492,2,0.9895346760749817,0.018720800057053566,-0.01242540217936039,-0.14253517985343933
1678916796.07919502,134500421,2,0.9896620512008667,0.01792248897254467,-0.012247303500771523,-0.1417667418718338
1678916796.17916608,134600392,2,0.9898673295974731,0.0161113403737545,-0.008866198360919952,-0.14079949259757996
1678916796.27917504,134700401,2,0.9895651936531067,0.017137888818979263,-0.003355026710778475,-0.14302361011505127
1678916796.37916803,134800394,2,0.9885609745979309,0.0205195602029562,0.002054516924545169,-0.14940515160560608
1678916796.47916698,134900393,2,0.9870172142982483,0.0207060556858778,0.007568658795207739,-0.15909422934055328
1678916796.57920289,135000429,2,0.9848425388336182,0.017321962863206863,0.01220039650797844,-0.17215201258659363
1678916796.67921209,135100438,2,0.982307493686676,0.015244907699525356,0.015280473977327347,-0.18602702021598816
1678916796.77925897,135200485,2,0.9797905087471008,0.016778413206338882,0.017413459718227386,-0.19855943322181702
1678916796.87925291,135300479,2,0.9777390360832214,0.015162105672061443,0.019533203914761543,-0.20836247503757477
1678916796.97919989,135400426,2,0.9762643575668335,0.008665505796670914,0.021187715232372284,-0.21536915004253387
1678916797.07917404,135500400,2,0.9752572178840637,0.00042934794328175485,0.021619796752929688,-0.22001297771930695
1678916797.17916989,135600396,2,0.9745172262191772,-0.002842800924554467,0.020297039300203323,-0.2233743518590927
1678916797.27917099,135700397,2,0.974315881729126,-0.004708908032625914,0.018569273874163628,-0.22436931729316711
1678916797.37916994,135800396,2,0.9744662642478943,-0.007368186023086309,0.015956733375787735,-0.22384494543075562
1678916797.47918296,135900409,2,0.9752551317214966,-0.006350833922624588,0.0107406722381711,-0.22073011100292206
1678916797.57921195,136000438,2,0.9764005541801453,-0.002841489389538765,0.005596901755779982,-0.21587638556957245
1678916797.67923498,136100461,2,0.9772239327430725,-0.003977816551923752,0.0014770730631425977,-0.21216826140880585
1678916797.77926302,136200489,2,0.9775816798210144,0.00025546003598719835,-0.0028889363165944815,-0.21053656935691833
1678916797.87919688,136300423,2,0.9773985147476196,0.003944509197026491,-0.006611428689211607,-0.21126481890678406
1678916797.97918487,136400411,2,0.9771050810813904,0.005324741825461388,-0.007583132479339838,-0.21255549788475037
1678916798.07917500,136500401,2,0.9769012331962585,0.007481715176254511,-0.00784046296030283,-0.21341632306575775
1678916798.17917609,136600402,2,0.9769672155380249,0.0072653815150260925,-0.006984147243201733,-0.21315130591392517
1678916798.27917409,136700400,2,0.9771111607551575,0.00882361363619566,-0.00826924666762352,-0.21238531172275543
1678916798.37921906,136800445,2,0.9772023558616638,0.007915223017334938,-0.010016541928052902,-0.21192596852779388
1678916853.47918296,191900409,2,0.9814267754554749,0.008994635194540024,-0.012938332743942738,-0.19118887186050415
1678916853.57924986,192000476,2,0.9814361333847046,0.008948917500674725,-0.01295192539691925,-0.1911420375108719
1678916853.67921305,192100439,2,0.9814608693122864,0.008994734846055508,-0.012955556623637676,-0.19101248681545258
1678916853.77916908,192200395,2,0.9814674854278564,0.00895886030048132,-0.012979203835129738,-0.19097855687141418
1678916853.87916994,192300396,2,0.9814724922180176,0.008990208618342876,-0.013043143786489964,-0.19094710052013397
1678916853.97917295,192400399,2,0.9815160036087036,0.008971286937594414,-0.012999042868614197,-0.19072715938091278
1678916854.07917094,192500397,2,0.981519341468811,0.009041856043040752,-0.01302789431065321,-0.19070476293563843
1678916854.17917991,192600406,2,0.9815370440483093,0.009014387615025043,-0.013000679202377796,-0.19061678647994995
1678916854.27921605,192700442,2,0.9815688133239746,0.009003286249935627,-0.01307132188230753,-0.19044886529445648
1678916854.37918591,192800412,2,0.9815800786018372,0.008994681760668755,-0.013058585114777088,-0.1903919130563736
1678916854.47924089,192900467,2,0.9815866351127625,0.00899494532495737,-0.013044157065451145,-0.19035905599594116
1678916854.57920694,193000433,2,0.9816198945045471,0.009042933583259583,-0.013025478459894657,-0.19018669426441193
1678916854.67917490,193100401,2,0.9816431403160095,0.009032761678099632,-0.013030587695538998,-0.19006671011447906
1678916854.77917409,193200400,2,0.9816364049911499,0.00903111882507801,-0.013048154301941395,-0.19010038673877716
1678916854.87917089,193300397,2,0.9816621541976929,0.009021906182169914,-0.013062218204140663,-0.18996696174144745
1678916854.97917199,193400398,2,0.9816877245903015,0.009030665270984173,-0.013044564984738827,-0.18983544409275055
1678916855.07920694,193500433,2,0.9816831350326538,0.00905463844537735,-0.013042835518717766,-0.1898583173751831
1678916855.17921400,193600440,2,0.9817001223564148,0.009064186364412308,-0.013022181577980518,-0.18977132439613342
1678916855.27918601,193700412,2,0.9817219376564026,0.009029709734022617,-0.013005885295569897,-0.18966105580329895
1678916855.37925100,193800477,2,0.9817226529121399,0.009075096808373928,-0.013001678511500359,-0.18965567648410797
1678916855.47920108,193900427,2,0.9817343354225159,0.00904316920787096,-0.012969090603291988,-0.18959888815879822
1678916855.57918501,194000411,2,0.981753945350647,0.009034146554768085,-0.013001716695725918,-0.18949547410011292
1678916855.67919087,194100417,2,0.9817534685134888,0.008962800726294518,-0.012992381118237972,-0.18950198590755463
1678916855.77917290,194200399,2,0.9817573428153992,0.008982514962553978,-0.013026333414018154,-0.18947865068912506
1678916855.87917304,194300399,2,0.9817826747894287,0.008967327885329723,-0.0130084790289402,-0.18934935331344604
1678916855.97919488,194400421,2,0.9817892909049988,0.00893416441977024,-0.013009731657803059,-0.18931642174720764
1678916856.07921886,194500445,2,0.9817863702774048,0.00897252094000578,-0.01298134308308363,-0.18933163583278656
1678916856.17924309,194600469,2,0.9818097949028015,0.008972587063908577,-0.012958373874425888,-0.1892118602991104
1678916856.27926803,194700494,2,0.9817939400672913,0.008974169380962849,-0.01294818613678217,-0.18929463624954224
1678916856.37920690,194800433,2,0.9817696213722229,0.008947390131652355,-0.012927938252687454,-0.18942324817180634
1678916856.47917509,194900401,2,0.9818150401115417,0.00875201728194952,-0.01289318222552538,-0.18919925391674042
1678916856.57917905,195000405,2,0.9818249940872192,0.008694757707417011,-0.012811406515538692,-0.18915574252605438
1678916856.67918801,195100414,2,0.9817814826965332,0.008662442676723003,-0.012822498567402363,-0.18938221037387848
1678916856.77917886,195200405,2,0.9817978739738464,0.008372236974537373,-0.012250354513525963,-0.18934820592403412
1678916856.87920189,195300428,2,0.9818979501724243,0.008108234032988548,-0.011551937088370323,-0.1888842135667801
1678916856.97923493,195400461,2,0.9818208813667297,0.008375572971999645,-0.011435362510383129,-0.18927985429763794
1678916857.07925105,195500477,2,0.9818198680877686,0.007741803769022226,-0.011587442830204964,-0.18930265307426453
1678916857.17924500,195600471,2,0.9819388389587402,0.008050712756812572,-0.011628730222582817,-0.18866920471191406
1678916857.27920699,195700433,2,0.9819285869598389,0.007887712679803371,-0.011481685563921928,-0.18873833119869232
1678916857.37918901,195800415,2,0.9819352030754089,0.007896862924098969,-0.011799466796219349,-0.1886841058731079
1678916857.47917509,195900401,2,0.9820522665977478,0.007975801825523376,-0.011846331879496574,-0.18806758522987366
1678916857.57918596,196000412,2,0.9820621609687805,0.007914739660918713,-0.011652574874460697,-0.1880306601524353
1678916857.67918587,196100412,2,0.9820600748062134,0.008089969865977764,-0.011534729972481728,-0.18804135918617249
1678916857.77919197,196200418,2,0.9821317195892334,0.008422496728599072,-0.011736809276044369,-0.18763945996761322
1678916857.87921691,196300443,2,0.9821406006813049,0.008543208241462708,-0.011555114760994911,-0.18759876489639282
1678916857.97925305,196400479,2,0.9821306467056274,0.008762011304497719,-0.011240783147513866,-0.18765993416309357
1678916858.07924604,196500472,2,0.982201099395752,0.00867480132728815,-0.011249704286456108,-0.18729454278945923
1678916858.17920494,196600431,2,0.9821797609329224,0.008441383019089699,-0.011545856483280659,-0.18739885091781616
1678916858.27918792,196700414,2,0.9822160005569458,0.008361398242413998,-0.011681873351335526,-0.18720406293869019
1678916858.37918591,196800412,2,0.9822851419448853,0.008474177680909634,-0.011785508133471012,-0.1868293732404709
1678916858.47919106,196900417,2,0.9823411107063293,0.009530245326459408,-0.011373856104910374,-0.18650925159454346
1678916858.57917786,197000404,2,0.9824489951133728,0.009005635976791382,-0.01026325672864914,-0.18603093922138214
1678916858.67918706,197100413,2,0.9826377034187317,0.008768982253968716,-0.0048203538171947,-0.1852646768093109
1678916858.77922106,197200447,2,0.9827467203140259,0.004934995900839567,-0.0009165518567897379,-0.18488818407058716
1678916858.87918401,197300410,2,0.9826714992523193,-0.006672135554254055,-0.00015201375936158001,-0.18523550033569336
1678916858.97925091,197400477,2,0.9822683930397034,-0.024458210915327072,0.003029103158041835,-0.18585330247879028
1678916859.07921195,197500438,2,0.9816790819168091,-0.039000630378723145,0.01100810244679451,-0.18618251383304596
1678916859.17918396,197600410,2,0.9816404581069946,-0.037289008498191833,0.01836203970015049,-0.18615683913230896
1678916859.27919102,197700417,2,0.9822498559951782,-0.01995742693543434,0.018162308260798454,-0.1856260448694229
1678916859.37919593,197800422,2,0.982688307762146,-0.0042887297458946705,0.01129119098186493,-0.18487238883972168
1678916859.47917700,197900403,2,0.9828570485115051,0.004418149124830961,0.003938416019082069,-0.18427430093288422
1678916859.57920694,198000433,2,0.9827974438667297,0.016706157475709915,-0.003193352837115526,-0.18390193581581116
1678916859.67922497,198100451,2,0.24792498350143433,-0.013903479091823101,-0.010707838460803032,0.9686203002929688
1678916859.77924609,198200472,2,0.24076253175735474,-0.006061403546482325,0.008738911710679531,0.9705258011817932
1678916859.87924504,198300471,2,0.22743326425552368,-0.0030727339908480644,0.014858758077025414,0.9736754298210144
1678916859.97920990,198400436,2,0.21347299218177795,-0.005758351180702448,0.009656739421188831,0.9768842458724976
1678916860.07917404,198500400,2,0.20071327686309814,-0.01683834008872509,-0.008463850244879723,0.9794687628746033
1678916860.17917609,198600402,2,0.1890408843755722,-0.02767559513449669,-0.030417267233133316,0.9811077117919922
1678916860.27918291,198700409,2,0.18529120087623596,-0.03220835328102112,-0.038880497217178345,0.9813858270645142
1678916860.37917805,198800404,2,0.18686965107917786,-0.03374170511960983,-0.034945931285619736,0.9811829924583435
1678916860.47920299,198900429,2,0.19650280475616455,-0.0362454317510128,-0.030811846256256104,0.9793485403060913
1678916860.57922101,199000447,2,0.2118057906627655,-0.03926499933004379,-0.02916274406015873,0.9760871529579163
1678916860.67918587,199100412,2,0.23059841990470886,-0.04115990176796913,-0.030513819307088852,0.9716991186141968
1678916860.77925086,199200477,2,0.24876287579536438,-0.04092859849333763,-0.03288302943110466,0.9671404361724854
1678916860.87920594,199300432,2,0.26423850655555725,-0.03813955932855606,-0.03591981530189514,0.9630333185195923
1678916860.97917891,199400405,2,0.27498289942741394,-0.02846328169107437,-0.02958969958126545,0.9605720639228821
1678916861.07917905,199500405,2,0.28009986877441406,-0.016469035297632217,-0.013683535158634186,0.9597320556640625
1678916861.17919898,199600425,2,0.28132185339927673,-0.010141684673726559,0.0011414889013394713,0.9595592021942139
1678916861.27918005,199700406,2,0.27962303161621094,-0.010141391307115555,0.004985755309462547,0.9600433707237244
1678916861.37921786,199800444,2,0.27560216188430786,-0.01645560748875141,-0.0010273546213284135,0.9611303806304932
1678916861.47921896,199900445,2,0.26987916231155396,-0.025785308331251144,-0.009820462204515934,0.9624987840652466
1678916861.57918501,200000411,2,0.26308396458625793,-0.032813165336847305,-0.01462717168033123,0.9641038179397583
1678916861.67925286,200100479,2,0.2559705972671509,-0.03474259749054909,-0.015379073098301888,0.965937614440918
1678916861.77920699,200200433,2,0.2493169754743576,-0.03068738803267479,-0.007506947964429855,0.9679064750671387
1678916861.87918496,200300411,2,0.24351128935813904,-0.02316645346581936,0.0019589217845350504,0.9696193933486938
1678916861.97918606,200400412,2,0.23933544754981995,-0.018374072387814522,0.006791053339838982,0.9707393050193787
1678916862.07918501,200500411,2,0.2363554686307907,-0.01987053081393242,0.009283776395022869,0.971419095993042
1678916862.17918086,200600407,2,0.23452822864055634,-0.027595296502113342,0.010910788550972939,0.971656322479248
1678916862.27920508,200700431,2,0.2336694449186325,-0.035538822412490845,0.00989930983632803,0.9716159701347351
1678916862.37922096,200800447,2,0.2329961657524109,-0.03877042606472969,0.007544198539108038,0.9716752171516418
1678916862.47923493,200900461,2,0.23234710097312927,-0.03760925307869911,0.004245951306074858,0.971896231174469
1678916862.57924604,201000472,2,0.23166997730731964,-0.030695190653204918,0.0016810272354632616,0.9723085761070251
1678916862.67920589,201100432,2,0.23099292814731598,-0.018395543098449707,-0.00045820995001122355,0.9727814197540283
1678916862.77918386,201200410,2,0.23067834973335266,-0.007700882386416197,-0.0009861071594059467,0.972999095916748
1678916862.87918591,201300412,2,0.23053734004497528,-0.0018605201039463282,0.003251374699175358,0.9730562567710876
1678916862.97920299,201400429,2,0.23060782253742218,-0.0008080591214820743,0.012260054238140583,0.9729692339897156
1678916863.07917905,201500405,2,0.23045073449611664,-0.005884189624339342,0.018412400037050247,0.9728919863700867
1678916863.17920494,201600431,2,0.22905053198337555,-0.014604244381189346,0.021437978371977806,0.9730688333511353
1678916863.27922702,201700453,2,0.22563081979751587,-0.020939359441399574,0.02237621881067753,0.973730742931366
1678916863.37918687,201800413,2,0.2206253558397293,-0.025894062593579292,0.0199793241918087,0.9748101234436035
1678916863.47924590,201900472,2,0.2140224426984787,-0.03138212487101555,0.01711183972656727,0.976174533367157
1678916863.57920504,202000431,2,0.20542140305042267,-0.03703751042485237,0.01551318820565939,0.9778494834899902
1678916863.67918706,202100413,2,0.19669075310230255,-0.040345776826143265,0.011691330932080746,0.9795653820037842
1678916863.77919102,202200417,2,0.18910348415374756,-0.039780259132385254,0.00653134286403656,0.9811293482780457
1678916863.87918591,202300412,2,0.18316242098808289,-0.03181326016783714,0.005852977745234966,0.982550323009491
1678916863.97917795,202400404,2,0.1776193231344223,-0.02379789762198925,0.006603898946195841,0.983789324760437
1678916864.07920790,202500434,2,0.17287731170654297,-0.02645817957818508,0.008756223134696484,0.9845489859580994
1678916864.17922306,202600449,2,0.16927722096443176,-0.031364280730485916,0.018953826278448105,0.9848869442939758
1678916864.27918887,202700415,2,0.16736029088497162,-0.0343095138669014,0.03457809239625931,0.9846916794776917
1678916864.37924790,202800474,2,0.16608840227127075,-0.03688199818134308,0.044668048620224,0.9844080209732056
1678916864.47920704,202900433,2,0.16565582156181335,-0.03694216161966324,0.04742573946714401,0.9843496680259705
1678916864.57918096,203000407,2,0.1652524620294571,-0.036034952849149704,0.04202308878302574,0.9846965074539185
1678916864.67917991,203100406,2,0.16532239317893982,-0.03970680013298988,0.024332555010914803,0.9851394891738892
1678916864.77918386,203200410,2,0.16525337100028992,-0.043468959629535675,0.006233715917915106,0.985273003578186
1678916864.87917590,203300402,2,0.16645528376102448,-0.03964872285723686,-0.006787403952330351,0.9852281808853149
1678916864.97919297,203400419,2,0.16768741607666016,-0.030565323308110237,-0.013228574767708778,0.9852774739265442
1678916865.07922888,203500455,2,0.16967803239822388,-0.018527530133724213,-0.015729380771517754,0.9851998090744019
1678916865.17918801,203600414,2,0.17137715220451355,-0.0038662580773234367,-0.015261965803802013,0.9850797057151794
1678916865.27925587,203700482,2,0.1734381467103958,0.0033580579329282045,-0.01487461756914854,0.9847267270088196
1678916865.37921596,203800442,2,0.1751585155725479,0.0020850941073149443,-0.013434404507279396,0.9844463467597961
1678916865.47917604,203900402,2,0.17688363790512085,-0.005249618552625179,-0.010323416441679,0.9841636419296265
1678916865.57917595,204000402,2,0.17754089832305908,-0.020723707973957062,-0.0057388171553611755,0.9838784337043762
1678916865.67918301,204100409,2,0.17783771455287933,-0.03278285637497902,-0.0003642828087322414,0.9835135340690613
1678916865.77917600,204200402,2,0.17754489183425903,-0.038872987031936646,0.00249506370164454,0.9833415150642395
1678916865.87919688,204300423,2,0.17608220875263214,-0.04118993505835533,0.0027792146429419518,0.983509361743927
1678916865.97922301,204400449,2,0.17403888702392578,-0.043222811073064804,0.0016617694636806846,0.9837883114814758
1678916866.07926607,204500492,2,0.17145824432373047,-0.04567984119057655,0.00015880042337812483,0.9841318130493164
1678916866.17927194,204600498,2,0.16879630088806152,-0.047285109758377075,-0.0010972496820613742,0.9845154881477356
1678916866.27921009,204700436,2,0.16612961888313293,-0.04514802247285843,-0.0006267986609600484,0.9850696325302124
1678916866.37918687,204800413,2,0.16376893222332,-0.039284203201532364,0.0004549082077573985,0.9857161045074463
1678916866.47917604,204900402,2,0.1616702675819397,-0.02949337661266327,0.00032481877133250237,0.9864039421081543
1678916866.57917786,205000404,2,0.1600954681634903,-0.01927819661796093,0.0001824625942390412,0.98691326379776
1678916866.67917895,205100405,2,0.15908050537109375,-0.013349218294024467,0.0005291852867230773,0.9871752262115479
1678916866.77920794,205200434,2,0.15827545523643494,-0.01387543324381113,-0.00019192880426999182,0.9872974753379822
1678916866.87922287,205300449,2,0.15785911679267883,-0.02132442221045494,-0.0018770808819681406,0.987229585647583
1678916866.97924709,205400473,2,0.1579105257987976,-0.028540248051285744,-0.002955203177407384,0.9870364665985107
1678916867.07926393,205500490,2,0.15860968828201294,-0.02823769487440586,-0.006168813444674015,0.9869182109832764
1678916867.17920494,205600431,2,0.15986596047878265,-0.026508089154958725,-0.012240533716976643,0.9867068529129028
1678916867.27918005,205700406,2,0.16166093945503235,-0.025775210931897163,-0.021732104942202568,0.9862703084945679
1678916867.37918305,205800409,2,0.16430163383483887,-0.027272138744592667,-0.030537068843841553,0.9855601191520691
1678916867.47918105,205900407,2,0.1676781326532364,-0.030581442639231682,-0.03552427142858505,0.9847267866134644
1678916867.57917500,206000401,2,0.1714218705892563,-0.03332114592194557,-0.035292766988277435,0.9840013384819031
