timestamp,TimeUS,C,Roll,Pitch,Yaw,VN,VE,VD,dPD,PN,PE,PD,GX,GY,GZ,OH
1678916759.97926092,98400487,2,1.35,0.02,335.91,-0.05208466947078705,-0.024868471547961235,0.03329145908355713,0.037168171256780624,1.3189027309417725,0.8527451753616333,-1.4471765756607056,-0.16,0.08,0.08,275.49
1678916760.07920289,98500429,2,1.35,0.02,335.90000000000003,-0.05099770426750183,-0.02431226335465908,0.03373689204454422,0.024230889976024628,1.318211317062378,0.8539662957191467,-1.4447877407073975,-0.16,0.09,0.08,275.49
1678916760.17917299,98600399,2,1.35,0.02,335.89,-0.052944984287023544,-0.02443252131342888,0.034182846546173096,0.01641462929546833,1.3168286085128784,0.8547709584236145,-1.4428678750991821,-0.16,0.09,0.08,275.49
1678916760.27917695,98700403,2,1.36,0.02,335.89,-0.05118477717041969,-0.022024651989340782,0.036194782704114914,0.029724672436714172,1.3165273666381836,0.8565508127212524,-1.4393190145492554,-0.16,0.09,0.08,275.49
1678916760.37917399,98800400,2,1.35,0.02,335.88,-0.04937058687210083,-0.022415345534682274,0.03791414201259613,0.04338502511382103,1.315840482711792,0.8578872680664062,-1.4351332187652588,-0.16,0.09,0.08,275.49
1678916760.47916889,98900395,2,1.36,0.02,335.87,-0.04924240708351135,-0.019746465608477592,0.03982860967516899,0.06473769247531891,1.3147766590118408,0.8605483770370483,-1.428698182106018,-0.17,0.09,0.08,275.49
1678916760.57918406,99000410,2,1.35,0.02,335.87,-0.04896147549152374,-0.01574644446372986,0.04161714389920235,0.07075319439172745,1.3128350973129272,0.8630799055099487,-1.4225717782974243,-0.16,0.09,0.08,275.49
1678916760.67921305,99100439,2,1.36,0.02,335.85,-0.04424382001161575,-0.015998996794223785,0.043637458235025406,0.06114456057548523,1.312733769416809,0.8659786581993103,-1.4170912504196167,-0.17,0.09,0.08,275.49
1678916760.77917695,99200403,2,1.35,0.01,335.84000000000003,-0.041670963168144226,-0.01367951463907957,0.044458527117967606,0.047242507338523865,1.3118619918823242,0.8677813410758972,-1.4125868082046509,-0.16,0.09,0.08,275.49
1678916760.87924290,99300469,2,1.35,0.02,335.83,-0.037364598363637924,-0.016401519998908043,0.045657239854335785,0.037122324109077454,1.3129615783691406,0.8688739538192749,-1.4086382389068604,-0.16,0.09,0.08,275.49
1678916760.97919893,99400425,2,1.35,0.01,335.83,-0.030237549915909767,-0.01629139855504036,0.045858465135097504,0.03093326836824417,1.3143318891525269,0.8688918352127075,-1.4052342176437378,-0.16,0.09,0.08,275.49
1678916761.07916903,99500395,2,1.35,0.01,335.83,-0.025525322183966637,-0.017442015931010246,0.04587395116686821,0.016565142199397087,1.3159700632095337,0.8698002696037292,-1.4033620357513428,-0.17,0.09,0.08,275.49
1678916761.17917991,99600406,2,1.36,0.01,335.84000000000003,-0.021734001114964485,-0.01611929200589657,0.046071335673332214,0.006134035065770149,1.3172093629837036,0.8702026009559631,-1.4020787477493286,-0.17,0.09,0.08,275.49
1678916761.27917004,99700396,2,1.35,0.02,335.84000000000003,-0.016782069578766823,-0.014728004112839699,0.04659077525138855,0.0034171557053923607,1.3190569877624512,0.8717389702796936,-1.4011566638946533,-0.17,0.09,0.08,275.49
1678916761.37917304,99800399,2,1.36,0.02,335.83,-0.013413233682513237,-0.01356397196650505,0.04752635210752487,0.005901525262743235,1.320569634437561,0.872908890247345,-1.4000904560089111,-0.17,0.09,0.08,275.49
1678916761.47917604,99900402,2,1.35,0.02,335.82,-0.010283363983035088,-0.009483824484050274,0.04767075553536415,0.015644170343875885,1.3213984966278076,0.8758103251457214,-1.3980804681777954,-0.17,0.09,0.08,275.49
1678916761.57923293,100000459,2,1.34,0.01,335.82,-0.010229811072349548,-0.008707942441105843,0.047284096479415894,0.017475532367825508,1.3216384649276733,0.8785523176193237,-1.3964838981628418,-0.17,0.09,0.08,275.49
1678916761.67918205,100100408,2,1.35,0.01,335.81,-0.005863903556019068,-0.003137631807476282,0.04636624455451965,-0.006187437102198601,1.3228267431259155,0.8824195265769958,-1.397517442703247,-0.17,0.09,0.08,275.49
1678916761.77923799,100200464,2,1.33,0.02,335.81,-0.002399582415819168,-0.00027087642229162157,0.046073224395513535,-0.019487103447318077,1.3241617679595947,0.8861562013626099,-1.398708462715149,-0.17,0.09,0.08,275.49
1678916761.87920308,100300429,2,1.34,0.02,335.8,9.665558900451288e-05,0.0004827867087442428,0.04612584784626961,-0.012536820024251938,1.3259483575820923,0.8891875147819519,-1.3991973400115967,-0.17,0.09,0.08,275.49
1678916761.97918487,100400411,2,1.33,0.03,335.8,0.004004443529993296,0.002510537626221776,0.04553074762225151,-0.0021031044889241457,1.3277181386947632,0.8915382623672485,-1.3990076780319214,-0.17,0.09,0.08,275.49
1678916762.07918000,100500406,2,1.33,0.03,335.79,0.0035544808488339186,-0.0004851588455494493,0.044650960713624954,0.008141354657709599,1.3280819654464722,0.8932377696037292,-1.3981518745422363,-0.17,0.09,0.08,275.49
1678916762.17918801,100600414,2,1.33,0.03,335.78000000000003,0.005019048228859901,-0.00036805332638323307,0.04433717951178551,0.00858301017433405,1.3281735181808472,0.8939754962921143,-1.3975460529327393,-0.17,0.09,0.08,275.49
1678916762.27917790,100700404,2,1.32,0.03,335.78000000000003,0.0052153137512505054,-0.002080219332128763,0.04263848066329956,-0.024785272777080536,1.3285096883773804,0.8956893086433411,-1.4007751941680908,-0.17,0.09,0.08,275.49
1678916762.37920308,100800429,2,1.33,0.03,335.78000000000003,0.0057249516248703,-6.406387547031045e-05,0.042100854218006134,-0.044860005378723145,1.3286685943603516,0.8970386981964111,-1.4042965173721313,-0.17,0.09,0.08,275.49
1678916762.47921705,100900443,2,1.31,0.03,335.77,0.005147718358784914,-0.0011370202992111444,0.040973227471113205,-0.03914397582411766,1.328545331954956,0.898932158946991,-1.4072396755218506,-0.17,0.09,0.08,275.49
1678916762.57925200,101000478,2,1.32,0.02,335.77,0.004258353728801012,-0.0010511877480894327,0.03980538621544838,-0.03141295909881592,1.3281199932098389,0.9002010822296143,-1.4098800420761108,-0.17,0.09,0.08,275.49
1678916762.67925501,101100481,2,1.31,0.03,335.76,0.00473079364746809,0.0019954827148467302,0.039098091423511505,-0.04649750888347626,1.3276177644729614,0.9025263786315918,-1.4147869348526,-0.17,0.09,0.08,275.49
1678916762.77920389,101200430,2,1.31,0.03,335.75,0.003597334958612919,0.0014374967431649566,0.03842836990952492,-0.05257491394877434,1.3270554542541504,0.9045534133911133,-1.4191908836364746,-0.17,0.09,0.08,275.49
1678916762.87918806,101300414,2,1.31,0.03,335.74,0.0005131501820869744,0.00048701665946282446,0.03747280687093735,-0.02217225171625614,1.3251698017120361,0.9059582352638245,-1.4204039573669434,-0.17,0.09,0.08,275.49
1678916762.97919202,101400418,2,1.31,0.04,335.75,0.0011151805520057678,0.0007965055992826819,0.038543108850717545,0.002373405499383807,1.3229691982269287,0.9067022800445557,-1.420732021331787,-0.17,0.09,0.08,275.49
1678916763.07918406,101500410,2,1.3,0.03,335.73,0.0018947728676721454,0.0015690571162849665,0.04020236060023308,0.028812531381845474,1.3199249505996704,0.9077491760253906,-1.418221354484558,-0.17,0.09,0.08,275.49
1678916763.17917991,101600406,2,1.3,0.02,335.72,-0.00794990360736847,-0.00464834226295352,0.04241745546460152,0.03971147909760475,1.3166197538375854,0.9084274172782898,-1.4157549142837524,-0.17,0.09,0.08,275.49
1678916763.27921200,101700438,2,1.3,0.02,335.72,-0.008140246383845806,-0.009848586283624172,0.043970540165901184,0.007301014848053455,1.3141497373580933,0.908916711807251,-1.4167510271072388,-0.17,0.09,0.08,275.49
1678916763.37923288,101800459,2,1.21,0.07,335.69,-0.019088642671704292,-0.014370763674378395,0.04942120611667633,-0.0019150616135448217,1.3114612102508545,0.9086840748786926,-1.4173495769500732,-0.17,0.09,0.08,275.49
1678916763.47918606,101900412,2,1.24,0.08,335.69,-0.016062159091234207,0.01471295952796936,0.043172355741262436,0.009735587053000927,1.3093451261520386,0.9097059369087219,-1.4154584407806396,-0.17,0.09,0.08,275.49
1678916763.57927990,102000506,2,1.22,0.09,335.66,-0.015045112930238247,0.007119988091289997,0.04375374689698219,0.02143535017967224,1.308436632156372,0.910708487033844,-1.4136805534362793,-0.17,0.09,0.08,275.49
1678916763.67921400,102100440,2,1.24,0.07,335.65000000000003,-0.025736544281244278,-0.01234997808933258,0.031028663739562035,-0.01705700345337391,1.3091140985488892,0.9104297757148743,-1.4148766994476318,-0.17,0.09,0.08,275.49
1678916763.77918291,102200409,2,1.29,0.07,335.64,-0.0036406596191227436,0.004077952820807695,0.042134325951337814,-0.02134622447192669,1.3095818758010864,0.9097347259521484,-1.4160935878753662,-0.17,0.09,0.08,275.49
1678916763.87918806,102300414,2,1.26,0.08,335.61,-0.009281209670007229,-0.00952815730124712,0.056739650666713715,0.0005155568360351026,1.3097485303878784,0.9109151363372803,-1.416556477546692,-0.17,0.09,0.08,275.49
1678916763.97919703,102400423,2,1.25,0.17,335.59000000000003,-0.021898427978157997,0.00477880472317338,0.03993184119462967,-0.006114535965025425,1.3089083433151245,0.9123378396034241,-1.4166394472122192,-0.17,0.09,0.08,275.49
1678916764.07918906,102500415,2,1.23,0.21,335.61,-0.011571511626243591,0.013593402691185474,0.04176461324095726,-0.021491872146725655,1.3057156801223755,0.9136247038841248,-1.419376015663147,-0.17,0.09,0.08,275.49
1678916764.17921090,102600437,2,1.2,0.14,335.58,-0.003332895925268531,-0.0011669506784528494,0.03251861780881882,-0.0402049757540226,1.3045427799224854,0.913974404335022,-1.421904444694519,-0.17,0.09,0.08,275.49
1678916764.27922487,102700451,2,1.21,0.08,335.61,-0.022194160148501396,0.006354191340506077,0.033859431743621826,-0.04801265150308609,1.3047486543655396,0.9159873723983765,-1.4260826110839844,-0.17,0.09,0.08,275.49
1678916764.37918305,102800409,2,1.22,0.12,335.6,-0.02881198562681675,0.0005580665310844779,0.043427105993032455,-0.04463835805654526,1.3027338981628418,0.9182418584823608,-1.4303909540176392,-0.17,0.09,0.08,275.49
1678916764.47925401,102900480,2,1.21,0.14,335.61,-0.01813044212758541,0.0067830560728907585,0.04035478085279465,-0.05324188619852066,1.3009015321731567,0.9201800227165222,-1.4355599880218506,-0.17,0.09,0.08,275.49
1678916764.57921290,103000439,2,1.1500000000000001,0.15,335.6,-0.01581769436597824,0.005435790400952101,0.034850798547267914,-0.05324432998895645,1.3005257844924927,0.9218001961708069,-1.4401966333389282,-0.17,0.09,0.08,275.49
1678916764.67917800,103100404,2,1.18,0.16,335.61,-0.03670063614845276,-0.0019200657261535525,0.036456868052482605,-0.010117403231561184,1.2999744415283203,0.92168790102005,-1.4401286840438843,-0.17,0.09,0.08,275.49
1678916764.77917600,103200402,2,1.19,0.19,335.57,-0.03687768429517746,-0.005197092425078154,0.03744203597307205,0.00520910881459713,1.2974413633346558,0.9216256737709045,-1.4410254955291748,-0.17,0.09,0.08,275.49
1678916764.87918496,103300411,2,0.88,0.21,335.59000000000003,0.00142611563205719,0.005540051963180304,0.02394489012658596,-0.037508804351091385,1.2971796989440918,0.9228028059005737,-1.4454293251037598,-0.17,0.09,0.08,275.49
1678916764.97918892,103400415,2,1.02,0.1,335.56,-0.000437098991824314,-0.025823364034295082,0.028109045699238777,-0.04651404172182083,1.297526478767395,0.9216353297233582,-1.449486494064331,-0.17,0.09,0.08,275.49
1678916765.07919097,103500417,2,1.0,0.0,335.47,-0.012984917499125004,-0.017674211412668228,0.011223708279430866,-0.06284253299236298,1.299761414527893,0.9217678904533386,-1.4553248882293701,-0.17,0.09,0.08,275.49
1678916765.17922592,103600452,2,0.68,-0.11,335.24,0.016945678740739822,-0.01635655388236046,-0.1298626959323883,-0.19569788873195648,1.301534652709961,0.9214058518409729,-1.4664376974105835,-0.17,0.09,0.08,275.49
1678916765.27918506,103700411,2,-0.12,-0.27,334.83,0.053424444049596786,-0.02839345484972,-0.43708792328834534,-0.4972653090953827,1.3070536851882935,0.9216575026512146,-1.4998990297317505,-0.17,0.09,0.08,275.49
1678916765.37925005,103800476,2,-1.06,-0.5,334.37,0.09566549956798553,-0.027540115639567375,-0.5849525332450867,-0.6414821743965149,1.3161739110946655,0.9205887317657471,-1.5565989017486572,-0.17,0.09,0.09,275.49
1678916765.47920489,103900431,2,-1.9000000000000001,-0.15,333.84000000000003,0.12421683222055435,-0.05689689517021179,-0.5834535360336304,-0.7634320855140686,1.3304460048675537,0.9184399247169495,-1.635683536529541,-0.17,0.09,0.09,275.49
1678916765.57919002,104000416,2,-2.16,1.55,333.36,0.12471931427717209,-0.059664446860551834,-0.5730230212211609,-0.7751110792160034,1.345691204071045,0.9141337275505066,-1.7093658447265625,-0.17,0.09,0.09,275.49
1678916765.67917991,104100406,2,-1.94,3.5700000000000003,333.01,0.13010813295841217,-0.06813634186983109,-0.4841470420360565,-0.5855169892311096,1.3599406480789185,0.9089733362197876,-1.7686718702316284,-0.17,0.09,0.09,275.49
1678916765.77919388,104200420,2,-2.12,3.84,332.75,0.09401199221611023,-0.07937473803758621,-0.4284379482269287,-0.45067209005355835,1.3721297979354858,0.9021643996238708,-1.817219614982605,-0.17,0.09,0.09,275.49
1678916765.87917900,104300405,2,-2.17,3.0,332.55,0.08809004724025726,-0.08320336788892746,-0.3316725790500641,-0.3085698187351227,1.3819050788879395,0.8952228426933289,-1.8544727563858032,-0.17,0.09,0.09,275.49
1678916765.97919989,104400426,2,-1.1,1.6500000000000001,332.44,0.0862254798412323,-0.08303823322057724,-0.2704768180847168,-0.2404441088438034,1.3907415866851807,0.887900173664093,-1.8839597702026367,-0.17,0.09,0.1,275.49
1678916766.07921696,104500443,2,0.18,0.61,332.54,0.10203554481267929,-0.08154256641864777,-0.20556555688381195,-0.13883109390735626,1.4020066261291504,0.8827593326568604,-1.902920126914978,-0.17,0.09,0.1,275.49
1678916766.17918706,104600413,2,1.02,0.22,332.78000000000003,0.14252886176109314,-0.08226272463798523,-0.15349867939949036,-0.09858985990285873,1.4159348011016846,0.8777391910552979,-1.9208753108978271,-0.17,0.09,0.1,275.49
1678916766.27925587,104700482,2,1.34,0.02,333.01,0.20420856773853302,-0.05097084119915962,-0.12744306027889252,-0.08003350347280502,1.4384747743606567,0.8786693811416626,-1.9322909116744995,-0.17,0.09,0.1,275.49
1678916766.37920499,104800431,2,1.21,0.06,333.18,0.2659955620765686,-0.022746751084923744,-0.10362978279590607,-0.06452645361423492,1.4668203592300415,0.881725013256073,-1.9406195878982544,-0.17,0.09,0.11,275.49
1678916766.47917604,104900402,2,0.54,0.18,333.35,0.3266221284866333,0.0010513130109757185,-0.10293926298618317,-0.053621385246515274,1.5010846853256226,0.8892179727554321,-1.9451524019241333,-0.17,0.09,0.11,275.49
1678916766.57918501,105000411,2,-0.26,0.39,333.52,0.3673262596130371,0.018580952659249306,-0.08358995616436005,-0.037585947662591934,1.5396554470062256,0.897062361240387,-1.9481903314590454,-0.17,0.09,0.11,275.49
1678916766.67917800,105100404,2,-0.72,1.17,333.74,0.3918714225292206,0.02921844646334648,0.01843055710196495,0.061491917818784714,1.5817581415176392,0.9092544913291931,-1.9469302892684937,-0.17,0.09,0.11,275.49
1678916766.77917504,105200401,2,-1.03,1.94,334.0,0.4211314618587494,0.024851512163877487,0.039710357785224915,0.07579722255468369,1.6259560585021973,0.9209034442901611,-1.9428449869155884,-0.17,0.09,0.12,275.49
1678916766.87920690,105300433,2,-1.8,2.04,334.26,0.4151116907596588,0.015415986999869347,0.022642899304628372,0.0935874730348587,1.6692498922348022,0.9351072311401367,-1.9305431842803955,-0.17,0.09,0.12,275.49
1678916766.97922206,105400448,2,-2.71,2.32,334.53000000000003,0.40699833631515503,0.024836143478751183,0.04501659423112869,0.13095800578594208,1.7114036083221436,0.9472787976264954,-1.9173122644424438,-0.17,0.09,0.12,275.49
1678916767.07918286,105500409,2,-3.61,2.72,334.84000000000003,0.3865910470485687,0.0018629974219948053,0.08470222353935242,0.1158210039138794,1.7518198490142822,0.9602768421173096,-1.9070487022399902,-0.17,0.09,0.12,275.49
1678916767.17925191,105600478,2,-4.51,3.17,335.25,0.34736815094947815,-0.034205686300992966,0.0803237333893776,0.06075955554842949,1.7890242338180542,0.9686733484268188,-1.896488070487976,-0.17,0.09,0.12,275.49
1678916767.27921009,105700436,2,-4.74,3.81,335.66,0.3095034658908844,-0.06345323473215103,0.093800388276577,0.04950622469186783,1.8200877904891968,0.9754381775856018,-1.8880608081817627,-0.17,0.09,0.12,275.49
1678916767.37918591,105800412,2,-4.0600000000000005,3.97,336.12,0.2574118375778198,-0.09101751446723938,0.07945417612791061,0.03585289418697357,1.8461458683013916,0.9770931005477905,-1.8802911043167114,-0.17,0.09,0.12,275.49
1678916767.47918487,105900411,2,-3.47,3.96,336.6,0.219473198056221,-0.1198330894112587,0.11255532503128052,0.07861727476119995,1.8675016164779663,0.9763475656509399,-1.8736237287521362,-0.17,0.09,0.12,275.49
1678916767.57919502,106000421,2,-2.86,3.79,337.1,0.16673004627227783,-0.14911016821861267,0.07217970490455627,0.04949920251965523,1.8845093250274658,0.9717628955841064,-1.8676629066467285,-0.17,0.09,0.12,275.49
1678916767.67917991,106100406,2,-1.75,3.54,337.6,0.13223814964294434,-0.15923473238945007,0.04873582348227501,0.013714944943785667,1.9000999927520752,0.9664666652679443,-1.8658761978149414,-0.17,0.09,0.11,275.49
1678916767.77921796,106200444,2,-0.66,3.43,338.12,0.10758798569440842,-0.13956856727600098,0.00960793811827898,-0.03440854325890541,1.9134132862091064,0.9598117470741272,-1.866588830947876,-0.17,0.09,0.11,275.49
1678916767.87921906,106300445,2,0.07,3.49,338.62,0.11600623279809952,-0.1088804081082344,-0.00309054390527308,-0.06128678470849991,1.928342342376709,0.9555188417434692,-1.872947096824646,-0.17,0.09,0.11,275.49
1678916767.97923398,106400460,2,0.39,3.62,339.05,0.09870371222496033,-0.08398929983377457,-0.06184588745236397,-0.12488316744565964,1.942550778388977,0.9520968794822693,-1.8816276788711548,-0.17,0.09,0.1,275.49
1678916768.07924604,106500472,2,0.43,4.37,339.26,0.07550665736198425,-0.04566407948732376,-0.06652108579874039,-0.14566604793071747,1.9564077854156494,0.9519036412239075,-1.8971229791641235,-0.17,0.09,0.11,275.49
1678916768.17921090,106600437,2,0.42,5.59,339.2,0.04737933725118637,-0.02289475128054619,-0.0978899896144867,-0.18700148165225983,1.96718168258667,0.9536837935447693,-1.914731502532959,-0.17,0.09,0.11,275.49
1678916768.27919006,106700416,2,0.05,6.13,338.84000000000003,0.008562490344047546,0.021467508748173714,-0.09780298173427582,-0.19368170201778412,1.9736231565475464,0.959447979927063,-1.933634638786316,-0.17,0.09,0.1,275.49
1678916768.37918591,106800412,2,-0.24,5.92,338.15000000000003,-0.034773144870996475,0.06106555834412575,-0.11068382114171982,-0.20820342004299164,1.9749481678009033,0.9677624702453613,-1.9527592658996582,-0.17,0.09,0.1,275.49
1678916768.47918987,106900416,2,-0.4,5.05,337.12,-0.07754414528608322,0.08297380059957504,-0.11892630904912949,-0.24128872156143188,1.969525694847107,0.9772325754165649,-1.977221131324768,-0.17,0.09,0.11,275.49
1678916768.57918596,107000412,2,0.04,6.5,157.24,-0.051949866116046906,0.046643249690532684,-0.11425816267728806,-0.24865753948688507,1.9620143175125122,0.9854393005371094,-2.0015251636505127,-0.17,0.09,0.11,275.49
1678916768.67919493,107100421,2,-0.8200000000000001,3.97,156.36,0.030775677412748337,-0.020131591707468033,-0.16537784039974213,-0.31496375799179077,1.9543681144714355,0.9890501499176025,-2.0330867767333984,-0.17,0.09,0.11,275.49
1678916768.77921605,107200442,2,-1.27,2.18,155.75,0.08761459589004517,-0.03777362406253815,-0.2052493542432785,-0.42261093854904175,1.9567229747772217,0.9849308729171753,-2.073594570159912,-0.17,0.09,0.11,275.49
1678916768.87924409,107300470,2,-1.32,1.58,155.15,0.0753127858042717,-0.047836385667324066,-0.2319454550743103,-0.48295295238494873,1.9574912786483765,0.98032546043396,-2.120044708251953,-0.17,0.08,0.11,275.49
1678916768.97924995,107400476,2,-0.9500000000000001,2.2,154.67000000000002,0.03899944946169853,-0.03821266070008278,-0.2851010859012604,-0.518222451210022,1.956586480140686,0.9770411849021912,-2.1650428771972656,-0.17,0.08,0.11,275.49
1678916769.07920408,107500430,2,-0.34,2.92,154.33,0.02114778943359852,-0.04025930538773537,-0.32689225673675537,-0.5290610790252686,1.9470034837722778,0.9768702983856201,-2.212761402130127,-0.17,0.08,0.11,275.49
1678916769.17917895,107600405,2,-0.18,3.27,154.35,-0.018434450030326843,-0.05205315724015236,-0.2503291964530945,-0.46011853218078613,1.9326226711273193,0.9777786731719971,-2.261577844619751,-0.17,0.08,0.11,275.49
1678916769.27918005,107700406,2,-0.49,3.34,154.9,-0.05355696752667427,-0.03894394263625145,-0.31455016136169434,-0.5311451554298401,1.914123296737671,0.9775262475013733,-2.3108386993408203,-0.17,0.09,0.11,275.49
1678916769.37917590,107800402,2,-0.72,2.58,156.04,-0.08334535360336304,-0.05536530911922455,-0.28983914852142334,-0.49537864327430725,1.8927944898605347,0.9746455550193787,-2.358002185821533,-0.17,0.09,0.11,275.49
1678916769.47917604,107900402,2,-0.93,1.58,157.52,-0.10927800834178925,-0.08652295917272568,-0.27797603607177734,-0.40553873777389526,1.873559832572937,0.970878005027771,-2.397819995880127,-0.17,0.09,0.11,275.49
1678916769.57918787,108000414,2,-0.6900000000000001,1.35,159.11,-0.13455314934253693,-0.06889905035495758,-0.28168463706970215,-0.3699624538421631,1.85409414768219,0.9648342132568359,-2.439967632293701,-0.17,0.09,0.11,275.49
1678916769.67922187,108100448,2,-0.2,1.6500000000000001,160.56,-0.16548819839954376,-0.08869381994009018,-0.3140929341316223,-0.4104613959789276,1.8394991159439087,0.9623768329620361,-2.4814453125,-0.17,0.09,0.11,275.49
1678916769.77918291,108200409,2,0.12,1.99,161.72,-0.16656753420829773,-0.09869639575481415,-0.25887587666511536,-0.38346055150032043,1.8251276016235352,0.9589003920555115,-2.5228075981140137,-0.17,0.09,0.11,275.49
1678916769.87925196,108300478,2,-0.01,2.44,162.53,-0.17104117572307587,-0.08856984972953796,-0.2521287798881531,-0.376276433467865,1.8180603981018066,0.9616000056266785,-2.55865216255188,-0.17,0.09,0.11,275.49
1678916769.97921300,108400439,2,-0.1,2.7,163.12,-0.16724856197834015,-0.08800152689218521,-0.23847000300884247,-0.37338343262672424,1.8118361234664917,0.963783860206604,-2.5943448543548584,-0.17,0.09,0.11,275.49
1678916770.07917500,108500401,2,-0.19,2.82,163.51,-0.14666253328323364,-0.0738665759563446,-0.18637311458587646,-0.34979385137557983,1.8186676502227783,0.9736714959144592,-2.6321277618408203,-0.17,0.09,0.11,275.49
1678916770.17917609,108600402,2,-0.12,2.91,163.83,-0.14039412140846252,-0.0730021744966507,-0.25127097964286804,-0.43501242995262146,1.82448410987854,0.9817725419998169,-2.672053813934326,-0.17,0.09,0.11,275.49
1678916770.27919507,108700421,2,-0.32,3.14,164.06,-0.09432779252529144,-0.05163434147834778,-0.2542230784893036,-0.4070586860179901,1.8445807695388794,0.9979052543640137,-2.7098639011383057,-0.17,0.1,0.11,275.49
1678916770.37917495,108800401,2,-0.75,3.96,164.24,-0.04884006828069687,-0.04405084252357483,-0.23965002596378326,-0.3696019947528839,1.8653875589370728,1.0134046077728271,-2.748283863067627,-0.17,0.1,0.11,275.49
1678916770.47919703,108900423,2,-1.22,5.49,164.37,0.008930899202823639,-0.0232372023165226,-0.28855037689208984,-0.43572908639907837,1.8975720405578613,1.0349668264389038,-2.79146409034729,-0.17,0.1,0.11,275.49
1678916770.57922292,109000449,2,-1.45,6.26,164.37,0.07096166163682938,0.005274811293929815,-0.2865097224712372,-0.4640534520149231,1.9314020872116089,1.0552574396133423,-2.8364851474761963,-0.17,0.1,0.11,275.49
1678916770.67918706,109100413,2,-1.41,6.28,164.36,0.1539088487625122,0.0020302715711295605,-0.2679745852947235,-0.43409207463264465,1.973618984222412,1.083534836769104,-2.879594087600708,-0.17,0.1,0.11,275.49
1678916770.77924609,109200472,2,-1.6,6.13,164.29,0.21886366605758667,0.010516469366848469,-0.3134065270423889,-0.46839821338653564,2.0177550315856934,1.109452486038208,-2.9222593307495117,-0.17,0.1,0.11,275.49
1678916770.87921286,109300439,2,-2.24,5.69,164.09,0.28928840160369873,0.05668055638670921,-0.2873009145259857,-0.43250012397766113,2.0621228218078613,1.142418384552002,-2.9615118503570557,-0.17,0.1,0.11,275.49
1678916770.97917700,109400403,2,-3.2800000000000002,5.33,163.66,0.3206697106361389,0.09285980463027954,-0.24434709548950195,-0.38958802819252014,2.1102399826049805,1.1789119243621826,-3.001666784286499,-0.17,0.1,0.11,275.49
1678916771.07918501,109500411,2,-3.81,5.18,163.09,0.37601205706596375,0.1569260060787201,-0.23629489541053772,-0.39213117957115173,2.1530070304870605,1.222132921218872,-3.0413753986358643,-0.17,0.1,0.11,275.49
1678916771.17919803,109600424,2,-3.69,5.28,162.5,0.4002978801727295,0.1983226239681244,-0.18308526277542114,-0.3779066205024719,2.195268154144287,1.266221046447754,-3.081484079360962,-0.17,0.1,0.11,275.49
1678916771.27918100,109700407,2,-3.6,5.42,161.97,0.4357738792896271,0.2404116988182068,-0.13691352307796478,-0.3527463674545288,2.230165719985962,1.3156776428222656,-3.1197588443756104,-0.17,0.1,0.11,275.49
1678916771.37919688,109800423,2,-3.65,5.64,161.41,0.47089308500289917,0.30990320444107056,-0.1628892570734024,-0.39686399698257446,2.265488624572754,1.3646513223648071,-3.1577391624450684,-0.17,0.1,0.11,275.49
1678916771.47921586,109900442,2,-3.94,5.89,160.94,0.4815137982368469,0.31248798966407776,-0.20395295321941376,-0.37830650806427,2.290322780609131,1.411262035369873,-3.186894416809082,-0.17,0.1,0.11,275.49
1678916771.57918501,110000411,2,-4.29,6.24,160.58,0.5094625949859619,0.3638344407081604,-0.13783657550811768,-0.28297099471092224,2.322068929672241,1.4565582275390625,-3.216768980026245,-0.17,0.1,0.11,275.49
1678916771.67925096,110100477,2,-4.57,6.2700000000000005,160.3,0.5389963984489441,0.39050811529159546,-0.07770127803087234,-0.21096904575824738,2.344712018966675,1.496586561203003,-3.2437143325805664,-0.17,0.1,0.11,275.49
1678916771.77920604,110200432,2,-4.98,6.24,160.18,0.5727864503860474,0.4317873418331146,-0.13839788734912872,-0.2622314691543579,2.3715245723724365,1.5357788801193237,-3.270432949066162,-0.17,0.1,0.11,275.49
1678916771.87917590,110300402,2,-4.91,6.07,160.14000000000001,0.6173047423362732,0.46113383769989014,-0.15214088559150696,-0.2701463997364044,2.388503313064575,1.5692211389541626,-3.2982656955718994,-0.17,0.1,0.11,275.49
1678916771.97918797,110400414,2,-4.89,5.87,160.11,0.6330136060714722,0.4850618541240692,-0.201990008354187,-0.32049456238746643,2.4109177589416504,1.6033565998077393,-3.3287160396575928,-0.17,0.1,0.11,275.49
1678916772.07918286,110500409,2,-5.18,5.48,160.16,0.6304477453231812,0.5107231736183167,-0.221175417304039,-0.33068719506263733,2.4208757877349854,1.6292552947998047,-3.3596041202545166,-0.17,0.1,0.11,275.49
1678916772.17917991,110600406,2,-5.16,5.23,160.18,0.6730087399482727,0.5427975058555603,-0.21915622055530548,-0.3265971541404724,2.4365322589874268,1.6569747924804688,-3.393608808517456,-0.17,0.1,0.11,275.49
1678916772.27919197,110700418,2,-5.01,5.19,160.22,0.6615930795669556,0.5438741445541382,-0.3146001398563385,-0.4327564239501953,2.4392521381378174,1.6736749410629272,-3.430039167404175,-0.18,0.1,0.11,275.49
1678916772.37921691,110800443,2,-4.45,5.29,160.21,0.6532918810844421,0.5616667866706848,-0.25486671924591064,-0.36093565821647644,2.4479596614837646,1.6923948526382446,-3.4657530784606934,-0.18,0.1,0.11,275.49
1678916772.47924089,110900467,2,-3.39,5.05,160.28,0.6206583380699158,0.5364896655082703,-0.23407569527626038,-0.3130383789539337,2.4404587745666504,1.6959495544433594,-3.4998748302459717,-0.18,0.1,0.11,275.49
1678916772.57925200,111000478,2,-2.31,4.8,160.36,0.6085110902786255,0.5312008857727051,-0.24164675176143646,-0.32508817315101624,2.438371181488037,1.700920820236206,-3.535665512084961,-0.18,0.1,0.11,275.49
1678916772.67920589,111100432,2,-1.04,4.49,160.48,0.5612903833389282,0.47336453199386597,-0.29721078276634216,-0.37028467655181885,2.419149875640869,1.6884632110595703,-3.5675547122955322,-0.19,0.1,0.11,275.49
1678916772.77917504,111200401,2,-0.22,4.33,160.58,0.5201520323753357,0.4388186037540436,-0.1683865487575531,-0.227304145693779,2.4054293632507324,1.6767915487289429,-3.598635196685791,-0.19,0.1,0.11,275.49
1678916772.87918591,111300412,2,0.13,4.28,160.79,0.4567886292934418,0.3384951651096344,-0.19910210371017456,-0.2302474081516266,2.366522789001465,1.6425524950027466,-3.6247947216033936,-0.19,0.1,0.11,275.49
1678916772.97918701,111400413,2,0.22,4.18,160.95000000000002,0.3883447051048279,0.2969660460948944,-0.13057024776935577,-0.1732470989227295,2.3425471782684326,1.6170868873596191,-3.6503288745880127,-0.19,0.1,0.11,275.49
1678916773.07917500,111500401,2,0.11,4.01,161.20000000000002,0.33891037106513977,0.21453849971294403,-0.2035289704799652,-0.24679891765117645,2.3038904666900635,1.5807838439941406,-3.6730220317840576,-0.2,0.1,0.11,275.49
1678916773.17920303,111600429,2,-0.02,4.1,161.48,0.2951410412788391,0.16094176471233368,-0.17489904165267944,-0.21447868645191193,2.2709686756134033,1.5473506450653076,-3.695420980453491,-0.2,0.1,0.11,275.49
1678916773.27922106,111700447,2,-0.37,4.32,161.77,0.2331657111644745,0.12715446949005127,-0.15691083669662476,-0.17148646712303162,2.227325439453125,1.5093399286270142,-3.711780071258545,-0.2,0.11,0.11,275.49
1678916773.37923598,111800462,2,-0.63,4.48,162.08,0.19468457996845245,0.0733460858464241,-0.1555682122707367,-0.155906543135643,2.1907527446746826,1.4761509895324707,-3.7273497581481934,-0.2,0.11,0.11,275.49
1678916773.47924900,111900475,2,-0.6900000000000001,4.16,162.3,0.14815545082092285,0.03759663924574852,-0.10822586715221405,-0.10250627249479294,2.146766185760498,1.444571614265442,-3.738229274749756,-0.2,0.11,0.11,275.49
1678916773.57921600,112000442,2,-0.55,3.74,162.5,0.11541961133480072,0.018125955015420914,-0.12781040370464325,-0.1251482367515564,2.109889030456543,1.4185383319854736,-3.7504193782806396,-0.2,0.11,0.11,275.49
1678916773.67917991,112100406,2,-0.27,3.58,162.69,0.08588167279958725,0.02343618869781494,-0.12835733592510223,-0.11518345028162003,2.06679368019104,1.3947678804397583,-3.758253335952759,-0.2,0.11,0.11,275.49
1678916773.77917504,112200401,2,-0.14,3.9,162.81,0.04764692857861519,-0.018365472555160522,-0.09875528514385223,-0.0762031152844429,2.0302419662475586,1.3756282329559326,-3.7648868560791016,-0.2,0.11,0.11,275.49
1678916773.87918401,112300410,2,-1.0,4.09,162.84,0.02438816800713539,-0.0013667576713487506,-0.04637083038687706,-0.014871038496494293,1.9850096702575684,1.358463168144226,-3.766737937927246,-0.2,0.11,0.11,275.49
1678916773.97917986,112400406,2,-2.0300000000000002,3.5300000000000002,162.64000000000001,-0.008676419034600258,0.034457992762327194,-0.055014416575431824,-0.019454674795269966,1.9486006498336792,1.3472744226455688,-3.7692105770111084,-0.21,0.11,0.11,275.49
1678916774.07919192,112500418,2,-2.45,2.3000000000000003,162.19,-0.038816019892692566,0.05173618718981743,-0.053149621933698654,-0.023237664252519608,1.906417727470398,1.3383691310882568,-3.77030086517334,-0.21,0.11,0.11,275.49
1678916774.17924094,112600467,2,-2.5300000000000002,1.87,161.53,-0.07642670720815659,0.07512305676937103,-0.08107445389032364,-0.05901206284761429,1.8716017007827759,1.3364063501358032,-3.7719850540161133,-0.21,0.11,0.11,275.49
1678916774.27924609,112700472,2,-2.54,1.93,160.84,-0.11497323215007782,0.11776813119649887,-0.003997242543846369,0.00966332945972681,1.832615852355957,1.3368526697158813,-3.7727339267730713,-0.21,0.11,0.11,275.49
1678916774.37924695,112800473,2,-2.23,2.04,160.22,-0.15314817428588867,0.11856522411108017,-0.06080938130617142,-0.08604449778795242,1.7991994619369507,1.3432163000106812,-3.7786457538604736,-0.21,0.11,0.11,275.49
1678916774.47920990,112900436,2,-1.25,1.9000000000000001,159.66,-0.17077264189720154,0.13663387298583984,0.005685773678123951,-0.03696400299668312,1.7624409198760986,1.3440603017807007,-3.7842681407928467,-0.21,0.11,0.11,275.49
1678916774.57918000,113000406,2,-0.24,1.67,159.17000000000002,-0.20629338920116425,0.1458694487810135,-0.027136074379086494,-0.06347259134054184,1.7288426160812378,1.348578929901123,-3.788037061691284,-0.21,0.11,0.11,275.49
1678916774.67917490,113100401,2,0.38,1.95,158.76,-0.23055188357830048,0.14941342175006866,-0.011385401710867882,-0.01877787709236145,1.695884108543396,1.344185709953308,-3.788698434829712,-0.21,0.11,0.11,275.49
1678916774.77917409,113200400,2,0.78,2.02,158.38,-0.292136013507843,0.13417735695838928,0.0075681754387915134,0.009057680144906044,1.6643563508987427,1.3422152996063232,-3.789797067642212,-0.21,0.11,0.11,275.49
1678916774.87917805,113300404,2,1.2,1.98,158.1,-0.3045690953731537,0.08256608247756958,0.0073264059610664845,0.05071141570806503,1.6348739862442017,1.3296579122543335,-3.785466194152832,-0.21,0.11,0.11,275.49
1678916774.97918391,113400410,2,1.25,2.59,157.97,-0.3409324288368225,0.05156787857413292,0.013640805147588253,0.07489565759897232,1.6058789491653442,1.3185522556304932,-3.7836008071899414,-0.21,0.11,0.11,275.49
1678916775.07922006,113500446,2,1.23,3.04,157.94,-0.33410969376564026,0.0029940472450107336,-0.009451082907617092,0.0470394529402256,1.582292079925537,1.3006330728530884,-3.7801411151885986,-0.21,0.11,0.11,275.49
1678916775.17918587,113600412,2,1.06,3.23,157.95000000000002,-0.36225610971450806,-0.018602361902594566,-0.07021492719650269,-0.016556670889258385,1.5582975149154663,1.2844069004058838,-3.7790300846099854,-0.21,0.11,0.11,275.49
1678916775.27924991,113700476,2,1.0,3.22,157.98,-0.35225534439086914,-0.051030468195676804,-0.05187970772385597,0.04979035258293152,1.541447401046753,1.2641408443450928,-3.7729930877685547,-0.21,0.1,0.11,275.49
1678916775.37920809,113800434,2,0.7000000000000001,3.15,158.1,-0.3611433804035187,-0.08711513131856918,-0.11180178821086884,0.01984827034175396,1.5236754417419434,1.245255947113037,-3.769207239151001,-0.21,0.1,0.11,275.49
1678916775.47917891,113900405,2,0.61,3.02,158.20000000000002,-0.352957159280777,-0.09644179791212082,-0.09435887634754181,-0.006505714263767004,1.5125608444213867,1.2283345460891724,-3.772639036178589,-0.21,0.1,0.11,275.49
1678916775.57918501,114000411,2,0.47000000000000003,2.41,158.38,-0.3528832197189331,-0.10010416060686111,-0.09169608354568481,-0.052556902170181274,1.4985350370407104,1.213091254234314,-3.7807483673095703,-0.21,0.1,0.11,275.49
1678916775.67917895,114100405,2,0.51,1.8800000000000001,158.54,-0.3557734787464142,-0.12306180596351624,-0.15680217742919922,-0.1288159340620041,1.4859925508499146,1.2002556324005127,-3.789865732192993,-0.21,0.1,0.11,275.49
1678916775.77917886,114200405,2,0.48,1.94,158.76,-0.3853585124015808,-0.13114286959171295,-0.13097593188285828,-0.11399019509553909,1.472794532775879,1.1880857944488525,-3.800410270690918,-0.21,0.1,0.11,275.49
1678916775.87918806,114300414,2,0.66,2.4,158.97,-0.36457890272140503,-0.12858489155769348,-0.10858069360256195,-0.08785666525363922,1.4636622667312622,1.1801927089691162,-3.809547185897827,-0.21,0.1,0.11,275.49
1678916775.97922397,114400450,2,0.62,3.48,159.16,-0.3892599046230316,-0.14723235368728638,-0.1330847442150116,-0.09797221422195435,1.4522465467453003,1.172471523284912,-3.818861484527588,-0.21,0.1,0.11,275.49
1678916776.07918596,114500412,2,0.34,4.68,159.37,-0.3548332750797272,-0.2020587921142578,-0.16445966064929962,-0.09208077937364578,1.447941541671753,1.167303442955017,-3.8233656883239746,-0.2,0.1,0.11,275.49
1678916776.17926288,114600489,2,0.3,4.78,159.56,-0.3283955752849579,-0.19212062656879425,-0.08814791589975357,-0.0046586510725319386,1.4430159330368042,1.1608625650405884,-3.8267529010772705,-0.2,0.1,0.11,275.49
1678916776.27921104,114700437,2,0.11,3.63,159.75,-0.3102242946624756,-0.2081596851348877,-0.0961991623044014,-0.006954476237297058,1.4462326765060425,1.1589362621307373,-3.8290584087371826,-0.2,0.09,0.11,275.49
1678916776.37918901,114800415,2,-0.27,2.2800000000000002,159.92000000000002,-0.29146066308021545,-0.18486551940441132,-0.13801996409893036,-0.07369855791330338,1.4473463296890259,1.1568466424942017,-3.8358726501464844,-0.2,0.09,0.11,275.49
1678916776.47918296,114900409,2,-0.51,1.31,160.1,-0.3053167164325714,-0.16744501888751984,-0.06760319322347641,-0.03796229884028435,1.4523855447769165,1.1614421606063843,-3.844914436340332,-0.2,0.09,0.11,275.49
1678916776.57920599,115000432,2,-0.45,0.77,160.25,-0.31282156705856323,-0.13416659832000732,-0.11249067634344101,-0.0976041778922081,1.4516538381576538,1.1665065288543701,-3.8547563552856445,-0.2,0.09,0.11,275.49
1678916776.67917895,115100405,2,-0.16,0.63,160.39000000000001,-0.33515462279319763,-0.09768572449684143,-0.08406084030866623,-0.05455903708934784,1.4515471458435059,1.1794861555099487,-3.861755132675171,-0.19,0.09,0.11,275.49
1678916776.77919602,115200422,2,0.02,0.73,160.48,-0.37031883001327515,-0.06964229047298431,-0.049286872148513794,-0.00984522420912981,1.4442709684371948,1.1930549144744873,-3.8639209270477295,-0.19,0.09,0.11,275.49
1678916776.87922001,115300446,2,0.01,0.8,160.55,-0.385008841753006,-0.040497858077287674,0.026863405480980873,0.07609459012746811,1.4440680742263794,1.2160941362380981,-3.8569910526275635,-0.19,0.09,0.11,275.49
1678916776.97918487,115400411,2,-0.16,1.1300000000000001,160.51,-0.409166157245636,-0.00712590804323554,0.1014670878648758,0.13389478623867035,1.4328521490097046,1.2363556623458862,-3.847114324569702,-0.19,0.09,0.11,275.49
1678916777.07925892,115500485,2,-0.49,1.19,160.43,-0.41837915778160095,0.016505207866430283,0.13644936680793762,0.18557995557785034,1.4317840337753296,1.2608747482299805,-3.8303544521331787,-0.19,0.08,0.11,275.49
1678916777.17920804,115600434,2,-1.02,1.27,160.24,-0.42146816849708557,0.05936450511217117,0.16542983055114746,0.21818777918815613,1.4254904985427856,1.2852224111557007,-3.810946226119995,-0.19,0.08,0.11,275.49
1678916777.27918196,115700408,2,-1.97,1.77,159.86,-0.4180271625518799,0.0902509018778801,0.11491378396749496,0.1595027595758438,1.4315184354782104,1.3152016401290894,-3.792386770248413,-0.18,0.08,0.12,275.49
1678916777.37918186,115800408,2,-2.68,2.43,159.22,-0.3992702066898346,0.12444610893726349,0.14515064656734467,0.1776909977197647,1.4337078332901,1.3461304903030396,-3.7766315937042236,-0.18,0.08,0.12,275.49
1678916777.47918701,115900413,2,-2.91,3.17,158.35,-0.34582266211509705,0.19476112723350525,0.13590575754642487,0.17076978087425232,1.453452467918396,1.381003975868225,-3.758639335632324,-0.18,0.07,0.12,275.49
1678916777.57918000,116000406,2,-2.94,3.61,157.34,-0.3001294434070587,0.2257491946220398,0.15374596416950226,0.19112223386764526,1.471345067024231,1.4174724817276,-3.7402427196502686,-0.18,0.07,0.12,275.49
1678916777.67921901,116100445,2,-2.22,4.1,156.31,-0.2475704699754715,0.24900124967098236,0.1756373941898346,0.19086390733718872,1.5102300643920898,1.4536876678466797,-3.7247307300567627,-0.18,0.06,0.12,275.49
1678916777.77922606,116200452,2,-0.59,4.84,155.33,-0.16969986259937286,0.26036226749420166,0.13081425428390503,0.12558907270431519,1.5478390455245972,1.4879803657531738,-3.7109785079956055,-0.18,0.06,0.12,275.49
1678916777.87918591,116300412,2,0.72,5.59,154.5,-0.1108054593205452,0.24067601561546326,0.16590869426727295,0.1633903682231903,1.6001579761505127,1.5157583951950073,-3.6952874660491943,-0.17,0.06,0.12,275.49
1678916777.97927690,116400503,2,1.1,5.94,153.71,-0.05416719987988472,0.19843584299087524,0.15453118085861206,0.1587437093257904,1.6487559080123901,1.5382698774337769,-3.6772594451904297,-0.17,0.06,0.12,275.49
1678916778.07921004,116500436,2,0.9500000000000001,6.17,152.98,0.013986790552735329,0.1515117883682251,0.21746712923049927,0.22252051532268524,1.7072935104370117,1.551164984703064,-3.659419059753418,-0.17,0.05,0.12,275.49
1678916778.17918205,116600408,2,0.09,6.17,152.31,0.06307800859212875,0.09244680404663086,0.15134236216545105,0.15686532855033875,1.7619307041168213,1.5584131479263306,-3.642883539199829,-0.17,0.05,0.12,275.49
1678916778.27918196,116700408,2,-1.96,5.7,151.71,0.13619764149188995,0.09338660538196564,0.11451702564954758,0.11738680303096771,1.8248567581176758,1.5614407062530518,-3.6284613609313965,-0.17,0.05,0.12,275.49
1678916778.37918186,116800408,2,-3.64,5.07,151.26,0.20394225418567657,0.09640224277973175,0.13372373580932617,0.12836873531341553,1.8808072805404663,1.5648754835128784,-3.6175034046173096,-0.17,0.05,0.12,275.49
1678916778.47917700,116900403,2,-4.23,4.38,151.0,0.26540008187294006,0.11310644447803497,0.11009327322244644,0.10394583642482758,1.9386225938796997,1.5736645460128784,-3.6069819927215576,-0.17,0.05,0.12,275.49
1678916778.57920003,117000426,2,-3.7800000000000002,3.93,150.87,0.32010605931282043,0.14595623314380646,0.11198574304580688,0.10665751248598099,1.9935084581375122,1.5867520570755005,-3.5965967178344727,-0.17,0.05,0.12,275.49
1678916778.67922592,117100452,2,-2.89,4.12,150.75,0.3448539674282074,0.18092681467533112,0.11563614755868912,0.1319325864315033,2.04791259765625,1.6052470207214355,-3.5831902027130127,-0.17,0.05,0.12,275.49
1678916778.77918005,117200406,2,-1.3900000000000001,4.82,150.69,0.3808782398700714,0.1843889355659485,0.15147151052951813,0.18251854181289673,2.0993893146514893,1.6254006624221802,-3.566999673843384,-0.17,0.05,0.12,275.49
1678916778.87926388,117300490,2,-0.17,5.59,150.65,0.40325498580932617,0.1433407962322235,0.14322876930236816,0.2336266189813614,2.1463704109191895,1.6394670009613037,-3.5407893657684326,-0.17,0.05,0.12,275.49
1678916778.97920895,117400435,2,0.0,5.89,150.6,0.42609357833862305,0.13015611469745636,0.1635928750038147,0.27403950691223145,2.191605806350708,1.651251196861267,-3.515218734741211,-0.17,0.05,0.12,275.49
1678916779.07917905,117500405,2,-0.26,5.73,150.58,0.46258533000946045,0.09111922234296799,0.16689778864383698,0.2634401023387909,2.231860399246216,1.6531496047973633,-3.489471912384033,-0.18,0.05,0.11,275.49
1678916779.17918801,117600414,2,-1.03,5.17,150.64000000000001,0.48473185300827026,0.09013587981462479,0.17021732032299042,0.24238790571689606,2.2727863788604736,1.6532093286514282,-3.4664227962493896,-0.18,0.05,0.11,275.49
1678916779.27919006,117700416,2,-2.2600000000000002,4.47,150.75,0.48596668243408203,0.06537637114524841,0.11862511932849884,0.21566994488239288,2.3064322471618652,1.6493666172027588,-3.4388582706451416,-0.18,0.06,0.11,275.49
1678916779.37917590,117800402,2,-3.1,4.34,150.92000000000002,0.5248159170150757,0.0791354700922966,0.16439920663833618,0.2808067500591278,2.3423385620117188,1.6472517251968384,-3.412517547607422,-0.18,0.06,0.11,275.49
1678916779.47922087,117900447,2,-3.3200000000000003,4.64,151.1,0.5248432159423828,0.06975483149290085,0.18162114918231964,0.35003405809402466,2.370295286178589,1.6467950344085693,-3.3770675659179688,-0.18,0.06,0.11,275.49
1678916779.57922006,118000446,2,-3.19,5.03,151.26,0.5472526550292969,0.09974624216556549,0.22194789350032806,0.38825756311416626,2.402560234069824,1.6497451066970825,-3.34435772895813,-0.18,0.06,0.11,275.49
1678916779.67926097,118100487,2,-3.0,5.5200000000000005,151.41,0.5820168852806091,0.10075777769088745,0.22235560417175293,0.37816864252090454,2.429889678955078,1.6524925231933594,-3.3120834827423096,-0.18,0.06,0.11,275.49
1678916779.77927709,118200503,2,-2.49,5.74,151.54,0.6164916157722473,0.12030084431171417,0.2231743037700653,0.34677281975746155,2.4615354537963867,1.656701922416687,-3.281222343444824,-0.18,0.06,0.11,275.49
1678916779.87920904,118300435,2,-1.98,5.75,151.61,0.6248749494552612,0.11233565211296082,0.2691234350204468,0.35622408986091614,2.4861843585968018,1.6552871465682983,-3.247922897338867,-0.19,0.07,0.11,275.49
1678916779.97918701,118400413,2,-1.43,5.4,151.72,0.6303521394729614,0.07225947827100754,0.28157922625541687,0.33832812309265137,2.5150840282440186,1.6531351804733276,-3.2137279510498047,-0.19,0.07,0.11,275.49
1678916780.07917690,118500403,2,-1.07,4.74,151.77,0.6388299465179443,0.07021411508321762,0.33580347895622253,0.4056074917316437,2.5323030948638916,1.6435091495513916,-3.1727311611175537,-0.19,0.07,0.11,275.49
1678916780.17917991,118600406,2,-0.92,4.17,151.8,0.6278107762336731,0.04875846207141876,0.39170435070991516,0.4766969382762909,2.553248405456543,1.633320927619934,-3.1281893253326416,-0.19,0.07,0.11,275.49
1678916780.27918291,118700409,2,-0.77,3.79,151.82,0.6025359630584717,0.016817588359117508,0.389880508184433,0.4937651455402374,2.5592637062072754,1.6175388097763062,-3.0774550437927246,-0.2,0.08,0.11,275.49
1678916780.37919903,118800425,2,-0.71,3.77,151.81,0.5761668086051941,-0.004728179425001144,0.45594194531440735,0.5550506711006165,2.568366765975952,1.6023895740509033,-3.024754524230957,-0.2,0.08,0.11,275.49
1678916780.47921586,118900442,2,-0.8200000000000001,4.08,151.82,0.5790589451789856,-0.004134989343583584,0.4897071421146393,0.5276513695716858,2.5670671463012695,1.5825306177139282,-2.9747424125671387,-0.2,0.08,0.11,275.49
1678916780.57924891,119000475,2,-0.88,4.5600000000000005,151.75,0.5547130107879639,-0.024352621287107468,0.4706152677536011,0.4656732380390167,2.572751522064209,1.5633783340454102,-2.924858570098877,-0.2,0.08,0.11,275.49
1678916780.67927790,119100504,2,-0.1,4.3100000000000005,151.71,0.5122600793838501,-0.08801773190498352,0.4703123867511749,0.5020198225975037,2.5625431537628174,1.5403951406478882,-2.868901014328003,-0.2,0.09,0.11,275.49
1678916780.77920699,119200433,2,0.79,3.46,151.68,0.4951675534248352,-0.09946545958518982,0.568184494972229,0.6246196031570435,2.5571484565734863,1.5175141096115112,-2.8085126876831055,-0.2,0.09,0.11,275.49
1678916780.87917709,119300403,2,1.1500000000000001,2.74,151.65,0.43650710582733154,-0.1149439811706543,0.6513429880142212,0.7326603531837463,2.5426270961761475,1.492416262626648,-2.7400338649749756,-0.21,0.09,0.11,275.49
1678916780.97917986,119400406,2,0.8300000000000001,2.09,151.64000000000001,0.3963322341442108,-0.14722420275211334,0.6529797315597534,0.7419833540916443,2.5326454639434814,1.4675240516662598,-2.6695454120635986,-0.21,0.09,0.11,275.49
1678916781.07917595,119500402,2,0.52,1.29,151.59,0.3254934251308441,-0.15637558698654175,0.6821308732032776,0.8542035818099976,2.4964518547058105,1.4405479431152344,-2.5834603309631348,-0.21,0.1,0.11,275.49
1678916781.17917895,119600405,2,0.29,0.98,151.59,0.24913352727890015,-0.17215919494628906,0.6902857422828674,0.8506933450698853,2.4712743759155273,1.4160981178283691,-2.5002341270446777,-0.21,0.1,0.11,275.49
1678916781.27921200,119700438,2,0.17,1.55,151.61,0.20545783638954163,-0.15207526087760925,0.7885822057723999,0.9233928918838501,2.4379961490631104,1.3961637020111084,-2.4136886596679688,-0.21,0.1,0.11,275.49
1678916781.37922001,119800446,2,0.03,2.2,151.68,0.15768839418888092,-0.16578960418701172,0.8296677470207214,0.9450923800468445,2.4098427295684814,1.3780231475830078,-2.321786880493164,-0.21,0.1,0.11,275.49
1678916781.47924304,119900469,2,-0.38,2.66,151.71,0.1241242066025734,-0.16033431887626648,0.8284372687339783,0.9410831332206726,2.377741575241089,1.362398386001587,-2.2262470722198486,-0.21,0.11,0.12,275.49
1678916781.57928395,120000510,2,-0.72,2.93,151.79,0.10384120047092438,-0.17844833433628082,0.7913615703582764,0.8950938582420349,2.352487802505493,1.3480937480926514,-2.1345057487487793,-0.21,0.11,0.12,275.49
1678916781.67920995,120100436,2,1.1300000000000001,1.86,151.85,-0.20893177390098572,-0.34110355377197266,-0.018195489421486855,0.04312024265527725,2.315023422241211,1.329109787940979,-2.090674638748169,-0.21,0.11,0.12,275.49
1678916781.77917695,120200403,2,3.5300000000000002,0.8300000000000001,152.07,-0.2933860719203949,-0.37837642431259155,0.22558948397636414,0.24800147116184235,2.2588412761688232,1.2990387678146362,-2.0812113285064697,-0.21,0.11,0.11,275.49
1678916781.87918591,120300412,2,2.58,0.0,152.61,-0.163622185587883,-0.15210403501987457,0.005080746486783028,-0.26374727487564087,2.208601951599121,1.295102834701538,-2.1002840995788574,-0.2,0.11,0.12,275.49
1678916781.97919297,120400419,2,1.85,-0.8300000000000001,153.34,-0.10625234991312027,-0.0757126435637474,0.17197315394878387,-0.21275916695594788,2.1781463623046875,1.308996558189392,-2.113457202911377,-0.2,0.11,0.12,275.49
1678916782.07917500,120500401,2,2.5500000000000003,-1.48,153.11,-0.03712725266814232,-0.07643204182386398,0.035418812185525894,-0.22439530491828918,2.1695926189422607,1.3276838064193726,-2.1277987957000732,-0.2,0.11,0.12,275.49
1678916782.17920208,120600428,2,2.29,-1.49,152.63,0.032374147325754166,-0.08947929739952087,0.004659771919250488,-0.12530145049095154,2.174086093902588,1.3432632684707642,-2.134476900100708,-0.2,0.11,0.12,275.49
1678916782.27922988,120700456,2,2.37,-1.3,152.8,0.04217475280165672,-0.09953593462705612,0.022402482107281685,-0.007012234069406986,2.182400703430176,1.3599469661712646,-2.13553786277771,-0.2,0.11,0.12,275.49
1678916782.37926006,120800486,2,2.32,-1.1,152.97,0.03805756941437721,-0.07264811545610428,0.016331860795617104,0.035844262689352036,2.192033290863037,1.3735437393188477,-2.1345043182373047,-0.2,0.11,0.12,275.49
1678916782.47927403,120900500,2,2.3000000000000003,-1.08,152.67000000000002,0.0035317435394972563,-0.03371718153357506,0.029429534450173378,0.09328654408454895,2.190434217453003,1.3878523111343384,-2.127513885498047,-0.2,0.11,0.12,275.49
1678916782.57922196,121000448,2,2.32,-1.22,152.61,-0.0015364708378911018,-0.022788243368268013,0.024378469213843346,0.09816024452447891,2.188666582107544,1.4003311395645142,-2.1211254596710205,-0.2,0.11,0.12,275.49
1678916782.67918205,121100408,2,2.24,-1.3,152.83,0.014008239842951298,-0.034693051129579544,0.02924778312444687,0.09138020873069763,2.1854498386383057,1.4124685525894165,-2.114065647125244,-0.2,0.11,0.12,275.49
1678916782.77918386,121200410,2,2.3000000000000003,-1.23,152.74,0.021042076870799065,-0.03385310247540474,0.023602977395057678,0.07679904252290726,2.185818910598755,1.4213554859161377,-2.107098340988159,-0.2,0.11,0.12,275.49
1678916782.87918806,121300414,2,2.31,-1.16,152.56,0.00954127125442028,-0.03154383599758148,0.02816813625395298,0.06743760406970978,2.182450771331787,1.4292067289352417,-2.1008999347686768,-0.2,0.11,0.12,275.49
1678916782.97917604,121400402,2,2.3000000000000003,-1.17,152.69,-0.0034988615661859512,-0.013108602724969387,0.03866945952177048,0.0719575509428978,2.1797237396240234,1.4359259605407715,-2.0945167541503906,-0.2,0.11,0.12,275.49
1678916783.07919908,121500425,2,2.2600000000000002,-1.25,152.75,-0.01642419397830963,-0.014495179057121277,0.03528852388262749,0.06066117435693741,2.1729912757873535,1.4432669878005981,-2.0890390872955322,-0.2,0.11,0.12,275.49
1678916783.17921996,121600446,2,2.31,-1.29,152.61,-0.011111633852124214,-0.01728913187980652,0.028805837035179138,0.04724166542291641,2.1682093143463135,1.448962688446045,-2.08367657661438,-0.2,0.11,0.12,275.49
1678916783.27925086,121700477,2,2.29,-1.26,152.63,-0.0044405353255569935,-0.02164696529507637,0.03613867238163948,0.06741297990083694,2.1640398502349854,1.455437421798706,-2.0763187408447266,-0.2,0.11,0.12,275.49
1678916783.37928104,121800507,2,2.2800000000000002,-1.21,152.71,-0.010456905700266361,-0.012580335140228271,0.04132051393389702,0.08287855237722397,2.1615610122680664,1.4604233503341675,-2.0687644481658936,-0.2,0.11,0.12,275.49
1678916783.47919607,121900422,2,2.3000000000000003,-1.23,152.64000000000001,-0.02121620997786522,-0.005808533634990454,0.046872254461050034,0.08945675194263458,2.1558287143707275,1.4656331539154053,-2.06123423576355,-0.2,0.11,0.12,275.49
1678916783.57916903,122000395,2,2.3000000000000003,-1.29,152.59,-0.025322122499346733,-0.0009822994470596313,0.032256118953228,0.08238577097654343,2.1501896381378174,1.4709553718566895,-2.052067995071411,-0.2,0.11,0.12,275.49
1678916783.67917299,122100399,2,2.29,-1.32,152.58,-0.028034964576363564,0.002543121576309204,0.03460035100579262,0.07558894902467728,2.1438045501708984,1.4768712520599365,-2.0442380905151367,-0.2,0.11,0.12,275.49
1678916783.77916694,122200393,2,2.32,-1.32,152.43,-0.020125746726989746,0.016556451097130775,0.04703192040324211,0.06305641680955887,2.1397008895874023,1.4811533689498901,-2.0381217002868652,-0.2,0.11,0.12,275.49
1678916783.87916994,122300396,2,2.34,-1.3,152.19,-0.029347877949476242,0.022368131205439568,0.05341768637299538,0.05963759124279022,2.1348817348480225,1.4844059944152832,-2.0321245193481445,-0.2,0.11,0.12,275.49
1678916783.97917700,122400403,2,2.32,-1.32,152.05,-0.04098781198263168,0.019827136769890785,0.053260475397109985,0.057285502552986145,2.1301326751708984,1.4869391918182373,-2.02653169631958,-0.2,0.11,0.12,275.49
1678916784.07920909,122500435,2,2.36,-1.33,151.86,-0.034366678446531296,0.016353866085410118,0.050610966980457306,0.06696741282939911,2.124659538269043,1.489819049835205,-2.0192525386810303,-0.2,0.11,0.12,275.49
1678916784.17918897,122600415,2,2.34,-1.34,151.6,-0.04158974066376686,0.019376037642359734,0.04968336224555969,0.082278773188591,2.1196632385253906,1.4921479225158691,-2.011012315750122,-0.2,0.11,0.12,275.49
1678916784.27924490,122700471,2,2.35,-1.33,151.41,-0.04356725886464119,0.02477916330099106,0.05258939042687416,0.11251290887594223,2.1147072315216064,1.494247555732727,-1.9998037815093994,-0.2,0.11,0.13,275.49
1678916784.37919593,122800422,2,2.35,-1.34,151.24,-0.042573317885398865,0.019059475511312485,0.053808122873306274,0.1281583607196808,2.1103076934814453,1.4960219860076904,-1.9882086515426636,-0.2,0.11,0.13,275.49
1678916784.47917008,122900396,2,2.34,-1.34,150.99,-0.046690184623003006,0.02239210344851017,0.05520305410027504,0.09182748943567276,2.1056978702545166,1.496961236000061,-1.9806510210037231,-0.2,0.11,0.13,275.49
1678916784.57918787,123000414,2,2.37,-1.33,150.8,-0.04459002614021301,0.022198423743247986,0.056516245007514954,0.06959844380617142,2.1016886234283447,1.4979509115219116,-1.9728974103927612,-0.2,0.11,0.13,275.49
1678916784.67917895,123100405,2,2.36,-1.33,150.66,-0.04542076587677002,0.017465827986598015,0.05595843866467476,0.07354949414730072,2.098723888397217,1.4981498718261719,-1.9650262594223022,-0.2,0.11,0.13,275.49
1678916784.77917409,123200400,2,2.38,-1.32,150.41,-0.04689521715044975,0.023874936625361443,0.05590159446001053,0.06748417764902115,2.09629225730896,1.4986780881881714,-1.957968831062317,-0.2,0.11,0.13,275.49
1678916784.87920690,123300433,2,2.38,-1.3,150.22,-0.045307960361242294,0.01869608461856842,0.058204252272844315,0.05995184928178787,2.0940635204315186,1.4981187582015991,-1.9518085718154907,-0.2,0.11,0.13,275.49
1678916784.97921205,123400438,2,2.39,-1.3,150.08,-0.043385520577430725,0.02299281395971775,0.05783693119883537,0.04702438786625862,2.092296838760376,1.4973571300506592,-1.9468908309936523,-0.2,0.11,0.13,275.49
1678916785.07924294,123500469,2,2.37,-1.29,149.85,-0.04740181192755699,0.017107583582401276,0.058409061282873154,0.03217901661992073,2.0901224613189697,1.4972238540649414,-1.9432919025421143,-0.2,0.11,0.13,275.49
1678916785.17926908,123600495,2,2.39,-1.29,149.64000000000001,-0.03936680778861046,0.018898099660873413,0.057367172092199326,0.03177337720990181,2.0883078575134277,1.4971781969070435,-1.9390628337860107,-0.2,0.11,0.13,275.49
1678916785.27920103,123700427,2,2.38,-1.28,149.49,-0.04331183806061745,0.01766628585755825,0.05775832012295723,0.02972000278532505,2.086390972137451,1.4980932474136353,-1.9361282587051392,-0.2,0.11,0.14,275.49
1678916785.37917495,123800401,2,2.4,-1.29,149.29,-0.04219473525881767,0.01864153891801834,0.05828581377863884,0.010297331027686596,2.0846681594848633,1.499738097190857,-1.9348036050796509,-0.2,0.11,0.14,275.49
1678916785.47916889,123900395,2,2.38,-1.29,149.07,-0.04230374097824097,0.017819179221987724,0.058491963893175125,0.01597398705780506,2.0817201137542725,1.5010608434677124,-1.9319288730621338,-0.2,0.11,0.14,275.49
1678916785.57917500,124000401,2,2.4,-1.29,148.93,-0.041205741465091705,0.017876405268907547,0.05971790477633476,0.045665331184864044,2.0789053440093994,1.5026452541351318,-1.9267423152923584,-0.2,0.11,0.14,275.49
1678916785.67917204,124100398,2,2.39,-1.3,148.74,-0.04353726655244827,0.017365332692861557,0.06013068929314613,0.07085922360420227,2.0763583183288574,1.5042250156402588,-1.9200031757354736,-0.2,0.11,0.14,275.49
1678916785.77919698,124200423,2,2.39,-1.3,148.51,-0.04400869086384773,0.019321637228131294,0.06107540801167488,0.07813423871994019,2.073848009109497,1.505810260772705,-1.9130959510803223,-0.2,0.11,0.14,275.49
1678916785.87921000,124300436,2,2.4,-1.3,148.37,-0.04110908880829811,0.014905273914337158,0.06292298436164856,0.0659259483218193,2.072265863418579,1.5069801807403564,-1.90768301486969,-0.2,0.11,0.14,275.49
1678916785.97924805,124400474,2,2.39,-1.28,148.20000000000002,-0.04198695346713066,0.01680438406765461,0.06333161890506744,0.0465809665620327,2.0706446170806885,1.5078402757644653,-1.9031641483306885,-0.2,0.11,0.14,275.49
1678916786.07926989,124500496,2,2.41,-1.29,147.98,-0.0416438914835453,0.01598464697599411,0.06284130364656448,0.019998034462332726,2.0683465003967285,1.509010672569275,-1.9012938737869263,-0.2,0.11,0.14,275.49
1678916786.17920208,124600428,2,2.39,-1.29,147.82,-0.042728859931230545,0.01387894619256258,0.06304434686899185,0.014192603528499603,2.0658538341522217,1.5099519491195679,-1.8986618518829346,-0.2,0.11,0.14,275.49
1678916786.27917409,124700400,2,2.41,-1.28,147.66,-0.03919123858213425,0.015213096514344215,0.06349136680364609,0.023598775267601013,2.0635242462158203,1.5105925798416138,-1.895652413368225,-0.2,0.11,0.15,275.49
1678916786.37916708,124800393,2,2.4,-1.27,147.45000000000002,-0.04113864153623581,0.01202766690403223,0.06325625628232956,0.03811987116932869,2.0610947608947754,1.5110337734222412,-1.8913804292678833,-0.2,0.11,0.15,275.49
1678916786.47917104,124900397,2,2.41,-1.26,147.27,-0.037674617022275925,0.013186568394303322,0.06330353766679764,0.04736807197332382,2.059054136276245,1.5125398635864258,-1.886915683746338,-0.2,0.11,0.15,275.49
1678916786.57917094,125000397,2,2.42,-1.26,147.12,-0.039867550134658813,0.010609060525894165,0.06488113105297089,0.04204820841550827,2.05704927444458,1.5137640237808228,-1.8832731246948242,-0.2,0.11,0.15,275.49
1678916786.67918205,125100408,2,2.41,-1.25,146.92000000000002,-0.034674689173698425,0.010109752416610718,0.0653529018163681,0.03362375870347023,2.055341958999634,1.515616536140442,-1.87992525100708,-0.2,0.11,0.15,275.49
1678916786.77920794,125200434,2,2.42,-1.25,146.73,-0.035696305334568024,0.009255853481590748,0.06708763539791107,0.03828839585185051,2.0537991523742676,1.5173226594924927,-1.8758999109268188,-0.2,0.11,0.15,275.49
1678916786.87917590,125300402,2,2.4,-1.25,146.58,-0.034395482391119,0.007152094505727291,0.06754279136657715,0.036714132875204086,2.052670478820801,1.5182851552963257,-1.872378945350647,-0.2,0.11,0.15,275.49
1678916786.97926497,125400491,2,2.42,-1.24,146.4,-0.03145475313067436,0.007105699274688959,0.06773802638053894,0.03270844742655754,2.0516130924224854,1.5191079378128052,-1.8690098524093628,-0.2,0.11,0.15,275.49
1678916787.07920408,125500430,2,2.4,-1.23,343.64,-0.0291017796844244,0.0037310246843844652,0.06989786773920059,0.031754154711961746,2.050971508026123,1.5199781656265259,-1.8658441305160522,-0.2,0.11,0.15,275.49
1678916787.17916894,125600395,2,2.4,-1.23,343.59000000000003,-0.0294993594288826,0.0012045162729918957,0.0707816556096077,0.019300829619169235,2.050150156021118,1.5203622579574585,-1.8640773296356201,-0.2,0.11,0.15,275.49
1678916787.27917004,125700396,2,2.4,-1.24,343.62,-0.025252357125282288,0.004377002362161875,0.06986237317323685,0.0002744723460637033,2.056347370147705,1.5182658433914185,-1.8636903762817383,-0.2,0.11,0.15,275.49
1678916787.37916708,125800393,2,2.4,-1.24,343.72,-0.02520228549838066,0.005022766999900341,0.06957969814538956,-0.003642466850578785,2.061262369155884,1.5168734788894653,-1.8632129430770874,-0.2,0.11,0.15,275.49
1678916787.47917199,125900398,2,2.39,-1.25,343.89,-0.017920129001140594,0.005582762416452169,0.0697663426399231,-0.01264866441488266,2.0704922676086426,1.5134942531585693,-1.8642174005508423,-0.2,0.11,0.15,275.49
1678916787.57920289,126000429,2,2.38,-1.26,344.06,-0.01849682629108429,0.003525808686390519,0.06968241184949875,-0.00607104878872633,2.0778775215148926,1.5108944177627563,-1.8637428283691406,-0.2,0.11,0.15,275.49
1678916787.67921686,126100443,2,2.39,-1.26,344.21,-0.014384094625711441,0.00267294654622674,0.07093333452939987,0.01038175355643034,2.0881805419921875,1.5062428712844849,-1.8625104427337646,-0.2,0.11,0.15,275.49
