timestamp,TimeUS,C,Q1,Q2,Q3,Q4
1671114299.39855003,96986695,1,0.25112783908843994,-0.0005393371684476733,0.004887777846306562,-0.9679414629936218
1671114299.43855405,97026699,1,0.25114738941192627,-0.0005389567231759429,0.0048957401886582375,-0.9679363369941711
1671114299.45857191,97046717,1,0.25115594267845154,-0.0005332706496119499,0.004898093640804291,-0.9679340720176697
1671114299.47857499,97066720,1,0.25117138028144836,-0.0005422189715318382,0.004913028795272112,-0.967930018901825
1671114299.51857805,97106723,1,0.25119271874427795,-0.0005191096570342779,0.004910191521048546,-0.9679244756698608
1671114299.55857587,97146721,1,0.2512396574020386,-0.0005271347472444177,0.004905526991933584,-0.9679123163223267
1671114299.59852600,97186671,1,0.2512514889240265,-0.0005132431397214532,0.004905153531581163,-0.9679092764854431
1671114299.63855100,97226696,1,0.25125569105148315,-0.0005109902704134583,0.0049103316850960255,-0.9679081439971924
1671114299.65859604,97246741,1,0.2512540817260742,-0.0004979007644578815,0.0049248356372118,-0.967908501625061
1671114299.67857599,97266721,1,0.25125396251678467,-0.0005128035554662347,0.00492035923525691,-0.9679085612297058
1671114299.71855688,97306702,1,0.25124993920326233,-0.0004965442349202931,0.0049569024704396725,-0.9679093956947327
1671114299.75858593,97346731,1,0.2512885332107544,-0.00046522647608071566,0.004970944952219725,-0.9678993225097656
1671114299.79855490,97386700,1,0.25131547451019287,-0.00042204157216474414,0.0049621667712926865,-0.9678924083709717
1671114299.83855104,97426696,1,0.2513733506202698,-0.00042219727765768766,0.004974120296537876,-0.9678773283958435
1671114299.85859203,97446737,1,0.2513866424560547,-0.00040789006743580103,0.004987668711692095,-0.9678738117218018
1671114299.87855005,97466695,1,0.25140580534935,-0.0004005651280749589,0.004996195435523987,-0.9678688049316406
1671114299.91858101,97506726,1,0.25142526626586914,-0.0003805924498010427,0.005005063489079475,-0.9678636789321899
1671114299.95858502,97546730,1,0.2514652907848358,-0.00036796016502194107,0.004993974231183529,-0.9678533673286438
1671114299.99858904,97586734,1,0.2514905333518982,-0.0003536289732437581,0.004997320007532835,-0.9678468108177185
1671114300.03852701,97626672,1,0.25151875615119934,-0.0003482348984107375,0.005003980826586485,-0.9678394198417664
1671114300.05857587,97646721,1,0.2515389621257782,-0.00035004084929823875,0.005005193408578634,-0.9678341746330261
1671114300.07855201,97666697,1,0.2515687048435211,-0.0003367508761584759,0.005005375482141972,-0.9678264260292053
1671114300.11855102,97706696,1,0.25161197781562805,-0.00030817187507636845,0.0050064148381352425,-0.9678152203559875
1671114300.15857601,97746721,1,0.2516532838344574,-0.00031200028024613857,0.004993203561753035,-0.9678045511245728
1671114300.19855309,97786698,1,0.2516724467277527,-0.00030597837758250535,0.004970443435013294,-0.9677996635437012
1671114300.23859191,97826737,1,0.2516983449459076,-0.0003109902609139681,0.004973095376044512,-0.9677929282188416
1671114300.25857592,97846721,1,0.2517068088054657,-0.00030707239056937397,0.0049758669920265675,-0.9677907228469849
1671114300.27852201,97866667,1,0.2517230808734894,-0.00032254328834824264,0.004978685639798641,-0.967786431312561
1671114300.31855798,97906703,1,0.2517298460006714,-0.0003101426409557462,0.004971599206328392,-0.9677847027778625
1671114300.35854602,97946691,1,0.2517484724521637,-0.00030229787807911634,0.00494785699993372,-0.9677799940109253
1671114300.39858294,97986728,1,0.2517698407173157,-0.0003142427303828299,0.004921719431877136,-0.9677745699882507
1671114300.43859291,98026738,1,0.25178205966949463,-0.0003141583292745054,0.0049380408599972725,-0.9677712917327881
1671114300.45854998,98046695,1,0.2517727315425873,-0.00031620156369172037,0.004943223670125008,-0.9677737355232239
1671114300.47857690,98066722,1,0.2517772614955902,-0.00030911870999261737,0.004937650170177221,-0.9677725434303284
1671114300.51856804,98106713,1,0.2517815828323364,-0.00031868001678958535,0.004933104384690523,-0.9677714705467224
1671114300.55854988,98146695,1,0.25180885195732117,-0.0002961875288747251,0.004916948266327381,-0.9677644371986389
1671114300.59858203,98186727,1,0.2518220543861389,-0.0003146394737996161,0.00491742929443717,-0.9677610397338867
1671114300.63859606,98226741,1,0.25180673599243164,-0.0003138491010759026,0.004921334329992533,-0.9677649736404419
1671114300.65854907,98246694,1,0.2518249750137329,-0.0003249435976613313,0.00490641500800848,-0.9677603244781494
1671114300.67856407,98266709,1,0.2518366873264313,-0.0003344101132825017,0.004902744200080633,-0.9677572846412659
1671114300.71856594,98306711,1,0.2518678903579712,-0.0003548725217115134,0.004881325643509626,-0.9677492380142212
1671114300.75855207,98346697,1,0.25188830494880676,-0.0003630297433119267,0.004851509351283312,-0.9677441120147705
1671114300.79854989,98386695,1,0.2519107758998871,-0.00037141889333724976,0.004846266936510801,-0.9677382707595825
1671114300.83858299,98426728,1,0.2519519329071045,-0.0004013019206468016,0.004831495229154825,-0.9677276015281677
1671114300.85852194,98446667,1,0.25196024775505066,-0.0004031091521028429,0.004829044453799725,-0.9677254557609558
1671114300.87858105,98466726,1,0.25196924805641174,-0.0004131478490307927,0.004829345736652613,-0.9677231311798096
1671114300.91860390,98506749,1,0.2519669234752655,-0.00042450748151168227,0.004809858277440071,-0.9677237868309021
1671114300.95855498,98546700,1,0.25199094414711,-0.00044674149830825627,0.004781601019203663,-0.967717707157135
1671114300.99855089,98586696,1,0.2520362436771393,-0.00046542350901290774,0.004782972391694784,-0.9677058458328247
1671114301.03855300,98626698,1,0.2520405352115631,-0.00048077176325023174,0.004778629634529352,-0.9677047729492188
1671114301.05856109,98646706,1,0.25203582644462585,-0.0004945580731146038,0.004773986525833607,-0.967706024646759
1671114301.07858801,98666733,1,0.25201863050460815,-0.0004821459879167378,0.004770679399371147,-0.9677104949951172
1671114301.11857986,98706725,1,0.2520159184932709,-0.0004950562724843621,0.0047368514351546764,-0.9677113890647888
1671114301.15858102,98746726,1,0.2520070970058441,-0.0005117961554788053,0.004689403809607029,-0.9677138924598694
1671114301.19852710,98786672,1,0.25199535489082336,-0.0005159638822078705,0.004678058438003063,-0.9677169919013977
1671114301.23854899,98826694,1,0.2519911527633667,-0.0005487215239554644,0.004671607632189989,-0.9677181243896484
1671114301.25857806,98846723,1,0.2519819736480713,-0.0005685389041900635,0.004669343587011099,-0.9677205085754395
1671114301.27855992,98866705,1,0.25197747349739075,-0.0005771653377451003,0.0046600340865552425,-0.967721700668335
1671114301.31857800,98906723,1,0.25200170278549194,-0.0005954930675216019,0.00463190907612443,-0.9677155017852783
1671114301.35857701,98946722,1,0.25202375650405884,-0.0005943402647972107,0.004606680944561958,-0.9677098989486694
1671114301.39856100,98986706,1,0.2520492970943451,-0.0006122675258666277,0.004607883747667074,-0.9677032232284546
1671114301.43855500,99026700,1,0.2520750164985657,-0.0006364731234498322,0.004598367027938366,-0.9676965475082397
1671114301.45857596,99046721,1,0.2520836293697357,-0.000639583682641387,0.004593610297888517,-0.9676943421363831
1671114301.47855091,99066696,1,0.25210291147232056,-0.0006389050395227969,0.004586765076965094,-0.9676893353462219
1671114301.51857996,99106725,1,0.25210046768188477,-0.0006334635545499623,0.00458215456455946,-0.9676899909973145
1671114301.55860496,99146750,1,0.25211337208747864,-0.0006427522748708725,0.004566744435578585,-0.9676867127418518
1671114301.59858203,99186727,1,0.2521390914916992,-0.0006446709157899022,0.004571337252855301,-0.9676799774169922
1671114301.63858199,99226727,1,0.25219613313674927,-0.0006936230347491801,0.004554657265543938,-0.9676651954650879
1671114301.65857697,99246722,1,0.25221624970436096,-0.0007075638859532773,0.004548093769699335,-0.9676599502563477
1671114301.67855501,99266700,1,0.25222644209861755,-0.0007083413074724376,0.004523086827248335,-0.9676573872566223
1671114301.71855998,99306705,1,0.25225868821144104,-0.0007206012960523367,0.004491277039051056,-0.9676491618156433
1671114301.75858307,99346728,1,0.252278596162796,-0.0007266367902047932,0.00446347938850522,-0.9676440954208374
1671114301.79856396,99386709,1,0.2522958815097809,-0.0007454046863131225,0.00445706769824028,-0.9676395654678345
1671114301.83859205,99426737,1,0.2522944211959839,-0.0007359029841609299,0.004457252100110054,-0.9676399827003479
1671114301.85857987,99446725,1,0.25229236483573914,-0.0007443446083925664,0.004456708207726479,-0.9676405191421509
1671114301.87852788,99466673,1,0.2522987425327301,-0.0007520352955907583,0.004429241176694632,-0.9676389694213867
1671114301.91855788,99506703,1,0.25232529640197754,-0.0007692594663240016,0.004426192492246628,-0.9676320552825928
1671114301.95855594,99546701,1,0.2523620128631592,-0.0008089704206213355,0.004379010759294033,-0.9676226377487183
1671114301.99858308,99586728,1,0.25240179896354675,-0.0008267317898571491,0.004327212926000357,-0.9676125049591064
1671114302.03859305,99626738,1,0.252395361661911,-0.0008382179657928646,0.004326225258409977,-0.9676141738891602
1671114302.05855799,99646703,1,0.25240519642829895,-0.0008356210310012102,0.00432188855484128,-0.9676116108894348
1671114302.07862091,99666766,1,0.2524098753929138,-0.0008443230181001127,0.0043136184103786945,-0.9676104187965393
1671114302.11857009,99706715,1,0.2524116635322571,-0.0008545161108486354,0.004297946579754353,-0.9676100015640259
1671114302.15856910,99746714,1,0.252439022064209,-0.0008647879003547132,0.004279302898794413,-0.9676029682159424
1671114302.19858289,99786728,1,0.2525267004966736,-0.0008629774674773216,0.004262525122612715,-0.9675801396369934
1671114302.23858094,99826726,1,0.25249603390693665,-0.0008946392335928977,0.004245532210916281,-0.9675881862640381
1671114302.25856495,99846710,1,0.25251340866088867,-0.0008989159832708538,0.004222561605274677,-0.9675837755203247
1671114302.27858305,99866728,1,0.2524908483028412,-0.00088802061509341,0.004181993193924427,-0.9675898551940918
1671114302.31855798,99906703,1,0.25247806310653687,-0.0009007430053316057,0.004180666990578175,-0.9675931930541992
1671114302.35856104,99946706,1,0.2524926960468292,-0.0008837634813971817,0.004143199417740107,-0.9675894975662231
1671114302.39855003,99986695,1,0.252580463886261,-0.0008893588092178106,0.0041465116664767265,-0.9675666093826294
1671114302.43858290,100026728,1,0.2526968717575073,-0.0009093146654777229,0.004156782291829586,-0.9675361514091492
1671114302.45855689,100046702,1,0.2527632713317871,-0.0009281928068958223,0.004151275847107172,-0.9675188064575195
1671114302.47861505,100066760,1,0.2527838945388794,-0.0009511676616966724,0.004162174183875322,-0.9675133228302002
1671114302.51857495,100106720,1,0.2527061700820923,-0.0009003354934975505,0.004134909249842167,-0.9675338268280029
1671114302.55856895,100146714,1,0.2525539994239807,-0.0008767414838075638,0.004091340117156506,-0.9675737619400024
1671114302.59855795,100186703,1,0.2524472177028656,-0.0009560141479596496,0.004042966291308403,-0.9676017761230469
1671114302.63855505,100226700,1,0.25244054198265076,-0.0010162533726543188,0.004047266207635403,-0.9676033854484558
1671114302.65857005,100246715,1,0.2525178790092468,-0.0010597507935017347,0.003935800865292549,-0.9675836563110352
1671114302.67858601,100266731,1,0.2526344358921051,-0.0010496188187971711,0.0038807340897619724,-0.967553436756134
1671114302.71858406,100306729,1,0.252667635679245,-0.0011237839935347438,0.0038603669963777065,-0.9675447940826416
1671114302.75859904,100346744,1,0.2527521252632141,-0.0011554309166967869,0.0038708490319550037,-0.9675226211547852
1671114302.79857087,100386716,1,0.252638578414917,-0.0012228024424985051,0.0038617453537881374,-0.9675522446632385
1671114302.83856702,100426712,1,0.2523960769176483,-0.0011413262691348791,0.003952537663280964,-0.9676152467727661
1671114302.85859704,100446742,1,0.25228866934776306,-0.0011649024672806263,0.0038109468296170235,-0.9676437973976135
1671114302.87855697,100466702,1,0.2522664964199066,-0.0011348240077495575,0.003776185680180788,-0.9676497578620911
1671114302.91859007,100506735,1,0.2521364986896515,-0.0011506837327033281,0.0039572520181536674,-0.9676828980445862
1671114302.95859194,100546737,1,0.2520536482334137,-0.0012398038525134325,0.0036778368521481752,-0.967705488204956
1671114302.99859095,100586736,1,0.2520284354686737,-0.001235342351719737,0.0039144242182374,-0.9677111506462097
1671114303.03856397,100626709,1,0.25206491351127625,-0.0012930111261084676,0.003636221867054701,-0.9677026271820068
1671114303.05859494,100646740,1,0.25180983543395996,-0.0013268559705466032,0.0035018082708120346,-0.9677695035934448
1671114303.07855988,100666705,1,0.25190475583076477,-0.0013967297272756696,0.003869190812110901,-0.9677432775497437
1671114303.11858392,100706729,1,0.25177201628685,-0.0012587691890075803,0.0038225820753723383,-0.967778205871582
1671114303.15856504,100746710,1,0.2513970732688904,-0.0013187926961109042,0.0036615608260035515,-0.9678761959075928
1671114303.19860697,100786752,1,0.2513982355594635,-0.0012901972513645887,0.003753064665943384,-0.967875599861145
1671114303.23854494,100826690,1,0.2510383427143097,-0.0013057528994977474,0.003348548896610737,-0.9679704904556274
1671114303.25858402,100846729,1,0.2511092722415924,-0.0012752213515341282,0.0037391772493720055,-0.967950701713562
1671114303.27855706,100866702,1,0.25125136971473694,-0.0012482324382290244,0.0037199577782303095,-0.9679139256477356
1671114303.31856108,100906706,1,0.25102776288986206,-0.0013914606533944607,0.0032653617672622204,-0.9679733514785767
1671114303.35858393,100946729,1,0.2510647773742676,-0.0012669188436120749,0.003727537114173174,-0.9679622650146484
1671114303.39860010,100986745,1,0.25090810656547546,-0.001407463219948113,0.003387545933946967,-0.9680039286613464
1671114303.43857098,101026716,1,0.2507605254650116,-0.0013808757066726685,0.003632783656939864,-0.9680413603782654
1671114303.45858288,101046728,1,0.2508443593978882,-0.0013576875207945704,0.0036742081865668297,-0.9680194854736328
1671114303.47856188,101066707,1,0.25061801075935364,-0.0013900563353672624,0.0035300878807902336,-0.96807861328125
1671114303.51856995,101106715,1,0.25040605664253235,-0.0014109833864495158,0.0034950003027915955,-0.9681335687637329
1671114303.55855894,101146704,1,0.25053998827934265,-0.0013128210557624698,0.0035492037422955036,-0.9680988788604736
1671114303.59858203,101186727,1,0.25021982192993164,-0.001461980864405632,0.003323008306324482,-0.9681822657585144
1671114303.63860893,101226754,1,0.25048503279685974,-0.0014123419532552361,0.0036253270227462053,-0.9681126475334167
1671114303.65856099,101246706,1,0.250308096408844,-0.0013776193372905254,0.0034896472934633493,-0.9681589603424072
1671114303.67861104,101266756,1,0.2502394914627075,-0.001449962961487472,0.003299292176961899,-0.9681772589683533
1671114303.71852708,101306672,1,0.250294953584671,-0.0014112790813669562,0.0034279103856533766,-0.9681625366210938
1671114303.75856495,101346710,1,0.2499895542860031,-0.0014599203132092953,0.003298384603112936,-0.968241810798645
1671114303.79858994,101386735,1,0.24992595613002777,-0.0014699541497975588,0.00349601823836565,-0.9682575464248657
1671114303.83857989,101426725,1,0.24972520768642426,-0.001421706285327673,0.0035332085099071264,-0.9683092832565308
1671114303.85856104,101446706,1,0.2495640367269516,-0.0014823389938101172,0.003120056353509426,-0.9683521389961243
1671114303.87858796,101466733,1,0.24963296949863434,-0.0014822009252384305,0.003355256048962474,-0.9683336019515991
1671114303.91857696,101506722,1,0.24967342615127563,-0.001411906792782247,0.0034758092369884253,-0.9683228135108948
1671114303.95854092,101546686,1,0.24957333505153656,-0.0014857972273603082,0.0031139133498072624,-0.9683497548103333
1671114303.99855709,101586702,1,0.24952752888202667,-0.0014642501482740045,0.0033870995976030827,-0.9683606624603271
1671114304.03858995,101626735,1,0.24936220049858093,-0.0014593815430998802,0.0031214477494359016,-0.9684041738510132
1671114304.05856895,101646714,1,0.24917323887348175,-0.0014674682170152664,0.0030736818443983793,-0.9684529304504395
1671114304.07857394,101666719,1,0.24914255738258362,-0.0014396966435015202,0.0031861180905252695,-0.9684605002403259
1671114304.11860895,101706754,1,0.24904099106788635,-0.0014599167043343186,0.003153612371534109,-0.9684867262840271
1671114304.15856910,101746714,1,0.24890273809432983,-0.0014753524446859956,0.0031959409825503826,-0.9685220718383789
1671114304.19856095,101786706,1,0.24901659786701202,-0.0014836892951279879,0.003252968890592456,-0.9684926271438599
1671114304.23855495,101826700,1,0.2486448436975479,-0.0015586004592478275,0.0029160345438867807,-0.9685890674591064
1671114304.25858998,101846735,1,0.24882470071315765,-0.0015558882150799036,0.00315991067327559,-0.9685421586036682
1671114304.27858496,101866730,1,0.2488064020872116,-0.0014427577843889594,0.0030946042388677597,-0.9685472249984741
1671114304.31859899,101906744,1,0.24857932329177856,-0.0015569963725283742,0.002805530559271574,-0.9686062335968018
1671114304.35859895,101946744,1,0.24855825304985046,-0.0015209442935883999,0.0029254620894789696,-0.9686113595962524
1671114304.39853001,101986675,1,0.24839244782924652,-0.0015693485038354993,0.002843855181708932,-0.9686540365219116
1671114304.43855786,102026703,1,0.2482813447713852,-0.0016240772092714906,0.0029765362851321697,-0.968682050704956
1671114304.45857000,102046715,1,0.24825750291347504,-0.0015747504075989127,0.0030484034214168787,-0.9686880111694336
1671114304.47856402,102066709,1,0.24826529622077942,-0.0015719574876129627,0.003051828360185027,-0.9686859846115112
1671114304.51858401,102106729,1,0.24802742898464203,-0.001677560736425221,0.0028212619945406914,-0.9687474370002747
1671114304.55857491,102146720,1,0.24820837378501892,-0.0016522275982424617,0.003071823390200734,-0.9687004089355469
1671114304.59860086,102186746,1,0.24775344133377075,-0.0017692490946501493,0.0028511355631053448,-0.9688172936439514
1671114304.63857388,102226719,1,0.2479354441165924,-0.0016632339684292674,0.0030258246697485447,-0.9687703847885132
1671114304.65860295,102246748,1,0.2477283477783203,-0.0016400822205469012,0.0030346540734171867,-0.9688233733177185
1671114304.67855692,102266702,1,0.24751444160938263,-0.001758385682478547,0.0026490201707929373,-0.968878984451294
1671114304.71859002,102306735,1,0.24756576120853424,-0.0017875584308058023,0.0028603782411664724,-0.9688652157783508
1671114304.75858307,102346728,1,0.24726934731006622,-0.0018039918504655361,0.0028121257200837135,-0.9689410328865051
1671114304.79858994,102386735,1,0.24745985865592957,-0.001767425681464374,0.002959126839414239,-0.9688920378684998
1671114304.83859992,102426745,1,0.24711138010025024,-0.001867116428911686,0.0028663487173616886,-0.9689810276031494
1671114304.85858202,102446727,1,0.24719227850437164,-0.0018757125362753868,0.0027475100941956043,-0.9689607620239258
1671114304.87856197,102466707,1,0.24721291661262512,-0.0017302475171163678,0.002626191359013319,-0.9689560532569885
1671114304.91855597,102506701,1,0.24713687598705292,-0.0018765093991532922,0.0027810127940028906,-0.968974769115448
1671114304.95858598,102546731,1,0.24668946862220764,-0.001947785378433764,0.002802001079544425,-0.9690885543823242
1671114304.99859500,102586740,1,0.24651449918746948,-0.0020926822908222675,0.0030862244311720133,-0.9691319465637207
1671114305.03861403,102626759,1,0.24643856287002563,-0.001804822706617415,0.002730929758399725,-0.9691528677940369
1671114305.05859303,102646738,1,0.2463519424200058,-0.0019139605574309826,0.002706765430048108,-0.9691747426986694
1671114305.07855892,102666704,1,0.24637316167354584,-0.0019725870806723833,0.002797907218337059,-0.969169020652771
1671114305.11855793,102706703,1,0.24592456221580505,-0.002040562219917774,0.0025886332150548697,-0.9692833423614502
1671114305.15856910,102746714,1,0.24596664309501648,-0.002075921045616269,0.002799327252432704,-0.9692720174789429
1671114305.19859290,102786738,1,0.24576851725578308,-0.0021583635825663805,0.0026604041922837496,-0.9693225026130676
1671114305.23859096,102826736,1,0.2455003559589386,-0.0020028077997267246,0.002894425066187978,-0.9693900942802429
1671114305.25855994,102846705,1,0.2453455626964569,-0.0018836358794942498,0.0032142417039722204,-0.969428539276123
1671114305.27859807,102866743,1,0.24526356160640717,-0.0020690567325800657,0.0031804353930056095,-0.9694490432739258
1671114305.31854200,102906687,1,0.2448752373456955,-0.0019902612548321486,0.0026757284067571163,-0.9695488810539246
1671114305.35855389,102946699,1,0.24450434744358063,-0.001556983101181686,0.0024576191790401936,-0.9696438312530518
1671114305.39855695,102986702,1,0.24436968564987183,-0.0017634694231674075,0.0025465108919888735,-0.969677209854126
1671114305.43858504,103026730,1,0.24408507347106934,-0.0019260930130258203,0.0032721487805247307,-0.9697464108467102
1671114305.45857286,103046718,1,0.24402640759944916,-0.0019804476760327816,0.0030806574504822493,-0.9697616696357727
1671114305.47859907,103066744,1,0.24391838908195496,-0.0019796413835138083,0.0027162241749465466,-0.9697899222373962
1671114305.51861095,103106756,1,0.24372905492782593,-0.002068406669422984,0.002376740565523505,-0.9698382616043091
1671114305.55853295,103146678,1,0.24341820180416107,-0.002201273338869214,0.0028315847739577293,-0.9699147939682007
1671114305.59855700,103186702,1,0.24304309487342834,-0.002613329328596592,0.0035917458590120077,-0.9700053334236145
1671114305.63858390,103226729,1,0.24272987246513367,-0.0025036241859197617,0.002441367832943797,-0.9700875878334045
1671114305.65852809,103246673,1,0.24264582991600037,-0.002343582920730114,0.0021511430386453867,-0.9701097011566162
1671114305.67860889,103266754,1,0.2422991693019867,-0.0025430722162127495,0.002511515747755766,-0.9701949954032898
1671114305.71859097,103306736,1,0.24210838973522186,-0.002866340335458517,0.0026649634819477797,-0.9702413082122803
1671114305.75857997,103346725,1,0.24178214371204376,-0.003115648403763771,0.0028573262970894575,-0.9703213572502136
1671114305.79857206,103386717,1,0.2412053942680359,-0.0034885972272604704,0.002444074722006917,-0.9704647660255432
1671114305.83855700,103426702,1,0.24101842939853668,-0.00425426010042429,0.0019810041412711143,-0.9705091714859009
1671114305.85858989,103446735,1,0.24074028432369232,-0.004796821624040604,0.0020654830150306225,-0.9705755114555359
1671114305.87858200,103466727,1,0.24054041504859924,-0.004912015050649643,0.0016231146873906255,-0.9706253409385681
1671114305.91859794,103506743,1,0.24023689329624176,-0.006155143491923809,0.0015573182608932257,-0.9706935286521912
1671114305.95860696,103546752,1,0.23968973755836487,-0.006675916723906994,0.0019854584243148565,-0.9708245396614075
1671114305.99857402,103586719,1,0.23916515707969666,-0.007452568504959345,0.0018369294703006744,-0.9709485769271851
1671114306.03856492,103626710,1,0.2388588786125183,-0.00651354156434536,0.0004516088811215013,-0.9710323214530945
1671114306.05858898,103646734,1,0.23866920173168182,-0.00639190012589097,0.00042320232023485005,-0.9710798263549805
1671114306.07855892,103666704,1,0.23804430663585663,-0.006129031535238028,0.0020587448962032795,-0.9712327718734741
1671114306.11858296,103706728,1,0.2378966361284256,-0.005451625213027,0.002164282836019993,-0.9712727665901184
1671114306.15856099,103746706,1,0.2375582903623581,-0.004525505471974611,0.0006826157914474607,-0.9713625311851501
1671114306.19861007,103786755,1,0.23766973614692688,-0.0042576235719025135,-0.0008488432504236698,-0.971336305141449
1671114306.23856807,103826713,1,0.23720751702785492,-0.004891395568847656,-0.0010436249431222677,-0.9714460968971252
1671114306.25860500,103846750,1,0.2374851405620575,-0.0051824371330440044,-0.0021041310392320156,-0.971375048160553
1671114306.27855706,103866702,1,0.23739442229270935,-0.005959045607596636,-0.0024494638200849295,-0.9713919758796692
1671114306.31857491,103906720,1,0.23725642263889313,-0.006810281425714493,-0.003962050657719374,-0.971415102481842
1671114306.35858798,103946733,1,0.23733749985694885,-0.007756767328828573,-0.003465337213128805,-0.9713901281356812
1671114306.39857101,103986716,1,0.23719783127307892,-0.008446537889540195,-0.004735202994197607,-0.9714130759239197
1671114306.43857908,104026724,1,0.23732565343379974,-0.009231915697455406,-0.003731223987415433,-0.9713791012763977
1671114306.45858192,104046727,1,0.2375122457742691,-0.009694556705653667,-0.004180693067610264,-0.9713271856307983
1671114306.47856998,104066715,1,0.23714447021484375,-0.009844708256423473,-0.0025886897929012775,-0.9714210629463196
1671114306.51857591,104106721,1,0.23761485517024994,-0.01079443097114563,-0.004784925375133753,-0.9712876677513123
1671114306.55858493,104146730,1,0.23772510886192322,-0.013093582354485989,-0.004967676475644112,-0.9712315201759338
1671114306.59859300,104186738,1,0.23809577524662018,-0.01634991727769375,-0.005366922821849585,-0.971089243888855
1671114306.63859487,104226740,1,0.23832719027996063,-0.020557280629873276,-0.005643121432512999,-0.9709509015083313
1671114306.65856194,104246707,1,0.23826701939105988,-0.02272653765976429,-0.005941661540418863,-0.9709155559539795
1671114306.67857909,104266724,1,0.23849938809871674,-0.02457796409726143,-0.006599427666515112,-0.9708091616630554
1671114306.71857810,104306723,1,0.23873721063137054,-0.028037209063768387,-0.006875769235193729,-0.9706550240516663
1671114306.75855803,104346703,1,0.23883794248104095,-0.030206453055143356,-0.005209145601838827,-0.9705755114555359
1671114306.79858303,104386728,1,0.23899853229522705,-0.031110692769289017,-0.005121008027344942,-0.9705079197883606
1671114306.83860493,104426750,1,0.23908323049545288,-0.03120499476790428,-0.003098933957517147,-0.9704926013946533
1671114306.85855699,104446702,1,0.23919153213500977,-0.030739298090338707,-0.0016751179937273264,-0.9704842567443848
1671114306.87856793,104466713,1,0.2391195297241211,-0.02901465818285942,-0.0016621584072709084,-0.9705551266670227
1671114306.91860700,104506752,1,0.23931948840618134,-0.025999125093221664,0.0012042125454172492,-0.9705919623374939
1671114306.95856190,104546707,1,0.23988460004329681,-0.020692717283964157,-0.0009032304515130818,-0.9705804586410522
1671114306.99855709,104586702,1,0.24020619690418243,-0.015823740512132645,-0.00011620080476859584,-0.9705929160118103
1671114307.03858089,104626726,1,0.24056193232536316,-0.011312735266983509,-0.0011718608438968658,-0.9705671668052673
1671114307.05855799,104646703,1,0.24068674445152283,-0.009551703929901123,0.00014064226706977934,-0.97055584192276
1671114307.07856107,104666706,1,0.24091821908950806,-0.007873164489865303,0.0007555361371487379,-0.9705131649971008
1671114307.11860204,104706747,1,0.24111105501651764,-0.005168926902115345,5.055614383309148e-05,-0.9704837799072266
1671114307.15852809,104746673,1,0.24174675345420837,-0.004016892984509468,0.0007716051768511534,-0.9703307747840881
1671114307.19856000,104786705,1,0.24209614098072052,-0.002652097726240754,-0.0006873583188280463,-0.9702484011650085
1671114307.23855400,104826699,1,0.2425246685743332,-0.0018925474723801017,0.0006510321982204914,-0.97014319896698
1671114307.25854492,104846690,1,0.24261990189552307,-0.001885823323391378,0.0011521525448188186,-0.9701188802719116
1671114307.27858686,104866732,1,0.24264797568321228,-0.0016897859750315547,0.001459538470953703,-0.9701118469238281
1671114307.31857204,104906717,1,-0.003918985370546579,0.00017711141845211387,-0.0016651044134050608,0.9999909400939941
1671114307.35857296,104946718,1,-0.0044264765456318855,-1.6967371266218834e-05,-0.0007891394780017436,0.9999898672103882
1671114307.39854097,104986686,1,-0.0050201271660625935,0.00011342306243022904,0.00034312179195694625,0.9999873042106628
1671114307.43856001,105026705,1,-0.005553307011723518,0.0005625036428682506,0.0023887637071311474,0.9999815821647644
1671114307.45861006,105046755,1,-0.005991499871015549,0.0010855912696570158,0.0038401400670409203,0.9999740719795227
1671114307.47858191,105066727,1,-0.006307097617536783,0.001056720269843936,0.004256715066730976,0.9999704957008362
1671114307.51857090,105106716,1,-0.00689539173617959,0.0013032202841714025,0.0036765732802450657,0.9999686479568481
1671114307.55861592,105146761,1,-0.007546182256191969,0.0015062512829899788,0.00499967485666275,0.9999579191207886
1671114307.59856987,105186715,1,-0.008465113118290901,0.0018925206968560815,0.00578743452206254,0.9999456405639648
1671114307.63855600,105226701,1,-0.00901839416474104,0.0020565283484756947,0.005432236939668655,0.9999424815177917
1671114307.65859890,105246744,1,-0.009327017702162266,0.002127982210367918,0.005401332397013903,0.9999396204948425
1671114307.67857003,105266715,1,-0.009592006914317608,0.0023083966225385666,0.004999767988920212,0.9999388456344604
1671114307.71857905,105306724,1,-0.010007399134337902,0.0023959653917700052,0.004776865243911743,0.9999356269836426
1671114307.75858903,105346734,1,-0.010201063938438892,0.0026488937437534332,0.00318764615803957,0.9999393820762634
1671114307.79859996,105386745,1,-0.010508925653994083,0.002660124795511365,0.0020808367989957333,0.9999390840530396
1671114307.83853507,105426680,1,-0.010846555233001709,0.002658999990671873,8.126037573674694e-05,0.9999376535415649
1671114307.85856390,105446709,1,-0.010732411406934261,0.002865070244297385,-0.001636403612792492,0.9999369382858276
1671114307.87855887,105466704,1,-0.010804525576531887,0.002753439825028181,-0.002026581671088934,0.9999358057975769
1671114307.91855788,105506703,1,-0.01103655993938446,0.002769914921373129,-0.0038415552116930485,0.9999278783798218
1671114307.95858097,105546726,1,-0.010996908880770206,0.0028841285966336727,-0.006252573803067207,0.9999158382415771
1671114307.99854803,105586693,1,-0.011114503256976604,0.0026683802716434,-0.006993492133915424,0.9999102354049683
1671114308.03860903,105626754,1,-0.011130117811262608,0.0025008011143654585,-0.008164881728589535,0.9999015927314758
1671114308.05858898,105646734,1,-0.011349964886903763,0.002286253497004509,-0.007991665042936802,0.9999010562896729
1671114308.07856989,105666715,1,-0.011279178783297539,0.002247478347271681,-0.009600183926522732,0.9998877644538879
1671114308.11855888,105706704,1,-0.011238823644816875,0.0017443548422306776,-0.008977976627647877,0.9998950362205505
1671114308.15857697,105746722,1,-0.01100886706262827,0.0011842329986393452,-0.010460495948791504,0.9998840093612671
1671114308.19858909,105786734,1,-0.010809180326759815,0.0006868437048979104,-0.008306622505187988,0.9999068379402161
1671114308.23857307,105826718,1,-0.01026400551199913,0.0007046448299661279,-0.008407993242144585,0.9999117255210876
1671114308.25856805,105846713,1,-0.010195957496762276,0.0003805547603406012,-0.008307818323373795,0.9999134540557861
1671114308.27858090,105866726,1,-0.010127405636012554,0.0003065561759285629,-0.008022509515285492,0.9999164938926697
1671114308.31854892,105906694,1,-0.009599787183105946,0.0002592103264760226,-0.00889000203460455,0.9999143481254578
1671114308.35855603,105946701,1,-0.009041008539497852,0.00028196844505146146,-0.008877432905137539,0.9999196529388428
1671114308.39858890,105986734,1,-0.00829574465751648,0.0002477034868206829,-0.008638035506010056,0.9999282360076904
1671114308.43860006,106026745,1,-0.007719766348600388,-1.061273451341549e-05,-0.007317073177546263,0.9999434351921082
1671114308.45855999,106046705,1,-0.007346983067691326,-0.0003047448699362576,-0.005622022785246372,0.9999571442604065
1671114308.47861004,106066755,1,-0.007019484881311655,-0.0005555954412557185,-0.004012195393443108,0.9999671578407288
1671114308.51856899,106106714,1,-0.006440888624638319,-0.0012238338822498918,0.0006879452266730368,0.999978244304657
1671114308.55855894,106146704,1,-0.0054875086061656475,-0.0019087549299001694,0.008789985440671444,0.9999445080757141
1671114308.59857202,106186717,1,-0.004863732028752565,-0.0018269986612722278,0.015747826546430588,0.9998624920845032
1671114308.63857889,106226724,1,-0.004335319623351097,-0.0022774317767471075,0.024749888107180595,0.9996816515922546
1671114308.65854192,106246687,1,-0.003931126091629267,-0.0024356686044484377,0.02733651176095009,0.9996156096458435
1671114308.67858505,106266730,1,-0.003748122602701187,-0.0020967663731426,0.03158080577850342,0.9994919896125793
1671114308.71860003,106306745,1,-0.003383932402357459,-0.0018856795504689217,0.0386776365339756,0.999244213104248
1671114308.75856090,106346706,1,-0.0031348010525107384,-0.002144851488992572,0.04260188341140747,0.9990848898887634
1671114308.79856491,106386710,1,-0.0025631117168813944,-0.0022906563244760036,0.04464516043663025,0.9989969730377197
1671114308.83855605,106426701,1,-0.00238463981077075,-0.0024270510766655207,0.04402383044362068,0.9990246891975403
1671114308.85855007,106446695,1,-0.0021908872295171022,-0.002556430408731103,0.042796436697244644,0.9990781545639038
1671114308.87858105,106466726,1,-0.0020446921698749065,-0.0025017939042299986,0.04059993848204613,0.9991702437400818
1671114308.91861296,106506758,1,-0.0018045653123408556,-0.0026967136655002832,0.035723984241485596,0.9993564486503601
1671114308.95859408,106546739,1,-0.0017929100431501865,-0.0028526235837489367,0.03033948503434658,0.9995339512825012
1671114308.99854398,106586689,1,-0.0017897799843922257,-0.0027854389045387506,0.02255551889538765,0.9997401237487793
1671114309.03855991,106626705,1,-0.00200585275888443,-0.003209831193089485,0.015191973187029362,0.9998774528503418
1671114309.05861306,106646758,1,-0.0022239151876419783,-0.0031538091134279966,0.011951693333685398,0.9999211430549622
1671114309.07859087,106666736,1,-0.0024479606654495,-0.0028991110157221556,0.008683419786393642,0.9999551177024841
1671114309.11858106,106706726,1,-0.0028567397966980934,-0.003027397906407714,0.003707916708663106,0.9999844431877136
1671114309.15856600,106746711,1,-0.0033742557279765606,-0.0029022633098065853,-0.0014851068845018744,0.9999889731407166
1671114309.19855189,106786697,1,-0.004056456498801708,-0.0025806829798966646,-0.0054057990200817585,0.9999738335609436
1671114309.23854589,106826691,1,-0.004868056625127792,-0.0026895496994256973,-0.005368876736611128,0.9999701380729675
1671114309.25857997,106846725,1,-0.005144896451383829,-0.0023654766846448183,-0.008212823420763016,0.9999502301216125
1671114309.27855706,106866702,1,-0.005376645363867283,-0.002551307436078787,-0.00741363363340497,0.9999548196792603
1671114309.31858587,106906731,1,-0.00612285453826189,-0.0023353714495897293,-0.008182395249605179,0.9999450445175171
1671114309.35857105,106946716,1,-0.006581098306924105,-0.002413037233054638,-0.006904061883687973,0.9999516010284424
1671114309.39860797,106986753,1,-0.006894833408296108,-0.0020333295688033104,-0.00930216908454895,0.9999309182167053
1671114309.43857098,107026716,1,-0.007595096714794636,-0.0017663126345723867,-0.007448103744536638,0.999941885471344
1671114309.45857906,107046724,1,-0.007762497756630182,-0.0017509064637124538,-0.008148320019245148,0.9999351501464844
1671114309.47855592,107066701,1,-0.008012848906219006,-0.0016032751882448792,-0.007661305367946625,0.9999372363090515
1671114309.51855588,107106701,1,-0.008080480620265007,-0.0011078029638156295,-0.008346588350832462,0.9999319314956665
1671114309.55859089,107146736,1,-0.00830088835209608,-0.0011732032289728522,-0.006228578742593527,0.9999454617500305
1671114309.59858108,107186726,1,-0.007965021766722202,-0.0008881741086952388,-0.009501355700194836,0.9999227523803711
1671114309.63860297,107226748,1,-0.007810855749994516,-0.0010077893966808915,-0.007954834029078484,0.9999373555183411
1671114309.65858197,107246727,1,-0.007592226378619671,-0.0008305684314109385,-0.008757763542234898,0.9999324679374695
1671114309.67857289,107266718,1,-0.007530299015343189,-0.0005531179485842586,-0.007441672962158918,0.9999437928199768
1671114309.71855688,107306702,1,-0.006921548396348953,-0.00037276707007549703,-0.009852450340986252,0.9999274611473083
1671114309.75855398,107346699,1,-0.006168313790112734,-0.0003073596744798124,-0.007063358556479216,0.9999560117721558
1671114309.79858494,107386730,1,-0.00542943412438035,0.00031796947587281466,-0.008670895360410213,0.9999476075172424
1671114309.83858705,107426732,1,-0.004861833527684212,0.0006550390389747918,-0.009531300514936447,0.9999425411224365
1671114309.85856605,107446711,1,-0.004484693519771099,0.00045156810665503144,-0.008494510315358639,0.9999537467956543
1671114309.87858510,107466730,1,-0.0041566709987819195,0.0007310978253372014,-0.006859815679490566,0.9999675750732422
1671114309.91857100,107506716,1,-0.003414286533370614,0.0014851357555016875,-0.008233156055212021,0.9999591708183289
1671114309.95855498,107546700,1,-0.0026884619146585464,0.0013007359812036157,-0.007701930124312639,0.9999659061431885
1671114309.99858689,107586732,1,-0.0017154293600469828,0.0013500879285857081,-0.0065625435672700405,0.9999760985374451
1671114310.03858495,107626730,1,-0.0008664366905577481,0.0017821206711232662,-0.007736710365861654,0.9999681115150452
1671114310.05855703,107646702,1,-0.00037854176480323076,0.0014924041461199522,-0.00648376252502203,0.9999777674674988
1671114310.07860208,107666747,1,0.00012399694242049009,0.001507613342255354,-0.0055448333732783794,0.9999834895133972
1671114310.11858702,107706732,1,0.0010775874834507704,0.0009706015116535127,-0.005338745191693306,0.9999846816062927
1671114310.15855503,107746700,1,0.0023193368688225746,0.0009321219404228032,-0.007048087660223246,0.9999720454216003
1671114310.19855690,107786702,1,0.0030637073796242476,0.0008779626223258674,-0.006007775664329529,0.9999768733978271
1671114310.23858809,107826733,1,0.004317278042435646,0.00037172550219111145,-0.0033676300663501024,0.9999849200248718
1671114310.25856590,107846711,1,0.0046949503012001514,0.00013831545948050916,-0.004495337605476379,0.9999788403511047
1671114310.27856398,107866709,1,0.005211365409195423,4.6849032514728606e-05,-0.003491750219836831,0.9999803304672241
1671114310.31860709,107906752,1,0.0062881107442080975,-0.0002120334393111989,-0.003539365716278553,0.9999739527702332
1671114310.35856795,107946713,1,0.0073684947565197945,-0.00048509560292586684,-0.0018296641064807773,0.9999710321426392
1671114310.39855695,107986702,1,0.008242666721343994,-0.000767573481425643,0.0026665490586310625,0.9999621510505676
1671114310.43855500,108026700,1,0.009272669441998005,-0.000696302333381027,0.0036999813746660948,0.9999499320983887
1671114310.45855808,108046703,1,0.009634136222302914,-0.0004160215612500906,0.00438605947420001,0.9999439120292664
1671114310.47858405,108066729,1,0.010169432498514652,1.9846385839628056e-05,0.0027763759717345238,0.9999444484710693
1671114310.51858497,108106730,1,0.010998294688761234,0.0008309305412694812,0.002352745970711112,0.9999364018440247
1671114310.55859590,108146741,1,0.011689265258610249,0.0018882246222347021,0.0026285024359822273,0.9999264478683472
1671114310.59857607,108186721,1,0.012856964953243732,0.0031683281995356083,-0.0001704848400549963,0.9999123215675354
1671114310.63855600,108226701,1,0.014666557312011719,0.004460948519408703,-0.002485337434336543,0.9998794198036194
1671114310.65859890,108246744,1,0.015034602954983711,0.004876872058957815,-0.0009325692080892622,0.9998746514320374
1671114310.67855692,108266702,1,0.015454351902008057,0.005318361800163984,-0.0030577201396226883,0.9998617768287659
1671114310.71858501,108306730,1,0.015875723212957382,0.006559816654771566,-0.002945450134575367,0.9998481273651123
1671114310.75859404,108346739,1,0.016308914870023727,0.007487276569008827,-0.002189050894230604,0.9998365640640259
1671114310.79858589,108386731,1,0.016486430540680885,0.00846679974347353,-0.0034271138720214367,0.9998223781585693
1671114310.83854294,108426688,1,0.016605835407972336,0.008842414245009422,-0.004038115032017231,0.9998148679733276
1671114310.85858202,108446727,1,0.016653241589665413,0.008906140923500061,-0.0028824738692492247,0.9998174905776978
1671114310.87855387,108466699,1,0.016389960423111916,0.00904903281480074,-0.004003555979579687,0.9998167157173157
1671114310.91858602,108506731,1,0.01621481217443943,0.009201401844620705,-0.005573824048042297,0.9998106360435486
1671114310.95861697,108546762,1,0.01592719368636608,0.008511397056281567,-0.0058829751797020435,0.9998196363449097
1671114310.99858594,108586731,1,0.015346106141805649,0.007668827194720507,-0.004646155051887035,0.9998420476913452
1671114311.03855896,108626704,1,0.014742610976099968,0.006983524188399315,-0.005557621829211712,0.9998514652252197
1671114311.05858207,108646727,1,0.014458035118877888,0.006635486613959074,-0.007212447468191385,0.9998474717140198
1671114311.07855988,108666705,1,0.013749034143984318,0.00587374297901988,-0.006652058567851782,0.9998660683631897
1671114311.11855888,108706704,1,0.013059199787676334,0.0048757074400782585,-0.005455198232084513,0.9998879432678223
1671114311.15857887,108746724,1,0.011986462399363518,0.004379541613161564,-0.005167482420802116,0.9999052286148071
1671114311.19857097,108786716,1,0.011063897050917149,0.003838417585939169,-0.004590150434523821,0.9999209046363831
1671114311.23859501,108826740,1,0.01003345102071762,0.003234927076846361,-0.004660586826503277,0.9999335408210754
1671114311.25858188,108846727,1,0.009662746451795101,0.0026569559704512358,-0.004288246389478445,0.9999405741691589
1671114311.27854490,108866690,1,0.009176564402878284,0.002906395122408867,-0.004913434851914644,0.9999415874481201
1671114311.31857204,108906717,1,0.008549254387617111,0.002387471031397581,-0.005949552170932293,0.9999428987503052
1671114311.35856199,108946707,1,0.0074476017616689205,0.0015489185461774468,-0.003632658626884222,0.9999644756317139
1671114311.39858890,108986734,1,0.006496444344520569,0.0005545326857827604,-0.001303597236983478,0.9999778866767883
1671114311.43857098,109026716,1,0.005790098570287228,0.0006710364250466228,-0.0031013425905257463,0.9999781847000122
1671114311.45855594,109046701,1,0.005545380525290966,0.0007172668701969087,-0.004671077243983746,0.999973475933075
1671114311.47860503,109066750,1,0.005078955087810755,0.0006048560026101768,-0.004135546274483204,0.9999783635139465
1671114311.51853204,109106677,1,0.004353094846010208,0.0007384155760519207,-0.002916797762736678,0.9999859929084778
1671114311.55855799,109146703,1,0.00364157697185874,0.0011150387581437826,-0.00257606222294271,0.9999894499778748
1671114311.59856486,109186710,1,0.0031366110779345036,0.0013169703306630254,-0.0035562848206609488,0.9999879002571106
1671114311.63858008,109226725,1,0.0026376410387456417,0.0006662127561867237,-0.0031600710935890675,0.9999912977218628
1671114311.65856290,109246708,1,0.0024011742789298296,0.0008066021837294102,-0.001734651974402368,0.9999952912330627
1671114311.67858601,109266731,1,0.001926967641338706,0.0004974525654688478,-0.0015187629032880068,0.9999968409538269
1671114311.71856689,109306712,1,0.0015788708114996552,0.001452079275622964,-0.0007688929326832294,0.9999973773956299
1671114311.75856900,109346714,1,0.0010896120220422745,0.0015663083177059889,-0.0009290534071624279,0.9999977350234985
1671114311.79856706,109386712,1,0.0009789613541215658,0.0016240525292232633,-0.0006054001860320568,0.9999980330467224
1671114311.83857894,109426724,1,0.0006506555364467204,0.0020032611209899187,-0.0022911247797310352,0.9999951720237732
1671114311.85853100,109446676,1,0.0003517979057505727,0.002309771254658699,-0.0015100475866347551,0.9999961256980896
1671114311.87860394,109466749,1,0.0005077995592728257,0.002405822044238448,-0.003456528065726161,0.9999909996986389
1671114311.91860795,109506753,1,7.488611299777403e-05,0.0026222129818052053,-0.003450936870649457,0.9999905824661255
1671114311.95856595,109546711,1,-0.00014852678577881306,0.0031934347935020924,-0.0028834783006459475,0.9999907612800598
1671114311.99855494,109586700,1,-0.0002250385587103665,0.003997319843620062,-0.0025483337230980396,0.9999887347221375
1671114312.03855705,109626702,1,-0.00029036542400717735,0.004144316539168358,-0.001725903362967074,0.9999898672103882
1671114312.05859494,109646740,1,-0.0005820727674290538,0.004391176626086235,-0.001137602492235601,0.9999895691871643
1671114312.07858300,109666728,1,-0.0003691150341182947,0.004433777648955584,0.0008724338258616626,0.9999897480010986
1671114312.11859298,109706738,1,-0.0004064317618031055,0.004544379655271769,0.004470495507121086,0.9999796152114868
1671114312.15859699,109746742,1,-0.00030833567143417895,0.004959081765264273,0.007093393709510565,0.9999625086784363
1671114312.19852710,109786672,1,-0.0003708421136252582,0.005495613440871239,0.007661792915314436,0.9999554753303528
1671114312.23856306,109826708,1,-0.00024789798771962523,0.005961590446531773,0.008029629476368427,0.9999499320983887
1671114312.25860190,109846747,1,-0.00027808165759779513,0.005616874899715185,0.008178642950952053,0.9999507665634155
1671114312.27855587,109866701,1,-0.00037015933776274323,0.006105313077569008,0.009273256175220013,0.9999383091926575
1671114312.31859589,109906741,1,-0.00011665530473692343,0.006733860354870558,0.008014034479856491,0.9999452233314514
1671114312.35854793,109946693,1,7.704408199060708e-05,0.006928785238415003,0.003954554907977581,0.9999681711196899
1671114312.39860201,109986747,1,9.856435644906014e-05,0.006842867936939001,0.0017009008442983031,0.9999751448631287
1671114312.43857098,110026716,1,0.00018208730034530163,0.006665501743555069,0.0011141637805849314,0.999977171421051
1671114312.45860004,110046745,1,0.00022449529205914587,0.00667188037186861,0.0011089099571108818,0.9999771118164062
1671114312.47855496,110066700,1,0.00044538360089063644,0.0064370590262115,-0.0012272816384211183,0.9999784231185913
1671114312.51858497,110106730,1,0.00034519622568041086,0.005779174622148275,-0.0012585768708959222,0.999982476234436
1671114312.55858994,110146735,1,0.00026793114375323057,0.005871218163520098,-0.0023548733443021774,0.9999799728393555
1671114312.59860206,110186747,1,0.00024366326397284865,0.005079827271401882,-0.003102407790720463,0.9999822378158569
1671114312.63856888,110226714,1,0.0001913772866828367,0.004366286564618349,-0.001777286408469081,0.999988853931427
1671114312.65858293,110246728,1,0.00013555452460423112,0.004432337824255228,0.0009943075710907578,0.9999896883964539
1671114312.67856908,110266714,1,-1.8615366570884362e-05,0.0037744161672890186,-0.0004258073749952018,0.9999927878379822
1671114312.71856308,110306708,1,-9.825606684898958e-05,0.003387926146388054,-0.0014150120550766587,0.9999932646751404
1671114312.75858903,110346734,1,-2.5211682441295125e-05,0.0026169908232986927,-0.0009018127457238734,0.9999961853027344
1671114312.79859900,110386744,1,0.00013711962674278766,0.0014922923874109983,-0.0016075503081083298,0.9999975562095642
1671114312.83861589,110426761,1,0.0002231303951703012,0.0007194309728220105,-0.0006277108332142234,0.9999995231628418
1671114312.85855508,110446700,1,2.5449049644521438e-05,0.0006200294592417777,-0.003797599347308278,0.9999926090240479
1671114312.87853003,110466675,1,0.0001903622760437429,0.00022753486700821668,-0.0021776987705379725,0.9999975562095642
1671114312.91855597,110506701,1,0.0003912430547643453,-0.0002901053230743855,-0.0027440062258392572,0.9999961256980896
1671114312.95856404,110546709,1,0.00036254877340979874,-0.0007806742214597762,-0.001707133837044239,0.999998152256012
1671114312.99858093,110586726,1,0.0006065919296815991,-0.001343177747912705,-0.002688320819288492,0.9999952912330627
1671114313.03860307,110626748,1,0.0006937786238268018,-0.0016223160782828927,-0.0029163456056267023,0.9999942183494568
1671114313.05855799,110646703,1,0.000838393927551806,-0.001387430471368134,-0.0009890730725601315,0.9999982118606567
1671114313.07860398,110666749,1,0.0009949853410944343,-0.0015707975253462791,-0.003724864451214671,0.9999913573265076
1671114313.11857009,110706715,1,0.0013192526530474424,-0.0017690708627924323,-0.00494415732100606,0.9999853372573853
1671114313.15855694,110746702,1,0.0018543151672929525,-0.0022107772529125214,-0.005061065312474966,0.999983012676239
1671114313.19856095,110786706,1,0.0022289168555289507,-0.002249964978545904,-0.005382752511650324,0.9999805092811584
1671114313.23857999,110826725,1,0.002393231261521578,-0.0022188883740454912,-0.0036036663223057985,0.9999881982803345
1671114313.25855899,110846704,1,0.0027219648472964764,-0.0023116462398320436,-0.0024121603928506374,0.999990701675415
1671114313.27858305,110866728,1,0.0028328318148851395,-0.0020742141641676426,-0.001964556984603405,0.9999918937683105
1671114313.31859708,110906742,1,0.0029590048361569643,-0.0013154001208022237,-0.0019430617103353143,0.999992847442627
1671114313.35853004,110946675,1,0.0034121237695217133,-0.00077888707164675,-0.00145144818816334,0.999992847442627
1671114313.39857602,110986721,1,0.0035747375804930925,-8.321872155647725e-05,-0.0011046025902032852,0.9999930262565613
1671114313.43858600,111026731,1,0.003990887198597193,0.000281738699413836,-0.000589791452512145,0.9999918341636658
1671114313.45852995,111046675,1,0.004378765355795622,0.0006437026895582676,-0.002100376645103097,0.9999880194664001
1671114313.47858191,111066727,1,0.00409394595772028,0.0006453750538639724,0.0005121465073898435,0.9999912977218628
1671114313.51860094,111106746,1,0.004586327821016312,0.0006391667993739247,0.0012393142096698284,0.9999884963035583
1671114313.55856109,111146706,1,0.0045735714957118034,0.0008687097579240799,0.0003775481309276074,0.9999890923500061
1671114313.59855890,111186704,1,0.005032223649322987,0.0007762933382764459,-3.7966397940181196e-05,0.9999870657920837
1671114313.63856006,111226705,1,0.005245312117040157,0.000512086960952729,-0.0007281697471626103,0.9999858736991882
1671114313.65860009,111246745,1,0.005522418301552534,0.00017475589993409812,-0.0031534628942608833,0.9999797344207764
1671114313.67858601,111266731,1,0.005627403501421213,0.0001200288170366548,-0.00046066235518082976,0.9999840259552002
1671114313.71856904,111306714,1,0.005622479133307934,1.126778261095751e-05,0.00010798182483995333,0.9999842047691345
1671114313.75860596,111346751,1,0.005776530131697655,-8.948896720539778e-05,0.0004544449329841882,0.9999831914901733
1671114313.79857206,111386717,1,0.005737763829529285,0.00021105849009472877,0.0005700680194422603,0.9999833703041077
1671114313.83855605,111426701,1,0.005708974786102772,0.00016014723223634064,-0.00018893937522079796,0.9999836683273315
1671114313.85855293,111446698,1,0.005614500027149916,-0.00012492778478190303,-0.002454072469845414,0.9999812245368958
1671114313.87855601,111466701,1,0.005608622450381517,4.07098195864819e-05,-0.001454974990338087,0.9999831914901733
1671114313.91860104,111506746,1,0.005528142210096121,-0.00027104129549115896,-0.0025199789088219404,0.9999815225601196
1671114313.95858192,111546727,1,0.0053301467560231686,-0.00033234417787753046,-0.0028360376600176096,0.999981701374054
1671114313.99860787,111586753,1,0.00508974539116025,-0.00017900620878208429,-0.002663813531398773,0.9999834895133972
1671114314.03852892,111626674,1,0.004742397461086512,0.00017287001537624747,-0.0023627711925655603,0.999985933303833
1671114314.05858994,111646735,1,0.0048066009767353535,0.0008414391777478158,-0.005426784511655569,0.9999733567237854
1671114314.07856488,111666710,1,0.0045242938213050365,0.0009781902190297842,-0.0030592819675803185,0.999984622001648
1671114314.11855698,111706702,1,0.00406104838475585,0.0018803474958986044,-0.004077860154211521,0.9999816417694092
1671114314.15858698,111746732,1,0.0037676028441637754,0.0025111676659435034,-0.004074775613844395,0.9999814629554749
1671114314.19859195,111786737,1,0.0031714988872408867,0.0029801297932863235,-0.003815403673797846,0.9999832510948181
1671114314.23857498,111826720,1,0.0028018904849886894,0.003849857021123171,-0.0032116323709487915,0.9999834895133972
1671114314.25858188,111846727,1,0.0023510323371738195,0.004262819420546293,-0.004533461760729551,0.9999778866767883
1671114314.27856803,111866713,1,0.0020931886974722147,0.004418828058987856,-0.0037114114966243505,0.999981164932251
1671114314.31855607,111906701,1,0.0018250799039378762,0.0046453215181827545,-0.004682805389165878,0.9999765753746033
1671114314.35858488,111946730,1,0.0009783097775653005,0.004470889922231436,-0.002931948285549879,0.9999852180480957
1671114314.39859509,111986740,1,0.0005514739896170795,0.0043354942463338375,-0.0023902314715087414,0.9999876022338867
1671114314.43860507,112026750,1,-0.00021408713655546308,0.004310025367885828,-0.0025562879163771868,0.9999874234199524
1671114314.45855403,112046699,1,-0.0003636875771917403,0.0037457954604178667,-0.002920155180618167,0.9999886751174927
1671114314.47857594,112066721,1,-0.0005886161234229803,0.0033822935074567795,-0.001102205365896225,0.9999935030937195
1671114314.51854491,112106690,1,-0.0011567152105271816,0.0023467568680644035,0.0027210258413106203,0.999992847442627
1671114314.55855894,112146704,1,-0.0019112415611743927,0.001901754760183394,0.007560295052826405,0.9999678134918213
1671114314.59858489,112186730,1,-0.0027139540761709213,0.0006897476851008832,0.014491106383502483,0.9998911023139954
1671114314.63859391,112226739,1,-0.003464979352429509,-0.00043486073263920844,0.02047535963356495,0.9997842311859131
1671114314.65856290,112246708,1,-0.0037831782829016447,-0.0003192172443959862,0.0196012482047081,0.9998006820678711
1671114314.67858005,112266725,1,-0.003982112742960453,-0.001486712135374546,0.02231026254594326,0.9997420310974121
1671114314.71856999,112306715,1,-0.004573346581310034,-0.003499999176710844,0.024564657360315323,0.9996816515922546
1671114314.75855803,112346703,1,-0.005098178517073393,-0.005803780164569616,0.028746459633111954,0.9995568990707397
1671114314.79856205,112386707,1,-0.005836102645844221,-0.008864502422511578,0.02915681153535843,0.9995185136795044
1671114314.83858490,112426730,1,-0.006186481565237045,-0.012097707949578762,0.026660557836294174,0.9995521903038025
1671114314.85855794,112446703,1,-0.006606335751712322,-0.013897331431508064,0.028373582288622856,0.9994789361953735
1671114314.87858105,112466726,1,-0.0068044355139136314,-0.01546477247029543,0.026864781975746155,0.9994962811470032
1671114314.91859388,112506739,1,-0.007344573736190796,-0.018795428797602654,0.02620622143149376,0.9994528889656067
1671114314.95853305,112546678,1,-0.0076299868524074554,-0.02143300138413906,0.02147754654288292,0.9995104670524597
1671114314.99855900,112586704,1,-0.007949595339596272,-0.023275377228856087,0.016610313206911087,0.9995594620704651
1671114315.03860188,112626747,1,-0.00859503448009491,-0.024811038747429848,0.01462990790605545,0.9995481371879578
1671114315.05855107,112646696,1,-0.008711527101695538,-0.025483429431915283,0.01095526572316885,0.9995772242546082
1671114315.07859802,112666743,1,-0.008733413182199001,-0.026244914159178734,0.011906937696039677,0.999546468257904
1671114315.11857510,112706720,1,-0.009175055660307407,-0.02678796276450157,0.007606212515383959,0.9995700716972351
1671114315.15856910,112746714,1,-0.009501663967967033,-0.0263186227530241,0.0036868704482913017,0.9996016621589661
1671114315.19857001,112786715,1,-0.009993725456297398,-0.02605774626135826,0.0025913091376423836,0.9996071457862854
1671114315.23855710,112826702,1,-0.010189498774707317,-0.0259079709649086,0.0022320663556456566,0.9996098875999451
1671114315.25861192,112846757,1,-0.010258099064230919,-0.025349177420139313,0.0026120776310563087,0.9996225833892822
1671114315.27858400,112866729,1,-0.010396989993751049,-0.02500401809811592,-2.7548850994207896e-05,0.9996333122253418
1671114315.31859708,112906742,1,-0.010495306923985481,-0.024103133007884026,0.0008892068290151656,0.9996539950370789
1671114315.35860991,112946755,1,-0.010588912293314934,-0.022839684039354324,0.0013173851184546947,0.9996821880340576
1671114315.39856791,112986713,1,-0.010430238209664822,-0.022088225930929184,0.0015184623189270496,0.9997004866600037
1671114315.43856096,113026706,1,-0.01040526945143938,-0.02133050560951233,0.0018130125245079398,0.9997166991233826
1671114315.45858693,113046732,1,-0.010470602661371231,-0.02036394365131855,0.000355042313458398,0.9997377395629883
1671114315.47855687,113066702,1,-0.010367115959525108,-0.01969512738287449,0.0013748646015301347,0.9997513294219971
1671114315.51858187,113106727,1,-0.010221362113952637,-0.018112067133188248,0.003134342608973384,0.9997788071632385
1671114315.55856204,113146707,1,-0.009807448834180832,-0.01605127565562725,0.003317541442811489,0.9998175501823425
1671114315.59860301,113186748,1,-0.009643015451729298,-0.013541110791265965,0.003522370243445039,0.999855637550354
1671114315.63853908,113226684,1,-0.009338552132248878,-0.011754877865314484,0.006246454548090696,0.9998677968978882
1671114315.65858102,113246726,1,-0.009119370952248573,-0.011044264771044254,0.00890794675797224,0.9998577237129211
1671114315.67856598,113266711,1,-0.009370195679366589,-0.01012745127081871,0.007047257386147976,0.9998799562454224
1671114315.71855998,113306705,1,-0.0088145537301898,-0.009955079294741154,0.008901678025722504,0.9998719692230225
1671114315.75858188,113346727,1,-0.008845561183989048,-0.010113847441971302,0.00949422363191843,0.9998646378517151
1671114315.79854703,113386692,1,-0.008305095136165619,-0.011352058500051498,0.008970307186245918,0.9998608231544495
1671114315.83858705,113426732,1,-0.008166555315256119,-0.01334352232515812,0.008258131332695484,0.9998435378074646
1671114315.85858393,113446729,1,-0.00820887554436922,-0.013631634414196014,0.007510228548198938,0.9998452067375183
1671114315.87856793,113466713,1,-0.00804707407951355,-0.015250121243298054,0.005451637785881758,0.9998364448547363
1671114315.91855907,113506704,1,-0.007928909733891487,-0.017804285511374474,0.004604771733283997,0.9997994303703308
1671114315.95858407,113546729,1,-0.007947707548737526,-0.020094851031899452,0.002356297103688121,0.9997637271881104
1671114315.99858809,113586733,1,-0.007851176895201206,-0.02307985909283161,0.0038409102708101273,0.9996954202651978
1671114316.03862000,113626765,1,-0.008144852705299854,-0.024919064715504646,0.001229451154358685,0.999655544757843
1671114316.05855703,113646702,1,-0.008052939549088478,-0.026324661448597908,0.0008129784255288541,0.9996206760406494
1671114316.07858109,113666726,1,-0.00817385595291853,-0.02733026072382927,0.0006209798739291728,0.9995928406715393
1671114316.11857796,113706723,1,-0.008580674417316914,-0.02820342406630516,-0.00011336330499034375,0.9995653629302979
1671114316.15855598,113746701,1,-0.008831365965306759,-0.028687257319688797,-0.0009088062215596437,0.9995490312576294
1671114316.19858503,113786730,1,-0.00912640243768692,-0.028128786012530327,-0.0020660709124058485,0.999560534954071
1671114316.23856306,113826708,1,-0.009640595875680447,-0.026699809357523918,0.00011145114694954827,0.9995970129966736
1671114316.25856400,113846709,1,-0.010110300034284592,-0.025177715346217155,-0.0022757339756935835,0.9996292591094971
1671114316.27860498,113866750,1,-0.0105239637196064,-0.023879017680883408,-0.000673056289087981,0.9996592402458191
1671114316.31854010,113906685,1,-0.011097081005573273,-0.02114434354007244,-0.0020279029849916697,0.9997127652168274
1671114316.35855699,113946702,1,-0.011781384237110615,-0.01837717369198799,-0.0017080319812521338,0.9997602701187134
1671114316.39853787,113986683,1,-0.012667817994952202,-0.014554073102772236,-0.002101978985592723,0.9998116493225098
1671114316.43859005,114026735,1,-0.013429329730570316,-0.011615798808634281,-0.001193452742882073,0.9998416304588318
1671114316.45854092,114046686,1,-0.013799340464174747,-0.00989507045596838,0.00034044942003674805,0.9998557567596436
1671114316.47859502,114066740,1,-0.014537968672811985,-0.007532303221523762,-0.0002913642965722829,0.9998658895492554
1671114316.51859593,114106741,1,-0.015012715943157673,-0.0038137584924697876,0.0003213396412320435,0.9998799562454224
1671114316.55854607,114146691,1,-0.015600385144352913,0.00038706790655851364,-0.0010191629407927394,0.9998776912689209
