timestamp,TimeUS,C,Roll,Pitch,Yaw,VN,VE,VD,dPD,PN,PE,PD,GX,GY,GZ,OH
1671114299.39855003,96986695,1,-0.55,0.08,209.08,-0.07902907580137253,-0.09182798862457275,-0.06517782062292099,-0.11167597025632858,4.227994441986084,0.9006388187408447,0.9822139739990234,0.09,-0.17,-0.07,256.42
1671114299.43855405,97026699,1,-0.55,0.08,209.09,-0.07868415862321854,-0.09211552143096924,-0.06521978229284286,-0.0996462032198906,4.220690727233887,0.898254930973053,0.9782853126525879,0.09,-0.17,-0.07,256.42
1671114299.45857191,97046717,1,-0.55,0.08,209.09,-0.0785798504948616,-0.09165412932634354,-0.06566670536994934,-0.09581518918275833,4.216132164001465,0.8973549604415894,0.9764055013656616,0.09,-0.17,-0.07,256.42
1671114299.47857499,97066720,1,-0.56,0.08,209.09,-0.07864653319120407,-0.09131768345832825,-0.06574982404708862,-0.09209228307008743,4.2118635177612305,0.8963844180107117,0.9743912220001221,0.09,-0.17,-0.07,256.42
1671114299.51857805,97106723,1,-0.55,0.08,209.09,-0.07841527462005615,-0.09141497313976288,-0.06608973443508148,-0.09109559655189514,4.205119609832764,0.8938555717468262,0.9705407619476318,0.09,-0.17,-0.07,256.42
1671114299.55857587,97146721,1,-0.55,0.08,209.1,-0.07818862050771713,-0.09186889976263046,-0.06600333005189896,-0.0912393182516098,4.1989240646362305,0.8912209272384644,0.9668821096420288,0.09,-0.17,-0.07,256.42
1671114299.59852600,97186671,1,-0.55,0.08,209.1,-0.07801860570907593,-0.09230451285839081,-0.06614384055137634,-0.0902886763215065,4.193169116973877,0.8884423971176147,0.9633737802505493,0.09,-0.17,-0.07,256.42
1671114299.63855100,97226696,1,-0.55,0.08,209.1,-0.07626736164093018,-0.09090593457221985,-0.0654875785112381,-0.07665316760540009,4.186100959777832,0.8868986964225769,0.9615902900695801,0.1,-0.17,-0.07,256.42
1671114299.65859604,97246741,1,-0.56,0.08,209.1,-0.07540509104728699,-0.09001100808382034,-0.06496018916368484,-0.0664391964673996,4.182231426239014,0.8863475322723389,0.9607863426208496,0.1,-0.17,-0.07,256.42
1671114299.67857599,97266721,1,-0.56,0.08,209.1,-0.07456067949533463,-0.08883847296237946,-0.0646926760673523,-0.0578838549554348,4.178680896759033,0.8857981562614441,0.9600170254707336,0.1,-0.17,-0.07,256.42
1671114299.71855688,97306702,1,-0.56,0.08,209.1,-0.07332676649093628,-0.08768489211797714,-0.06449998915195465,-0.0452096052467823,4.173005104064941,0.8839213252067566,0.9579146504402161,0.1,-0.17,-0.07,256.42
1671114299.75858593,97346731,1,-0.56,0.09,209.1,-0.07170535624027252,-0.08676838129758835,-0.06395184993743896,-0.04091455414891243,4.167751789093018,0.8818450570106506,0.955646812915802,0.1,-0.17,-0.07,256.42
1671114299.79855490,97386700,1,-0.56,0.09,209.11,-0.07046128064393997,-0.08638747781515121,-0.06370016187429428,-0.04120758920907974,4.162996292114258,0.8797352313995361,0.9534417986869812,0.1,-0.17,-0.07,256.42
1671114299.83855104,97426696,1,-0.56,0.09,209.11,-0.06857158243656158,-0.0849856585264206,-0.06287029385566711,-0.03678368404507637,4.15617561340332,0.8778320550918579,0.9521143436431885,0.1,-0.17,-0.07,256.42
1671114299.85859203,97446737,1,-0.56,0.09,209.11,-0.06736467778682709,-0.08377166092395782,-0.06234082207083702,-0.033248670399188995,4.152472496032715,0.8770864605903625,0.9516019821166992,0.1,-0.17,-0.07,256.42
1671114299.87855005,97466695,1,-0.56,0.09,209.12,-0.06611952185630798,-0.0829494446516037,-0.06202071160078049,-0.030700882896780968,4.149039268493652,0.8763025999069214,0.9510523676872253,0.1,-0.17,-0.07,256.42
1671114299.91858101,97506726,1,-0.56,0.1,209.12,-0.06428340822458267,-0.08143147081136703,-0.06166921928524971,-0.028150301426649094,4.143697738647461,0.8742443919181824,0.949295163154602,0.1,-0.17,-0.07,256.42
1671114299.95858502,97546730,1,-0.56,0.1,209.12,-0.06230190023779869,-0.08019954711198807,-0.06156299263238907,-0.03168986365199089,4.138876438140869,0.8721415400505066,0.9473786354064941,0.1,-0.17,-0.07,256.42
1671114299.99858904,97586734,1,-0.56,0.1,209.13,-0.06068691238760948,-0.07915186882019043,-0.06124861165881157,-0.036477502435445786,4.134479522705078,0.8699435591697693,0.9454132914543152,0.1,-0.17,-0.07,256.42
1671114300.03852701,97626672,1,-0.56,0.1,209.13,-0.056988492608070374,-0.07589787989854813,-0.06017367169260979,-0.029844166710972786,4.128373622894287,0.8686861395835876,0.9449829459190369,0.1,-0.17,-0.07,256.42
1671114300.05857587,97646721,1,-0.56,0.1,209.13,-0.05490505322813988,-0.07349453121423721,-0.05933627858757973,-0.023393426090478897,4.125092029571533,0.8683474063873291,0.9450072646141052,0.1,-0.17,-0.07,256.42
1671114300.07855201,97666697,1,-0.56,0.1,209.14000000000001,-0.05308735370635986,-0.0712093934416771,-0.05885423719882965,-0.018466807901859283,4.122086048126221,0.867992639541626,0.9449598789215088,0.1,-0.17,-0.07,256.42
1671114300.11855102,97706696,1,-0.56,0.11,209.14000000000001,-0.05071231722831726,-0.06800997257232666,-0.058325715363025665,-0.012088591232895851,4.117527961730957,0.8667507171630859,0.9439265727996826,0.1,-0.17,-0.07,256.42
1671114300.15857601,97746721,1,-0.56,0.1,209.15,-0.04796364903450012,-0.0654161348938942,-0.05799214541912079,-0.013982818461954594,4.113480567932129,0.8654902577400208,0.9426437020301819,0.1,-0.18,-0.07,256.42
1671114300.19855309,97786698,1,-0.56,0.1,209.15,-0.04489481449127197,-0.06308229267597198,-0.057471539825201035,-0.018759585916996002,4.109960556030273,0.8642958998680115,0.9413393139839172,0.1,-0.18,-0.07,256.42
1671114300.23859191,97826737,1,-0.56,0.1,209.15,-0.04043594375252724,-0.05908722057938576,-0.05670523643493652,-0.015952136367559433,4.104745864868164,0.8635541200637817,0.9410817623138428,0.1,-0.18,-0.07,256.42
1671114300.25857592,97846721,1,-0.56,0.1,209.15,-0.03811806067824364,-0.05658283084630966,-0.05607854202389717,-0.01213285606354475,4.101996898651123,0.8635363578796387,0.9412428736686707,0.1,-0.18,-0.07,256.42
1671114300.27852201,97866667,1,-0.56,0.1,209.15,-0.03586575388908386,-0.05427897721529007,-0.055384572595357895,-0.009227728471159935,4.099488258361816,0.8634642362594604,0.9412770867347717,0.1,-0.18,-0.07,256.42
1671114300.31855798,97906703,1,-0.56,0.1,209.15,-0.03239487111568451,-0.050828758627176285,-0.054616279900074005,-0.0057339840568602085,4.095883846282959,0.8628667593002319,0.9406095147132874,0.1,-0.18,-0.07,256.42
1671114300.35854602,97946691,1,-0.55,0.1,209.16,-0.029161486774683,-0.04788912087678909,-0.05430574342608452,-0.007501622196286917,4.092833518981934,0.8623130321502686,0.9397727847099304,0.1,-0.18,-0.07,256.42
1671114300.39858294,97986728,1,-0.55,0.1,209.16,-0.025638127699494362,-0.04574528709053993,-0.053631532937288284,-0.011381315998733044,4.090275287628174,0.8617787957191467,0.9388258457183838,0.1,-0.18,-0.07,256.42
1671114300.43859291,98026738,1,-0.55,0.1,209.16,-0.02105439268052578,-0.04045857489109039,-0.05247337743639946,-0.0019273635698482394,4.085670471191406,0.8620895743370056,0.9398097991943359,0.1,-0.18,-0.07,256.42
1671114300.45854998,98046695,1,-0.55,0.1,209.16,-0.018743250519037247,-0.03742344677448273,-0.05159548297524452,0.0065101212821900845,4.083167552947998,0.8626123070716858,0.9406604170799255,0.1,-0.18,-0.07,256.42
1671114300.47857690,98066722,1,-0.55,0.1,209.16,-0.01671937108039856,-0.034278083592653275,-0.05080515891313553,0.012874566949903965,4.0809431076049805,0.863132894039154,0.941387414932251,0.1,-0.18,-0.07,256.42
1671114300.51856804,98106713,1,-0.55,0.1,209.16,-0.013661185279488564,-0.029704624786973,-0.05008199065923691,0.020409975200891495,4.077922821044922,0.8636115193367004,0.9414616823196411,0.1,-0.18,-0.07,256.42
1671114300.55854988,98146695,1,-0.55,0.1,209.16,-0.010189265944063663,-0.0254281684756279,-0.04922938346862793,0.01728939078748226,4.075444221496582,0.8641653656959534,0.9412119388580322,0.1,-0.18,-0.07,256.42
1671114300.59858203,98186727,1,-0.55,0.1,209.17000000000002,-0.006485415156930685,-0.022220773622393608,-0.04848296940326691,0.009714480489492416,4.073455810546875,0.8647602796554565,0.9408026933670044,0.1,-0.18,-0.07,256.42
1671114300.63859606,98226741,1,-0.55,0.1,209.16,-0.0026494835037738085,-0.01822642609477043,-0.046520814299583435,0.02636205404996872,4.06953763961792,0.8650469183921814,0.9439113736152649,0.1,-0.18,-0.07,256.42
1671114300.65854907,98246694,1,-0.55,0.1,209.17000000000002,-0.00017116400704253465,-0.016345147043466568,-0.04494188353419304,0.04178581014275551,4.067341327667236,0.8653942942619324,0.9459856748580933,0.1,-0.18,-0.07,256.42
1671114300.67856407,98266709,1,-0.55,0.1,209.17000000000002,0.002302174922078848,-0.014179179444909096,-0.04384005814790726,0.053830813616514206,4.065426826477051,0.8657487034797668,0.9478570818901062,0.1,-0.18,-0.07,256.42
1671114300.71856594,98306711,1,-0.55,0.1,209.17000000000002,0.006294723134487867,-0.01087384857237339,-0.0420214980840683,0.06972146779298782,4.063076972961426,0.8661921620368958,0.9496322870254517,0.1,-0.18,-0.07,256.42
1671114300.75855207,98346697,1,-0.54,0.09,209.17000000000002,0.009874633513391018,-0.007954283617436886,-0.04048367217183113,0.06911376863718033,4.0612897872924805,0.8667017221450806,0.9509639143943787,0.1,-0.18,-0.07,256.42
1671114300.79854989,98386695,1,-0.54,0.09,209.18,0.012862379662692547,-0.00543650658801198,-0.03970196470618248,0.05967869609594345,4.059988975524902,0.8672361969947815,0.9520298838615417,0.1,-0.18,-0.07,256.42
1671114300.83858299,98426728,1,-0.54,0.09,209.18,0.01633385941386223,-0.0029970428440719843,-0.037484072148799896,0.06462305784225464,4.056393146514893,0.8672278523445129,0.9552416801452637,0.1,-0.18,-0.07,256.42
1671114300.85852194,98446667,1,-0.54,0.09,209.18,0.018014229834079742,-0.0016156488563865423,-0.036537762731313705,0.07045935094356537,4.054290771484375,0.8672884702682495,0.957374095916748,0.1,-0.18,-0.07,256.42
1671114300.87858105,98466726,1,-0.54,0.09,209.18,0.019708622246980667,-0.00015603750944137573,-0.03528419882059097,0.07447423040866852,4.052459716796875,0.8673675656318665,0.9593061804771423,0.1,-0.18,-0.07,256.42
1671114300.91860390,98506749,1,-0.54,0.09,209.18,0.022618822753429413,0.0022243396379053593,-0.033454976975917816,0.07862920314073563,4.050404071807861,0.8675426840782166,0.9614382982254028,0.1,-0.18,-0.07,256.42
1671114300.95855498,98546700,1,-0.54,0.08,209.19,0.025632712990045547,0.004111811053007841,-0.03204233944416046,0.07338066399097443,4.048880577087402,0.8677743077278137,0.9632229208946228,0.1,-0.18,-0.07,256.42
1671114300.99855089,98586696,1,-0.54,0.08,209.19,0.029051637277007103,0.005746891256421804,-0.030782941728830338,0.06327514350414276,4.047848224639893,0.8680440187454224,0.9647233486175537,0.1,-0.18,-0.07,256.42
1671114301.03855300,98626698,1,-0.54,0.08,209.19,0.03335067257285118,0.007079829461872578,-0.028322016820311546,0.07352539896965027,4.0451860427856445,0.8676440715789795,0.9691177606582642,0.1,-0.18,-0.07,256.42
1671114301.05856109,98646706,1,-0.54,0.08,209.19,0.03542241081595421,0.008364937268197536,-0.02717568539083004,0.08383894711732864,4.0436015129089355,0.8673923015594482,0.9719098210334778,0.1,-0.18,-0.07,256.42
1671114301.07858801,98666733,1,-0.54,0.08,209.19,0.0374833345413208,0.009315401315689087,-0.02619289979338646,0.09138841927051544,4.042270660400391,0.8671767711639404,0.9744672775268555,0.1,-0.18,-0.07,256.42
1671114301.11857986,98706725,1,-0.53,0.08,209.19,0.041098956018686295,0.010933090932667255,-0.02451195754110813,0.10108766704797745,4.0411481857299805,0.8670263290405273,0.977539598941803,0.1,-0.18,-0.07,256.42
1671114301.15858102,98746726,1,-0.53,0.07,209.19,0.04430191218852997,0.011868217028677464,-0.022927632555365562,0.09788934886455536,4.040552139282227,0.8669425249099731,0.9801816344261169,0.1,-0.18,-0.07,256.42
1671114301.19852710,98786672,1,-0.53,0.07,209.19,0.04757368564605713,0.01309949904680252,-0.021740959957242012,0.08729059994220734,4.04044246673584,0.8669264316558838,0.9824764132499695,0.1,-0.18,-0.07,256.42
1671114301.23854899,98826694,1,-0.53,0.07,209.19,0.048987530171871185,0.014202704653143883,-0.01961256004869938,0.09080202877521515,4.036935329437256,0.8660456538200378,0.9868564009666443,0.1,-0.18,-0.07,256.42
1671114301.25857806,98846723,1,-0.53,0.07,209.18,0.049332838505506516,0.015045147389173508,-0.01832977496087551,0.0965789332985878,4.034677505493164,0.8654519319534302,0.9896137714385986,0.1,-0.18,-0.07,256.42
1671114301.27855992,98866705,1,-0.53,0.07,209.18,0.049834106117486954,0.015872878953814507,-0.016904281452298164,0.09996701776981354,4.032707691192627,0.8649223446846008,0.9921483397483826,0.1,-0.18,-0.07,256.42
1671114301.31857800,98906723,1,-0.53,0.06,209.19,0.051630374044179916,0.01666453294456005,-0.014833271503448486,0.10270847380161285,4.030749797821045,0.8643872141838074,0.9952082633972168,0.1,-0.18,-0.07,256.42
1671114301.35857701,98946722,1,-0.52,0.06,209.19,0.05321029946208,0.01759333163499832,-0.013641908764839172,0.09437227249145508,4.029360294342041,0.8639721274375916,0.9978057146072388,0.1,-0.18,-0.07,256.42
1671114301.39856100,98986706,1,-0.52,0.06,209.19,0.054739996790885925,0.018864706158638,-0.011984657496213913,0.08193013072013855,4.028423309326172,0.8636581897735596,1.000106692314148,0.1,-0.18,-0.07,256.42
1671114301.43855500,99026700,1,-0.52,0.06,209.20000000000002,0.05582646280527115,0.01897064410150051,-0.009531190618872643,0.09131252765655518,4.025043487548828,0.8620840907096863,1.005399227142334,0.1,-0.18,-0.07,256.42
1671114301.45857596,99046721,1,-0.52,0.06,209.20000000000002,0.05610336735844612,0.01902940310537815,-0.008481408469378948,0.1012512594461441,4.022788047790527,0.8610135912895203,1.0086636543273926,0.1,-0.18,-0.07,256.42
1671114301.47855091,99066696,1,-0.52,0.06,209.20000000000002,0.05649014189839363,0.01901918277144432,-0.007441657595336437,0.10905829071998596,4.0208635330200195,0.8600404858589172,1.0116630792617798,0.1,-0.18,-0.07,256.42
1671114301.51857996,99106725,1,-0.52,0.06,209.20000000000002,0.0582038015127182,0.01893569529056549,-0.006083061918616295,0.117514468729496,4.0190253257751465,0.8588938117027283,1.0152896642684937,0.1,-0.18,-0.07,256.42
1671114301.55860496,99146750,1,-0.52,0.06,209.20000000000002,0.05964953824877739,0.019089870154857635,-0.004576858598738909,0.11052732169628143,4.017693042755127,0.857869029045105,1.0183664560317993,0.1,-0.18,-0.07,256.42
1671114301.59858203,99186727,1,-0.52,0.06,209.20000000000002,0.06140813231468201,0.019025059416890144,-0.003324508434161544,0.09680794179439545,4.016941547393799,0.8569841384887695,1.0211095809936523,0.1,-0.18,-0.07,256.42
1671114301.63858199,99226727,1,-0.52,0.05,209.21,0.06148215010762215,0.018967870622873306,-0.0014386177062988281,0.09503176063299179,4.01307487487793,0.8550973534584045,1.0254374742507935,0.1,-0.18,-0.07,256.42
1671114301.65857697,99246722,1,-0.52,0.05,209.21,0.06106245890259743,0.018742254003882408,-0.0005074029904790223,0.09770553559064865,4.010477066040039,0.8538267016410828,1.0280765295028687,0.1,-0.18,-0.07,256.42
1671114301.67855501,99266700,1,-0.52,0.05,209.21,0.06096293777227402,0.01838986948132515,0.0005731881246902049,0.09860159456729889,4.008230686187744,0.8526619672775269,1.0305176973342896,0.1,-0.18,-0.07,256.42
1671114301.71855998,99306705,1,-0.51,0.04,209.22,0.06133262440562248,0.017987027764320374,0.0017618167912587523,0.09720354527235031,4.0059494972229,0.851224958896637,1.0334265232086182,0.1,-0.18,-0.07,256.42
1671114301.75858307,99346728,1,-0.51,0.04,209.22,0.06243214011192322,0.017578113824129105,0.0027847758028656244,0.08545630425214767,4.004238128662109,0.8499404191970825,1.0358446836471558,0.1,-0.18,-0.07,256.42
1671114301.79856396,99386709,1,-0.51,0.04,209.22,0.06358418613672256,0.017611706629395485,0.004028399009257555,0.07142847031354904,4.003040313720703,0.8488003611564636,1.038022756576538,0.1,-0.18,-0.07,256.42
1671114301.83859205,99426737,1,-0.51,0.04,209.22,0.06325378268957138,0.017772989347577095,0.005136676132678986,0.07317417860031128,3.998793363571167,0.8473325371742249,1.0421910285949707,0.1,-0.18,-0.07,256.42
1671114301.85857987,99446725,1,-0.51,0.04,209.22,0.0632266104221344,0.017900990322232246,0.006278117652982473,0.07940758764743805,3.9959490299224854,0.8463465571403503,1.0447038412094116,0.1,-0.18,-0.07,256.42
1671114301.87852788,99466673,1,-0.51,0.04,209.22,0.06112001836299896,0.017178218811750412,0.006821104325354099,0.08306660503149033,3.9934191703796387,0.8454349637031555,1.0470281839370728,0.1,-0.18,-0.07,256.42
1671114301.91855788,99506703,1,-0.51,0.04,209.23000000000002,0.061629898846149445,0.018290510401129723,0.009956682100892067,0.09000057727098465,3.9907867908477783,0.8444209694862366,1.0501292943954468,0.1,-0.18,-0.07,256.42
1671114301.95855594,99546701,1,-0.5,0.03,209.23000000000002,0.06363977491855621,0.020109932869672775,0.009002226404845715,0.08413637429475784,3.98870587348938,0.8435743451118469,1.0528528690338135,0.1,-0.18,-0.07,256.42
1671114301.99858308,99586728,1,-0.5,0.03,209.23000000000002,0.06268955767154694,0.019162770360708237,0.011210145428776741,0.07704481482505798,3.9872090816497803,0.8429000973701477,1.0553416013717651,0.1,-0.18,-0.07,256.42
1671114302.03859305,99626738,1,-0.5,0.03,209.23000000000002,0.06302015483379364,0.019787026569247246,0.012174799107015133,0.07189450412988663,3.9828364849090576,0.8417723178863525,1.058272361755371,0.1,-0.18,-0.07,256.42
1671114302.05855799,99646703,1,-0.5,0.03,209.23000000000002,0.06164820119738579,0.020079564303159714,0.012851215898990631,0.07088427990674973,3.97987961769104,0.8409778475761414,1.0599883794784546,0.1,-0.18,-0.07,256.42
1671114302.07862091,99666766,1,-0.5,0.03,209.24,0.06197523698210716,0.02089410088956356,0.013652293011546135,0.06923692673444748,3.9773011207580566,0.8402915596961975,1.0616074800491333,0.1,-0.18,-0.07,256.42
1671114302.11857009,99706715,1,-0.5,0.02,209.24,0.06129499152302742,0.02115252986550331,0.014920225366950035,0.06501082330942154,3.9745676517486572,0.8396146297454834,1.0636680126190186,0.1,-0.18,-0.07,256.42
1671114302.15856910,99746714,1,-0.49,0.02,209.24,0.06181976571679115,0.02171839401125908,0.015499498695135117,0.05511537566781044,3.972398281097412,0.8390718102455139,1.0654252767562866,0.1,-0.18,-0.07,256.42
1671114302.19858289,99786728,1,-0.49,0.02,209.25,0.06205743923783302,0.022017041221261024,0.015655577182769775,0.04499667510390282,3.970747232437134,0.8386521935462952,1.0670559406280518,0.1,-0.18,-0.07,256.42
1671114302.23858094,99826726,1,-0.49,0.02,209.25,0.059473298490047455,0.02075408399105072,0.016314223408699036,0.03967563435435295,3.9653866291046143,0.8373293280601501,1.0689254999160767,0.1,-0.18,-0.08,256.42
1671114302.25856495,99846710,1,-0.49,0.02,209.25,0.057876475155353546,0.022013528272509575,0.016436563804745674,0.03822718560695648,3.9618256092071533,0.8364116549491882,1.0699838399887085,0.1,-0.18,-0.08,256.42
1671114302.27858305,99866728,1,-0.48,0.02,209.25,0.06007256358861923,0.021596364676952362,0.017301296815276146,0.03749847039580345,3.9586703777313232,0.8356061577796936,1.0709865093231201,0.1,-0.18,-0.08,256.42
1671114302.31855798,99906703,1,-0.48,0.02,209.24,0.054529111832380295,0.021775754168629646,0.017308436334133148,0.034042056649923325,3.9550623893737793,0.8347207903862,1.072174072265625,0.1,-0.18,-0.08,256.42
1671114302.35856104,99946706,1,-0.48,0.02,209.25,0.05818791314959526,0.02326381765305996,0.01774594374001026,0.026525823399424553,3.952054738998413,0.8340516090393066,1.0731184482574463,0.1,-0.18,-0.08,256.42
1671114302.39855003,99986695,1,-0.48,0.02,209.26,0.05449874326586723,0.021211231127381325,0.020438779145479202,0.022082312032580376,3.9495809078216553,0.8334857821464539,1.0740470886230469,0.1,-0.18,-0.08,256.42
1671114302.43858290,100026728,1,-0.48,0.01,209.27,0.055773645639419556,0.02077532932162285,0.020466774702072144,0.01772996224462986,3.9469242095947266,0.832910418510437,1.075345516204834,0.1,-0.18,-0.08,256.42
1671114302.45855689,100046702,1,-0.48,0.01,209.28,0.054676346480846405,0.02025499939918518,0.02093668095767498,0.023640315979719162,3.9441275596618652,0.8322579860687256,1.0769652128219604,0.1,-0.18,-0.08,256.42
1671114302.47861505,100066760,1,-0.48,0.01,209.28,0.05698035657405853,0.022610871121287346,0.02267397567629814,0.03248520940542221,3.9416427612304688,0.8316852450370789,1.0784770250320435,0.1,-0.18,-0.08,256.42
1671114302.51857495,100106720,1,-0.48,0.01,209.27,0.05903773382306099,0.025340283289551735,0.021357811987400055,0.04443391412496567,3.939246654510498,0.8313168287277222,1.0803717374801636,0.1,-0.18,-0.08,256.42
1671114302.55856895,100146714,1,-0.47000000000000003,0.02,209.25,0.0561675988137722,0.02449491247534752,0.02369256131350994,0.04826953262090683,3.937321424484253,0.831100583076477,1.0819168090820312,0.1,-0.18,-0.08,256.42
1671114302.59855795,100186703,1,-0.47000000000000003,0.01,209.24,0.05632546916604042,0.020506275817751884,0.02336319349706173,0.044617462903261185,3.9357736110687256,0.8308499455451965,1.0834007263183594,0.1,-0.18,-0.08,256.42
1671114302.63855505,100226700,1,-0.47000000000000003,0.0,209.24,0.06014009565114975,0.02770160511136055,0.024738389998674393,0.04347015172243118,3.931926727294922,0.8295325636863708,1.085108995437622,0.1,-0.17,-0.07,256.42
1671114302.65857005,100246715,1,-0.46,0.0,209.25,0.04931851103901863,0.025439321994781494,0.02491222321987152,0.04288691282272339,3.929278612136841,0.8286988139152527,1.0860445499420166,0.1,-0.17,-0.07,256.42
1671114302.67858601,100266731,1,-0.46,0.0,209.26,0.0457037091255188,0.017276640981435776,0.027087612077593803,0.0441439226269722,3.9267725944519043,0.8278582692146301,1.0869401693344116,0.1,-0.18,-0.07,256.42
1671114302.71858406,100306729,1,-0.46,-0.01,209.27,0.06952562183141708,0.019670311361551285,0.025751037523150444,0.04040241986513138,3.9245107173919678,0.8266464471817017,1.0883207321166992,0.1,-0.18,-0.07,256.42
1671114302.75859904,100346744,1,-0.46,-0.01,209.28,0.04052947834134102,0.02975323051214218,0.025039859116077423,0.034339435398578644,3.9227395057678223,0.8262377381324768,1.0895392894744873,0.1,-0.17,-0.07,256.42
1671114302.79857087,100386716,1,-0.46,-0.02,209.26,0.07947538793087006,0.009515717625617981,0.03150864318013191,0.035755597054958344,3.9213223457336426,0.8254848122596741,1.0907483100891113,0.1,-0.18,-0.07,256.42
1671114302.83856702,100426712,1,-0.47000000000000003,-0.01,209.23000000000002,0.051777951419353485,0.03360280767083168,0.028472410514950752,0.03789542242884636,3.9173929691314697,0.8245700001716614,1.0932791233062744,0.1,-0.17,-0.07,256.42
1671114302.85859704,100446742,1,-0.45,-0.01,209.22,0.02912229299545288,0.030618684366345406,0.028507038950920105,0.043439168483018875,3.9140703678131104,0.8241685032844543,1.0947057008743286,0.1,-0.17,-0.07,256.42
1671114302.87855697,100466702,1,-0.45,-0.01,209.22,0.05170660465955734,0.015197757631540298,0.035028330981731415,0.054367467761039734,3.9110069274902344,0.8235923051834106,1.0960228443145752,0.1,-0.17,-0.07,256.42
1671114302.91859007,100506735,1,-0.47000000000000003,-0.01,209.20000000000002,0.06541208177804947,0.027308406308293343,0.028950752690434456,0.05478993430733681,3.9088850021362305,0.8229323029518127,1.098215937614441,0.1,-0.17,-0.07,256.42
1671114302.95859194,100546737,1,-0.44,-0.03,209.19,0.02852371521294117,0.01611357368528843,0.033633921295404434,0.06018054857850075,3.905930757522583,0.8228750228881836,1.1002095937728882,0.1,-0.17,-0.07,256.42
1671114302.99859095,100586736,1,-0.46,-0.02,209.19,0.08359555900096893,0.021669378504157066,0.032459281384944916,0.056521251797676086,3.904592752456665,0.8221891522407532,1.1021549701690674,0.1,-0.17,-0.07,256.42
1671114303.03856397,100626709,1,-0.44,-0.03,209.19,0.017661653459072113,0.03093896247446537,0.034933824092149734,0.05292131379246712,3.8983848094940186,0.8212586641311646,1.1035938262939453,0.1,-0.17,-0.07,256.42
1671114303.05859494,100646740,1,-0.42,-0.04,209.16,0.05078153684735298,0.0023352974094450474,0.03243032470345497,0.04676865413784981,3.8941586017608643,0.8201581835746765,1.1043885946273804,0.1,-0.17,-0.07,256.42
1671114303.07855988,100666705,1,-0.46,-0.04,209.18,0.09158779680728912,0.001247968291863799,0.03028794564306736,0.04101428762078285,3.8912789821624756,0.8188658952713013,1.1051608324050903,0.1,-0.17,-0.07,256.42
1671114303.11858392,100706729,1,-0.46,-0.02,209.16,0.008403024636209011,0.046793729066848755,0.02865978330373764,0.03251096233725548,3.8875744342803955,0.818225622177124,1.1061829328536987,0.1,-0.17,-0.07,256.42
1671114303.15856504,100746710,1,-0.44,-0.04,209.12,0.07853768020868301,-0.0016910959966480732,0.03740517422556877,0.03174738213419914,3.8834006786346436,0.8174524307250977,1.1071126461029053,0.1,-0.17,-0.07,256.42
1671114303.19860697,100786752,1,-0.45,-0.03,209.12,0.022894389927387238,0.04385729879140854,0.03550638630986214,0.022849710658192635,3.8817126750946045,0.8165444135665894,1.1080327033996582,0.1,-0.17,-0.07,256.42
1671114303.23854494,100826690,1,-0.4,-0.04,209.07,0.05227624252438545,0.002111006062477827,0.0375455804169178,0.016943180933594704,3.877053737640381,0.8156184554100037,1.108320951461792,0.1,-0.17,-0.07,256.42
1671114303.25858402,100846729,1,-0.45,-0.03,209.08,0.09312772750854492,-0.002754292218014598,0.03526950255036354,0.009189545176923275,3.8743386268615723,0.8132136464118958,1.1081669330596924,0.1,-0.17,-0.07,256.42
1671114303.27855706,100866702,1,-0.44,-0.03,209.1,0.04691271111369133,0.029050828889012337,0.035571880638599396,0.005060493014752865,3.871920347213745,0.8113037943840027,1.108042597770691,0.1,-0.17,-0.07,256.42
1671114303.31856108,100906706,1,-0.4,-0.06,209.07,0.022697027772665024,0.004864805843681097,0.03788445517420769,-0.0005240165046416223,3.8668034076690674,0.8095642328262329,1.107872724533081,0.1,-0.17,-0.07,256.42
1671114303.35858393,100946729,1,-0.44,-0.03,209.08,0.07107198983430862,0.013704776763916016,0.035970043390989304,-0.010141915641725063,3.8651106357574463,0.8069172501564026,1.1077051162719727,0.1,-0.17,-0.07,256.42
1671114303.39860010,100986745,1,-0.41000000000000003,-0.05,209.06,-0.002664081519469619,0.01206413097679615,0.03484160453081131,-0.014323519542813301,3.861499547958374,0.8054179549217224,1.107652187347412,0.1,-0.17,-0.07,256.42
1671114303.43857098,101026716,1,-0.44,-0.04,209.04,0.09210558235645294,0.005597195588052273,0.03300439566373825,-0.01348117459565401,3.8572983741760254,0.8020545840263367,1.1079926490783691,0.1,-0.17,-0.07,256.42
1671114303.45858288,101046728,1,-0.44,-0.04,209.05,0.025614075362682343,0.01724485121667385,0.03586588799953461,-0.008116763085126877,3.854477882385254,0.8002015352249146,1.1080341339111328,0.1,-0.17,-0.07,256.42
1671114303.47856188,101066707,1,-0.43,-0.05,209.02,-0.015303277410566807,0.01469796895980835,0.035016320645809174,-0.005557555705308914,3.8507254123687744,0.7985866665840149,1.108123779296875,0.1,-0.17,-0.07,256.42
1671114303.51856995,101106715,1,-0.42,-0.05,209.0,0.09250008314847946,0.0035402255598455667,0.03432071581482887,-0.0009847570909187198,3.847360134124756,0.7961248159408569,1.1083683967590332,0.1,-0.17,-0.07,256.42
1671114303.55855894,101146704,1,-0.43,-0.04,209.01,-0.010652594268321991,0.007517469115555286,0.033746618777513504,-1.3878756362828426e-05,3.844980239868164,0.7938584685325623,1.1085859537124634,0.1,-0.17,-0.07,256.42
1671114303.59858203,101186727,1,-0.41000000000000003,-0.06,208.98000000000002,0.07744375616312027,0.0009407551260665059,0.03291916102170944,0.00046049701632000506,3.8418784141540527,0.7920733690261841,1.1089205741882324,0.1,-0.17,-0.07,256.42
1671114303.63860893,101226754,1,-0.44,-0.05,209.01,0.01254783384501934,-0.0037182203959673643,0.035005319863557816,0.010220992378890514,3.8380777835845947,0.7894145250320435,1.1101810932159424,0.1,-0.17,-0.07,256.42
1671114303.65856099,101246706,1,-0.42,-0.05,208.99,-0.009620901197195053,0.014131875708699226,0.03339691832661629,0.014113410376012325,3.8341643810272217,0.7880317568778992,1.1108155250549316,0.1,-0.17,-0.07,256.42
1671114303.67861104,101266756,1,-0.4,-0.06,208.98000000000002,0.042761631309986115,0.01113117765635252,0.03357300907373428,0.019442081451416016,3.830979585647583,0.7869277000427246,1.1114360094070435,0.1,-0.17,-0.07,256.42
1671114303.71852708,101306672,1,-0.42,-0.05,208.99,0.039786238223314285,-0.00898232962936163,0.038513921201229095,0.031645093113183975,3.828904151916504,0.7848694324493408,1.1124749183654785,0.1,-0.17,-0.07,256.42
1671114303.75856495,101346710,1,-0.4,-0.06,208.95000000000002,0.016884535551071167,0.015973517671227455,0.03851446509361267,0.033215343952178955,3.825165033340454,0.7833266258239746,1.1134991645812988,0.1,-0.17,-0.07,256.42
1671114303.79858994,101386735,1,-0.43,-0.06,208.94,0.05832706391811371,-0.015229462645947933,0.039064809679985046,0.03339692950248718,3.8237452507019043,0.7818617224693298,1.114537239074707,0.1,-0.17,-0.07,256.42
1671114303.83857989,101426725,1,-0.43,-0.05,208.92000000000002,0.00454365648329258,0.010747520253062248,0.03645747900009155,0.02679106779396534,3.8172056674957275,0.7794782519340515,1.1151957511901855,0.1,-0.17,-0.07,256.42
1671114303.85856104,101446706,1,-0.38,-0.07,208.9,0.0319165363907814,0.014777661301195621,0.03891676291823387,0.026537951081991196,3.813058614730835,0.7784780859947205,1.1153901815414429,0.1,-0.17,-0.07,256.42
1671114303.87858796,101466733,1,-0.41000000000000003,-0.06,208.91,0.0525655522942543,-0.010234960354864597,0.035299528390169144,0.020759571343660355,3.8098864555358887,0.7773722410202026,1.1156654357910156,0.1,-0.17,-0.07,256.42
1671114303.91857696,101506722,1,-0.42,-0.05,208.91,0.013718555681407452,0.003747232025489211,0.03781977295875549,0.018759194761514664,3.8058929443359375,0.7752540111541748,1.1160600185394287,0.1,-0.17,-0.07,256.42
1671114303.95854092,101546686,1,-0.38,-0.07,208.9,0.03346100077033043,-0.002238420769572258,0.03972507268190384,0.013055828399956226,3.801504611968994,0.7744056582450867,1.1163148880004883,0.1,-0.17,-0.07,256.42
1671114303.99855709,101586702,1,-0.41000000000000003,-0.06,208.89000000000001,0.033587537705898285,-0.010797277092933655,0.03853081539273262,0.007182012777775526,3.799117088317871,0.7724308371543884,1.1167550086975098,0.1,-0.17,-0.07,256.42
1671114304.03858995,101626735,1,-0.38,-0.07,208.88,0.0025028041563928127,0.008537122048437595,0.044173989444971085,0.016565026715397835,3.792151689529419,0.77070552110672,1.1180140972137451,0.1,-0.17,-0.07,256.42
1671114304.05856895,101646714,1,-0.38,-0.07,208.85,0.04649372771382332,-0.020378682762384415,0.040243491530418396,0.01672535017132759,3.788331985473633,0.769307017326355,1.1186813116073608,0.1,-0.17,-0.07,256.42
1671114304.07857394,101666719,1,-0.39,-0.06,208.85,0.05327669531106949,-0.023299582302570343,0.03829936683177948,0.01894264481961727,3.785501718521118,0.7676934003829956,1.1192785501480103,0.1,-0.17,-0.07,256.42
1671114304.11860895,101706754,1,-0.39,-0.07,208.84,-0.019743533805012703,0.006038629449903965,0.04043035954236984,0.02653147093951702,3.78059983253479,0.7660895586013794,1.120163083076477,0.1,-0.17,-0.06,256.42
1671114304.15856910,101746714,1,-0.39,-0.07,208.82,0.061423689126968384,-0.014917120337486267,0.04403383284807205,0.02766610123217106,3.776864767074585,0.7644366025924683,1.1208858489990234,0.1,-0.17,-0.06,256.42
1671114304.19856095,101786706,1,-0.4,-0.07,208.83,-0.020763983950018883,-0.0009840162238106132,0.04487195983529091,0.025467822328209877,3.77376127243042,0.7626513242721558,1.1217257976531982,0.1,-0.17,-0.06,256.42
1671114304.23855495,101826700,1,-0.36,-0.08,208.79,0.04998229444026947,-0.007627718150615692,0.04585661366581917,0.03556320071220398,3.768259286880493,0.7612029314041138,1.1242306232452393,0.1,-0.17,-0.06,256.42
1671114304.25858998,101846735,1,-0.39,-0.08,208.81,0.04086608067154884,-0.02129601128399372,0.04680623114109039,0.04441105201840401,3.7658276557922363,0.7600650787353516,1.1255742311477661,0.1,-0.17,-0.06,256.42
1671114304.27858496,101866730,1,-0.38,-0.07,208.81,-0.0023727852385491133,-0.016306038945913315,0.045170072466135025,0.04990895465016365,3.7630584239959717,0.7588894367218018,1.126878261566162,0.1,-0.17,-0.06,256.42
1671114304.31859899,101906744,1,-0.35000000000000003,-0.09,208.78,0.023583486676216125,0.0038226970937103033,0.04085749015212059,0.055035483092069626,3.7587392330169678,0.7578694224357605,1.1287841796875,0.1,-0.17,-0.06,256.42
1671114304.35859895,101946744,1,-0.36,-0.08,208.78,0.023011235520243645,-0.03241238370537758,0.04325878992676735,0.056648436933755875,3.7565157413482666,0.7563065886497498,1.1305385828018188,0.1,-0.17,-0.06,256.42
1671114304.39853001,101986675,1,-0.36,-0.09,208.76,-0.003003346733748913,0.006352218333631754,0.04014141485095024,0.049720436334609985,3.7534258365631104,0.755241334438324,1.1322929859161377,0.1,-0.17,-0.06,256.42
1671114304.43855786,102026703,1,-0.37,-0.09,208.75,0.041082438081502914,-0.03622175380587578,0.048327915370464325,0.05311288684606552,3.7501089572906494,0.7532170414924622,1.1339120864868164,0.1,-0.17,-0.06,256.42
1671114304.45857000,102046715,1,-0.38,-0.08,208.74,0.016704216599464417,-0.01804368570446968,0.04607338458299637,0.048518337309360504,3.7482779026031494,0.7516987323760986,1.134713053703308,0.1,-0.17,-0.06,256.42
1671114304.47856402,102066709,1,-0.38,-0.08,208.75,-0.012945559807121754,0.010341539978981018,0.045059945434331894,0.04553242772817612,3.7460641860961914,0.7508395314216614,1.135530710220337,0.1,-0.17,-0.06,256.42
1671114304.51858401,102106729,1,-0.36,-0.1,208.72,0.045123327523469925,-0.030604375526309013,0.046205148100852966,0.04237113893032074,3.7433578968048096,0.74942547082901,1.136776089668274,0.1,-0.17,-0.06,256.42
1671114304.55857491,102146720,1,-0.38,-0.09,208.74,-0.003949957434087992,0.0020355707965791225,0.050008561462163925,0.038315266370773315,3.7422735691070557,0.7476022839546204,1.1378997564315796,0.1,-0.17,-0.06,256.42
1671114304.59860086,102186746,1,-0.36,-0.11,208.68,0.031251899898052216,-0.016323717311024666,0.04642905294895172,0.028906727209687233,3.739957571029663,0.7466213703155518,1.1391615867614746,0.1,-0.17,-0.06,256.42
1671114304.63857388,102226719,1,-0.38,-0.09,208.71,0.017613014206290245,-0.02816156856715679,0.0498381108045578,0.03385922685265541,3.737255573272705,0.7433735132217407,1.1410679817199707,0.1,-0.17,-0.06,256.42
1671114304.65860295,102246748,1,-0.38,-0.09,208.68,-0.015836235135793686,-0.008269988931715488,0.05111648514866829,0.03775094822049141,3.7346200942993164,0.7416352033615112,1.1420314311981201,0.1,-0.17,-0.06,256.42
1671114304.67855692,102266702,1,-0.34,-0.12,208.66,-0.004016397055238485,0.008480174466967583,0.04882369190454483,0.03847194463014603,3.732006311416626,0.7403963804244995,1.1430248022079468,0.1,-0.17,-0.06,256.42
1671114304.71859002,102306735,1,-0.36,-0.11,208.66,0.042102254927158356,-0.04759826138615608,0.05510431528091431,0.04796094819903374,3.730257034301758,0.7380511164665222,1.144402265548706,0.1,-0.17,-0.06,256.42
1671114304.75858307,102346728,1,-0.36,-0.12,208.63,-0.01991278864443302,0.007824729196727276,0.049445826560258865,0.0367872416973114,3.727774143218994,0.7356753349304199,1.1455402374267578,0.1,-0.17,-0.06,256.42
1671114304.79858994,102386735,1,-0.37,-0.11,208.65,0.04769870266318321,-0.04877110570669174,0.054855529218912125,0.03668665513396263,3.7265870571136475,0.7337037324905396,1.1467846632003784,0.1,-0.17,-0.06,256.42
1671114304.83859992,102426745,1,-0.37,-0.12,208.61,-0.0024858517572283745,-0.003361570416018367,0.04715510457754135,0.027515603229403496,3.722280740737915,0.730961799621582,1.1483538150787354,0.1,-0.17,-0.06,256.42
1671114304.85858202,102446727,1,-0.35000000000000003,-0.13,208.62,0.02190581150352955,-0.015084699727594852,0.04825110360980034,0.029134776443243027,3.719719409942627,0.7297638058662415,1.1491109132766724,0.1,-0.17,-0.06,256.42
1671114304.87856197,102466707,1,-0.34,-0.11,208.62,0.014890040270984173,-0.027136866003274918,0.057719841599464417,0.039813149720430374,3.7176828384399414,0.728319525718689,1.149875283241272,0.1,-0.17,-0.06,256.42
1671114304.91855597,102506701,1,-0.36,-0.12,208.61,0.016296857967972755,-0.015169017016887665,0.04750131443142891,0.031066976487636566,3.715235710144043,0.7262819409370422,1.1512775421142578,0.1,-0.17,-0.06,256.42
1671114304.95858598,102546731,1,-0.36,-0.13,208.56,0.025027118623256683,-0.02876102179288864,0.04708418622612953,0.028337661176919937,3.712749481201172,0.7241849899291992,1.1525551080703735,0.1,-0.17,-0.06,256.42
1671114304.99859500,102586740,1,-0.4,-0.14,208.54,0.013245434500277042,-0.034379880875349045,0.05301499366760254,0.032494209706783295,3.7113380432128906,0.7220290899276733,1.1540288925170898,0.1,-0.17,-0.06,256.42
1671114305.03861403,102626759,1,-0.35000000000000003,-0.12,208.53,0.01684720069169998,-0.026211123913526535,0.05410812050104141,0.03556329384446144,3.7069644927978516,0.7202929854393005,1.1558810472488403,0.1,-0.17,-0.06,256.42
1671114305.05859303,102646738,1,-0.35000000000000003,-0.13,208.52,0.019322197884321213,-0.037819039076566696,0.05464973300695419,0.03800581768155098,3.7043721675872803,0.7190880179405212,1.1567744016647339,0.1,-0.17,-0.06,256.42
1671114305.07855892,102666704,1,-0.36,-0.14,208.52,0.02198491059243679,-0.024773098528385162,0.06234187260270119,0.047803014516830444,3.70209002494812,0.7181990146636963,1.157650113105774,0.1,-0.17,-0.06,256.42
1671114305.11855793,102706703,1,-0.34,-0.15,208.47,0.007253203075379133,-0.012836681678891182,0.055106792598962784,0.043050382286310196,3.6991822719573975,0.716377854347229,1.15932035446167,0.1,-0.17,-0.06,256.42
1671114305.15856910,102746714,1,-0.36,-0.15,208.47,0.009641614742577076,-0.033337704837322235,0.06392019242048264,0.0500919483602047,3.696768283843994,0.7147930264472961,1.1608177423477173,0.1,-0.17,-0.06,256.42
1671114305.19859290,102786738,1,-0.35000000000000003,-0.16,208.45000000000002,0.014673064462840557,-0.03921026736497879,0.025638524442911148,0.009975142776966095,3.6949026584625244,0.7131217122077942,1.162422776222229,0.1,-0.17,-0.06,256.42
1671114305.23859096,102826736,1,-0.37,-0.14,208.42000000000002,0.026932278648018837,-0.03531765565276146,0.07242965698242188,0.050618257373571396,3.6910526752471924,0.7117404341697693,1.163235068321228,0.1,-0.17,-0.05,256.42
1671114305.25855994,102846705,1,-0.41000000000000003,-0.11,208.4,0.009983821772038937,-0.02674614079296589,0.06361903995275497,0.03769829124212265,3.6886870861053467,0.7110476493835449,1.1635254621505737,0.1,-0.17,-0.05,256.42
1671114305.27859807,102866743,1,-0.41000000000000003,-0.14,208.39000000000001,0.028628142550587654,-0.018011897802352905,0.03423459455370903,0.005138288252055645,3.6866302490234375,0.7105310559272766,1.1639584302902222,0.1,-0.17,-0.05,256.42
1671114305.31854200,102906687,1,-0.35000000000000003,-0.14,208.34,0.03349924832582474,-0.027476536110043526,0.07761471718549728,0.042793624103069305,3.684382677078247,0.7094578146934509,1.1644467115402222,0.1,-0.17,-0.05,256.42
1671114305.35855389,102946699,1,-0.31,-0.1,208.3,0.018460877239704132,-0.023910749703645706,0.05908799171447754,0.01450742594897747,3.682476282119751,0.7083056569099426,1.1648553609848022,0.1,-0.17,-0.05,256.42
1671114305.39855695,102986702,1,-0.33,-0.12,208.28,0.01384231448173523,-0.024270251393318176,0.008371483534574509,-0.041499339044094086,3.680755853652954,0.707224428653717,1.1655908823013306,0.1,-0.17,-0.05,256.42
1671114305.43858504,103026730,1,-0.41000000000000003,-0.12,208.25,0.0037868262734264135,-0.027621891349554062,0.04722115397453308,-0.009958540089428425,3.6768908500671387,0.705569863319397,1.1653928756713867,0.1,-0.17,-0.05,256.42
1671114305.45857286,103046718,1,-0.39,-0.13,208.24,0.010549945756793022,-0.03690746799111366,0.05774587020277977,-0.003731698263436556,3.6744847297668457,0.7048105597496033,1.1650500297546387,0.1,-0.17,-0.05,256.42
1671114305.47859907,103066744,1,-0.35000000000000003,-0.14,208.23000000000002,0.0008478863164782524,-0.025321222841739655,0.07415325194597244,0.01054306048899889,3.6722545623779297,0.7038490176200867,1.164737343788147,0.1,-0.17,-0.05,256.42
1671114305.51861095,103106756,1,-0.32,-0.16,208.21,0.008838771842420101,-0.02904333546757698,0.08911845833063126,0.02092687599360943,3.6693315505981445,0.7023882269859314,1.164337158203125,0.1,-0.17,-0.05,256.42
1671114305.55853295,103146678,1,-0.37,-0.16,208.17000000000002,0.004857614636421204,-0.027515709400177002,0.08274353295564651,0.00702680554240942,3.6668496131896973,0.7010126113891602,1.1638647317886353,0.1,-0.17,-0.05,256.42
1671114305.59855700,103186702,1,-0.47000000000000003,-0.19,208.13,0.012224202044308186,-0.04396954923868179,0.08682606369256973,0.008813622407615185,3.664829969406128,0.6995604634284973,1.1637377738952637,0.1,-0.17,-0.05,256.42
1671114305.63858390,103226729,1,-0.34,-0.21,208.09,0.02031831257045269,-0.038834888488054276,0.051244813948869705,-0.028393976390361786,3.659956455230713,0.6972399353981018,1.1632049083709717,0.1,-0.17,-0.05,256.42
1671114305.65852809,103246673,1,-0.3,-0.2,208.08,0.012403610162436962,-0.034820716828107834,0.04833433777093887,-0.031189201399683952,3.6570966243743896,0.6960085034370422,1.1626344919204712,0.1,-0.17,-0.05,256.42
1671114305.67860889,103266754,1,-0.34,-0.21,208.04,0.019873958081007004,-0.03439465910196304,0.07484667003154755,-0.002850149292498827,3.654412031173706,0.6947942972183228,1.162290096282959,0.1,-0.17,-0.05,256.42
1671114305.71859097,103306736,1,-0.37,-0.24,208.02,0.004529830068349838,-0.03778765723109245,0.05729474499821663,-0.016286324709653854,3.6509015560150146,0.6926611661911011,1.1619967222213745,0.1,-0.17,-0.04,256.42
1671114305.75857997,103346725,1,-0.4,-0.26,207.98000000000002,8.452983456663787e-05,-0.04401598125696182,0.04554237425327301,-0.025458259508013725,3.6476011276245117,0.6906319260597229,1.1616501808166504,0.1,-0.17,-0.04,256.42
1671114305.79857206,103386717,1,-0.36,-0.32,207.91,0.00218328763730824,-0.04991151764988899,0.050083864480257034,-0.015859877690672874,3.644554853439331,0.6884974837303162,1.161649227142334,0.1,-0.17,-0.04,256.42
1671114305.83855700,103426702,1,-0.33,-0.41000000000000003,207.89000000000001,-0.02558901347219944,-0.047293394804000854,0.051154252141714096,-0.019848719239234924,3.6387648582458496,0.6861318349838257,1.159894585609436,0.1,-0.17,-0.04,256.42
1671114305.85858989,103446735,1,-0.36,-0.47000000000000003,207.86,-0.014128660783171654,-0.06338715553283691,0.0611439123749733,-0.01472097635269165,3.6352779865264893,0.6848350763320923,1.1586049795150757,0.1,-0.17,-0.04,256.42
1671114305.87858200,103466727,1,-0.31,-0.5,207.83,-0.019024843350052834,-0.05437057465314865,0.015044123865664005,-0.06364399194717407,3.6319360733032227,0.6834937930107117,1.1572986841201782,0.1,-0.17,-0.04,256.42
1671114305.91859794,103506743,1,-0.34,-0.64,207.8,-0.01398107223212719,-0.0760885700583458,0.013982466422021389,-0.07091972231864929,3.627166748046875,0.6807782053947449,1.1546306610107422,0.1,-0.17,-0.04,256.42
1671114305.95860696,103546752,1,-0.4,-0.68,207.73000000000002,-0.036069661378860474,-0.06629577279090881,0.01121180783957243,-0.08724569529294968,3.622680902481079,0.6780312657356262,1.1511863470077515,0.1,-0.17,-0.04,256.42
1671114305.99857402,103586719,1,-0.4,-0.77,207.67000000000002,-0.0248526930809021,-0.056862734258174896,-0.01602892205119133,-0.1203756183385849,3.6186325550079346,0.6754310131072998,1.1473934650421143,0.1,-0.17,-0.04,256.42
1671114306.03856492,103626710,1,-0.22,-0.71,207.64000000000001,-0.027934713289141655,-0.06056125462055206,-0.020953545346856117,-0.13457085192203522,3.6127421855926514,0.672296404838562,1.1413320302963257,0.1,-0.17,-0.04,256.42
1671114306.05858898,103646734,1,-0.22,-0.6900000000000001,207.61,-0.02784700132906437,-0.06136314198374748,-0.07783012837171555,-0.19729921221733093,3.609273910522461,0.6705212593078613,1.1374680995941162,0.1,-0.17,-0.04,256.42
1671114306.07855892,103666704,1,-0.39,-0.62,207.54,-0.04131238907575607,-0.06753966212272644,-0.10695447772741318,-0.22839203476905823,3.6060705184936523,0.6689542531967163,1.1336500644683838,0.1,-0.17,-0.04,256.42
1671114306.11858296,103706728,1,-0.38,-0.54,207.52,-0.040585167706012726,-0.04355141520500183,-0.0714980810880661,-0.19621223211288452,3.601332902908325,0.6658343076705933,1.1256674528121948,0.1,-0.17,-0.03,256.42
1671114306.15856099,103746706,1,-0.19,-0.48,207.48000000000002,-0.02335266023874283,-0.0752948746085167,-0.07753755897283554,-0.207511305809021,3.5969221591949463,0.6626800894737244,1.1164402961730957,0.1,-0.17,-0.03,256.42
1671114306.19861007,103786755,1,-0.02,-0.49,207.49,-0.04871160164475441,-0.06805291026830673,-0.13414664566516876,-0.26114457845687866,3.592700242996216,0.6592952609062195,1.106274962425232,0.1,-0.18,-0.03,256.42
1671114306.23856807,103826713,1,-0.01,-0.5700000000000001,207.44,-0.0361609160900116,-0.08378208428621292,-0.17570702731609344,-0.29462167620658875,3.58758544921875,0.6564886569976807,1.094970464706421,0.1,-0.18,-0.03,256.42
1671114306.25860500,103846750,1,0.09,-0.63,207.47,-0.04813625290989876,-0.08350903540849686,-0.24770064651966095,-0.36197060346603394,3.5846691131591797,0.6551201343536377,1.0884517431259155,0.1,-0.18,-0.03,256.42
1671114306.27855706,103866702,1,0.11,-0.72,207.46,-0.05808116868138313,-0.07991185039281845,-0.2653810977935791,-0.37258121371269226,3.5819499492645264,0.6536937952041626,1.0815974473953247,0.1,-0.18,-0.03,256.42
1671114306.31857491,103906720,1,0.25,-0.86,207.44,-0.03954986855387688,-0.10134737193584442,-0.2930353581905365,-0.39392516016960144,3.577629566192627,0.6506149172782898,1.0659626722335815,0.1,-0.18,-0.03,256.42
1671114306.35858798,103946733,1,0.17,-0.9500000000000001,207.45000000000002,-0.05361417680978775,-0.09059016406536102,-0.3763086497783661,-0.49316513538360596,3.573545455932617,0.647510290145874,1.0480494499206543,0.1,-0.18,-0.03,256.42
1671114306.39857101,103986716,1,0.29,-1.06,207.44,-0.055789317935705185,-0.09582319855690002,-0.369062602519989,-0.4967130124568939,3.5697410106658936,0.6440523266792297,1.0292993783950806,0.1,-0.18,-0.03,256.42
1671114306.43857908,104026724,1,0.16,-1.12,207.45000000000002,-0.05594929680228233,-0.10084296762943268,-0.3731512427330017,-0.5327771306037903,3.5644583702087402,0.6413600444793701,1.0052164793014526,0.1,-0.18,-0.03,256.42
1671114306.45858192,104046727,1,0.2,-1.19,207.47,-0.06563538312911987,-0.09712187945842743,-0.37435346841812134,-0.5549893975257874,3.561553955078125,0.6400843262672424,0.9917914867401123,0.1,-0.18,-0.03,256.42
1671114306.47856998,104066715,1,0.02,-1.16,207.43,-0.058813612908124924,-0.10481983423233032,-0.39564454555511475,-0.5896311402320862,3.558760166168213,0.6386862993240356,0.9785218238830566,0.1,-0.18,-0.03,256.42
1671114306.51857591,104106721,1,0.23,-1.33,207.49,-0.07752873003482819,-0.1079348772764206,-0.45725998282432556,-0.6703302264213562,3.5539214611053467,0.6353269815444946,0.9528195858001709,0.1,-0.18,-0.02,256.42
1671114306.55858493,104146730,1,0.19,-1.59,207.5,-0.0840119868516922,-0.11420600861310959,-0.48029211163520813,-0.7062862515449524,3.5490241050720215,0.6313969492912292,0.925988495349884,0.1,-0.18,-0.02,256.42
1671114306.59859300,104186738,1,0.15,-1.96,207.54,-0.10271885991096497,-0.1360180824995041,-0.517950713634491,-0.7393097281455994,3.5439212322235107,0.6272484064102173,0.8993611931800842,0.1,-0.18,-0.02,256.42
1671114306.63859487,104226740,1,0.06,-2.44,207.58,-0.11753825098276138,-0.14694379270076752,-0.545604944229126,-0.7635814547538757,3.5345237255096436,0.6236147284507751,0.8702819347381592,0.1,-0.18,-0.02,256.42
1671114306.65856194,104246707,1,0.04,-2.69,207.57,-0.13516101241111755,-0.14895743131637573,-0.5506675839424133,-0.7684218883514404,3.52911376953125,0.6220167875289917,0.8548751473426819,0.1,-0.18,-0.02,256.42
1671114306.67857909,104266724,1,0.06,-2.91,207.6,-0.14721989631652832,-0.15392185747623444,-0.5591379404067993,-0.7719142436981201,3.52370023727417,0.6201817989349365,0.839145839214325,0.1,-0.18,-0.02,256.42
1671114306.71857810,104306723,1,0.0,-3.3000000000000003,207.63,-0.14485760033130646,-0.16036038100719452,-0.6177359223365784,-0.8162758350372314,3.514284610748291,0.6156404614448547,0.809917151927948,0.1,-0.18,-0.02,256.42
1671114306.75855803,104346703,1,-0.24,-3.5,207.65,-0.1718227118253708,-0.18131224811077118,-0.6049747467041016,-0.7842686772346497,3.5045504570007324,0.6105689406394958,0.7800199389457703,0.1,-0.18,-0.02,256.42
1671114306.79858303,104386728,1,-0.28,-3.6,207.67000000000002,-0.1946878731250763,-0.1709149181842804,-0.6298064589500427,-0.7865549921989441,3.4944589138031006,0.6050467491149902,0.7499849200248718,0.1,-0.18,-0.02,256.42
1671114306.83860493,104426750,1,-0.51,-3.5500000000000003,207.69,-0.20223143696784973,-0.19546231627464294,-0.6233164072036743,-0.7763352990150452,3.4811079502105713,0.6000050902366638,0.7169308662414551,0.1,-0.18,-0.02,256.42
1671114306.85855699,104446702,1,-0.65,-3.46,207.71,-0.22704628109931946,-0.17225001752376556,-0.6039942502975464,-0.760594367980957,3.4735567569732666,0.5975642204284668,0.699201762676239,0.1,-0.18,-0.02,256.42
1671114306.87856793,104466713,1,-0.61,-3.27,207.69,-0.2296866625547409,-0.18709596991539001,-0.6264747977256775,-0.7834397554397583,3.466221570968628,0.5950058698654175,0.6820552349090576,0.1,-0.18,-0.02,256.42
1671114306.91860700,104506752,1,-0.84,-2.85,207.72,-0.24404066801071167,-0.20753517746925354,-0.6175390481948853,-0.7766401767730713,3.452753782272339,0.5890077352523804,0.6485083699226379,0.1,-0.18,-0.01,256.42
1671114306.95856190,104546707,1,-0.46,-2.32,207.77,-0.25262951850891113,-0.20830193161964417,-0.6631454229354858,-0.8278604745864868,3.439246654510498,0.5825559496879578,0.614975094795227,0.1,-0.18,-0.01,256.42
1671114306.99855709,104586702,1,-0.42,-1.76,207.8,-0.2748161852359772,-0.22192305326461792,-0.6686149835586548,-0.8288466930389404,3.4255590438842773,0.5758371353149414,0.5820854306221008,0.1,-0.18,-0.01,256.42
1671114307.03858089,104626726,1,-0.18,-1.29,207.84,-0.28646376729011536,-0.20788069069385529,-0.6819959282875061,-0.8564558029174805,3.4082114696502686,0.5712728500366211,0.5449017286300659,0.1,-0.18,-0.01,256.42
1671114307.05855799,104646703,1,-0.27,-1.05,207.85,-0.3181529939174652,-0.19465039670467377,-0.7050875425338745,-0.8921182751655579,3.398777723312378,0.5695412158966064,0.5253764390945435,0.1,-0.18,-0.01,256.42
1671114307.07856107,104666706,1,-0.3,-0.85,207.88,-0.3184027075767517,-0.22930485010147095,-0.7191811203956604,-0.9137203097343445,3.3896377086639404,0.5677509903907776,0.5066345930099487,0.1,-0.18,-0.01,256.42
1671114307.11860204,104706747,1,-0.14,-0.5700000000000001,207.9,-0.3223431408405304,-0.20929959416389465,-0.7079848051071167,-0.9182904362678528,3.3725717067718506,0.5622676014900208,0.4679175913333893,0.1,-0.18,-0.01,256.42
1671114307.15852809,104746673,1,-0.19,-0.42,207.98000000000002,-0.3287487030029297,-0.21414221823215485,-0.7418896555900574,-0.9822527766227722,3.3558754920959473,0.5568010807037354,0.4291486442089081,0.1,-0.18,-0.01,256.42
1671114307.19856000,104786705,1,0.0,-0.31,208.02,-0.32047030329704285,-0.21647529304027557,-0.7077338695526123,-0.9615796208381653,3.339423418045044,0.5510355830192566,0.3915766477584839,0.1,-0.18,-0.01,256.42
1671114307.23855400,104826699,1,-0.12,-0.19,208.07,-0.35196301341056824,-0.19349229335784912,-0.7731924057006836,-1.0553154945373535,3.3215460777282715,0.5461441874504089,0.34974995255470276,0.1,-0.18,0.0,256.42
1671114307.25854492,104846690,1,-0.18,-0.17,208.08,-0.3360626697540283,-0.20510801672935486,-0.7364963293075562,-1.0358712673187256,3.3121674060821533,0.5440624952316284,0.3275669813156128,0.1,-0.18,0.0,256.42
1671114307.27858686,104866732,1,-0.2,-0.14,208.08,-0.3389570116996765,-0.2092227041721344,-0.7157665491104126,-1.0238745212554932,3.302985191345215,0.5419116020202637,0.3060506284236908,0.1,-0.18,0.0,256.42
1671114307.31857204,104906717,1,-0.19,-0.01,180.44,-0.33653759956359863,-0.1985068917274475,-0.7063204646110535,-1.0248069763183594,3.2861170768737793,0.5361542105674744,0.26521605253219604,0.1,-0.18,0.0,256.42
1671114307.35857296,104946718,1,-0.09,0.0,180.5,-0.3357289731502533,-0.20169876515865326,-0.7396733164787292,-1.0655360221862793,3.2697854042053223,0.5302577614784241,0.22531281411647797,0.1,-0.18,0.0,256.42
1671114307.39854097,104986686,1,0.03,-0.01,180.57,-0.34283944964408875,-0.19797290861606598,-0.7186793684959412,-1.0326967239379883,3.253861665725708,0.5242476463317871,0.1870860755443573,0.1,-0.18,0.0,256.42
1671114307.43856001,105026705,1,0.27,-0.06,180.63,-0.3293728232383728,-0.2186955064535141,-0.6642007231712341,-0.9550780057907104,3.2368743419647217,0.5208044648170471,0.14963030815124512,0.1,-0.18,0.0,256.42
1671114307.45861006,105046755,1,0.43,-0.12,180.68,-0.3379385769367218,-0.19339238107204437,-0.6995753645896912,-0.9761812686920166,3.227900981903076,0.5194626450538635,0.1300293505191803,0.1,-0.18,0.0,256.42
1671114307.47858191,105066727,1,0.48,-0.12,180.72,-0.3464255630970001,-0.20052415132522583,-0.7266841530799866,-0.9851309061050415,3.2194604873657227,0.5181136727333069,0.11154209822416306,0.1,-0.18,0.0,256.42
1671114307.51857090,105106716,1,0.42,-0.15,180.78,-0.34705400466918945,-0.19132483005523682,-0.6739713549613953,-0.8965030908584595,3.2034387588500977,0.5137652158737183,0.07821416109800339,0.1,-0.18,0.0,256.42
1671114307.55861592,105146761,1,0.5700000000000001,-0.17,180.86,-0.33683744072914124,-0.20496489107608795,-0.6344038248062134,-0.8129276633262634,3.1874923706054688,0.5088175535202026,0.04610227048397064,0.1,-0.18,0.0,256.42
1671114307.59856987,105186715,1,0.66,-0.22,180.96,-0.3409828245639801,-0.19884762167930603,-0.637194037437439,-0.7757777571678162,3.172105550765991,0.5037086009979248,0.01623411476612091,0.1,-0.18,0.0,256.42
1671114307.63855600,105226701,1,0.62,-0.24,181.03,-0.3515014946460724,-0.21354880928993225,-0.5903142690658569,-0.7200438380241394,3.153989553451538,0.5003311634063721,-0.015432112850248814,0.1,-0.18,0.0,256.42
1671114307.65859890,105246744,1,0.61,-0.24,181.06,-0.34994256496429443,-0.2016926407814026,-0.573623776435852,-0.7078529596328735,3.144491672515869,0.49915367364883423,-0.03156246244907379,0.1,-0.18,0.0,256.42
1671114307.67857003,105266715,1,0.5700000000000001,-0.27,181.09,-0.3427065312862396,-0.21159611642360687,-0.5628440976142883,-0.6990644335746765,3.1352007389068604,0.4976916015148163,-0.0469970703125,0.1,-0.18,0.0,256.42
1671114307.71857905,105306724,1,0.54,-0.28,181.14000000000001,-0.35107937455177307,-0.21179355680942535,-0.5429987907409668,-0.6830111742019653,3.118077039718628,0.49308279156684875,-0.07499826699495316,0.1,-0.18,0.0,256.42
1671114307.75858903,105346734,1,0.36,-0.3,181.16,-0.3564516007900238,-0.20554611086845398,-0.5037018060684204,-0.6443397402763367,3.1012840270996094,0.4879755973815918,-0.10154557973146439,0.1,-0.18,0.0,256.42
1671114307.79859996,105386745,1,0.23,-0.3,181.20000000000002,-0.35489967465400696,-0.20194770395755768,-0.49522972106933594,-0.6285995244979858,3.084643602371216,0.4823779761791229,-0.1267811506986618,0.1,-0.18,0.0,256.42
1671114307.83853507,105426680,1,0.0,-0.3,181.24,-0.35753247141838074,-0.21486972272396088,-0.48677244782447815,-0.6009851098060608,3.064246892929077,0.47871214151382446,-0.14955604076385498,0.1,-0.18,0.0,256.42
1671114307.85856390,105446709,1,-0.19,-0.32,181.23,-0.3628958761692047,-0.19178937375545502,-0.46404579281806946,-0.566638708114624,3.0535457134246826,0.47739771008491516,-0.16067448258399963,0.1,-0.18,0.0,256.42
1671114307.87855887,105466704,1,-0.23,-0.31,181.23,-0.36894330382347107,-0.21325017511844635,-0.4306439161300659,-0.5199404358863831,3.0427815914154053,0.47574079036712646,-0.17188546061515808,0.1,-0.18,0.0,256.42
1671114307.91855788,105506703,1,-0.44,-0.31,181.26,-0.36903247237205505,-0.2048119306564331,-0.45854538679122925,-0.5291914939880371,3.0234618186950684,0.47089701890945435,-0.19342225790023804,0.1,-0.18,0.0,256.42
1671114307.95858097,105546726,1,-0.72,-0.32,181.26,-0.37340471148490906,-0.1951848566532135,-0.4093618392944336,-0.4769120216369629,3.004690170288086,0.4658392071723938,-0.21411271393299103,0.1,-0.18,0.0,256.42
1671114307.99854803,105586693,1,-0.8,-0.29,181.27,-0.37776488065719604,-0.19322150945663452,-0.4419632852077484,-0.5073640942573547,2.9864323139190674,0.46061772108078003,-0.23364301025867462,0.1,-0.18,0.0,256.42
1671114308.03860903,105626754,1,-0.93,-0.27,181.27,-0.37942269444465637,-0.18164637684822083,-0.389955997467041,-0.44728830456733704,2.9664394855499268,0.45859530568122864,-0.25225791335105896,0.1,-0.18,0.0,256.42
1671114308.05858898,105646734,1,-0.91,-0.25,181.3,-0.38281065225601196,-0.18558920919895172,-0.4230648875236511,-0.4747403562068939,2.9559991359710693,0.4584110677242279,-0.2615083158016205,0.1,-0.18,0.0,256.42
1671114308.07856989,105666715,1,-1.1,-0.24,181.29,-0.37745532393455505,-0.18244074285030365,-0.42064663767814636,-0.4657090902328491,2.9456424713134766,0.45782962441444397,-0.27065855264663696,0.1,-0.18,0.0,256.42
1671114308.11855888,105706704,1,-1.03,-0.18,181.28,-0.38383686542510986,-0.20343425869941711,-0.3724035322666168,-0.40900397300720215,2.9268710613250732,0.45512253046035767,-0.28864195942878723,0.1,-0.18,0.0,256.42
1671114308.15857697,105746722,1,-1.2,-0.12,181.26,-0.3894684910774231,-0.16179434955120087,-0.4146091639995575,-0.4543301463127136,2.9085373878479004,0.45219478011131287,-0.3062721788883209,0.1,-0.18,0.0,256.42
1671114308.19858909,105786734,1,-0.9500000000000001,-0.06,181.23,-0.38378313183784485,-0.1707642674446106,-0.3618001341819763,-0.4036302864551544,2.8904993534088135,0.44921186566352844,-0.3233995735645294,0.1,-0.18,0.0,256.42
1671114308.23857307,105826718,1,-0.96,-0.07,181.17000000000002,-0.3850584328174591,-0.14735320210456848,-0.38351693749427795,-0.40929487347602844,2.870673179626465,0.45073652267456055,-0.33817625045776367,0.1,-0.18,0.0,256.42
1671114308.25856805,105846713,1,-0.9500000000000001,-0.03,181.16,-0.3899482190608978,-0.1295624077320099,-0.35214322805404663,-0.36545664072036743,2.860428810119629,0.45266833901405334,-0.34534093737602234,0.1,-0.18,0.0,256.42
1671114308.27858090,105866726,1,-0.91,-0.02,181.16,-0.3945355713367462,-0.13552802801132202,-0.3489706218242645,-0.35050830245018005,2.8504209518432617,0.45442184805870056,-0.3525143265724182,0.1,-0.18,0.0,256.42
1671114308.31854892,105906694,1,-1.01,-0.01,181.1,-0.3885665535926819,-0.13348129391670227,-0.3874874413013458,-0.3714732229709625,2.831873655319214,0.45540106296539307,-0.3670746982097626,0.1,-0.18,0.0,256.42
1671114308.35855603,105946701,1,-1.01,-0.02,181.03,-0.39211347699165344,-0.09497170150279999,-0.36860358715057373,-0.3459188938140869,2.8137547969818115,0.45620349049568176,-0.3817627727985382,0.1,-0.18,0.0,256.42
1671114308.39858890,105986734,1,-0.99,-0.02,180.95000000000002,-0.3831424117088318,-0.10820696502923965,-0.3744540214538574,-0.3504704236984253,2.796013593673706,0.4568536877632141,-0.39645448327064514,0.1,-0.18,0.0,256.42
1671114308.43860006,106026745,1,-0.8300000000000001,0.0,180.88,-0.3890571892261505,-0.08758033066987991,-0.3895625174045563,-0.3732335865497589,2.778228998184204,0.4606606364250183,-0.4124303460121155,0.1,-0.18,0.0,256.42
1671114308.45855999,106046705,1,-0.64,0.03,180.84,-0.38314780592918396,-0.09653910994529724,-0.40380406379699707,-0.3935200273990631,2.769054412841797,0.463459849357605,-0.4206950068473816,0.1,-0.18,0.0,256.42
1671114308.47861004,106066755,1,-0.45,0.06,180.8,-0.3867010176181793,-0.09245618432760239,-0.3837049603462219,-0.3786126375198364,2.76025652885437,0.4660649001598358,-0.42882266640663147,0.1,-0.18,0.0,256.42
1671114308.51856899,106106714,1,0.07,0.13,180.73,-0.3782902956008911,-0.09365266561508179,-0.4378146231174469,-0.4412355422973633,2.743338108062744,0.4685751497745514,-0.44540444016456604,0.1,-0.18,0.0,256.42
1671114308.55855894,106146704,1,1.0,0.21,180.63,-0.373379111289978,-0.11272887140512466,-0.38907691836357117,-0.39961859583854675,2.7270476818084717,0.470296174287796,-0.4620762765407562,0.1,-0.18,0.0,256.42
1671114308.59857202,106186717,1,1.8,0.2,180.56,-0.3843725323677063,-0.12520600855350494,-0.3983173370361328,-0.41266244649887085,2.7110867500305176,0.47125712037086487,-0.47868502140045166,0.1,-0.18,0.0,256.42
1671114308.63857889,106226724,1,2.83,0.24,180.5,-0.36585935950279236,-0.10568784922361374,-0.41158872842788696,-0.43678969144821167,2.6959786415100098,0.47380486130714417,-0.4970395267009735,0.1,-0.18,0.0,256.42
