timestamp,TimeUS,C,Roll,Pitch,Yaw,VN,VE,VD,dPD,PN,PE,PD,GX,GY,GZ,OH
11.50339400,11503394,2,0.0,0.0,0.0,0.0,0.0,0.0,0.0,0.0,0.0,0.0,0.0,0.0,0.0,0.0
11.60336100,11603361,2,0.0,0.0,0.0,0.0,0.0,0.0,0.0,0.0,0.0,0.0,0.0,0.0,0.0,0.0
11.70333200,11703332,2,0.0,0.0,0.0,0.0,0.0,0.0,0.0,0.0,0.0,0.0,0.0,0.0,0.0,0.0
11.80333900,11803339,2,0.0,0.0,0.0,0.0,0.0,0.0,0.0,0.0,0.0,0.0,0.0,0.0,0.0,0.0
11.90333100,11903331,2,0.0,0.0,0.0,0.0,0.0,0.0,0.0,0.0,0.0,0.0,0.0,0.0,0.0,0.0
12.00339800,12003398,2,0.0,0.0,0.0,0.0,0.0,0.0,0.0,0.0,0.0,0.0,0.0,0.0,0.0,0.0
12.10334600,12103346,2,0.0,0.0,0.0,0.0,0.0,0.0,0.0,0.0,0.0,0.0,0.0,0.0,0.0,0.0
12.20342400,12203424,2,0.0,0.0,0.0,0.0,0.0,0.0,0.0,0.0,0.0,0.0,0.0,0.0,0.0,0.0
12.30339900,12303399,2,0.0,0.0,0.0,0.0,0.0,0.0,0.0,0.0,0.0,0.0,0.0,0.0,0.0,0.0
12.40339200,12403392,2,0.0,0.0,0.0,0.0,0.0,0.0,0.0,0.0,0.0,0.0,0.0,0.0,0.0,0.0
12.50335300,12503353,2,0.06,0.65,0.0,-0.001509874127805233,-0.0002149835490854457,0.009948757477104664,-0.0010741377482190728,0.0,0.0,0.0003484298358671367,0.0,0.0,0.0,0.0
12.60332000,12603320,2,0.06,0.66,0.0,-0.0029875249601900578,0.0010048773838207126,0.04774564504623413,0.023627130314707756,0.0,0.0,0.003588060149922967,0.0,0.0,0.0,0.0
12.70332500,12703325,2,0.06,0.67,0.01,-0.004888257011771202,0.000977108022198081,0.0916735827922821,2.3012163639068604,0.0,0.0,0.2704995572566986,0.0,0.0,0.0,0.0
12.80332400,12803324,2,0.05,0.67,0.02,-0.006906330119818449,0.0009444191236980259,0.12277200073003769,3.475921392440796,0.0,0.0,0.5535849928855896,0.0,0.0,0.0,0.0
12.90338400,12903384,2,0.05,0.68,0.02,-0.009202899411320686,0.0017628028290346265,0.14358371496200562,2.9852943420410156,0.0,0.0,0.7887672185897827,0.0,0.0,0.0,0.0
13.00334700,13003347,2,0.05,0.68,0.02,-0.010841809213161469,0.003236229531466961,0.15974880754947662,2.2134575843811035,0.0,0.0,0.9857748746871948,0.0,0.0,0.0,0.0
13.10340400,13103404,2,0.06,0.68,0.03,-0.013221008703112602,0.004198708105832338,0.17022991180419922,1.628406286239624,0.0,0.0,1.1467849016189575,0.0,0.0,0.0,0.0
13.20339000,13203390,2,0.05,0.68,0.03,-0.01495096180588007,0.00555933453142643,0.17711929976940155,1.1887472867965698,0.0,0.0,1.2775169610977173,0.0,0.0,0.0,0.0
13.30340400,13303404,2,0.05,0.68,0.03,-0.016672231256961823,0.006549220997840166,0.18275780975818634,0.891560435295105,0.0,0.0,1.3828842639923096,0.0,0.0,0.0,0.0
13.40335400,13403354,2,0.05,0.68,0.03,-0.01862068474292755,0.007814859040081501,0.18615753948688507,0.6882892847061157,0.0,0.0,1.468658208847046,0.0,0.0,0.0,0.0
13.50332600,13503326,2,0.05,0.68,0.04,-0.019508017227053642,0.00818135216832161,0.18910790979862213,0.5594468116760254,0.0,0.0,1.5396461486816406,0.0,0.0,0.0,0.0
13.60332900,13603329,2,0.05,0.67,0.03,-0.019275641068816185,0.0082561569288373,0.19141291081905365,0.459574818611145,0.0,0.0,1.5980043411254883,0.0,0.0,0.0,0.0
13.70332700,13703327,2,0.05,0.67,0.04,-0.019073979929089546,0.007966747507452965,0.19132879376411438,0.3864702880382538,0.0,0.0,1.6471408605575562,0.0,0.0,0.0,0.0
13.80339600,13803396,2,0.04,0.66,0.04,-0.01898765191435814,0.007906340062618256,0.1916893571615219,0.3324030935764313,0.0,0.0,1.6885058879852295,0.0,0.0,0.0,0.0
13.90335400,13903354,2,0.03,0.65,0.05,-0.017704812809824944,0.007147260010242462,0.19036643207073212,0.2703702449798584,0.0,0.0,1.7215198278427124,0.0,0.0,0.0,0.0
14.00341300,14003413,2,0.04,0.64,38.5,-0.017137225717306137,0.005777668207883835,0.18955016136169434,0.23646199703216553,0.0,0.0,1.7511231899261475,0.0,0.0,0.0,0.0
14.10338500,14103385,2,0.03,0.65,38.49,-0.01667698472738266,0.0034223427064716816,0.19001813232898712,0.2811835706233978,0.0,0.0,1.784575343132019,0.0,0.0,0.0,0.0
14.20340400,14203404,2,0.02,0.64,38.49,-0.015608721412718296,0.0013961849035695195,0.1911141574382782,0.30670303106307983,0.0,0.0,1.816182017326355,0.0,0.0,0.0,0.0
14.30335300,14303353,2,0.02,0.64,38.52,-0.014912529848515987,-0.0007851978298276663,0.19146937131881714,0.27195873856544495,0.0,0.0,1.8438807725906372,0.0,0.0,0.0,0.0
14.40331900,14403319,2,0.01,0.65,38.53,-0.014543685130774975,-0.004053840879350901,0.1907956749200821,0.24195179343223572,0.0,0.0,1.8693902492523193,0.0,0.0,0.0,0.0
14.50333500,14503335,2,0.01,0.66,38.550000000000004,-0.01443999633193016,-0.006053834687918425,0.1880737543106079,0.21034330129623413,0.0,0.0,1.8917438983917236,0.0,0.0,0.0,0.0
14.60332000,14603320,2,0.01,0.67,38.56,-0.01333365123718977,-0.007791721262037754,0.18367689847946167,0.16479143500328064,0.0,0.0,1.9096308946609497,0.0,0.0,0.0,0.0
14.70340400,14703404,2,0.0,0.67,38.550000000000004,-0.013397191651165485,-0.009350954554975033,0.17989496886730194,0.13295207917690277,0.0,0.0,1.9251190423965454,0.0,0.0,0.0,0.0
14.80335800,14803358,2,0.0,0.68,38.53,-0.01454734243452549,-0.010519836097955704,0.17665979266166687,0.1315620094537735,0.0,0.0,1.9403831958770752,0.0,0.0,0.0,0.0
14.90340200,14903402,2,0.0,0.68,38.51,-0.014925302006304264,-0.012071438133716583,0.17224328219890594,0.11069095134735107,0.0,0.0,1.9515894651412964,0.0,0.0,0.0,0.0
15.00338800,15003388,2,0.0,0.67,38.480000000000004,-0.015070302411913872,-0.013444042764604092,0.16375981271266937,0.04338451102375984,0.0,0.0,1.9565460681915283,0.0,0.0,0.0,0.0
15.10339300,15103393,2,0.0,0.66,38.46,-0.01505705900490284,-0.014491349458694458,0.15576276183128357,-0.0009717171196825802,0.0,0.0,1.95918607711792,0.0,0.0,0.0,0.0
15.20335000,15203350,2,0.0,0.65,38.45,-0.01489571388810873,-0.015189707279205322,0.14794813096523285,0.010076694190502167,0.0,0.0,1.963343858718872,0.0,0.0,0.0,0.0
15.30332900,15303329,2,-0.01,0.65,38.43,-0.013984021730720997,-0.015931691974401474,0.1442628651857376,0.06351903825998306,0.0,0.0,1.971811056137085,0.0,0.01,0.0,0.0
15.40331800,15403318,2,-0.01,0.64,38.43,-0.013863970525562763,-0.016016650944948196,0.14019747078418732,0.09314051270484924,0.0,0.0,1.979779601097107,0.0,0.01,0.0,0.0
15.50332100,15503321,2,-0.01,0.63,38.46,-0.013311793096363544,-0.015388431958854198,0.13284319639205933,0.05463500693440437,0.0,0.0,1.983949065208435,0.0,0.01,-0.01,0.0
15.60339800,15603398,2,-0.01,0.62,38.51,-0.01194585021585226,-0.013920487836003304,0.125790074467659,0.018936827778816223,0.0,0.0,1.9864767789840698,0.0,0.01,0.0,0.0
15.70335300,15703353,2,-0.01,0.62,38.54,-0.01043413020670414,-0.012735937722027302,0.1188960149884224,0.01422975119203329,0.0,0.0,1.989270567893982,0.0,0.02,0.0,0.0
15.80341000,15803410,2,0.0,0.61,38.56,-0.008360924199223518,-0.011692220345139503,0.11376573890447617,0.0448717437684536,0.0,0.0,1.995189905166626,0.0,0.02,0.0,0.0
15.90339300,15903393,2,-0.01,0.6,38.56,-0.006827986799180508,-0.010180972516536713,0.11132799834012985,0.08876890689134598,0.0,0.0,2.004143476486206,0.0,0.02,0.0,0.0
16.00339100,16003391,2,-0.01,0.59,38.550000000000004,-0.004797303583472967,-0.009425809606909752,0.10695914924144745,0.08304231613874435,0.0,0.0,2.010467052459717,0.0,0.03,0.0,0.0
16.10335200,16103352,2,-0.01,0.58,38.52,-0.00331726367585361,-0.008879760280251503,0.10010594874620438,0.02933325059711933,0.0,0.0,2.012216329574585,0.0,0.03,0.01,0.0
16.20332500,16203325,2,-0.01,0.5700000000000001,38.47,-0.0015889517962932587,-0.007930952124297619,0.09181053936481476,-0.004418724216520786,0.0,0.0,2.0130038261413574,0.0,0.03,0.02,0.0
16.30331700,16303317,2,-0.01,0.56,38.44,-0.000726057100109756,-0.007131996098905802,0.08447444438934326,-0.016902830451726913,0.0,0.0,2.0123324394226074,0.0,0.03,0.01,0.0
16.40331800,16403318,2,-0.01,0.56,38.42,0.00032842904329299927,-0.006924737244844437,0.07790274918079376,-0.01703600212931633,0.0,0.0,2.012028455734253,0.0,0.03,0.01,0.0
16.50338700,16503387,2,-0.01,0.56,38.4,0.002567328978329897,-0.006308516021817923,0.0697130337357521,-0.030216652899980545,0.0,0.0,2.0091934204101562,0.0,0.04,0.01,0.0
16.60334600,16603346,2,-0.02,0.55,38.39,0.003235271666198969,-0.005922449752688408,0.060210440307855606,-0.07448240369558334,0.0,0.0,2.0018725395202637,0.0,0.04,0.02,0.0
16.70340300,16703403,2,-0.02,0.54,38.38,0.0041912514716386795,-0.004793161526322365,0.04857006296515465,-0.10945937782526016,0.0,0.0,1.9925084114074707,0.0,0.04,0.02,0.0
16.80338400,16803384,2,-0.02,0.53,38.38,0.004738562740385532,-0.003992925863713026,0.038069386035203934,-0.1103672981262207,0.0,0.0,1.9836052656173706,0.0,0.04,0.01,0.0
16.90339700,16903397,2,-0.02,0.54,38.39,0.006313175428658724,-0.003533171257004142,0.026581265032291412,-0.11714258790016174,0.0,0.0,1.972580909729004,0.0,0.04,0.01,0.0
17.00334800,17003348,2,-0.01,0.54,38.4,0.007750285789370537,-0.0036156184505671263,0.013556991703808308,-0.15195123851299286,0.0,0.0,1.9577610492706299,0.0,0.04,0.0,0.0
17.10332200,17103322,2,-0.01,0.54,38.42,0.008547495119273663,-0.002900413703173399,-0.001722378539852798,-0.19505634903907776,0.0,0.0,1.9392064809799194,0.0,0.04,0.0,0.0
17.20332100,17203321,2,-0.02,0.54,38.46,0.009015439078211784,-0.0025326788891106844,-0.014766588807106018,-0.19667932391166687,0.0,0.0,1.9215418100357056,0.0,0.04,-0.01,0.0
17.30332000,17303320,2,-0.01,0.54,38.5,0.009781927801668644,-0.0016477565513923764,-0.025824500247836113,-0.17753799259662628,0.0,0.0,1.9050228595733643,0.0,0.04,-0.01,0.0
17.40338200,17403382,2,-0.01,0.53,38.53,0.008952859789133072,-0.00156540353782475,-0.03406941145658493,-0.1296025812625885,0.0,0.0,1.8936858177185059,0.0,0.04,-0.01,0.0
17.50335200,17503352,2,-0.01,0.53,38.56,0.008493811823427677,-0.0007553550531156361,-0.04024477303028107,-0.08561607450246811,0.0,0.0,1.8839795589447021,-0.01,0.04,-0.01,0.0
17.60341100,17603411,2,-0.01,0.53,38.57,0.00764628266915679,-0.0003717493382282555,-0.04505089670419693,-0.06655348837375641,0.0,0.0,1.8764394521713257,-0.01,0.04,0.0,0.0
17.70338000,17703380,2,-0.01,0.53,38.58,0.005635365378111601,-0.0004052410658914596,-0.04818090796470642,-0.03878914564847946,0.0,0.0,1.8714196681976318,-0.01,0.04,0.0,0.0
17.80339200,17803392,2,0.0,0.53,38.58,0.004399077035486698,-0.0006034906255081296,-0.05214517563581467,-0.03520680591464043,0.0,0.0,1.8658913373947144,-0.01,0.04,-0.01,0.0
17.90335800,17903358,2,-0.01,0.54,38.58,0.002806387608870864,-0.0005820697988383472,-0.055538278073072433,-0.047196220606565475,0.0,0.0,1.8602112531661987,-0.01,0.04,0.0,0.0
18.00331900,18003319,2,-0.01,0.54,38.57,0.0012808657484129071,-0.0013424740172922611,-0.06017150357365608,-0.06956607103347778,0.0,0.0,1.852347731590271,-0.01,0.04,0.0,0.0
18.10332200,18103322,2,-0.01,0.55,38.56,0.00031592516461387277,-0.001394454506225884,-0.06558121740818024,-0.08463534712791443,0.0,0.0,1.8444892168045044,-0.01,0.04,0.0,0.0
18.20332800,18203328,2,0.0,0.55,38.56,-0.001060060691088438,-0.00183948315680027,-0.06912200897932053,-0.06944475322961807,0.0,0.0,1.8380115032196045,-0.01,0.04,0.0,0.0
18.30338000,18303380,2,0.0,0.55,38.54,-0.0022064154036343098,-0.0021800606045871973,-0.07008879631757736,-0.026339242234826088,0.0,0.0,1.835816740989685,-0.01,0.04,0.01,0.0
18.40336200,18403362,2,0.0,0.55,38.52,-0.0035182854626327753,-0.0028380409348756075,-0.06938138604164124,0.03444870933890343,0.0,0.0,1.8384504318237305,-0.01,0.04,0.01,0.0
18.50341500,18503415,2,-0.01,0.55,38.49,-0.0044332705438137054,-0.0027958559803664684,-0.06691247969865799,0.06824120134115219,0.0,0.0,1.8430277109146118,-0.01,0.04,0.01,0.0
18.60338900,18603389,2,-0.01,0.56,38.47,-0.00530047295615077,-0.002386281033977866,-0.06862891465425491,0.02803470753133297,0.0,0.0,1.8428430557250977,-0.01,0.04,0.02,0.0
18.70339500,18703395,2,0.0,0.5700000000000001,38.46,-0.005742562934756279,-0.0028021300677210093,-0.07174595445394516,-0.025589827448129654,0.0,0.0,1.8401703834533691,-0.01,0.04,0.01,0.0
18.80335100,18803351,2,0.0,0.5700000000000001,38.46,-0.006531939376145601,-0.002376602729782462,-0.07238573580980301,-0.011397619731724262,0.0,0.0,1.8404645919799805,-0.01,0.04,0.0,0.0
18.90332100,18903321,2,0.0,0.56,38.47,-0.006776465103030205,-0.001904335804283619,-0.07143902778625488,0.02304002456367016,0.0,0.0,1.8427637815475464,-0.01,0.04,0.01,0.0
19.00332900,19003329,2,-0.01,0.5700000000000001,38.47,-0.006508581340312958,-0.002005554037168622,-0.07212968915700912,0.016826922073960304,0.0,0.0,1.8432698249816895,-0.01,0.04,0.01,0.0
19.10332400,19103324,2,0.0,0.56,38.47,-0.008150327019393444,-0.002372409449890256,-0.07169753313064575,-0.0010654706275090575,0.0,0.0,1.8429127931594849,-0.01,0.04,0.01,0.0
19.20338400,19203384,2,-0.01,0.56,38.46,-0.00788404792547226,-0.003400266170501709,-0.07303065061569214,-0.022627510130405426,0.0,0.0,1.8405054807662964,-0.01,0.04,0.02,0.0
19.30335000,19303350,2,0.0,0.55,38.45,-0.006480728276073933,-0.004106324166059494,-0.07655820995569229,-0.05576473847031593,0.0,0.0,1.8354525566101074,-0.01,0.04,0.03,0.0
19.40339900,19403399,2,-0.01,0.55,38.43,-0.00520576536655426,-0.005008962471038103,-0.07911258190870285,-0.050484947860240936,0.0,0.0,1.8322627544403076,-0.01,0.04,0.03,0.0
19.50339300,19503393,2,0.0,0.55,38.410000000000004,-0.003461054526269436,-0.004913801327347755,-0.08131428807973862,-0.03242366760969162,0.0,0.0,1.829174280166626,-0.01,0.04,0.02,0.0
19.60340300,19603403,2,-0.01,0.54,38.410000000000004,-0.0018466105684638023,-0.0049060797318816185,-0.08116272836923599,0.010523378849029541,0.0,0.0,1.831355333328247,-0.01,0.04,0.02,0.0
19.70334900,19703349,2,-0.01,0.54,38.4,-0.0003169375704601407,-0.004524431191384792,-0.08107901364564896,0.034209009259939194,0.0,0.0,1.832510232925415,-0.01,0.04,0.02,0.0
19.80332100,19803321,2,-0.01,0.53,38.4,0.0011139526031911373,-0.0038764365017414093,-0.08125682920217514,-0.004094384610652924,0.0,0.0,1.8306951522827148,-0.01,0.04,0.03,0.0
19.90333800,19903338,2,-0.01,0.53,38.4,0.002360639628022909,-0.003733862191438675,-0.08276254683732986,-0.02041010931134224,0.0,0.0,1.8290023803710938,-0.01,0.05,0.02,0.0
20.00331900,20003319,2,-0.01,0.53,38.4,0.003225722350180149,-0.0036260364577174187,-0.08445852249860764,-0.024088596925139427,0.0,0.0,1.8269634246826172,-0.01,0.05,0.02,0.0
20.10340500,20103405,2,-0.01,0.52,38.42,0.003720412962138653,-0.0034833140671253204,-0.08528564870357513,-0.03081638552248478,0.0,0.0,1.8239448070526123,-0.01,0.05,0.02,0.0
20.20336300,20203363,2,-0.01,0.52,38.42,0.00409875251352787,-0.0025770661886781454,-0.08331402391195297,0.01398415956646204,0.0,0.0,1.827121376991272,-0.01,0.05,0.03,0.0
20.30341000,20303410,2,-0.01,0.51,38.42,0.004680878482758999,-0.001854715053923428,-0.08228465914726257,0.04838616028428078,0.0,0.0,1.8298969268798828,-0.01,0.05,0.03,0.0
20.40338100,20403381,2,-0.01,0.51,38.4,0.004332532174885273,-0.0015179042238742113,-0.08089593797922134,0.032593097537755966,0.0,0.0,1.832224726676941,-0.01,0.05,0.03,0.0
20.50339700,20503397,2,-0.02,0.51,38.4,0.0051683769561350346,-0.001266656443476677,-0.07813482731580734,0.05882031470537186,0.0,0.0,1.8387808799743652,-0.01,0.05,0.03,0.0
20.60334900,20603349,2,-0.01,0.51,38.39,0.005895456299185753,-0.0013771550729870796,-0.07457032799720764,0.10098950564861298,0.0,0.0,1.847900629043579,-0.01,0.05,0.03,0.0
20.70331800,20703318,2,-0.02,0.51,38.39,0.006327333860099316,-0.0011834986507892609,-0.07254412025213242,0.07975373417139053,0.0,0.0,1.852864384651184,-0.01,0.05,0.03,0.0
20.80332200,20803322,2,-0.02,0.51,38.4,0.006127626169472933,-6.797495734645054e-05,-0.06953460723161697,0.04559203237295151,0.0,0.0,1.8571805953979492,-0.01,0.05,0.02,0.0
20.90331900,20903319,2,-0.02,0.51,38.410000000000004,0.005644119344651699,0.0003304520796518773,-0.06915083527565002,2.85246624116553e-05,0.0,0.0,1.8562500476837158,-0.01,0.05,0.01,0.0
21.00338400,21003384,2,-0.02,0.5,38.43,0.004933202173560858,0.0005355479079298675,-0.0694069117307663,-0.05089016631245613,0.0,0.0,1.8522040843963623,-0.01,0.05,0.01,0.0
21.10336400,21103364,2,-0.02,0.51,38.44,0.00508302403613925,-0.0002813729224726558,-0.07151344418525696,-0.06666131317615509,0.0,0.0,1.8476804494857788,-0.01,0.05,0.01,0.0
21.20343200,21203432,2,-0.02,0.5,38.45,0.004144851118326187,-0.0002285577356815338,-0.07346680760383606,-0.06970137357711792,0.0,0.0,1.8420395851135254,-0.01,0.05,0.02,0.0
21.30338300,21303383,2,-0.02,0.5,38.45,0.004600181244313717,6.115410360507667e-05,-0.07521040737628937,-0.06324639171361923,0.0,0.0,1.8369873762130737,-0.01,0.05,0.02,0.0
21.40339000,21403390,2,-0.02,0.5,38.45,0.003924085758626461,0.0003528295492287725,-0.07437487691640854,-0.011019742116332054,0.0,0.0,1.8375948667526245,-0.01,0.05,0.02,0.0
21.50335600,21503356,2,-0.02,0.51,38.44,0.004475762601941824,9.57761803874746e-05,-0.07276610285043716,0.03285161405801773,0.0,0.0,1.8396066427230835,-0.01,0.05,0.02,0.0
21.60332200,21603322,2,-0.01,0.5,38.43,0.005469609517604113,-0.00032610076596029103,-0.07231414318084717,0.016921162605285645,0.0,0.0,1.8390018939971924,-0.01,0.05,0.02,0.0
21.70332400,21703324,2,-0.01,0.5,38.43,0.005111286882311106,-2.263921851408668e-05,-0.07083562016487122,0.008297744207084179,0.0,0.0,1.8397372961044312,-0.01,0.05,0.02,0.0
21.80332300,21803323,2,-0.01,0.51,38.42,0.005676062777638435,-0.0002723612415138632,-0.0704469084739685,0.005293883383274078,0.0,0.0,1.8395777940750122,-0.01,0.05,0.02,0.0
21.90338700,21903387,2,-0.01,0.51,38.43,0.006287044379860163,0.0002466302248649299,-0.06911462545394897,0.012274526990950108,0.0,0.0,1.84110426902771,-0.01,0.05,0.02,0.0
22.00334700,22003347,2,-0.01,0.51,38.43,0.006661516614258289,0.00019296751997899264,-0.06776413321495056,0.020801357924938202,0.0,0.0,1.8425865173339844,-0.01,0.05,0.03,0.0
22.10340300,22103403,2,0.0,0.51,38.410000000000004,0.006548564415425062,0.00027246930403634906,-0.06558540463447571,0.02852531708776951,0.0,0.0,1.8453422784805298,-0.01,0.05,0.03,0.0
22.20338900,22203389,2,0.0,0.52,38.39,0.006311706267297268,0.0009778672829270363,-0.06257565319538116,0.037913255393505096,0.0,0.0,1.8485203981399536,-0.01,0.04,0.03,0.0
22.30340000,22303400,2,0.0,0.51,38.36,0.005303902085870504,0.0007736681145615876,-0.059254180639982224,0.040324725210666656,0.0,0.0,1.851937174797058,-0.01,0.04,0.03,0.0
22.40334900,22403349,2,0.0,0.52,38.35,0.004346637520939112,0.0006495600682683289,-0.05943801999092102,0.008458491414785385,0.0,0.0,1.851494312286377,-0.01,0.04,0.02,0.0
22.50332500,22503325,2,0.0,0.52,38.36,0.004084143787622452,0.0011615974362939596,-0.060808274894952774,-0.044584184885025024,0.0,0.0,1.8470293283462524,-0.01,0.04,0.03,0.0
22.60332000,22603320,2,0.0,0.52,38.37,0.00243159057572484,0.0009679342620074749,-0.06056765094399452,-0.056831181049346924,0.0,0.0,1.8433219194412231,-0.01,0.04,0.02,0.0
22.70332000,22703320,2,0.0,0.52,38.38,0.0019920056220144033,0.0008294999715872109,-0.0608019083738327,-0.04627600684762001,0.0,0.0,1.839705228805542,-0.01,0.04,0.02,0.0
22.80338200,22803382,2,0.0,0.52,38.39,0.0010256455279886723,0.0004174525092821568,-0.060663897544145584,-0.030544329434633255,0.0,0.0,1.837402105331421,-0.01,0.04,0.02,0.0
22.90335900,22903359,2,0.0,0.53,38.4,-0.0003858356212731451,-0.00012323647388257086,-0.05916818603873253,-0.005420995410531759,0.0,0.0,1.837109923362732,-0.01,0.04,0.02,0.0
23.00340900,23003409,2,0.0,0.52,38.4,-0.0014579505659639835,2.3971458631422138e-06,-0.05732080340385437,0.006442599929869175,0.0,0.0,1.8369054794311523,-0.01,0.04,0.02,0.0
23.10338200,23103382,2,0.0,0.52,38.4,-0.0031026233918964863,-0.00018454945529811084,-0.0570671521127224,-0.01380803994834423,0.0,0.0,1.834301233291626,-0.01,0.04,0.03,0.0
23.20339700,23203397,2,0.0,0.52,38.39,-0.0049699717201292515,-0.0018476208206266165,-0.055473145097494125,0.007569026667624712,0.0,0.0,1.8364871740341187,-0.01,0.04,0.03,0.0
23.30335200,23303352,2,0.0,0.53,38.37,-0.004669297486543655,0.00022694561630487442,-0.052919723093509674,0.0517125241458416,0.0,0.0,1.8410564661026,-0.01,0.04,0.03,0.0
23.40331800,23403318,2,0.0,0.52,38.36,-0.0063324421644210815,0.0003075671847909689,-0.04986480996012688,0.054478537291288376,0.0,0.0,1.8446451425552368,-0.01,0.04,0.03,0.0
23.50333100,23503331,2,0.0,0.52,38.34,-0.008310909382998943,-0.0014643738977611065,-0.04882746934890747,0.03233091160655022,0.0,0.0,1.8467670679092407,-0.01,0.04,0.03,0.0
23.60332100,23603321,2,0.0,0.52,38.34,-0.007228380534797907,-0.0005234103300608695,-0.048639100044965744,0.008463814854621887,0.0,0.0,1.8473604917526245,-0.01,0.04,0.03,0.0
23.70338100,23703381,2,-0.01,0.53,38.34,-0.006673084106296301,-0.0007424834184348583,-0.0470694825053215,0.007407838478684425,0.0,0.0,1.8487813472747803,-0.01,0.04,0.03,0.0
23.80335100,23803351,2,-0.01,0.51,38.34,-0.007832114584743977,-0.002718024654313922,-0.04448682442307472,0.03256000950932503,0.0,0.0,1.8527177572250366,-0.01,0.04,0.03,0.0
23.90340500,23903405,2,-0.01,0.51,38.36,-0.009866205044090748,-0.002855367260053754,-0.04343816265463829,0.03485644981265068,0.0,0.0,1.8551887273788452,-0.01,0.04,0.02,0.0
24.00338800,24003388,2,-0.03,0.5,38.39,-0.009392748586833477,-0.0015218746848404408,-0.04204956069588661,0.0127573162317276,0.0,0.0,1.8560808897018433,-0.01,0.04,0.02,0.0
24.10339600,24103396,2,-0.04,0.49,38.4,-0.007237172685563564,-0.0008407012210227549,-0.04048668593168259,0.0075467368587851524,0.0,0.0,1.8573554754257202,-0.01,0.04,0.02,0.0
24.20335400,24203354,2,-0.05,0.49,38.43,-0.00821071956306696,-0.0014836756745353341,-0.03793976083397865,0.017153413966298103,0.0,0.0,1.8593932390213013,-0.01,0.04,0.01,0.0
24.30331900,24303319,2,-0.04,0.5,38.46,-0.011283138766884804,-0.005027360282838345,-0.03718738630414009,0.024695029482245445,0.0,0.0,1.861248254776001,-0.01,0.04,0.02,0.0
24.40331700,24403317,2,-0.01,0.52,38.47,-0.008723914623260498,-0.003254164243116975,-0.0348418690264225,0.03440188243985176,0.0,0.0,1.864457368850708,-0.01,0.04,0.01,0.0
24.50336200,24503362,2,-0.01,0.53,38.480000000000004,-0.003856423543766141,-9.748301090439782e-05,-0.03368382528424263,0.015941934660077095,0.0,0.0,1.8651461601257324,-0.01,0.04,0.01,0.0
24.60338800,24603388,2,-0.02,0.53,38.49,-0.008369753137230873,-0.004848596639931202,-0.03392598778009415,-0.01207621768116951,0.0,0.0,1.8642915487289429,-0.01,0.04,0.01,0.0
24.70336200,24703362,2,-0.02,0.52,38.49,-0.00978077482432127,-0.006462986581027508,-0.03462796285748482,-0.028235113248229027,0.0,0.0,1.8621001243591309,-0.01,0.05,0.01,0.0
24.80340300,24803403,2,-0.02,0.52,38.49,-0.003735724138095975,-0.0022519950289279222,-0.03580901026725769,-0.04058096930384636,0.0,0.0,1.8589212894439697,-0.01,0.05,0.02,0.0
24.90338700,24903387,2,-0.02,0.52,38.480000000000004,-0.0021292741876095533,-0.0012834386434406042,-0.03640668839216232,-0.04806369170546532,0.0,0.0,1.854745864868164,-0.01,0.05,0.02,0.0
25.00339300,25003393,2,-0.02,0.52,38.46,-0.005141764413565397,-0.003793215611949563,-0.03696863725781441,-0.035089485347270966,0.0,0.0,1.852399230003357,-0.01,0.05,0.02,0.0
25.10335100,25103351,2,-0.03,0.51,38.44,-0.004161796532571316,-0.004295554477721453,-0.038138438016176224,-0.01818666234612465,0.0,0.0,1.8504796028137207,-0.01,0.05,0.02,0.0
25.20332200,25203322,2,-0.03,0.51,38.410000000000004,-0.0007075521862134337,-0.0024606846272945404,-0.0396745428442955,-0.0486319437623024,0.0,0.0,1.8445703983306885,-0.01,0.05,0.03,0.0
25.30332800,25303328,2,-0.03,0.51,38.38,4.59110779047478e-05,-0.0023524921853095293,-0.04258371889591217,-0.10495596379041672,0.0,0.0,1.8343679904937744,-0.01,0.05,0.03,0.0
25.40332300,25403323,2,-0.03,0.51,38.35,-0.0019504176452755928,-0.0038726292550563812,-0.04514724016189575,-0.1217026561498642,0.0,0.0,1.8243443965911865,-0.01,0.05,0.03,0.0
25.50338800,25503388,2,-0.03,0.52,38.34,0.00031146613764576614,-0.003342930693179369,-0.04676949232816696,-0.10253044217824936,0.0,0.0,1.8155146837234497,-0.01,0.05,0.03,0.0
25.60335700,25603357,2,-0.04,0.52,38.33,0.002226609271019697,-0.002897779457271099,-0.04845680668950081,-0.08073105663061142,0.0,0.0,1.8080308437347412,-0.01,0.05,0.03,0.0
25.70340600,25703406,2,-0.04,0.52,38.32,0.002413057489320636,-0.003555990755558014,-0.04910281300544739,-0.07495363801717758,0.0,0.0,1.7998826503753662,-0.01,0.05,0.04,0.0
25.80338300,25803383,2,-0.03,0.52,38.32,0.0020956015214323997,-0.0050814105197787285,-0.051745783537626266,-0.07755667716264725,0.0,0.0,1.792362928390503,-0.01,0.05,0.04,0.0
25.90339800,25903398,2,-0.04,0.52,38.300000000000004,0.0027322692330926657,-0.005242819897830486,-0.05093560740351677,-0.04541739448904991,0.0,0.0,1.7883098125457764,-0.01,0.05,0.04,0.0
26.00334700,26003347,2,-0.05,0.52,38.27,0.0031623844988644123,-0.004929339978843927,-0.05088179185986519,-0.008031727746129036,0.0,0.0,1.786808729171753,-0.01,0.05,0.05,0.0
26.10332100,26103321,2,-0.04,0.52,38.25,0.0024437764659523964,-0.005822270177304745,-0.04959879815578461,0.013968650251626968,0.0,0.0,1.7868623733520508,-0.01,0.05,0.05,0.0
26.20332600,26203326,2,-0.05,0.52,38.230000000000004,0.0024921330623328686,-0.00749586708843708,-0.048874832689762115,0.003256784984841943,0.0,0.0,1.7852370738983154,-0.01,0.05,0.04,0.0
26.30332700,26303327,2,-0.05,0.52,38.230000000000004,0.0031535602174699306,-0.007409634999930859,-0.048515357077121735,-0.012299511581659317,0.0,0.0,1.783804178237915,-0.01,0.05,0.04,0.0
26.40338700,26403387,2,-0.05,0.52,38.21,0.003288637613877654,-0.007414770778268576,-0.04911758005619049,-0.020009631291031837,0.0,0.0,1.781275987625122,-0.01,0.05,0.04,0.0
26.50335800,26503358,2,-0.05,0.53,38.21,0.002229144563898444,-0.00814115907996893,-0.048271507024765015,-0.014400496147572994,0.0,0.0,1.7804383039474487,-0.01,0.05,0.04,0.0
26.60341400,26603414,2,-0.04,0.53,38.22,0.00282989046536386,-0.008581086993217468,-0.0467173270881176,-0.012159477919340134,0.0,0.0,1.7785992622375488,-0.01,0.05,0.04,0.0
26.70338000,26703380,2,-0.05,0.53,38.21,0.00330362725071609,-0.008190936408936977,-0.04631570726633072,-0.027228139340877533,0.0,0.0,1.7756438255310059,-0.01,0.05,0.05,0.0
26.80340000,26803400,2,-0.05,0.53,38.21,0.001898759976029396,-0.008979909121990204,-0.04647912457585335,-0.017324404790997505,0.0,0.0,1.7748091220855713,-0.01,0.05,0.04,0.0
26.90335100,26903351,2,-0.04,0.53,38.2,0.0016356590203940868,-0.009577760472893715,-0.046264201402664185,-0.0018487285124137998,0.0,0.0,1.7743719816207886,-0.01,0.05,0.05,0.0
27.00332500,27003325,2,-0.04,0.53,38.18,0.0012584426440298557,-0.010294395498931408,-0.04441765695810318,0.016443615779280663,0.0,0.0,1.7759790420532227,-0.01,0.05,0.05,0.0
27.10332100,27103321,2,-0.04,0.54,38.18,0.0005893550696782768,-0.010742619633674622,-0.04293201118707657,0.02100280672311783,0.0,0.0,1.7769514322280884,-0.01,0.05,0.05,0.0
27.20332300,27203323,2,-0.04,0.54,38.160000000000004,-0.0010318408021703362,-0.010817223228514194,-0.04098682850599289,0.011776990257203579,0.0,0.0,1.7774959802627563,-0.02,0.05,0.05,0.0
27.30339400,27303394,2,-0.05,0.55,38.14,-0.0025100102648139,-0.01132383942604065,-0.03931691125035286,-0.007491302210837603,0.0,0.0,1.7761647701263428,-0.02,0.05,0.05,0.0
27.40336000,27403360,2,-0.05,0.56,38.11,-0.0034311453346163034,-0.011935443617403507,-0.0383274108171463,-0.01706189475953579,0.0,0.0,1.7750545740127563,-0.02,0.05,0.05,0.0
27.50340600,27503406,2,-0.05,0.55,38.11,-0.0033129488583654165,-0.012706070207059383,-0.03774738311767578,-0.01772824116051197,0.0,0.0,1.773520588874817,-0.02,0.05,0.05,0.0
27.60338600,27603386,2,-0.05,0.55,38.1,-0.0038172234781086445,-0.012917401269078255,-0.03811662271618843,-0.03260437026619911,0.0,0.0,1.770201563835144,-0.02,0.05,0.05,0.0
27.70339100,27703391,2,-0.05,0.56,38.1,-0.0033651813864707947,-0.012844666838645935,-0.03847268223762512,-0.038561005145311356,0.0,0.0,1.767167091369629,-0.02,0.05,0.05,0.0
27.80335300,27803353,2,-0.05,0.56,38.1,-0.0037759661208838224,-0.013612080365419388,-0.038180358707904816,-0.024562902748584747,0.0,0.0,1.7653775215148926,-0.02,0.05,0.05,0.0
27.90332400,27903324,2,-0.05,0.56,38.1,-0.004143783822655678,-0.01448269747197628,-0.037695903331041336,-0.00875913631170988,0.0,0.0,1.764512538909912,-0.02,0.05,0.06,0.0
28.00331800,28003318,2,-0.05,0.56,38.09,-0.004814181476831436,-0.014303630217909813,-0.03603988513350487,0.01896020956337452,0.0,0.0,1.7665477991104126,-0.02,0.05,0.05,0.0
28.10332100,28103321,2,-0.05,0.56,38.09,-0.005690358113497496,-0.014823115430772305,-0.03321466222405434,0.04705845192074776,0.0,0.0,1.7703137397766113,-0.02,0.05,0.05,0.0
28.20339300,28203393,2,-0.05,0.56,38.09,-0.006305161397904158,-0.015322478488087654,-0.03135703131556511,0.02942654862999916,0.0,0.0,1.771143913269043,-0.02,0.05,0.05,0.0
28.30334300,28303343,2,-0.05,0.5700000000000001,38.11,-0.005767887458205223,-0.01650845818221569,-0.03115142323076725,0.011591584421694279,0.0,0.0,1.7724919319152832,-0.02,0.05,0.05,0.0
28.40339900,28403399,2,-0.05,0.5700000000000001,38.12,-0.007613631431013346,-0.017713652923703194,-0.02903171069920063,0.021570485085248947,0.0,0.0,1.7748736143112183,-0.02,0.05,0.05,0.0
28.50339600,28503396,2,-0.06,0.5700000000000001,38.13,-0.00800627563148737,-0.01843910850584507,-0.026692235842347145,0.026182381436228752,0.0,0.0,1.777094841003418,-0.02,0.05,0.05,0.0
28.60339400,28603394,2,-0.06,0.5700000000000001,38.13,-0.008802243508398533,-0.018583323806524277,-0.02544132061302662,0.006943313870579004,0.0,0.0,1.77705979347229,-0.02,0.05,0.05,0.0
28.70334700,28703347,2,-0.06,0.58,38.15,-0.008673354052007198,-0.01922844722867012,-0.02410929650068283,-0.002237992361187935,0.0,0.0,1.7775235176086426,-0.02,0.05,0.04,0.0
28.80332500,28803325,2,-0.06,0.58,38.160000000000004,-0.009217455983161926,-0.020561523735523224,-0.022548770532011986,-0.0017509092576801777,0.0,0.0,1.7774790525436401,-0.02,0.05,0.04,0.0
28.90331900,28903319,2,-0.06,0.58,38.19,-0.010355751030147076,-0.0206404197961092,-0.02017417550086975,0.01498908270150423,0.0,0.0,1.7797144651412964,-0.02,0.05,0.04,0.0
29.00331900,29003319,2,-0.07,0.5700000000000001,38.22,-0.011553581804037094,-0.02057255245745182,-0.017626682296395302,0.05561009421944618,0.0,0.0,1.785496473312378,-0.02,0.05,0.04,0.0
29.10338400,29103384,2,-0.07,0.5700000000000001,38.230000000000004,-0.011768105439841747,-0.02135993167757988,-0.014568994753062725,0.07570650428533554,0.0,0.0,1.791555643081665,-0.02,0.05,0.04,0.0
29.20335500,29203355,2,-0.07,0.5700000000000001,38.24,-0.01270648930221796,-0.02311190776526928,-0.013247698545455933,0.05777830258011818,0.0,0.0,1.7958009243011475,-0.02,0.05,0.04,0.0
29.30342000,29303420,2,-0.07,0.5700000000000001,38.24,-0.012654191814363003,-0.024188702926039696,-0.011425771750509739,0.05186593160033226,0.0,0.0,1.8011360168457031,-0.02,0.05,0.04,0.0
29.40338900,29403389,2,-0.06,0.5700000000000001,38.24,-0.012324968352913857,-0.02555101178586483,-0.01036836951971054,0.04062396287918091,0.0,0.0,1.804443597793579,-0.02,0.05,0.04,0.0
29.50339700,29503397,2,-0.07,0.56,38.230000000000004,-0.012508662417531013,-0.026017699390649796,-0.008610039949417114,0.03084072284400463,0.0,0.0,1.807928204536438,-0.02,0.05,0.04,0.0
29.60335500,29603355,2,-0.07,0.56,38.230000000000004,-0.012324001640081406,-0.02559315599501133,-0.006206255406141281,0.020472167059779167,0.0,0.0,1.80971360206604,-0.02,0.05,0.04,0.0
29.70332400,29703324,2,-0.08,0.56,38.24,-0.01227901503443718,-0.026104437187314034,-0.005405094008892775,0.013982296921312809,0.0,0.0,1.8119992017745972,-0.02,0.05,0.04,0.0
29.80333100,29803331,2,-0.08,0.56,38.230000000000004,-0.011949241161346436,-0.026257460936903954,-0.004110157489776611,0.020956432446837425,0.0,0.0,1.8144707679748535,-0.02,0.05,0.04,0.0
29.90333500,29903335,2,-0.08,0.56,38.230000000000004,-0.010621953755617142,-0.02646300196647644,-0.0014953127829357982,0.043550241738557816,0.0,0.0,1.819542646408081,-0.02,0.05,0.04,0.0
30.00339000,30003390,2,-0.09,0.56,38.22,-0.010109306313097477,-0.02670401893556118,6.562972703250125e-05,0.04007497429847717,0.0,0.0,1.8220932483673096,-0.02,0.05,0.04,0.0
30.10334200,30103342,2,-0.09,0.56,38.21,-0.009473510086536407,-0.0271004531532526,0.001676300191320479,0.008984618820250034,0.0,0.0,1.8225375413894653,-0.02,0.05,0.04,0.0
30.20339400,30203394,2,-0.1,0.56,38.21,-0.009106555953621864,-0.027038926258683205,0.0025547731202095747,-0.008352630771696568,0.0,0.0,1.8223109245300293,-0.02,0.05,0.04,0.0
30.30336700,30303367,2,-0.1,0.5700000000000001,38.21,-0.007687881123274565,-0.02799268625676632,0.002073977841064334,-0.04164564982056618,0.0,0.0,1.8178536891937256,-0.02,0.05,0.04,0.0
30.40331800,30403318,2,-0.11,0.5700000000000001,38.22,-0.007708081044256687,-0.0277917068451643,0.0022668535821139812,-0.048500385135412216,0.0,0.0,1.8152962923049927,-0.02,0.05,0.03,0.0
30.50334300,30503343,2,-0.12,0.5700000000000001,38.25,-0.007971531711518764,-0.02793886698782444,0.0028621014207601547,-0.019368983805179596,0.0,0.0,1.814549207687378,-0.02,0.05,0.03,0.0
30.60330700,30603307,2,-0.12,0.58,38.28,-0.006453568581491709,-0.028518052771687508,0.002784721553325653,-0.007590046618133783,0.0,0.0,1.8135827779769897,-0.02,0.05,0.03,0.0
30.70331500,30703315,2,-0.13,0.58,38.300000000000004,-0.006109539419412613,-0.02915261499583721,0.0029312637634575367,-0.011370070278644562,0.0,0.0,1.8120946884155273,-0.02,0.05,0.03,0.0
30.80332500,30803325,2,-0.13,0.58,38.32,-0.005335771944373846,-0.02964392676949501,0.002851795172318816,-0.008664789609611034,0.0,0.0,1.8113771677017212,-0.02,0.05,0.03,0.0
30.90338400,30903384,2,-0.13,0.58,38.31,-0.004720394499599934,-0.030622562393546104,0.003926297649741173,0.01390634011477232,0.0,0.0,1.8128587007522583,-0.02,0.05,0.03,0.0
31.00333100,31003331,2,-0.14,0.58,38.31,-0.004580846522003412,-0.03179989382624626,0.006960590835660696,0.06035320460796356,0.0,0.0,1.8188865184783936,-0.02,0.05,0.03,0.0
31.10339600,31103396,2,-0.14,0.58,38.300000000000004,-0.004944003187119961,-0.032529547810554504,0.00861393939703703,0.08070234954357147,0.0,0.0,1.8248393535614014,-0.02,0.05,0.03,0.0
31.20337800,31203378,2,-0.14,0.58,38.29,-0.004900591913610697,-0.03389138728380203,0.01025210041552782,0.06344655901193619,0.0,0.0,1.8298120498657227,-0.02,0.05,0.04,0.0
31.30332300,31303323,2,-0.14,0.5700000000000001,38.26,-0.004589124117046595,-0.03586135432124138,0.01201633084565401,0.04826962202787399,0.0,0.0,1.8339489698410034,-0.02,0.05,0.04,0.0
31.40333500,31403335,2,-0.14,0.5700000000000001,38.25,-0.004167087841778994,-0.03681039810180664,0.013341671787202358,0.04441547021269798,0.0,0.0,1.838647723197937,-0.02,0.05,0.03,0.0
31.50331000,31503310,2,-0.14,0.5700000000000001,38.25,-0.003135427599772811,-0.03742134943604469,0.01549034845083952,0.05201515555381775,0.0,0.0,1.843796968460083,-0.02,0.05,0.04,0.0
31.60332600,31603326,2,-0.15,0.58,38.25,-0.0023976152297109365,-0.03728713095188141,0.01584605686366558,0.03800215944647789,0.0,0.0,1.8470828533172607,-0.02,0.05,0.04,0.0
31.70331600,31703316,2,-0.16,0.5700000000000001,38.24,-0.0011542807333171368,-0.03868478536605835,0.016484351828694344,0.01632031984627247,0.0,0.0,1.848948359489441,-0.02,0.05,0.04,0.0
31.80338900,31803389,2,-0.16,0.5700000000000001,38.230000000000004,0.0002756074827630073,-0.03966585546731949,0.017226796597242355,-0.006226651836186647,0.0,0.0,1.8486400842666626,-0.02,0.05,0.04,0.0
31.90334200,31903342,2,-0.16,0.5700000000000001,38.22,0.0007659352850168943,-0.041125036776065826,0.017804283648729324,-0.006461586337536573,0.0,0.0,1.849440336227417,-0.02,0.05,0.04,0.0
32.00338800,32003388,2,-0.17,0.5700000000000001,38.21,0.0010063954396173358,-0.041788991540670395,0.018983367830514908,0.004175867419689894,0.0,0.0,1.8500357866287231,-0.02,0.05,0.04,0.0
32.10337100,32103371,2,-0.16,0.58,38.2,0.0008170072105713189,-0.04301770403981209,0.019899483770132065,0.005289520602673292,0.0,0.0,1.8509198427200317,-0.02,0.05,0.04,0.0
32.20338400,32203384,2,-0.16,0.58,38.19,0.0006044635083526373,-0.04363437369465828,0.020770631730556488,0.022165728732943535,0.0,0.0,1.85346519947052,-0.02,0.05,0.04,0.0
32.30334200,32303342,2,-0.16,0.58,38.18,0.0006912638200446963,-0.04422342777252197,0.022440847009420395,0.050674326717853546,0.0,0.0,1.858453631401062,-0.02,0.05,0.04,0.0
32.40331300,32403313,2,-0.16,0.5700000000000001,38.18,0.001039297552779317,-0.04492441192269325,0.024249907582998276,0.04035589471459389,0.0,0.0,1.8606910705566406,-0.02,0.05,0.04,0.0
32.50331300,32503313,2,-0.16,0.5700000000000001,38.18,8.149311179295182e-05,-0.045509252697229385,0.024986280128359795,-0.005123794544488192,0.0,0.0,1.8597978353500366,-0.02,0.05,0.04,0.0
32.60330700,32603307,2,-0.16,0.5700000000000001,38.17,-0.00039266253588721156,-0.04575620964169502,0.025359489023685455,-0.023738820105791092,0.0,0.0,1.8585532903671265,-0.02,0.05,0.04,0.0
32.70337400,32703374,2,-0.16,0.5700000000000001,38.160000000000004,-7.425878720823675e-05,-0.046466726809740067,0.027201665565371513,-0.0011054741917178035,0.0,0.0,1.8598843812942505,-0.02,0.05,0.04,0.0
32.80335000,32803350,2,-0.16,0.5700000000000001,38.160000000000004,7.850464317016304e-05,-0.04771837592124939,0.02859639562666416,0.026600100100040436,0.0,0.0,1.8624964952468872,-0.02,0.05,0.04,0.0
32.90339000,32903390,2,-0.16,0.58,38.160000000000004,0.0005007481086067855,-0.047932952642440796,0.029281726107001305,0.028634903952479362,0.0,0.0,1.8646351099014282,-0.02,0.05,0.04,0.0
33.00337800,33003378,2,-0.15,0.58,38.15,0.0008116117096506059,-0.04823029041290283,0.030365386977791786,0.031502723693847656,0.0,0.0,1.8676865100860596,-0.02,0.05,0.04,0.0
33.10332100,33103321,2,-0.15,0.58,38.15,0.00031098537147045135,-0.04899363964796066,0.0319226011633873,0.05228510871529579,0.0,0.0,1.8730733394622803,-0.02,0.05,0.04,0.0
33.20333900,33203339,2,-0.16,0.5700000000000001,38.14,0.00045540108112618327,-0.04904315248131752,0.033225469291210175,0.05613798275589943,0.0,0.0,1.8773012161254883,-0.02,0.05,0.04,0.0
33.30331300,33303313,2,-0.16,0.5700000000000001,38.12,0.0007285248721018434,-0.049873970448970795,0.03394110128283501,0.032180558890104294,0.0,0.0,1.8798456192016602,-0.02,0.05,0.05,0.0
33.40331600,33403316,2,-0.15,0.5700000000000001,38.11,0.0007192480843514204,-0.04899314418435097,0.034428372979164124,0.01786789856851101,0.0,0.0,1.8819478750228882,-0.02,0.05,0.04,0.0
33.50332200,33503322,2,-0.15,0.5700000000000001,38.1,0.0008718129829503596,-0.04932715371251106,0.03524470329284668,0.018151098862290382,0.0,0.0,1.884296178817749,-0.02,0.05,0.05,0.0
33.60339000,33603390,2,-0.15,0.5700000000000001,38.09,0.0006345800356939435,-0.04888490214943886,0.03607288748025894,0.010385616682469845,0.0,0.0,1.8851144313812256,-0.02,0.05,0.05,0.0
33.70333600,33703336,2,-0.15,0.58,38.08,-0.00042851566104218364,-0.048977792263031006,0.03706100583076477,-0.00388847547583282,0.0,0.0,1.8849842548370361,-0.02,0.05,0.04,0.0
33.80339700,33803397,2,-0.15,0.5700000000000001,38.08,-0.00015710073057562113,-0.0491907112300396,0.037687573581933975,-0.010710200294852257,0.0,0.0,1.884434461593628,-0.02,0.05,0.04,0.0
33.90337500,33903375,2,-0.14,0.58,38.09,-0.00043425741023384035,-0.04955822601914406,0.037982337176799774,-0.002444501267746091,0.0,0.0,1.8851100206375122,-0.02,0.05,0.04,0.0
34.00331900,34003319,2,-0.14,0.5700000000000001,38.09,-0.0010728839552029967,-0.04979199543595314,0.03919006139039993,0.005875056609511375,0.0,0.0,1.885958194732666,-0.02,0.05,0.05,0.0
34.10334300,34103343,2,-0.14,0.5700000000000001,38.08,-0.0003586865495890379,-0.05019489675760269,0.039240263402462006,0.0005359482602216303,0.0,0.0,1.8859459161758423,-0.02,0.05,0.04,0.0
34.20331400,34203314,2,-0.15,0.58,38.08,-8.993744268082082e-05,-0.049750231206417084,0.03959716483950615,0.01944846101105213,0.0,0.0,1.8885574340820312,-0.02,0.05,0.04,0.0
34.30330700,34303307,2,-0.15,0.5700000000000001,38.08,-0.0001581742544658482,-0.04836827144026756,0.040345821529626846,0.048098526895046234,0.0,0.0,1.8929836750030518,-0.02,0.06,0.04,0.0
34.40331300,34403313,2,-0.15,0.5700000000000001,38.08,-0.0011911488836631179,-0.04774288460612297,0.04168231412768364,0.05018172413110733,0.0,0.0,1.8968995809555054,-0.02,0.06,0.04,0.0
34.50339000,34503390,2,-0.15,0.5700000000000001,38.09,-0.0019445037469267845,-0.04704361781477928,0.041832249611616135,0.030598856508731842,0.0,0.0,1.8991636037826538,-0.02,0.06,0.04,0.0
34.60333600,34603336,2,-0.15,0.58,38.08,-0.0035284869372844696,-0.04687606543302536,0.0435645617544651,0.029322510585188866,0.0,0.0,1.9025729894638062,-0.02,0.06,0.05,0.0
34.70339400,34703394,2,-0.16,0.5700000000000001,38.07,-0.004256595857441425,-0.045958224684000015,0.0454280786216259,0.039264876395463943,0.0,0.0,1.9062985181808472,-0.02,0.06,0.04,0.0
34.80337800,34803378,2,-0.15,0.5700000000000001,38.06,-0.005321806762367487,-0.04559504613280296,0.04645906388759613,0.03457941114902496,0.0,0.0,1.9095224142074585,-0.02,0.06,0.05,0.0
34.90332200,34903322,2,-0.15,0.56,38.050000000000004,-0.0058701238594949245,-0.0454767569899559,0.04813458397984505,0.025643518194556236,0.0,0.0,1.91194748878479,-0.02,0.06,0.05,0.0
35.00334000,35003340,2,-0.15,0.56,38.03,-0.005246441811323166,-0.04542058706283569,0.049044691026210785,0.03203887492418289,0.0,0.0,1.9158107042312622,-0.02,0.06,0.05,0.0
35.10332300,35103323,2,-0.15,0.56,38.02,-0.005237797740846872,-0.04463870823383331,0.049930986016988754,0.04072416201233864,0.0,0.0,1.9196116924285889,-0.02,0.06,0.05,0.0
35.20331800,35203318,2,-0.15,0.56,38.02,-0.005117013584822416,-0.044043343514204025,0.0506204329431057,0.024308664724230766,0.0,0.0,1.9216322898864746,-0.02,0.06,0.05,0.0
35.30330900,35303309,2,-0.14,0.56,38.02,-0.003686421550810337,-0.04311739280819893,0.0513618141412735,0.015349173918366432,0.0,0.0,1.9236881732940674,-0.02,0.06,0.04,0.0
35.40337700,35403377,2,-0.14,0.55,38.04,-0.0033081285655498505,-0.04229358956217766,0.052253127098083496,0.012469938024878502,0.0,0.0,1.9250937700271606,-0.02,0.06,0.04,0.0
35.50334100,35503341,2,-0.14,0.55,38.050000000000004,-0.002860582899302244,-0.04203706234693527,0.05126703158020973,-0.0031643554102629423,0.0,0.0,1.9250462055206299,-0.02,0.06,0.04,0.0
35.60340100,35603401,2,-0.14,0.56,38.06,-0.0026805750094354153,-0.04202476888895035,0.05187634006142616,0.009318233467638493,0.0,0.0,1.9271303415298462,-0.02,0.06,0.04,0.0
35.70337000,35703370,2,-0.14,0.56,38.07,-0.001599906012415886,-0.04194531589746475,0.05313557758927345,0.04828345403075218,0.0,0.0,1.932230830192566,-0.03,0.06,0.04,0.0
35.80332000,35803320,2,-0.14,0.56,38.07,-0.0015079572331160307,-0.042225539684295654,0.05536941811442375,0.07081817090511322,0.0,0.0,1.9383291006088257,-0.03,0.06,0.04,0.0
35.90334800,35903348,2,-0.14,0.56,38.07,-0.002240267815068364,-0.041701771318912506,0.056125421077013016,0.0514543391764164,0.0,0.0,1.9419196844100952,-0.03,0.06,0.04,0.0
36.00333400,36003334,2,-0.14,0.56,38.07,-0.002187738660722971,-0.040915507823228836,0.05645294114947319,0.01768903061747551,0.0,0.0,1.9435547590255737,-0.03,0.06,0.04,0.0
36.10332000,36103320,2,-0.14,0.56,38.08,-0.0021938311401754618,-0.04074864462018013,0.056838274002075195,0.01451276894658804,0.0,0.0,1.9460430145263672,-0.03,0.06,0.04,0.0
36.20331400,36203314,2,-0.14,0.56,38.08,-0.0010312926024198532,-0.04002751037478447,0.057599928230047226,0.038406047970056534,0.0,0.0,1.9506542682647705,-0.03,0.06,0.04,0.0
36.30337500,36303375,2,-0.14,0.55,38.08,-0.00014934160572011024,-0.039720047265291214,0.05788620188832283,0.04099123924970627,0.0,0.0,1.9540209770202637,-0.03,0.06,0.04,0.0
36.40333500,36403335,2,-0.14,0.54,38.08,0.00045799731742590666,-0.038840603083372116,0.05744145065546036,0.024745609611272812,0.0,0.0,1.956398844718933,-0.03,0.06,0.04,0.0
36.50339400,36503394,2,-0.14,0.55,38.07,0.002170878928154707,-0.038794733583927155,0.05689120292663574,0.012869053520262241,0.0,0.0,1.9578239917755127,-0.03,0.06,0.04,0.0
36.60337800,36603378,2,-0.14,0.55,38.07,0.0034460988827049732,-0.03801055625081062,0.05635368078947067,-0.0026062156539410353,0.0,0.0,1.9579401016235352,-0.03,0.06,0.04,0.0
36.70332000,36703320,2,-0.15,0.54,38.07,0.00491014588624239,-0.03746573626995087,0.055458493530750275,-0.01950301043689251,0.0,0.0,1.9565802812576294,-0.03,0.06,0.04,0.0
36.80334400,36803344,2,-0.15,0.53,38.07,0.005708097945898771,-0.037916529923677444,0.05402492359280586,-0.031590498983860016,0.0,0.0,1.9543465375900269,-0.03,0.06,0.04,0.0
36.90330700,36903307,2,-0.15,0.53,38.08,0.007447466719895601,-0.03770691901445389,0.05291863530874252,-0.03765338286757469,0.0,0.0,1.9513704776763916,-0.03,0.06,0.04,0.0
37.00331700,37003317,2,-0.15,0.53,38.08,0.009361703880131245,-0.03753640502691269,0.05099739879369736,-0.03660959005355835,0.0,0.0,1.9486265182495117,-0.03,0.06,0.04,0.0
37.10332300,37103323,2,-0.15,0.53,38.09,0.010918162763118744,-0.037239331752061844,0.04906205087900162,-0.032699424773454666,0.0,0.0,1.9457573890686035,-0.03,0.06,0.04,0.0
37.20338200,37203382,2,-0.15,0.54,38.09,0.012331842444837093,-0.03652946650981903,0.047240372747182846,-0.04435446858406067,0.0,0.0,1.9413025379180908,-0.03,0.06,0.04,0.0
37.30333800,37303338,2,-0.14,0.54,38.1,0.012883495539426804,-0.036762785166502,0.046193141490221024,-0.04292773827910423,0.0,0.0,1.9378610849380493,-0.03,0.06,0.04,0.0
37.40340100,37403401,2,-0.14,0.54,38.1,0.013142913579940796,-0.036305248737335205,0.04602239653468132,-0.022392649203538895,0.0,0.0,1.935888409614563,-0.03,0.06,0.04,0.0
37.50337200,37503372,2,-0.14,0.54,38.1,0.01266002282500267,-0.037307579070329666,0.04631929099559784,-0.007613647263497114,0.0,0.0,1.9348535537719727,-0.03,0.06,0.04,0.0
37.60339000,37603390,2,-0.14,0.54,38.09,0.012441856786608696,-0.03666125237941742,0.04698454961180687,0.00472063384950161,0.0,0.0,1.9350160360336304,-0.03,0.06,0.04,0.0
37.70333600,37703336,2,-0.14,0.54,38.08,0.012480396777391434,-0.0368429571390152,0.047461628913879395,0.005212265532463789,0.0,0.0,1.9347554445266724,-0.03,0.06,0.04,0.0
37.80330900,37803309,2,-0.14,0.53,38.06,0.01310943253338337,-0.03632739931344986,0.04698631539940834,-0.0063802823424339294,0.0,0.0,1.9338138103485107,-0.03,0.06,0.04,0.0
37.90332400,37903324,2,-0.13,0.53,38.050000000000004,0.014121213927865028,-0.036599159240722656,0.04616015776991844,-0.00299628172069788,0.0,0.0,1.9339134693145752,-0.03,0.06,0.04,0.0
38.00331100,38003311,2,-0.13,0.54,38.050000000000004,0.014085779897868633,-0.036270592361688614,0.04576432332396507,-0.0006497477879747748,0.0,0.0,1.933571219444275,-0.03,0.06,0.04,0.0
38.10337700,38103377,2,-0.14,0.54,38.04,0.014534086920320988,-0.03657212108373642,0.04626055806875229,0.01139912661164999,0.0,0.0,1.9351459741592407,-0.03,0.06,0.04,0.0
38.20334600,38203346,2,-0.13,0.54,38.04,0.013785729184746742,-0.03635106608271599,0.04771210625767708,0.026439644396305084,0.0,0.0,1.9371742010116577,-0.03,0.06,0.04,0.0
38.30340200,38303402,2,-0.14,0.54,38.04,0.013634979724884033,-0.03626258298754692,0.047865185886621475,0.007203071843832731,0.0,0.0,1.9369908571243286,-0.03,0.06,0.04,0.0
38.40337500,38403375,2,-0.14,0.54,38.03,0.014364865608513355,-0.0366247184574604,0.04756437987089157,-0.0009925656486302614,0.0,0.0,1.9375619888305664,-0.03,0.06,0.04,0.0
38.50338300,38503383,2,-0.14,0.54,38.04,0.014262755401432514,-0.036329224705696106,0.04799939692020416,0.016731062904000282,0.0,0.0,1.9396133422851562,-0.03,0.06,0.04,0.0
38.60333600,38603336,2,-0.14,0.55,38.03,0.014291936531662941,-0.036034196615219116,0.047472428530454636,0.009592708200216293,0.0,0.0,1.9399428367614746,-0.03,0.06,0.04,0.0
38.70330800,38703308,2,-0.13,0.55,38.03,0.013237304985523224,-0.03519958257675171,0.04770918935537338,-0.016745368018746376,0.0,0.0,1.93821382522583,-0.03,0.06,0.04,0.0
38.80331800,38803318,2,-0.14,0.55,38.03,0.012858833186328411,-0.03479136526584625,0.04764833301305771,-0.017371639609336853,0.0,0.0,1.9375563859939575,-0.03,0.06,0.04,0.0
38.90332300,38903323,2,-0.14,0.56,38.04,0.01238415576517582,-0.03465627133846283,0.048614490777254105,-0.0024832128547132015,0.0,0.0,1.9376301765441895,-0.03,0.06,0.04,0.0
39.00339300,39003393,2,-0.14,0.56,38.04,0.012562957592308521,-0.035152651369571686,0.047697748988866806,-0.009364424273371696,0.0,0.0,1.936422348022461,-0.03,0.06,0.04,0.0
39.10334100,39103341,2,-0.15,0.56,38.050000000000004,0.012148238718509674,-0.03575669229030609,0.04833250120282173,-0.00785885751247406,0.0,0.0,1.9361505508422852,-0.03,0.06,0.04,0.0
39.20339000,39203390,2,-0.15,0.56,38.050000000000004,0.012150673195719719,-0.03623257949948311,0.04748678579926491,-0.0037838269490748644,0.0,0.0,1.9356516599655151,-0.03,0.06,0.04,0.0
39.30337400,39303374,2,-0.15,0.55,38.050000000000004,0.012135535478591919,-0.03660319000482559,0.04761695861816406,-0.01872675120830536,0.0,0.0,1.9335651397705078,-0.03,0.06,0.04,0.0
39.40331900,39403319,2,-0.15,0.55,38.050000000000004,0.011430918239057064,-0.03639277443289757,0.04617490991950035,-0.03303997218608856,0.0,0.0,1.9307891130447388,-0.03,0.06,0.04,0.0
39.50334000,39503340,2,-0.15,0.54,38.04,0.010813106782734394,-0.036733705550432205,0.044565532356500626,-0.046563297510147095,0.0,0.0,1.926558017730713,-0.03,0.06,0.04,0.0
39.60331100,39603311,2,-0.16,0.55,38.03,0.00962795875966549,-0.03748483955860138,0.044449981302022934,-0.05265026539564133,0.0,0.0,1.922156572341919,-0.03,0.06,0.04,0.0
39.70330700,39703307,2,-0.16,0.54,38.02,0.008697370067238808,-0.03812922164797783,0.04280140995979309,-0.05547203868627548,0.0,0.0,1.9171243906021118,-0.03,0.06,0.04,0.0
39.80332000,39803320,2,-0.16,0.54,38.01,0.009815776720643044,-0.03859953209757805,0.041970156133174896,-0.05231442674994469,0.0,0.0,1.9126428365707397,-0.03,0.06,0.04,0.0
39.90338900,39903389,2,-0.16,0.54,38.0,0.01062359195202589,-0.03834667429327965,0.041364140808582306,-0.025374192744493484,0.0,0.0,1.9107874631881714,-0.03,0.06,0.04,0.0
40.00333800,40003338,2,-0.16,0.54,38.0,0.011154993437230587,-0.038626134395599365,0.040779806673526764,-0.0026773593854159117,0.0,0.0,1.9099929332733154,-0.03,0.06,0.04,0.0
40.10339600,40103396,2,-0.17,0.53,37.99,0.011718672700226307,-0.03940465673804283,0.039502743631601334,-0.006962823681533337,0.0,0.0,1.908326506614685,-0.03,0.06,0.05,0.0
40.20337600,40203376,2,-0.17,0.53,37.980000000000004,0.012582837603986263,-0.0405828058719635,0.039221737533807755,-0.011557345278561115,0.0,0.0,1.9070051908493042,-0.03,0.06,0.05,0.0
40.30338500,40303385,2,-0.17,0.53,37.96,0.013215907849371433,-0.04116244241595268,0.03788428008556366,-0.003983563277870417,0.0,0.0,1.9067509174346924,-0.03,0.06,0.05,0.0
40.40333600,40403336,2,-0.17,0.52,37.96,0.01483682170510292,-0.04094325751066208,0.036992356181144714,-0.010936162434518337,0.0,0.0,1.9050817489624023,-0.03,0.06,0.05,0.0
40.50330900,40503309,2,-0.17,0.52,37.95,0.014386555179953575,-0.04161548987030983,0.0361296720802784,-0.02709750458598137,0.0,0.0,1.9024980068206787,-0.03,0.06,0.05,0.0
40.60330900,40603309,2,-0.17,0.52,37.95,0.014758873730897903,-0.04154445603489876,0.03625405207276344,-0.02665003202855587,0.0,0.0,1.9003453254699707,-0.03,0.06,0.05,0.0
40.70330800,40703308,2,-0.17,0.52,37.95,0.015480258502066135,-0.04132276400923729,0.03514036536216736,-0.035751063376665115,0.0,0.0,1.896729826927185,-0.03,0.06,0.05,0.0
40.80338600,40803386,2,-0.17,0.51,37.96,0.01688709296286106,-0.04103194177150726,0.03358409181237221,-0.040608517825603485,0.0,0.0,1.8934423923492432,-0.03,0.06,0.04,0.0
40.90333800,40903338,2,-0.18,0.51,37.96,0.0173265989869833,-0.04115358367562294,0.033419184386730194,-0.026167424395680428,0.0,0.0,1.8912140130996704,-0.03,0.06,0.04,0.0
41.00339000,41003390,2,-0.17,0.5,37.96,0.017544668167829514,-0.04113039746880531,0.033684179186820984,-0.0058371759951114655,0.0,0.0,1.8907461166381836,-0.03,0.06,0.04,0.0
41.10336700,41103367,2,-0.18,0.5,37.96,0.019019106402993202,-0.041309528052806854,0.033978886902332306,0.006964034866541624,0.0,0.0,1.8906632661819458,-0.03,0.06,0.04,0.0
41.20338200,41203382,2,-0.18,0.5,37.96,0.020131146535277367,-0.0404459573328495,0.03470906615257263,0.016217023134231567,0.0,0.0,1.89222252368927,-0.03,0.06,0.04,0.0
41.30335200,41303352,2,-0.18,0.49,37.97,0.020817378535866737,-0.039757341146469116,0.034210771322250366,0.02470102533698082,0.0,0.0,1.8938477039337158,-0.03,0.06,0.04,0.0
41.40331000,41403310,2,-0.17,0.5,37.980000000000004,0.021734680980443954,-0.03992721810936928,0.034460458904504776,0.023690175265073776,0.0,0.0,1.895900011062622,-0.03,0.06,0.04,0.0
41.50331900,41503319,2,-0.17,0.5,37.980000000000004,0.02249811962246895,-0.03971116989850998,0.035352032631635666,0.02319846861064434,0.0,0.0,1.8976874351501465,-0.03,0.06,0.04,0.0
41.60331900,41603319,2,-0.16,0.5,37.97,0.02348134107887745,-0.039732426404953,0.034200940281152725,0.0033697951585054398,0.0,0.0,1.8974114656448364,-0.03,0.06,0.04,0.0
41.70338400,41703384,2,-0.16,0.51,37.980000000000004,0.02496502548456192,-0.03860350325703621,0.03264068067073822,-0.020071372389793396,0.0,0.0,1.8956254720687866,-0.03,0.06,0.04,0.0
41.80334100,41803341,2,-0.16,0.51,37.97,0.02470383606851101,-0.03774784132838249,0.032204169780015945,-0.028496382758021355,0.0,0.0,1.8935775756835938,-0.03,0.06,0.04,0.0
41.90340900,41903409,2,-0.16,0.51,37.97,0.02470960095524788,-0.037598054856061935,0.03262734040617943,-0.02169851027429104,0.0,0.0,1.8926528692245483,-0.03,0.06,0.04,0.0
42.00337800,42003378,2,-0.16,0.51,37.980000000000004,0.025833450257778168,-0.03708414360880852,0.031617358326911926,-0.020405355840921402,0.0,0.0,1.8908417224884033,-0.03,0.06,0.04,0.0
42.10332000,42103320,2,-0.15,0.52,37.99,0.025820469483733177,-0.03707273304462433,0.031253375113010406,-0.018953973427414894,0.0,0.0,1.8892624378204346,-0.03,0.06,0.04,0.0
42.20334200,42203342,2,-0.15,0.51,37.99,0.026252344250679016,-0.03654744103550911,0.030438847839832306,-0.02654135972261429,0.0,0.0,1.8864902257919312,-0.03,0.06,0.04,0.0
42.30331200,42303312,2,-0.15,0.52,37.980000000000004,0.02633840963244438,-0.035931866616010666,0.028599588200449944,-0.03646299988031387,0.0,0.0,1.883309245109558,-0.03,0.06,0.04,0.0
42.40331600,42403316,2,-0.15,0.52,37.980000000000004,0.026769720017910004,-0.03522462025284767,0.027683071792125702,-0.04005836695432663,0.0,0.0,1.8795993328094482,-0.03,0.06,0.04,0.0
42.50332300,42503323,2,-0.15,0.51,37.980000000000004,0.027024805545806885,-0.03496019169688225,0.026645038276910782,-0.03758047893643379,0.0,0.0,1.8763009309768677,-0.04,0.06,0.04,0.0
42.60338500,42603385,2,-0.15,0.52,37.980000000000004,0.02792399935424328,-0.03429942578077316,0.025509346276521683,-0.02833056077361107,0.0,0.0,1.873734712600708,-0.04,0.06,0.04,0.0
42.70333900,42703339,2,-0.14,0.51,37.980000000000004,0.0280467476695776,-0.03488354757428169,0.02545010671019554,-0.026448361575603485,0.0,0.0,1.870853066444397,-0.04,0.06,0.04,0.0
42.80338900,42803389,2,-0.14,0.52,37.97,0.02826765552163124,-0.03422611206769943,0.02445932663977146,-0.025380965322256088,0.0,0.0,1.8684718608856201,-0.04,0.06,0.04,0.0
42.90337300,42903373,2,-0.14,0.52,37.97,0.02849719114601612,-0.03416882082819939,0.022613434121012688,-0.018454479053616524,0.0,0.0,1.8667147159576416,-0.04,0.06,0.04,0.0
43.00331900,43003319,2,-0.14,0.52,37.97,0.028201134875416756,-0.03425905108451843,0.02177370898425579,-0.033155765384435654,0.0,0.0,1.8627502918243408,-0.04,0.06,0.04,0.0
43.10333700,43103337,2,-0.14,0.53,37.97,0.028000539168715477,-0.03370096534490585,0.02061217464506626,-0.049059558659791946,0.0,0.0,1.8584246635437012,-0.04,0.06,0.04,0.0
43.20331400,43203314,2,-0.14,0.53,37.97,0.02801131270825863,-0.03341813385486603,0.019727038219571114,-0.0576157309114933,0.0,0.0,1.8529151678085327,-0.04,0.06,0.04,0.0
43.30331100,43303311,2,-0.14,0.53,37.980000000000004,0.02792772836983204,-0.03381660580635071,0.018803155049681664,-0.0555197037756443,0.0,0.0,1.8483761548995972,-0.04,0.06,0.04,0.0
43.40331700,43403317,2,-0.14,0.53,37.97,0.027853410691022873,-0.03355049714446068,0.01861562393605709,-0.020135775208473206,0.0,0.0,1.847105860710144,-0.04,0.06,0.04,0.0
43.50339300,43503393,2,-0.14,0.54,37.980000000000004,0.026835186406970024,-0.03327496349811554,0.018230292946100235,-0.007181517314165831,0.0,0.0,1.8453236818313599,-0.04,0.06,0.04,0.0
43.60335400,43603354,2,-0.14,0.54,37.97,0.025686994194984436,-0.0336051881313324,0.018611721694469452,-0.010499976575374603,0.0,0.0,1.843904972076416,-0.04,0.06,0.04,0.0
43.70338700,43703387,2,-0.13,0.54,37.96,0.025288546457886696,-0.03384865075349808,0.018203141167759895,-0.0046287779696285725,0.0,0.0,1.8430376052856445,-0.04,0.06,0.04,0.0
43.80337200,43803372,2,-0.14,0.54,37.96,0.024624226614832878,-0.03324325755238533,0.017506904900074005,-0.007171400357037783,0.0,0.0,1.8418916463851929,-0.04,0.06,0.04,0.0
43.90338500,43903385,2,-0.14,0.54,37.95,0.02431413345038891,-0.03312384709715843,0.01780933514237404,-0.0043024420738220215,0.0,0.0,1.8416013717651367,-0.04,0.06,0.04,0.0
44.00333700,44003337,2,-0.15,0.54,37.95,0.024408282712101936,-0.032979853451251984,0.017755866050720215,-0.018456224352121353,0.0,0.0,1.838621973991394,-0.04,0.06,0.04,0.0
44.10330800,44103308,2,-0.15,0.54,37.94,0.02377951517701149,-0.0328252837061882,0.017382031306624413,-0.03389156609773636,0.0,0.0,1.8360759019851685,-0.04,0.06,0.04,0.0
44.20332700,44203327,2,-0.14,0.54,37.94,0.023842401802539825,-0.032785385847091675,0.01714746467769146,-0.026349108666181564,0.0,0.0,1.8337953090667725,-0.04,0.06,0.04,0.0
44.30330800,44303308,2,-0.14,0.55,37.95,0.022413618862628937,-0.03319704160094261,0.016947854310274124,-0.0101900864392519,0.0,0.0,1.8335022926330566,-0.04,0.06,0.04,0.0
44.40338600,44403386,2,-0.14,0.55,37.95,0.02130560390651226,-0.033891528844833374,0.017102638259530067,-0.010129570960998535,0.0,0.0,1.831520676612854,-0.04,0.06,0.04,0.0
44.50335700,44503357,2,-0.14,0.55,37.96,0.019882718101143837,-0.03420292213559151,0.01589359901845455,-0.03155577927827835,0.0,0.0,1.828195333480835,-0.04,0.06,0.04,0.0
44.60339500,44603395,2,-0.14,0.55,37.97,0.019496990367770195,-0.03453120216727257,0.014814683236181736,-0.0430540069937706,0.0,0.0,1.8248592615127563,-0.04,0.06,0.04,0.0
44.70338600,44703386,2,-0.14,0.55,37.980000000000004,0.019230490550398827,-0.03439226746559143,0.013949553482234478,-0.05311021953821182,0.0,0.0,1.820004940032959,-0.04,0.06,0.04,0.0
44.80338200,44803382,2,-0.14,0.56,37.99,0.018152548000216484,-0.03542536497116089,0.014223153702914715,-0.03608741611242294,0.0,0.0,1.8174610137939453,-0.04,0.06,0.04,0.0
44.90334200,44903342,2,-0.14,0.56,37.99,0.017035076394677162,-0.036174651235342026,0.012976282276213169,-0.01878225803375244,0.0,0.0,1.815373182296753,-0.04,0.06,0.04,0.0
45.00331000,45003310,2,-0.14,0.56,37.99,0.016018621623516083,-0.03773440420627594,0.012365840375423431,-0.009678974747657776,0.0,0.0,1.8142948150634766,-0.04,0.06,0.04,0.0
45.10331500,45103315,2,-0.14,0.56,38.0,0.013908064924180508,-0.03970954567193985,0.012283358722925186,-0.003760404186323285,0.0,0.0,1.8133376836776733,-0.04,0.06,0.04,0.0
45.20332100,45203321,2,-0.14,0.56,38.01,0.015340134501457214,-0.038475073873996735,0.01241031102836132,-0.014462039805948734,0.0,0.0,1.8112971782684326,-0.04,0.06,0.04,0.0
45.30338700,45303387,2,-0.14,0.5700000000000001,38.01,0.01296033151447773,-0.03944776952266693,0.01161528192460537,-0.011187246069312096,0.0,0.0,1.8106460571289062,-0.04,0.06,0.04,0.0
45.40334000,45403340,2,-0.14,0.5700000000000001,38.02,0.012857367284595966,-0.0397493802011013,0.010601469315588474,0.0001721307053230703,0.0,0.0,1.8104736804962158,-0.04,0.06,0.04,0.0
45.50338900,45503389,2,-0.15,0.5700000000000001,38.01,0.013736211694777012,-0.04003516212105751,0.01032011304050684,-0.006136012263596058,0.0,0.0,1.8093713521957397,-0.04,0.06,0.04,0.0
45.60338700,45603387,2,-0.15,0.58,38.01,0.011443737894296646,-0.043022360652685165,0.01015909668058157,-0.009663491509854794,0.0,0.0,1.808533787727356,-0.04,0.06,0.04,0.0
45.70331900,45703319,2,-0.14,0.58,38.0,0.010726537555456161,-0.04377046599984169,0.011191940866410732,0.008188944309949875,0.0,0.0,1.8096705675125122,-0.04,0.06,0.04,0.0
45.80333800,45803338,2,-0.14,0.58,38.01,0.014129837974905968,-0.035820990800857544,0.010753273963928223,0.017858320847153664,0.0,0.0,1.8108409643173218,-0.04,0.06,0.04,0.0
45.90331700,45903317,2,-0.13,0.58,38.01,0.005544530227780342,-0.04186427965760231,0.01128500048071146,0.016230043023824692,0.0,0.0,1.8121105432510376,-0.04,0.06,0.04,0.0
46.00331700,46003317,2,-0.13,0.5700000000000001,38.01,0.008174553513526917,-0.045487478375434875,0.01337830163538456,0.023136259987950325,0.0,0.0,1.8141812086105347,-0.04,0.06,0.04,0.0
46.10330900,46103309,2,-0.11,0.5700000000000001,37.99,0.00873880460858345,-0.04609743878245354,0.014362337067723274,0.019244173541665077,0.0,0.0,1.815534234046936,-0.04,0.06,0.04,0.0
46.20339800,46203398,2,-0.12,0.58,38.01,0.006232709623873234,-0.042571935802698135,0.01356874406337738,-0.0014550340129062533,0.0,0.0,1.8151651620864868,-0.04,0.06,0.04,0.0
46.30335300,46303353,2,-0.12,0.58,38.0,0.006938042119145393,-0.04308385029435158,0.013175089843571186,-0.01924951560795307,0.0,0.0,1.8136285543441772,-0.04,0.06,0.04,0.0
