timestamp,TimeUS,DesRoll,Roll,DesPitch,Pitch,DesYaw,Yaw,ErrRP,ErrYaw,AEKF
8.45717900,8457179,0.0,-0.06,0.0,0.42,359.99,0.0,1.0,1.0,0
8.55679900,8556799,0.0,-0.06,0.0,0.42,137.56,137.56,1.0,0.8,0
8.65678500,8656785,0.0,-0.06,0.0,0.42,137.46,137.46,0.8,0.64,0
8.75675700,8756757,0.0,-0.07,0.0,0.43,137.25,137.25,0.8,0.52,0
8.85672000,8856720,0.0,-0.08,0.0,0.42,135.68,135.68,0.64,0.48,0
8.95672200,8956722,0.0,-0.09,0.0,0.42,134.38,134.38,0.64,0.44,0
9.05681700,9056817,0.0,-0.09,0.0,0.42,134.48,134.48,0.51,0.35000000000000003,0
9.15685900,9156859,0.0,-0.09,0.0,0.42,134.66,134.66,0.51,0.29,0
9.25692800,9256928,0.0,-0.08,0.0,0.42,134.82,134.82,0.4,0.24,0
9.35691900,9356919,0.0,-0.07,0.0,0.43,135.03,135.03,0.4,0.2,0
9.45696100,9456961,0.0,-0.07,0.0,0.43,135.18,135.18,0.32,0.16,0
9.55686100,9556861,0.0,-0.08,0.0,0.43,135.37,135.37,0.32,0.14,0
9.65680400,9656804,0.0,-0.08,0.0,0.43,135.54,135.54,0.26,0.12,0
9.75679900,9756799,0.0,-0.08,0.0,0.43,135.7,135.7,0.26,0.1,0
9.85680400,9856804,0.0,-0.09,0.0,0.43,135.86,135.86,0.21,0.08,0
9.95694100,9956941,0.0,-0.09,0.0,0.44,135.98,135.98,0.21,0.07,0
10.05699100,10056991,0.0,-0.08,0.0,0.44,136.09,136.09,0.16,0.06,0
10.15701900,10157019,0.0,-0.08,0.0,0.44,136.13,136.13,0.16,0.05,0
10.25699600,10256996,0.0,-0.08,0.0,0.44,136.27,136.27,0.13,0.04,0
10.35707800,10357078,0.0,-0.07,0.0,0.43,136.38,136.38,0.13,0.04,0
10.45715800,10457158,0.0,-0.07,0.0,0.44,359.99,0.0,0.1,0.03,3
10.55709500,10557095,0.0,-0.07,0.0,0.45,359.99,0.0,0.1,0.03,3
10.65712900,10657129,0.0,-0.07,0.0,0.44,359.99,0.0,0.08,0.03,3
10.75712200,10757122,0.0,-0.07,0.0,0.44,359.99,0.0,0.08,0.02,3
10.85714600,10857146,0.0,-0.06,0.0,0.44,359.99,0.0,0.06,0.02,3
10.95718000,10957180,0.0,-0.06,0.0,0.44,359.99,0.0,0.06,0.02,3
11.05727100,11057271,0.0,-0.06,0.0,0.44,359.98,359.99,0.05,0.02,3
11.15726300,11157263,0.0,-0.06,0.0,0.44,359.99,0.0,0.05,0.01,3
11.25733600,11257336,0.0,-0.06,0.0,0.45,359.99,0.0,0.04,0.01,3
11.35725600,11357256,0.0,-0.06,0.0,0.45,359.99,0.0,0.04,0.01,3
11.45718000,11457180,0.0,-0.06,0.0,0.44,359.98,359.99,0.03,0.0,3
11.55722700,11557227,0.0,-0.06,0.0,0.45,359.98,359.99,0.03,0.0,3
11.65714700,11657147,0.0,-0.06,0.0,0.44,359.98,359.99,0.02,0.04,3
11.75715600,11757156,0.0,-0.06,0.0,0.45,359.98,359.99,0.02,0.1,3
11.85704000,11857040,0.0,-0.06,0.0,0.45,359.98,359.99,0.02,0.09,3
11.95711500,11957115,0.0,-0.07,0.0,0.45,131.97,131.97,0.02,0.08,3
12.05720500,12057205,0.0,-0.06,0.0,0.45,132.2,132.2,0.01,0.07,3
12.15715600,12157156,0.0,-0.05,0.0,0.45,132.69,132.69,0.01,0.07,3
12.25692100,12256921,0.0,-0.04,0.0,0.45,133.34,133.34,0.01,0.06,3
12.35695600,12356956,0.0,-0.04,0.0,0.45,133.99,133.99,0.01,0.05,3
12.45689700,12456897,0.0,-0.03,0.0,0.46,134.54,134.54,0.01,0.04,3
12.55694000,12556940,0.0,-0.03,0.0,0.46,134.95,134.95,0.01,0.04,3
12.65700000,12657000,0.0,-0.03,0.0,0.46,135.23,135.23,0.0,0.04,3
12.75705600,12757056,0.0,-0.03,0.0,0.46,135.44,135.44,0.0,0.03,3
12.85713300,12857133,0.0,-0.02,0.0,0.46,135.59,135.59,0.0,0.03,3
12.95713000,12957130,0.0,-0.02,0.0,0.46,135.7,135.7,0.0,0.03,3
13.05712100,13057121,0.0,-0.02,0.0,0.46,135.78,135.78,0.0,0.03,3
13.15691700,13156917,0.0,-0.02,0.0,0.46,135.85,135.85,0.0,0.02,3
13.25693000,13256930,0.0,-0.02,0.0,0.46,135.91,135.91,0.0,0.02,3
13.35695100,13356951,0.0,-0.02,0.0,0.47000000000000003,135.96,135.96,0.0,0.02,3
13.45693000,13456930,0.0,-0.03,0.0,0.47000000000000003,135.99,135.99,0.0,0.01,3
13.55698400,13556984,0.0,-0.03,0.0,0.47000000000000003,136.03,136.03,0.0,0.01,3
13.65709600,13657096,0.0,-0.03,0.0,0.47000000000000003,136.06,136.06,0.0,0.02,3
13.75711800,13757118,0.0,-0.04,0.0,0.47000000000000003,136.1,136.1,0.0,0.01,3
13.85711400,13857114,0.0,-0.04,0.0,0.46,136.15,136.15,0.0,0.01,3
13.95711900,13957119,0.0,-0.05,0.0,0.46,136.19,136.19,0.0,0.01,3
14.05693200,14056932,0.0,-0.05,0.0,0.46,136.24,136.24,0.0,0.01,3
14.15690100,14156901,0.0,-0.06,0.0,0.46,136.29,136.29,0.0,0.01,3
14.25695100,14256951,0.0,-0.07,0.0,0.46,136.34,136.34,0.0,0.01,3
14.35696000,14356960,0.0,-0.07,0.0,0.46,136.4,136.4,0.0,0.01,3
14.45699900,14456999,0.0,-0.08,0.0,0.45,136.45,136.45,0.0,0.02,3
14.55703600,14557036,0.0,-0.08,0.0,0.45,136.46,136.46,0.0,0.09,3
14.65712400,14657124,0.0,-0.08,0.0,0.45,136.28,136.28,0.0,0.09,3
14.75710000,14757100,0.0,-0.09,0.0,0.45,135.93,135.93,0.0,0.08,3
14.85711400,14857114,0.0,-0.09,0.0,0.45,135.56,135.56,0.0,0.07,3
14.95691900,14956919,0.0,-0.1,0.0,0.44,135.27,135.27,0.0,0.06,3
15.05686500,15056865,0.0,-0.1,0.0,0.44,135.09,135.09,0.0,0.06,3
15.15689400,15156894,0.0,-0.11,0.0,0.44,135.02,135.02,0.0,0.05,3
15.25693300,15256933,0.0,-0.11,0.0,0.44,135.03,135.03,0.0,0.05,3
15.35701800,15357018,0.0,-0.11,0.0,0.44,135.08,135.08,0.0,0.04,3
15.45704700,15457047,0.0,-0.11,0.0,0.44,135.16,135.16,0.0,0.04,3
15.55712900,15557129,0.0,-0.11,0.0,0.44,135.24,135.24,0.0,0.03,3
15.65712900,15657129,0.0,-0.12,0.0,0.44,135.32,135.32,0.0,0.03,3
15.75712200,15757122,0.0,-0.12,0.0,0.44,135.4,135.4,0.0,0.03,3
15.85691800,15856918,0.0,-0.11,0.0,0.44,135.48,135.48,0.0,0.03,3
15.95694900,15956949,0.0,-0.11,0.0,0.44,135.56,135.56,0.0,0.03,3
16.05695900,16056959,0.0,-0.11,0.0,0.44,135.64000000000001,135.64000000000001,0.0,0.03,3
16.15689800,16156898,0.0,-0.11,0.0,0.44,135.73,135.73,0.0,0.03,3
16.25697600,16256976,0.0,-0.11,0.0,0.43,135.82,135.82,0.0,0.02,3
16.35706600,16357066,0.0,-0.11,0.0,0.43,135.89000000000001,135.89000000000001,0.0,0.02,3
16.45732300,16457323,0.0,-0.1,0.0,0.43,135.96,135.96,0.0,0.01,3
16.55740600,16557406,0.0,-0.1,0.0,0.43,136.01,136.01,0.0,0.01,3
16.65737100,16657371,0.0,-0.11,0.0,0.43,136.06,136.06,0.0,0.01,3
16.75718800,16757188,0.0,-0.1,0.0,0.44,136.11,136.11,0.0,0.01,3
16.85717800,16857178,0.0,-0.1,0.0,0.43,136.16,136.16,0.0,0.01,3
16.95716300,16957163,0.0,-0.1,0.0,0.43,136.2,136.2,0.0,0.0,3
17.05719900,17057199,0.0,-0.1,0.0,0.44,136.24,136.24,0.0,0.01,3
17.15719400,17157194,0.0,-0.1,0.0,0.44,136.28,136.28,0.0,0.0,3
17.25723700,17257237,0.0,-0.09,0.0,0.43,136.32,136.32,0.0,0.0,3
17.35735400,17357354,0.0,-0.09,0.0,0.43,136.35,136.35,0.0,0.07,3
17.45730100,17457301,0.0,-0.09,0.0,0.43,136.25,136.25,0.0,0.1,3
17.55737100,17557371,0.0,-0.09,0.0,0.44,135.93,135.93,0.0,0.09,3
17.65726600,17657266,0.0,-0.09,0.0,0.44,135.55,135.55,0.0,0.09,3
17.75723800,17757238,0.0,-0.09,0.0,0.43,135.25,135.25,0.0,0.08,3
17.85727200,17857272,0.0,-0.09,0.0,0.44,135.05,135.05,0.0,0.07,3
17.95718100,17957181,0.0,-0.08,0.0,0.43,134.97,134.97,0.0,0.06,3
18.05719300,18057193,0.0,-0.09,0.0,0.45,134.97,134.97,0.0,0.06,3
18.15724900,18157249,0.0,-0.09,0.0,0.47000000000000003,135.03,135.03,0.0,0.05,3
18.25732200,18257322,0.0,-0.09,0.0,0.46,135.12,135.12,0.0,0.05,3
18.35731600,18357316,0.0,-0.08,0.0,0.43,135.22,135.22,0.0,0.04,3
18.45735000,18457350,0.0,-0.08,0.0,0.45,135.32,135.32,0.0,0.04,3
18.55725900,18557259,0.0,-0.08,0.0,0.45,135.41,135.41,0.0,0.04,3
18.65725700,18657257,0.0,-0.08,0.0,0.45,135.5,135.5,0.0,0.03,3
18.75716000,18757160,0.0,-0.09,0.0,0.46,135.57,135.57,0.0,0.03,3
18.85718300,18857183,0.0,-0.09,0.0,0.45,135.65,135.65,0.0,0.02,3
18.95721600,18957216,0.0,-0.08,0.0,0.45,135.71,135.71,0.0,0.02,3
19.05722900,19057229,0.0,-0.09,0.0,0.45,135.78,135.78,0.0,0.02,3
19.15713700,19157137,0.0,-0.09,0.0,0.45,135.84,135.84,0.0,0.02,3
19.25711700,19257117,0.0,-0.08,0.0,0.44,135.9,135.9,0.0,0.02,3
19.35715500,19357155,0.0,-0.08,0.0,0.43,135.95,135.95,0.0,0.06,3
19.45690900,19456909,0.0,-0.08,0.0,0.43,135.91,135.91,0.0,0.11,3
19.55692800,19556928,0.0,-0.07,0.0,0.41000000000000003,135.66,135.66,0.0,0.15,3
19.65692900,19656929,0.0,-0.07,0.0,0.43,135.19,135.19,0.0,0.18,3
19.75693500,19756935,0.0,-0.07,0.0,0.42,134.54,134.54,0.0,0.2,3
19.85701600,19857016,0.0,-0.07,0.0,0.43,133.78,133.78,0.0,0.17,3
19.95710300,19957103,0.0,-0.08,0.0,0.43,133.02,133.02,0.0,0.16,3
20.05714400,20057144,0.0,-0.07,0.0,0.42,132.41,132.41,0.0,0.15,3
20.15712300,20157123,0.0,-0.08,0.0,0.43,132.02,132.02,0.0,0.14,3
20.25710000,20257100,0.0,-0.08,0.0,0.43,131.86,131.86,0.0,0.14,3
20.35707200,20357072,0.0,-0.08,0.0,0.43,131.86,131.86,0.0,0.13,3
20.45695300,20456953,0.0,-0.08,0.0,0.44,131.96,131.96,0.0,0.12,3
20.55693100,20556931,0.0,-0.08,0.0,0.43,132.13,132.13,0.0,0.11,3
20.65694100,20656941,0.0,-0.08,0.0,0.43,132.32,132.32,0.0,0.11,3
20.75698600,20756986,0.0,-0.08,0.0,0.44,132.52,132.52,0.0,0.1,3
20.85704100,20857041,0.0,-0.08,0.0,0.44,132.71,132.71,0.0,0.09,3
20.95713600,20957136,0.0,-0.08,0.0,0.43,132.87,132.87,0.0,0.08,3
21.05711500,21057115,0.0,-0.08,0.0,0.44,133.01,133.01,0.0,0.07,3
21.15710900,21157109,0.0,-0.08,0.0,0.44,133.12,133.12,0.0,0.07,3
21.25726500,21257265,0.0,-0.08,0.0,0.44,133.23,133.23,0.0,0.06,3
21.35726800,21357268,0.0,-0.08,0.0,0.44,133.33,133.33,0.0,0.05,3
21.45716100,21457161,0.0,-0.08,0.0,0.44,133.43,133.43,0.0,0.05,3
21.55695400,21556954,0.0,-0.09,0.0,0.44,133.51,133.51,0.0,0.04,3
21.65701100,21657011,0.0,-0.08,0.0,0.44,133.6,133.6,0.0,0.04,3
21.75705500,21757055,0.0,-0.09,0.0,0.44,133.7,133.7,0.0,0.04,3
21.85715200,21857152,0.0,-0.08,0.0,0.44,133.81,133.81,0.0,0.04,3
21.95711700,21957117,0.0,-0.09,0.0,0.44,133.91,133.91,0.0,0.03,3
22.05714400,22057144,0.0,-0.09,0.0,0.44,134.0,134.0,0.0,0.03,3
22.15716100,22157161,0.0,-0.08,0.0,0.45,134.09,134.09,0.0,0.03,3
22.25716400,22257164,0.0,-0.09,0.0,0.45,134.17000000000002,134.17000000000002,0.0,0.02,3
22.35715600,22357156,0.0,-0.09,0.0,0.44,134.26,134.26,0.0,0.02,3
22.45711600,22457116,0.0,-0.09,0.0,0.44,134.34,134.34,0.0,0.02,3
22.55714200,22557142,0.0,-0.09,0.0,0.44,134.41,134.41,0.0,0.01,3
22.65719300,22657193,0.0,-0.09,0.0,0.44,134.48,134.48,0.0,0.01,3
22.75727600,22757276,0.0,-0.09,0.0,0.44,134.54,134.54,0.0,0.01,3
22.85726100,22857261,0.0,-0.09,0.0,0.44,134.6,134.6,0.0,0.01,3
22.95731400,22957314,0.0,-0.09,0.0,0.45,134.65,134.65,0.0,0.01,3
23.05716700,23057167,0.0,-0.08,0.0,0.45,134.7,134.7,0.0,0.01,3
23.15709600,23157096,0.0,-0.08,0.0,0.45,134.76,134.76,0.0,0.01,3
23.25713300,23257133,0.0,-0.08,0.0,0.44,134.82,134.82,0.0,0.01,3
23.35717000,23357170,0.0,-0.08,0.0,0.45,134.88,134.88,0.0,0.01,3
23.45713000,23457130,0.0,-0.09,0.0,0.45,134.94,134.94,0.0,0.01,3
23.55719500,23557195,0.0,-0.09,0.0,0.45,134.99,134.99,0.0,0.01,3
23.65728200,23657282,0.0,-0.09,0.0,0.45,135.04,135.04,0.0,0.01,3
23.75726800,23757268,0.0,-0.08,0.0,0.46,135.11,135.11,0.0,0.01,3
23.85732100,23857321,0.0,-0.08,0.0,0.45,135.17000000000002,135.17000000000002,0.0,0.01,3
23.95719600,23957196,0.0,-0.08,0.0,0.45,135.23,135.23,0.0,0.0,3
24.05723800,24057238,0.0,-0.08,0.0,0.45,135.28,135.28,0.0,0.01,3
24.15724900,24157249,0.0,-0.09,0.0,0.45,135.33,135.33,0.0,0.0,3
24.25712900,24257129,0.0,-0.09,0.0,0.44,135.38,135.38,0.0,0.01,3
24.35716900,24357169,0.0,-0.09,0.0,0.44,135.43,135.43,0.0,0.0,3
24.45719100,24457191,0.0,-0.09,0.0,0.44,135.48,135.48,0.0,0.01,3
24.55730600,24557306,0.0,-0.09,0.0,0.44,135.52,135.52,0.0,0.01,3
24.65728400,24657284,0.0,-0.09,0.0,0.44,135.56,135.56,0.0,0.01,3
24.75735600,24757356,0.0,-0.09,0.0,0.44,135.59,135.59,0.0,0.0,3
24.85720600,24857206,0.0,-0.09,0.0,0.44,135.63,135.63,0.0,0.0,3
24.95720200,24957202,0.0,-0.09,0.0,0.44,135.66,135.66,0.0,0.0,3
25.05713700,25057137,0.0,-0.09,0.0,0.44,135.69,135.69,0.0,0.0,3
25.15711600,25157116,0.0,-0.09,0.0,0.44,135.73,135.73,0.0,0.01,3
25.25713900,25257139,0.0,-0.08,0.0,0.44,135.78,135.78,0.0,0.01,3
25.35721800,25357218,0.0,-0.08,0.0,0.44,135.82,135.82,0.0,0.0,3
25.45729300,25457293,0.0,-0.08,0.0,0.44,135.87,135.87,0.0,0.0,3
25.55727700,25557277,0.0,-0.08,0.0,0.44,135.92000000000002,135.92000000000002,0.0,0.01,3
25.65733600,25657336,0.0,-0.08,0.0,0.44,135.98,135.98,0.0,0.0,3
25.75722600,25757226,0.0,-0.07,0.0,0.43,136.03,136.03,0.0,0.0,3
25.85709900,25857099,0.0,-0.07,0.0,0.43,136.08,136.08,0.0,0.0,3
25.95711900,25957119,0.0,-0.07,0.0,0.44,136.13,136.13,0.0,0.0,3
26.05747000,26057470,0.0,-0.07,0.0,0.44,136.17000000000002,136.17000000000002,0.0,0.0,3
26.15717400,26157174,0.0,-0.07,0.0,0.44,136.2,136.2,0.0,0.0,3
26.25728300,26257283,0.0,-0.07,0.0,0.44,136.22,136.22,0.0,0.0,3
26.35736200,26357362,0.0,-0.06,0.0,0.44,136.25,136.25,0.0,0.0,3
26.45731200,26457312,0.0,-0.06,0.0,0.44,136.28,136.28,0.0,0.0,3
26.55736700,26557367,0.0,-0.06,0.0,0.44,136.31,136.31,0.0,0.0,3
26.65728800,26657288,0.0,-0.06,0.0,0.44,136.34,136.34,0.0,0.0,3
26.75723700,26757237,0.0,-0.06,0.0,0.44,136.38,136.38,0.0,0.0,3
26.85715400,26857154,0.0,-0.06,0.0,0.44,136.4,136.4,0.0,0.0,3
26.95717700,26957177,0.0,-0.06,0.0,0.44,136.43,136.43,0.0,0.0,3
27.05720500,27057205,0.0,-0.06,0.0,0.45,136.46,136.46,0.0,0.0,3
27.15721800,27157218,0.0,-0.05,0.0,0.45,136.49,136.49,0.0,0.0,3
27.25732700,27257327,0.0,-0.05,0.0,0.45,136.52,136.52,0.0,0.0,3
27.35732000,27357320,0.0,-0.05,0.0,0.45,136.55,136.55,0.0,0.0,3
27.45736200,27457362,0.0,-0.05,0.0,0.45,136.58,136.58,0.0,0.0,3
27.55729700,27557297,0.0,-0.05,0.0,0.45,136.61,136.61,0.0,0.0,3
27.65727300,27657273,0.0,-0.05,0.0,0.45,136.64000000000001,136.64000000000001,0.0,0.0,3
27.75716500,27757165,0.0,-0.05,0.0,0.45,136.66,136.66,0.0,0.0,3
27.85717900,27857179,0.0,-0.05,0.0,0.45,136.69,136.69,0.0,0.0,3
27.95717000,27957170,0.0,-0.04,0.0,0.45,136.71,136.71,0.0,0.0,3
28.05723400,28057234,0.0,-0.04,0.0,0.45,136.73,136.73,0.0,0.0,3
28.15732400,28157324,0.0,-0.04,0.0,0.44,136.74,136.74,0.0,0.0,3
28.25728400,28257284,0.0,-0.05,0.0,0.44,136.75,136.75,0.0,0.0,3
28.35743400,28357434,0.0,-0.04,0.0,0.44,136.76,136.76,0.0,0.0,3
28.45732900,28457329,0.0,-0.04,0.0,0.44,136.77,136.77,0.0,0.0,3
28.55727300,28557273,0.0,-0.04,0.0,0.44,136.78,136.78,0.0,0.0,3
28.65716100,28657161,0.0,-0.04,0.0,0.44,136.79,136.79,0.0,0.0,3
28.75719400,28757194,0.0,-0.04,0.0,0.44,136.8,136.8,0.0,0.0,3
28.85717600,28857176,0.0,-0.04,0.0,0.44,136.8,136.8,0.0,0.0,3
28.95724200,28957242,0.0,-0.05,0.0,0.44,136.8,136.8,0.0,0.0,3
29.05733900,29057339,0.0,-0.05,0.0,0.44,136.81,136.81,0.0,0.0,3
29.15730900,29157309,0.0,-0.04,0.0,0.44,136.81,136.81,0.0,0.0,3
29.25736200,29257362,0.0,-0.04,0.0,0.43,136.83,136.83,0.0,0.0,3
29.35730200,29357302,0.0,-0.04,0.0,0.43,136.84,136.84,0.0,0.0,3
29.45717700,29457177,0.0,-0.04,0.0,0.43,136.86,136.86,0.0,0.0,3
29.55716900,29557169,0.0,-0.04,0.0,0.43,136.88,136.88,0.0,0.0,3
29.65718300,29657183,0.0,-0.04,0.0,0.44,136.9,136.9,0.0,0.0,3
29.75699500,29756995,0.0,-0.04,0.0,0.44,136.92000000000002,136.92000000000002,0.0,0.0,3
29.85704400,29857044,0.0,-0.04,0.0,0.44,136.95000000000002,136.95000000000002,0.0,0.0,3
29.95716000,29957160,0.0,-0.04,0.0,0.44,136.96,136.96,0.0,0.0,3
30.05710700,30057107,0.0,-0.04,0.0,0.44,136.97,136.97,0.0,0.0,3
30.15711400,30157114,0.0,-0.04,0.0,0.44,136.97,136.97,0.0,0.0,3
30.25688800,30256888,0.0,-0.04,0.0,0.44,136.98,136.98,0.0,0.0,3
30.35694900,30356949,0.0,-0.04,0.0,0.44,136.98,136.98,0.0,0.01,3
30.45697100,30456971,0.0,-0.04,0.0,0.43,136.98,136.98,0.0,0.0,3
30.55693100,30556931,0.0,-0.04,0.0,0.43,136.98,136.98,0.0,0.01,3
30.65697700,30656977,0.0,-0.04,0.0,0.43,136.99,136.99,0.0,0.01,3
30.75702800,30757028,0.0,-0.04,0.0,0.43,136.99,136.99,0.0,0.01,3
30.85713000,30857130,0.0,-0.03,0.0,0.43,137.01,137.01,0.0,0.0,3
30.95711000,30957110,0.0,-0.04,0.0,0.43,137.03,137.03,0.0,0.0,3
31.05709900,31057099,0.0,-0.04,0.0,0.43,137.05,137.05,0.0,0.0,3
31.15688800,31156888,0.0,-0.04,0.0,0.43,137.07,137.07,0.0,0.0,3
31.25683200,31256832,0.0,-0.04,0.0,0.43,137.09,137.09,0.0,0.0,3
31.35694600,31356946,0.0,-0.04,0.0,0.43,137.11,137.11,0.0,0.0,3
31.45694200,31456942,0.0,-0.04,0.0,0.43,137.12,137.12,0.0,0.0,3
31.55698300,31556983,0.0,-0.04,0.0,0.43,137.13,137.13,0.0,0.0,3
31.65705200,31657052,0.0,-0.04,0.0,0.43,137.14000000000001,137.14000000000001,0.0,0.0,3
31.75714600,31757146,0.0,-0.04,0.0,0.44,137.14000000000001,137.14000000000001,0.0,0.0,3
31.85711800,31857118,0.0,-0.04,0.0,0.44,137.15,137.15,0.0,0.0,3
31.95710500,31957105,0.0,-0.04,0.0,0.44,137.15,137.15,0.0,0.0,3
32.05691100,32056911,0.0,-0.04,0.0,0.44,137.15,137.15,0.0,0.0,3
32.15683900,32156839,0.0,-0.04,0.0,0.45,137.15,137.15,0.0,0.01,3
32.25684400,32256844,0.0,-0.04,0.0,0.45,137.17000000000002,137.17000000000002,0.0,0.01,3
32.35694900,32356949,0.0,-0.04,0.0,0.45,137.18,137.18,0.0,0.0,3
32.45698000,32456980,0.0,-0.04,0.0,0.45,137.21,137.21,0.0,0.0,3
32.55709700,32557097,0.0,-0.04,0.0,0.45,137.22,137.22,0.0,0.0,3
32.65710100,32657101,0.0,-0.04,0.0,0.45,137.22,137.22,0.0,0.0,3
32.75710100,32757101,0.0,-0.04,0.0,0.46,137.22,137.22,0.0,0.0,3
32.85710600,32857106,0.0,-0.04,0.0,0.46,137.23,137.23,0.0,0.0,3
32.95690900,32956909,0.0,-0.04,0.0,0.46,137.23,137.23,0.0,0.0,3
33.05694700,33056947,0.0,-0.04,0.0,0.46,137.23,137.23,0.0,0.0,3
33.15683800,33156838,0.0,-0.04,0.0,0.46,137.23,137.23,0.0,0.0,3
33.25693800,33256938,0.0,-0.04,0.0,0.45,137.23,137.23,0.0,0.0,3
33.35700100,33357001,0.0,-0.04,0.0,0.46,137.23,137.23,0.0,0.0,3
33.45703200,33457032,0.0,-0.04,0.0,0.46,137.23,137.23,0.0,0.0,3
33.55714300,33557143,0.0,-0.04,0.0,0.46,137.23,137.23,0.0,0.0,3
33.65711400,33657114,0.0,-0.04,0.0,0.46,137.23,137.23,0.0,0.0,3
33.75715200,33757152,0.0,-0.04,0.0,0.46,137.23,137.23,0.0,0.0,3
33.85690800,33856908,0.0,-0.04,0.0,0.46,137.22,137.22,0.0,0.01,3
33.95684400,33956844,0.0,-0.04,0.0,0.46,137.22,137.22,0.0,0.01,3
34.05684300,34056843,0.0,-0.04,0.0,0.46,137.23,137.23,0.0,0.01,3
34.15685000,34156850,0.0,-0.04,0.0,0.46,137.24,137.24,0.0,0.01,3
34.25715100,34257151,0.0,-0.04,0.0,0.46,137.25,137.25,0.0,0.01,3
34.35723900,34357239,0.0,-0.04,0.0,0.46,137.26,137.26,0.0,0.01,3
34.45731700,34457317,0.0,-0.05,0.0,0.46,137.28,137.28,0.0,0.01,3
34.55713400,34557134,0.0,-0.05,0.0,0.46,137.28,137.28,0.0,0.0,3
34.65713000,34657130,0.0,-0.05,0.0,0.46,137.28,137.28,0.0,0.01,3
34.75690500,34756905,0.0,-0.05,0.0,0.46,137.29,137.29,0.0,0.01,3
34.85682800,34856828,0.0,-0.05,0.0,0.46,137.29,137.29,0.0,0.0,3
34.95684300,34956843,0.0,-0.05,0.0,0.46,137.3,137.3,0.0,0.01,3
35.05684600,35056846,0.0,-0.05,0.0,0.46,137.3,137.3,0.0,0.0,3
35.15696400,35156964,0.0,-0.06,0.0,0.46,137.29,137.29,0.0,0.01,3
35.25703600,35257036,0.0,-0.06,0.0,0.46,137.29,137.29,0.0,0.01,3
35.35716600,35357166,0.0,-0.06,0.0,0.46,137.28,137.28,0.0,0.01,3
35.45712100,35457121,0.0,-0.06,0.0,0.47000000000000003,137.27,137.27,0.0,0.01,3
35.55710700,35557107,0.0,-0.06,0.0,0.46,137.27,137.27,0.0,0.01,3
35.65690100,35656901,0.0,-0.06,0.0,0.46,137.27,137.27,0.0,0.01,3
35.75692500,35756925,0.0,-0.07,0.0,0.46,137.27,137.27,0.0,0.01,3
35.85683500,35856835,0.0,-0.06,0.0,0.47000000000000003,137.28,137.28,0.0,0.01,3
35.95693900,35956939,0.0,-0.06,0.0,0.47000000000000003,137.29,137.29,0.0,0.01,3
36.05699400,36056994,0.0,-0.06,0.0,0.46,137.31,137.31,0.0,0.01,3
36.15705600,36157056,0.0,-0.06,0.0,0.46,137.32,137.32,0.0,0.0,3
36.25711800,36257118,0.0,-0.06,0.0,0.46,137.32,137.32,0.0,0.01,3
36.35715400,36357154,0.0,-0.06,0.0,0.46,137.32,137.32,0.0,0.01,3
36.45708200,36457082,0.0,-0.06,0.0,0.46,137.31,137.31,0.0,0.01,3
36.55691300,36556913,0.0,-0.06,0.0,0.46,137.3,137.3,0.0,0.01,3
36.65684200,36656842,0.0,-0.06,0.0,0.46,137.29,137.29,0.0,0.01,3
36.75683300,36756833,0.0,-0.06,0.0,0.46,137.28,137.28,0.0,0.01,3
36.85684300,36856843,0.0,-0.06,0.0,0.46,137.27,137.27,0.0,0.01,3
36.95697900,36956979,0.0,-0.06,0.0,0.46,137.26,137.26,0.0,0.0,3
37.05704800,37057048,0.0,-0.06,0.0,0.46,137.25,137.25,0.0,0.0,3
37.15712200,37157122,0.0,-0.06,0.0,0.46,137.25,137.25,0.0,0.0,3
37.25712900,37257129,0.0,-0.06,0.0,0.46,137.25,137.25,0.0,0.01,3
37.35710600,37357106,0.0,-0.06,0.0,0.46,137.25,137.25,0.0,0.01,3
37.45690500,37456905,0.0,-0.06,0.0,0.46,137.25,137.25,0.0,0.01,3
37.55684000,37556840,0.0,-0.06,0.0,0.46,137.24,137.24,0.0,0.01,3
37.65684100,37656841,0.0,-0.06,0.0,0.46,137.24,137.24,0.0,0.0,3
37.75688800,37756888,0.0,-0.06,0.0,0.46,137.24,137.24,0.0,0.01,3
37.85699200,37856992,0.0,-0.07,0.0,0.46,137.24,137.24,0.0,0.0,3
37.95704200,37957042,0.0,-0.07,0.0,0.46,137.24,137.24,0.0,0.01,3
38.05712700,38057127,0.0,-0.07,0.0,0.46,137.24,137.24,0.0,0.01,3
38.15711000,38157110,0.0,-0.07,0.0,0.46,137.24,137.24,0.0,0.01,3
38.25710200,38257102,0.0,-0.07,0.0,0.46,137.24,137.24,0.0,0.01,3
38.35693500,38356935,0.0,-0.07,0.0,0.46,137.25,137.25,0.0,0.01,3
38.45683400,38456834,0.0,-0.07,0.0,0.46,137.26,137.26,0.0,0.0,3
38.55688600,38556886,0.0,-0.07,0.0,0.47000000000000003,137.26,137.26,0.0,0.0,3
38.65694600,38656946,0.0,-0.07,0.0,0.46,137.27,137.27,0.0,0.0,3
38.75698800,38756988,0.0,-0.07,0.0,0.46,137.27,137.27,0.0,0.0,3
38.85712800,38857128,0.0,-0.07,0.0,0.47000000000000003,137.28,137.28,0.0,0.0,3
38.95713500,38957135,0.0,-0.07,0.0,0.47000000000000003,137.28,137.28,0.0,0.0,3
39.05710600,39057106,0.0,-0.07,0.0,0.47000000000000003,137.28,137.28,0.0,0.0,3
39.15709700,39157097,0.0,-0.07,0.0,0.47000000000000003,137.29,137.29,0.0,0.0,3
39.25690900,39256909,0.0,-0.07,0.0,0.47000000000000003,137.29,137.29,0.0,0.0,3
39.35693600,39356936,0.0,-0.07,0.0,0.47000000000000003,137.29,137.29,0.0,0.0,3
39.45683800,39456838,0.0,-0.07,0.0,0.46,137.28,137.28,0.0,0.0,3
39.55693100,39556931,0.0,-0.07,0.0,0.46,137.28,137.28,0.0,0.0,3
39.65697600,39656976,0.0,-0.07,0.0,0.46,137.27,137.27,0.0,0.01,3
39.75702400,39757024,0.0,-0.07,0.0,0.45,137.26,137.26,0.0,0.0,3
39.85711300,39857113,0.0,-0.07,0.0,0.45,137.26,137.26,0.0,0.0,3
39.95711000,39957110,0.0,-0.08,0.0,0.46,137.26,137.26,0.0,0.0,3
40.05710900,40057109,0.0,-0.08,0.0,0.45,137.26,137.26,0.0,0.0,3
40.15691100,40156911,0.0,-0.08,0.0,0.46,137.26,137.26,0.0,0.0,3
40.25683700,40256837,0.0,-0.08,0.0,0.46,137.26,137.26,0.0,0.0,3
40.35694000,40356940,0.0,-0.08,0.0,0.46,137.26,137.26,0.0,0.0,3
40.45685300,40456853,0.0,-0.08,0.0,0.46,137.26,137.26,0.0,0.0,3
40.55697800,40556978,0.0,-0.08,0.0,0.45,137.25,137.25,0.0,0.0,3
40.65704600,40657046,0.0,-0.08,0.0,0.45,137.25,137.25,0.0,0.0,3
40.75712100,40757121,0.0,-0.08,0.0,0.45,137.25,137.25,0.0,0.0,3
40.85712200,40857122,0.0,-0.08,0.0,0.44,137.24,137.24,0.0,0.0,3
40.95709600,40957096,0.0,-0.08,0.0,0.44,137.24,137.24,0.0,0.0,3
41.05691000,41056910,0.0,-0.08,0.0,0.43,137.23,137.23,0.0,0.0,3
41.15683800,41156838,0.0,-0.08,0.0,0.43,137.22,137.22,0.0,0.0,3
41.25684300,41256843,0.0,-0.08,0.0,0.43,137.22,137.22,0.0,0.0,3
41.35695600,41356956,0.0,-0.08,0.0,0.43,137.22,137.22,0.0,0.0,3
41.45697700,41456977,0.0,-0.08,0.0,0.43,137.22,137.22,0.0,0.0,3
41.55723900,41557239,0.0,-0.08,0.0,0.43,137.22,137.22,0.0,0.0,3
41.65730800,41657308,0.0,-0.08,0.0,0.44,137.22,137.22,0.0,0.0,3
41.75730400,41757304,0.0,-0.08,0.0,0.43,137.22,137.22,0.0,0.0,3
41.85709600,41857096,0.0,-0.08,0.0,0.43,137.22,137.22,0.0,0.0,3
41.95689900,41956899,0.0,-0.08,0.0,0.43,137.21,137.21,0.0,0.0,3
42.05682300,42056823,0.0,-0.08,0.0,0.43,137.21,137.21,0.0,0.0,3
42.15683300,42156833,0.0,-0.08,0.0,0.43,137.21,137.21,0.0,0.0,3
42.25686100,42256861,0.0,-0.08,0.0,0.43,137.21,137.21,0.0,0.0,3
42.35701500,42357015,0.0,-0.08,0.0,0.43,137.21,137.21,0.0,0.0,3
42.45702900,42457029,0.0,-0.08,0.0,0.43,137.21,137.21,0.0,0.0,3
42.55712400,42557124,0.0,-0.08,0.0,0.44,137.21,137.21,0.0,0.0,3
42.65710200,42657102,0.0,-0.08,0.0,0.44,137.20000000000002,137.20000000000002,0.0,0.0,3
42.75710300,42757103,0.0,-0.08,0.0,0.44,137.20000000000002,137.20000000000002,0.0,0.0,3
42.85714200,42857142,0.0,-0.08,0.0,0.44,137.19,137.19,0.0,0.0,3
42.95709100,42957091,0.0,-0.07,0.0,0.43,137.19,137.19,0.0,0.0,3
43.05718300,43057183,0.0,-0.07,0.0,0.43,137.18,137.18,0.0,0.0,3
43.15710700,43157107,0.0,-0.07,0.0,0.43,137.18,137.18,0.0,0.0,3
43.25713300,43257133,0.0,-0.07,0.0,0.43,137.17000000000002,137.17000000000002,0.0,0.0,3
43.35720000,43357200,0.0,-0.07,0.0,0.43,137.17000000000002,137.17000000000002,0.0,0.0,3
43.45726600,43457266,0.0,-0.07,0.0,0.42,137.17000000000002,137.17000000000002,0.0,0.0,3
43.55729300,43557293,0.0,-0.07,0.0,0.43,137.18,137.18,0.0,0.0,3
43.65734100,43657341,0.0,-0.07,0.0,0.42,137.18,137.18,0.0,0.0,3
43.75714900,43757149,0.0,-0.07,0.0,0.42,137.18,137.18,0.0,0.0,3
43.85709500,43857095,0.0,-0.07,0.0,0.42,137.18,137.18,0.0,0.0,3
43.95711100,43957111,0.0,-0.07,0.0,0.42,137.18,137.18,0.0,0.0,3
44.05713000,44057130,0.0,-0.07,0.0,0.42,137.17000000000002,137.17000000000002,0.0,0.0,3
44.15712900,44157129,0.0,-0.08,0.0,0.42,137.17000000000002,137.17000000000002,0.0,0.0,3
44.25718100,44257181,0.0,-0.08,0.0,0.42,137.17000000000002,137.17000000000002,0.0,0.0,3
44.35730700,44357307,0.0,-0.08,0.0,0.42,137.17000000000002,137.17000000000002,0.0,0.0,3
44.45728400,44457284,0.0,-0.08,0.0,0.42,137.17000000000002,137.17000000000002,0.0,0.0,3
44.55733800,44557338,0.0,-0.08,0.0,0.42,137.16,137.16,0.0,0.0,3
44.65721100,44657211,0.0,-0.09,0.0,0.42,137.16,137.16,0.0,0.0,3
44.75708500,44757085,0.0,-0.09,0.0,0.42,137.15,137.15,0.0,0.0,3
44.85711700,44857117,0.0,-0.09,0.0,0.42,137.15,137.15,0.0,0.0,3
44.95710400,44957104,0.0,-0.09,0.0,0.41000000000000003,137.15,137.15,0.0,0.0,3
45.05712500,45057125,0.0,-0.09,0.0,0.41000000000000003,137.15,137.15,0.0,0.0,3
45.15724200,45157242,0.0,-0.09,0.0,0.42,137.15,137.15,0.0,0.0,3
45.25725300,45257253,0.0,-0.09,0.0,0.42,137.15,137.15,0.0,0.0,3
45.35728700,45357287,0.0,-0.09,0.0,0.42,137.15,137.15,0.0,0.0,3
45.45736100,45457361,0.0,-0.09,0.0,0.42,137.15,137.15,0.0,0.0,3
45.55725500,45557255,0.0,-0.09,0.0,0.42,137.16,137.16,0.0,0.0,3
45.65717200,45657172,0.0,-0.1,0.0,0.42,137.16,137.16,0.0,0.0,3
45.75715300,45757153,0.0,-0.1,0.0,0.42,137.16,137.16,0.0,0.0,3
45.85717500,45857175,0.0,-0.1,0.0,0.42,137.17000000000002,137.17000000000002,0.0,0.0,3
45.95716600,45957166,0.0,-0.1,0.0,0.41000000000000003,137.18,137.18,0.0,0.0,3
46.05722100,46057221,0.0,-0.1,0.0,0.41000000000000003,137.18,137.18,0.0,0.0,3
46.15730800,46157308,0.0,-0.1,0.0,0.41000000000000003,137.19,137.19,0.0,0.0,3
46.25730300,46257303,0.0,-0.1,0.0,0.41000000000000003,137.20000000000002,137.20000000000002,0.0,0.0,3
46.35737800,46357378,0.0,-0.1,0.0,0.41000000000000003,137.21,137.21,0.0,0.0,3
46.45724500,46457245,0.0,-0.1,0.0,0.41000000000000003,137.21,137.21,0.0,0.0,3
46.55717600,46557176,0.0,-0.1,0.0,0.41000000000000003,137.21,137.21,0.0,0.0,3
46.65715700,46657157,0.0,-0.1,0.0,0.41000000000000003,137.21,137.21,0.0,0.0,3
46.75713200,46757132,0.0,-0.1,0.0,0.41000000000000003,137.21,137.21,0.0,0.0,3
46.85716800,46857168,0.0,-0.1,0.0,0.41000000000000003,137.21,137.21,0.0,0.0,3
46.95721700,46957217,0.0,-0.11,0.0,0.41000000000000003,137.22,137.22,0.0,0.0,3
47.05730800,47057308,0.0,-0.1,0.0,0.41000000000000003,137.22,137.22,0.0,0.0,3
47.15731500,47157315,0.0,-0.11,0.0,0.41000000000000003,137.23,137.23,0.0,0.0,3
47.25741400,47257414,0.0,-0.11,0.0,0.41000000000000003,137.23,137.23,0.0,0.0,3
47.35728200,47357282,0.0,-0.11,0.0,0.41000000000000003,137.24,137.24,0.0,0.0,3
47.45716900,47457169,0.0,-0.11,0.0,0.41000000000000003,137.24,137.24,0.0,0.0,3
47.55716100,47557161,0.0,-0.11,0.0,0.41000000000000003,137.24,137.24,0.0,0.0,3
47.65717700,47657177,0.0,-0.11,0.0,0.41000000000000003,137.25,137.25,0.0,0.0,3
47.75716000,47757160,0.0,-0.11,0.0,0.41000000000000003,137.25,137.25,0.0,0.0,3
47.85721200,47857212,0.0,-0.12,0.0,0.41000000000000003,137.25,137.25,0.0,0.01,3
47.95728300,47957283,0.0,-0.12,0.0,0.41000000000000003,137.25,137.25,0.0,0.0,3
48.05729700,48057297,0.0,-0.12,0.0,0.42,137.24,137.24,0.0,0.0,3
48.15735300,48157353,0.0,-0.12,0.0,0.42,137.24,137.24,0.0,0.0,3
48.25691500,48256915,0.0,-0.12,0.0,0.42,137.24,137.24,0.0,0.0,3
48.35694200,48356942,0.0,-0.12,0.0,0.42,137.24,137.24,0.0,0.0,3
48.45683300,48456833,0.0,-0.12,0.0,0.42,137.23,137.23,0.0,0.01,3
48.55693300,48556933,0.0,-0.12,0.0,0.42,137.23,137.23,0.0,0.0,3
48.65698800,48656988,0.0,-0.12,0.0,0.42,137.22,137.22,0.0,0.0,3
48.75704100,48757041,0.0,-0.12,0.0,0.42,137.22,137.22,0.0,0.01,3
48.85711000,48857110,0.0,-0.12,0.0,0.42,137.21,137.21,0.0,0.0,3
48.95711200,48957112,0.0,-0.12,0.0,0.42,137.21,137.21,0.0,0.0,3
49.05709600,49057096,0.0,-0.12,0.0,0.42,137.21,137.21,0.0,0.0,3
49.15691700,49156917,0.0,-0.12,0.0,0.42,137.21,137.21,0.0,0.0,3
49.25683300,49256833,0.0,-0.12,0.0,0.42,137.21,137.21,0.0,0.0,3
49.35699000,49356990,0.0,-0.12,0.0,0.42,137.22,137.22,0.0,0.0,3
49.45693400,49456934,0.0,-0.11,0.0,0.42,137.22,137.22,0.0,0.0,3
49.55699200,49556992,0.0,-0.12,0.0,0.42,137.22,137.22,0.0,0.0,3
49.65703200,49657032,0.0,-0.12,0.0,0.42,137.22,137.22,0.0,0.0,3
49.75712600,49757126,0.0,-0.11,0.0,0.42,137.22,137.22,0.0,0.0,3
49.85712700,49857127,0.0,-0.12,0.0,0.42,137.22,137.22,0.0,0.0,3
49.95711200,49957112,0.0,-0.12,0.0,0.43,137.22,137.22,0.0,0.0,3
50.05691700,50056917,0.0,-0.12,0.0,0.43,137.22,137.22,0.0,0.0,3
50.15694700,50156947,0.0,-0.12,0.0,0.43,137.22,137.22,0.0,0.0,3
50.25684700,50256847,0.0,-0.12,0.0,0.43,137.22,137.22,0.0,0.0,3
50.35695400,50356954,0.0,-0.12,0.0,0.43,137.22,137.22,0.0,0.0,3
50.45698000,50456980,0.0,-0.12,0.0,0.43,137.22,137.22,0.0,0.0,3
50.55703700,50557037,0.0,-0.12,0.0,0.43,137.21,137.21,0.0,0.0,3
50.65712400,50657124,0.0,-0.13,0.0,0.43,137.21,137.21,0.0,0.0,3
50.75710800,50757108,0.0,-0.13,0.0,0.43,137.21,137.21,0.0,0.0,3
50.85709800,50857098,0.0,-0.12,0.0,0.43,137.22,137.22,0.0,0.0,3
50.95689900,50956899,0.0,-0.12,0.0,0.43,137.21,137.21,0.0,0.0,3
51.05695200,51056952,0.0,-0.12,0.0,0.43,137.21,137.21,0.0,0.0,3
51.15683500,51156835,0.0,-0.12,0.0,0.43,137.21,137.21,0.0,0.0,3
51.25691200,51256912,0.0,-0.11,0.0,0.43,137.21,137.21,0.0,0.0,3
51.35700600,51357006,0.0,-0.11,0.0,0.43,137.21,137.21,0.0,0.0,3
51.45709600,51457096,0.0,-0.11,0.0,0.43,137.21,137.21,0.0,0.0,3
51.55711900,51557119,0.0,-0.11,0.0,0.44,137.22,137.22,0.0,0.0,3
51.65712000,51657120,0.0,-0.1,0.0,0.44,137.22,137.22,0.0,0.0,3
51.75708800,51757088,0.0,-0.1,0.0,0.44,137.22,137.22,0.0,0.0,3
51.85690800,51856908,0.0,-0.1,0.0,0.44,137.22,137.22,0.0,0.0,3
51.95683100,51956831,0.0,-0.1,0.0,0.44,137.22,137.22,0.0,0.0,3
52.05683700,52056837,0.0,-0.11,0.0,0.45,137.22,137.22,0.0,0.0,3
52.15685500,52156855,0.0,-0.11,0.0,0.45,137.22,137.22,0.0,0.0,3
52.25697600,52256976,0.0,-0.11,0.0,0.45,137.21,137.21,0.0,0.0,3
52.35706700,52357067,0.0,-0.11,0.0,0.45,137.21,137.21,0.0,0.01,3
52.45711700,52457117,0.0,-0.1,0.0,0.45,137.20000000000002,137.20000000000002,0.0,0.0,3
52.55713500,52557135,0.0,-0.1,0.0,0.45,137.20000000000002,137.20000000000002,0.0,0.0,3
52.65739800,52657398,0.0,-0.1,0.0,0.45,137.20000000000002,137.20000000000002,0.0,0.0,3
52.75726200,52757262,0.0,-0.11,0.0,0.45,137.19,137.19,0.0,0.0,3
52.85717300,52857173,0.0,-0.1,0.0,0.45,137.19,137.19,0.0,0.0,3
52.95682200,52956822,0.0,-0.11,0.0,0.44,137.19,137.19,0.0,0.0,3
53.05689000,53056890,0.0,-0.1,0.0,0.45,137.19,137.19,0.0,0.01,3
53.15697600,53156976,0.0,-0.1,0.0,0.45,137.19,137.19,0.0,0.01,3
53.25702700,53257027,0.0,-0.1,0.0,0.45,137.19,137.19,0.0,0.0,3
53.35715700,53357157,0.0,-0.1,0.0,0.45,137.20000000000002,137.20000000000002,0.0,0.0,3
53.45712300,53457123,0.0,-0.11,0.0,0.45,137.20000000000002,137.20000000000002,0.0,0.0,3
53.55710800,53557108,0.0,-0.11,0.0,0.45,137.21,137.21,0.0,0.0,3
53.65691700,53656917,0.0,-0.11,0.0,0.44,137.21,137.21,0.0,0.01,3
53.75691100,53756911,0.0,-0.11,0.0,0.45,137.22,137.22,0.0,0.01,3
53.85683200,53856832,0.0,-0.11,0.0,0.45,137.22,137.22,0.0,0.0,3
53.95684900,53956849,0.0,-0.11,0.0,0.45,137.23,137.23,0.0,0.0,3
54.05698900,54056989,0.0,-0.11,0.0,0.45,137.23,137.23,0.0,0.0,3
54.15704400,54157044,0.0,-0.11,0.0,0.44,137.23,137.23,0.0,0.0,3
54.25712600,54257126,0.0,-0.11,0.0,0.44,137.23,137.23,0.0,0.0,3
54.35715100,54357151,0.0,-0.11,0.0,0.44,137.23,137.23,0.0,0.0,3
54.45709200,54457092,0.0,-0.11,0.0,0.44,137.23,137.23,0.0,0.0,3
54.55689900,54556899,0.0,-0.11,0.0,0.45,137.23,137.23,0.0,0.0,3
54.65684500,54656845,0.0,-0.1,0.0,0.45,137.23,137.23,0.0,0.0,3
54.75682900,54756829,0.0,-0.1,0.0,0.44,137.22,137.22,0.0,0.0,3
54.85684900,54856849,0.0,-0.1,0.0,0.44,137.22,137.22,0.0,0.0,3
54.95697800,54956978,0.0,-0.1,0.0,0.44,137.22,137.22,0.0,0.0,3
55.05704900,55057049,0.0,-0.1,0.0,0.44,137.22,137.22,0.0,0.0,3
55.15713200,55157132,0.0,-0.1,0.0,0.44,137.21,137.21,0.0,0.0,3
55.25712700,55257127,0.0,-0.1,0.0,0.45,137.21,137.21,0.0,0.0,3
55.35713400,55357134,0.0,-0.1,0.0,0.45,137.21,137.21,0.0,0.0,3
55.45691000,55456910,0.0,-0.09,0.0,0.45,137.21,137.21,0.0,0.0,3
55.55684000,55556840,0.0,-0.09,0.0,0.45,137.21,137.21,0.0,0.01,3
55.65697100,55656971,0.0,-0.1,0.0,0.46,137.22,137.22,0.0,0.01,3
55.75685800,55756858,0.0,-0.1,0.0,0.46,137.22,137.22,0.0,0.01,3
55.85699000,55856990,0.0,-0.1,0.0,0.46,137.22,137.22,0.0,0.0,3
55.95703400,55957034,0.0,-0.1,0.0,0.46,137.22,137.22,0.0,0.01,3
56.05731200,56057312,0.0,-0.1,0.0,0.46,137.22,137.22,0.0,0.0,3
56.15728400,56157284,0.0,-0.1,0.0,0.47000000000000003,137.22,137.22,0.0,0.01,3
56.25735400,56257354,0.0,-0.1,0.0,0.46,137.23,137.23,0.0,0.01,3
56.35727600,56357276,0.0,-0.1,0.0,0.47000000000000003,137.23,137.23,0.0,0.0,3
56.45716400,56457164,0.0,-0.1,0.0,0.46,137.23,137.23,0.0,0.01,3
56.55715100,56557151,0.0,-0.1,0.0,0.47000000000000003,137.23,137.23,0.0,0.0,3
56.65718000,56657180,0.0,-0.1,0.0,0.46,137.24,137.24,0.0,0.0,3
56.75717100,56757171,0.0,-0.1,0.0,0.46,137.23,137.23,0.0,0.0,3
56.85721700,56857217,0.0,-0.09,0.0,0.47000000000000003,137.23,137.23,0.0,0.0,3
56.95729700,56957297,0.0,-0.09,0.0,0.47000000000000003,137.23,137.23,0.0,0.0,3
57.05730400,57057304,0.0,-0.1,0.0,0.47000000000000003,137.23,137.23,0.0,0.0,3
57.15735100,57157351,0.0,-0.1,0.0,0.47000000000000003,137.23,137.23,0.0,0.0,3
57.25724600,57257246,0.0,-0.1,0.0,0.47000000000000003,137.23,137.23,0.0,0.0,3
57.35725000,57357250,0.0,-0.09,0.0,0.47000000000000003,137.23,137.23,0.0,0.0,3
57.45715300,57457153,0.0,-0.09,0.0,0.47000000000000003,137.23,137.23,0.0,0.0,3
57.55717300,57557173,0.0,-0.1,0.0,0.47000000000000003,137.23,137.23,0.0,0.01,3
57.65717500,57657175,0.0,-0.1,0.0,0.47000000000000003,137.23,137.23,0.0,0.01,3
57.75727800,57757278,0.0,-0.1,0.0,0.47000000000000003,137.24,137.24,0.0,0.01,3
57.85713200,57857132,0.0,-0.1,0.0,0.47000000000000003,137.24,137.24,0.0,0.01,3
57.95712300,57957123,0.0,-0.1,0.0,0.47000000000000003,137.24,137.24,0.0,0.0,3
58.05709300,58057093,0.0,-0.11,0.0,0.47000000000000003,137.24,137.24,0.0,0.0,3
58.15690700,58156907,0.0,-0.11,0.0,0.47000000000000003,137.24,137.24,0.0,0.0,3
58.25693800,58256938,0.0,-0.11,0.0,0.47000000000000003,137.24,137.24,0.0,0.0,3
58.35693600,58356936,0.0,-0.11,0.0,0.47000000000000003,137.24,137.24,0.0,0.0,3
58.45693000,58456930,0.0,-0.11,0.0,0.48,137.24,137.24,0.0,0.0,3
58.55698200,58556982,0.0,-0.11,0.0,0.48,137.24,137.24,0.0,0.0,3
58.65703500,58657035,0.0,-0.11,0.0,0.47000000000000003,137.24,137.24,0.0,0.0,3
58.75711100,58757111,0.0,-0.1,0.0,0.47000000000000003,137.24,137.24,0.0,0.0,3
58.85710500,58857105,0.0,-0.1,0.0,0.47000000000000003,137.24,137.24,0.0,0.0,3
58.95709700,58957097,0.0,-0.1,0.0,0.47000000000000003,137.24,137.24,0.0,0.0,3
59.05690300,59056903,0.0,-0.1,0.0,0.47000000000000003,137.24,137.24,0.0,0.0,3
59.15683100,59156831,0.0,-0.1,0.0,0.46,137.24,137.24,0.0,0.0,3
59.25694200,59256942,0.0,-0.1,0.0,0.46,137.24,137.24,0.0,0.0,3
59.35695900,59356959,0.0,-0.1,0.0,0.46,137.24,137.24,0.0,0.0,3
59.45698700,59456987,0.0,-0.1,0.0,0.46,137.23,137.23,0.0,0.0,3
59.55704300,59557043,0.0,-0.1,0.0,0.46,137.23,137.23,0.0,0.0,3
59.65712000,59657120,0.0,-0.1,0.0,0.46,137.22,137.22,0.0,0.0,3
59.75710400,59757104,0.0,-0.1,0.0,0.47000000000000003,137.23,137.23,0.0,0.0,3
59.85712200,59857122,0.0,-0.1,0.0,0.47000000000000003,137.23,137.23,0.0,0.01,3
59.95689700,59956897,0.0,-0.1,0.0,0.47000000000000003,137.22,137.22,0.0,0.01,3
60.05693100,60056931,0.0,-0.1,0.0,0.47000000000000003,137.22,137.22,0.0,0.0,3
60.15692500,60156925,0.0,-0.1,0.0,0.46,137.22,137.22,0.0,0.0,3
60.25693600,60256936,0.0,-0.1,0.0,0.46,137.21,137.21,0.0,0.0,3
60.35700600,60357006,0.0,-0.1,0.0,0.46,137.21,137.21,0.0,0.0,3
60.45703600,60457036,0.0,-0.1,0.0,0.46,137.21,137.21,0.0,0.0,3
60.55713900,60557139,0.0,-0.1,0.0,0.46,137.20000000000002,137.20000000000002,0.0,0.0,3
60.65713200,60657132,0.0,-0.1,0.0,0.46,137.20000000000002,137.20000000000002,0.0,0.0,3
60.75713200,60757132,0.0,-0.11,0.0,0.46,137.20000000000002,137.20000000000002,0.0,0.0,3
60.85690200,60856902,0.0,-0.1,0.0,0.45,137.20000000000002,137.20000000000002,0.0,0.0,3
60.95690200,60956902,0.0,-0.1,0.0,0.45,137.20000000000002,137.20000000000002,0.0,0.0,3
61.05683300,61056833,0.0,-0.09,0.0,0.45,137.19,137.19,0.0,0.0,3
61.15685300,61156853,0.0,-0.09,0.0,0.45,137.19,137.19,0.0,0.0,3
61.25697800,61256978,0.0,-0.09,0.0,0.45,137.20000000000002,137.20000000000002,0.0,0.0,3
61.35705800,61357058,0.0,-0.09,0.0,0.45,137.20000000000002,137.20000000000002,0.0,0.0,3
61.45729300,61457293,0.0,-0.09,0.0,0.45,137.21,137.21,0.0,0.0,3
61.55730600,61557306,0.0,-0.09,0.0,0.44,137.21,137.21,0.0,0.0,3
61.65735500,61657355,0.0,-0.09,0.0,0.44,137.21,137.21,0.0,0.0,3
61.75688900,61756889,0.0,-0.09,0.0,0.44,137.21,137.21,0.0,0.0,3
61.85683800,61856838,0.0,-0.09,0.0,0.44,137.21,137.21,0.0,0.0,3
61.95684200,61956842,0.0,-0.09,0.0,0.44,137.21,137.21,0.0,0.01,3
62.05690200,62056902,0.0,-0.09,0.0,0.43,137.21,137.21,0.0,0.0,3
62.15698600,62156986,0.0,-0.09,0.0,0.43,137.22,137.21,0.0,0.0,3
62.25703200,62257032,0.0,-0.09,0.0,0.43,137.22,137.22,0.0,0.0,3
62.35715300,62357153,0.0,-0.08,0.0,0.44,137.22,137.22,0.0,0.0,3
62.45711200,62457112,0.0,-0.08,0.0,0.43,137.22,137.22,0.0,0.0,3
62.55709900,62557099,0.0,-0.08,0.0,0.43,137.22,137.22,0.0,0.01,3
62.65690000,62656900,0.0,-0.08,0.0,0.43,137.22,137.22,0.0,0.01,3
62.75684500,62756845,0.0,-0.07,0.0,0.43,137.22,137.22,0.0,0.01,3
62.85683700,62856837,0.0,-0.07,0.0,0.43,137.22,137.22,0.0,0.0,3
62.95692600,62956926,0.0,-0.07,0.0,0.43,137.22,137.22,0.0,0.0,3
63.05698700,63056987,0.0,-0.06,0.0,0.43,137.23,137.23,0.0,0.0,3
63.15704000,63157040,0.0,-0.06,0.0,0.43,137.23,137.23,0.0,0.0,3
63.25714400,63257144,0.0,-0.06,0.0,0.43,137.23,137.23,0.0,0.0,3
63.35716100,63357161,0.0,-0.06,0.0,0.43,137.22,137.22,0.0,0.0,3
63.45711700,63457117,0.0,-0.05,0.0,0.43,137.22,137.22,0.0,0.0,3
63.55692400,63556924,0.0,-0.05,0.0,0.43,137.22,137.22,0.0,0.0,3
63.65683800,63656838,0.0,-0.05,0.0,0.43,137.23,137.23,0.0,0.0,3
63.75682800,63756828,0.0,-0.05,0.0,0.43,137.23,137.23,0.0,0.0,3
63.85688900,63856889,0.0,-0.05,0.0,0.43,137.24,137.24,0.0,0.0,3
63.95697900,63956979,0.0,-0.05,0.0,0.43,137.24,137.24,0.0,0.0,3
64.05709300,64057093,0.0,-0.05,0.0,0.43,137.24,137.24,0.0,0.0,3
64.15713200,64157132,0.0,-0.05,0.0,0.43,137.24,137.24,0.0,0.0,3
64.25713000,64257130,0.0,-0.05,0.0,0.43,137.23,137.23,0.0,0.0,3
64.35713100,64357131,0.0,-0.05,0.0,0.43,137.22,137.22,0.0,0.0,3
64.45688800,64456888,0.0,-0.05,0.0,0.43,137.22,137.22,0.0,0.0,3
64.55684000,64556840,0.0,-0.04,0.0,0.43,137.22,137.22,0.0,0.0,3
64.65683600,64656836,0.0,-0.04,0.0,0.42,137.22,137.22,0.0,0.0,3
64.75692900,64756929,0.0,-0.04,0.0,0.42,137.22,137.22,0.0,0.0,3
64.85698100,64856981,0.0,-0.04,0.0,0.42,137.23,137.23,0.0,0.0,3
64.95703300,64957033,0.0,-0.04,0.0,0.42,137.23,137.23,0.0,0.0,3
65.05714300,65057143,0.0,-0.04,0.0,0.42,137.23,137.23,0.0,0.0,3
65.15712100,65157121,0.0,-0.04,0.0,0.42,137.24,137.24,0.0,0.0,3
65.25708900,65257089,0.0,-0.04,0.0,0.42,137.24,137.24,0.0,0.0,3
65.35691700,65356917,0.0,-0.04,0.0,0.42,137.24,137.24,0.0,0.0,3
65.45683700,65456837,0.0,-0.04,0.0,0.42,137.24,137.24,0.0,0.0,3
65.55684700,65556847,0.0,-0.03,0.0,0.42,137.23,137.23,0.0,0.0,3
65.65693100,65656931,0.0,-0.03,0.0,0.42,137.23,137.23,0.0,0.0,3
65.75699500,65756995,0.0,-0.03,0.0,0.42,137.23,137.23,0.0,0.0,3
65.85706600,65857066,0.0,-0.03,0.0,0.42,137.23,137.23,0.0,0.0,3
65.95713500,65957135,0.0,-0.03,0.0,0.42,137.23,137.23,0.0,0.0,3
66.05712600,66057126,0.0,-0.03,0.0,0.43,137.23,137.23,0.0,0.0,3
66.15711500,66157115,0.0,-0.02,0.0,0.43,137.23,137.23,0.0,0.0,3
66.25689000,66256890,0.0,-0.02,0.0,0.43,137.23,137.23,0.0,0.0,3
66.35693100,66356931,0.0,-0.03,0.0,0.43,137.23,137.23,0.0,0.0,3
66.45682900,66456829,0.0,-0.02,0.0,0.42,137.23,137.23,0.0,0.01,3
66.55689200,66556892,0.0,-0.02,0.0,0.42,137.22,137.22,0.0,0.01,3
66.65699500,66656995,0.0,-0.03,0.0,0.42,137.22,137.22,0.0,0.0,3
66.75703500,66757035,0.0,-0.03,0.0,0.42,137.21,137.21,0.0,0.01,3
66.85712700,66857127,0.0,-0.03,0.0,0.42,137.21,137.21,0.0,0.01,3
66.95711700,66957117,0.0,-0.03,0.0,0.43,137.20000000000002,137.20000000000002,0.0,0.01,3
67.05710100,67057101,0.0,-0.03,0.0,0.43,137.20000000000002,137.20000000000002,0.0,0.01,3
67.15689900,67156899,0.0,-0.03,0.0,0.43,137.19,137.19,0.0,0.01,3
67.25683200,67256832,0.0,-0.03,0.0,0.43,137.19,137.19,0.0,0.01,3
67.35693500,67356935,0.0,-0.03,0.0,0.43,137.19,137.19,0.0,0.01,3
67.45690000,67456900,0.0,-0.03,0.0,0.43,137.18,137.18,0.0,0.01,3
67.55699400,67556994,0.0,-0.02,0.0,0.43,137.18,137.18,0.0,0.0,3
67.65702700,67657027,0.0,-0.02,0.0,0.43,137.18,137.18,0.0,0.0,3
67.75709600,67757096,0.0,-0.03,0.0,0.43,137.18,137.18,0.0,0.0,3
67.85729300,67857293,0.0,-0.03,0.0,0.43,137.18,137.18,0.0,0.0,3
67.95735600,67957356,0.0,-0.03,0.0,0.44,137.18,137.18,0.0,0.0,3
68.05725200,68057252,0.0,-0.02,0.0,0.44,137.17000000000002,137.17000000000002,0.0,0.0,3
68.15693700,68156937,0.0,-0.02,0.0,0.44,137.17000000000002,137.17000000000002,0.0,0.0,3
68.25684100,68256841,0.0,-0.02,0.0,0.44,137.17000000000002,137.17000000000002,0.0,0.0,3
68.35695700,68356957,0.0,-0.02,0.0,0.44,137.17000000000002,137.17000000000002,0.0,0.0,3
68.45698800,68456988,0.0,-0.02,0.0,0.44,137.17000000000002,137.17000000000002,0.0,0.0,3
68.55704700,68557047,0.0,-0.02,0.0,0.44,137.17000000000002,137.17000000000002,0.0,0.0,3
68.65715600,68657156,0.0,-0.02,0.0,0.44,137.16,137.16,0.0,0.0,3
68.75712500,68757125,0.0,-0.02,0.0,0.44,137.17000000000002,137.17000000000002,0.0,0.0,3
68.85731800,68857318,0.0,-0.02,0.0,0.44,137.16,137.16,0.0,0.0,3
68.95719400,68957194,0.0,-0.03,0.0,0.45,137.16,137.16,0.0,0.0,3
69.05709800,69057098,0.0,-0.03,0.0,0.45,137.17000000000002,137.17000000000002,0.0,0.0,3
69.15711800,69157118,0.0,-0.03,0.0,0.45,137.16,137.16,0.0,0.0,3
69.25710800,69257108,0.0,-0.04,0.0,0.45,137.17000000000002,137.17000000000002,0.0,0.0,3
69.35715500,69357155,0.0,-0.03,0.0,0.45,137.17000000000002,137.17000000000002,0.0,0.0,3
69.45717800,69457178,0.0,-0.04,0.0,0.45,137.17000000000002,137.17000000000002,0.0,0.0,3
69.55729600,69557296,0.0,-0.04,0.0,0.45,137.17000000000002,137.17000000000002,0.0,0.0,3
69.65726100,69657261,0.0,-0.04,0.0,0.45,137.17000000000002,137.17000000000002,0.0,0.0,3
69.75731300,69757313,0.0,-0.04,0.0,0.45,137.16,137.16,0.0,0.0,3
69.85720200,69857202,0.0,-0.05,0.0,0.45,137.16,137.16,0.0,0.0,3
69.95708900,69957089,0.0,-0.05,0.0,0.45,137.16,137.16,0.0,0.0,3
70.05712600,70057126,0.0,-0.04,0.0,0.45,137.16,137.16,0.0,0.0,3
70.15710900,70157109,0.0,-0.04,0.0,0.45,137.16,137.16,0.0,0.0,3
70.25713400,70257134,0.0,-0.05,0.0,0.44,137.16,137.16,0.0,0.0,3
70.35726500,70357265,0.0,-0.05,0.0,0.45,137.16,137.16,0.0,0.0,3
70.45727100,70457271,0.0,-0.04,0.0,0.45,137.16,137.16,0.0,0.0,3
70.55726600,70557266,0.0,-0.04,0.0,0.45,137.17000000000002,137.17000000000002,0.0,0.0,3
70.65733300,70657333,0.0,-0.04,0.0,0.45,137.17000000000002,137.17000000000002,0.0,0.0,3
70.75718700,70757187,0.0,-0.05,0.0,0.45,137.17000000000002,137.17000000000002,0.0,0.0,3
70.85708900,70857089,0.0,-0.04,0.0,0.45,137.17000000000002,137.17000000000002,0.0,0.0,3
70.95712100,70957121,0.0,-0.04,0.0,0.46,137.17000000000002,137.17000000000002,0.0,0.0,3
71.05712800,71057128,0.0,-0.05,0.0,0.46,137.17000000000002,137.17000000000002,0.0,0.0,3
71.15714300,71157143,0.0,-0.05,0.0,0.45,137.17000000000002,137.17000000000002,0.0,0.0,3
71.25718900,71257189,0.0,-0.05,0.0,0.46,137.16,137.16,0.0,0.0,3
71.35729800,71357298,0.0,-0.05,0.0,0.46,137.17000000000002,137.17000000000002,0.0,0.0,3
71.45727500,71457275,0.0,-0.05,0.0,0.45,137.16,137.16,0.0,0.0,3
71.55732700,71557327,0.0,-0.05,0.0,0.45,137.16,137.16,0.0,0.0,3
71.65721700,71657217,0.0,-0.05,0.0,0.45,137.16,137.16,0.0,0.0,3
71.75717800,71757178,0.0,-0.05,0.0,0.45,137.16,137.16,0.0,0.0,3
71.85712200,71857122,0.0,-0.04,0.0,0.45,137.16,137.16,0.0,0.0,3
71.95713300,71957133,0.0,-0.04,0.0,0.45,137.16,137.16,0.0,0.0,3
72.05713600,72057136,0.0,-0.04,0.0,0.45,137.16,137.16,0.0,0.01,3
72.15718000,72157180,0.0,-0.04,0.0,0.45,137.16,137.16,0.0,0.0,3
72.25726200,72257262,0.0,-0.04,0.0,0.45,137.16,137.16,0.0,0.0,3
72.35729100,72357291,0.0,-0.04,0.0,0.45,137.17000000000002,137.17000000000002,0.0,0.01,3
72.45737900,72457379,0.0,-0.04,0.0,0.45,137.16,137.16,0.0,0.0,3
72.55721900,72557219,0.0,-0.03,0.0,0.45,137.16,137.16,0.0,0.0,3
72.65744100,72657441,0.0,-0.04,0.0,0.45,137.16,137.16,0.0,0.0,3
72.75714900,72757149,0.0,-0.03,0.0,0.45,137.15,137.15,0.0,0.0,3
72.85714800,72857148,0.0,-0.04,0.0,0.45,137.15,137.15,0.0,0.01,3
72.95716400,72957164,0.0,-0.04,0.0,0.45,137.15,137.15,0.0,0.01,3
73.05721500,73057215,0.0,-0.04,0.0,0.44,137.15,137.15,0.0,0.0,3
73.15730000,73157300,0.0,-0.04,0.0,0.44,137.14000000000001,137.14000000000001,0.0,0.0,3
73.25729700,73257297,0.0,-0.04,0.0,0.44,137.14000000000001,137.14000000000001,0.0,0.0,3
73.35738800,73357388,0.0,-0.04,0.0,0.44,137.14000000000001,137.14000000000001,0.0,0.0,3
73.45725600,73457256,0.0,-0.05,0.0,0.44,137.14000000000001,137.14000000000001,0.0,0.0,3
73.55725100,73557251,0.0,-0.05,0.0,0.44,137.13,137.13,0.0,0.0,3
73.65716500,73657165,0.0,-0.05,0.0,0.44,137.13,137.13,0.0,0.0,3
73.75718000,73757180,0.0,-0.05,0.0,0.44,137.13,137.13,0.0,0.0,3
73.85716700,73857167,0.0,-0.05,0.0,0.44,137.13,137.13,0.0,0.0,3
73.95721500,73957215,0.0,-0.05,0.0,0.44,137.13,137.13,0.0,0.0,3
74.05731800,74057318,0.0,-0.05,0.0,0.44,137.13,137.13,0.0,0.0,3
74.15728900,74157289,0.0,-0.04,0.0,0.44,137.13,137.13,0.0,0.0,3
74.25735900,74257359,0.0,-0.04,0.0,0.45,137.13,137.13,0.0,0.0,3
74.35737000,74357370,0.0,-0.04,0.0,0.45,137.13,137.13,0.0,0.0,3
74.45717400,74457174,0.0,-0.04,0.0,0.45,137.13,137.13,0.0,0.0,3
74.55697600,74556976,0.0,-0.04,0.0,0.45,137.13,137.13,0.0,0.0,3
74.65693300,74656933,0.0,-0.04,0.0,0.45,137.13,137.13,0.0,0.0,3
74.75699200,74756992,0.0,-0.04,0.0,0.45,137.12,137.12,0.0,0.0,3
74.85704200,74857042,0.0,-0.04,0.0,0.45,137.12,137.12,0.0,0.0,3
74.95714200,74957142,0.0,-0.05,0.0,0.45,137.12,137.12,0.0,0.0,3
75.05715400,75057154,0.0,-0.05,0.0,0.46,137.12,137.12,0.0,0.0,3
75.15711400,75157114,0.0,-0.04,0.0,0.46,137.12,137.12,0.0,0.0,3
75.25691300,75256913,0.0,-0.04,0.0,0.45,137.12,137.12,0.0,0.0,3
75.35693900,75356939,0.0,-0.04,0.0,0.45,137.12,137.12,0.0,0.0,3
75.45689800,75456898,0.0,-0.04,0.0,0.45,137.12,137.12,0.0,0.0,3
75.55693500,75556935,0.0,-0.04,0.0,0.45,137.12,137.12,0.0,0.0,3
75.65698800,75656988,0.0,-0.04,0.0,0.45,137.12,137.12,0.0,0.0,3
75.75703800,75757038,0.0,-0.04,0.0,0.45,137.12,137.12,0.0,0.0,3
75.85712200,75857122,0.0,-0.03,0.0,0.45,137.11,137.11,0.0,0.0,3
75.95711900,75957119,0.0,-0.03,0.0,0.45,137.12,137.12,0.0,0.0,3
76.05709800,76057098,0.0,-0.03,0.0,0.45,137.12,137.12,0.0,0.0,3
76.15692200,76156922,0.0,-0.03,0.0,0.44,137.12,137.12,0.0,0.0,3
76.25690100,76256901,0.0,-0.03,0.0,0.44,137.11,137.11,0.0,0.0,3
76.35693600,76356936,0.0,-0.03,0.0,0.44,137.12,137.12,0.0,0.0,3
76.45704700,76457047,0.0,-0.03,0.0,0.44,137.11,137.11,0.0,0.0,3
76.55700300,76557003,0.0,-0.03,0.0,0.44,137.11,137.11,0.0,0.0,3
76.65710800,76657108,0.0,-0.03,0.0,0.43,137.1,137.1,0.0,0.0,3
76.75709100,76757091,0.0,-0.03,0.0,0.43,137.1,137.1,0.0,0.0,3
76.85711200,76857112,0.0,-0.03,0.0,0.43,137.1,137.1,0.0,0.0,3
76.95710100,76957101,0.0,-0.02,0.0,0.43,137.1,137.1,0.0,0.0,3
77.05693200,77056932,0.0,-0.02,0.0,0.43,137.1,137.1,0.0,0.0,3
77.15683800,77156838,0.0,-0.03,0.0,0.43,137.1,137.1,0.0,0.0,3
77.25684000,77256840,0.0,-0.03,0.0,0.43,137.1,137.1,0.0,0.0,3
77.35696100,77356961,0.0,-0.03,0.0,0.43,137.1,137.1,0.0,0.0,3
77.45699900,77456999,0.0,-0.03,0.0,0.43,137.09,137.09,0.0,0.0,3
77.55706200,77557062,0.0,-0.03,0.0,0.43,137.09,137.09,0.0,0.0,3
77.65713900,77657139,0.0,-0.03,0.0,0.43,137.09,137.09,0.0,0.0,3
77.75713100,77757131,0.0,-0.03,0.0,0.42,137.09,137.09,0.0,0.0,3
77.85709900,77857099,0.0,-0.03,0.0,0.42,137.09,137.09,0.0,0.0,3
77.95691200,77956912,0.0,-0.03,0.0,0.42,137.09,137.09,0.0,0.0,3
78.05684400,78056844,0.0,-0.03,0.0,0.42,137.09,137.09,0.0,0.0,3
78.15683900,78156839,0.0,-0.03,0.0,0.42,137.09,137.09,0.0,0.0,3
78.25693000,78256930,0.0,-0.03,0.0,0.42,137.08,137.08,0.0,0.0,3
78.35700400,78357004,0.0,-0.03,0.0,0.42,137.08,137.08,0.0,0.0,3
78.45702400,78457024,0.0,-0.03,0.0,0.42,137.08,137.08,0.0,0.0,3
78.55712600,78557126,0.0,-0.03,0.0,0.42,137.08,137.08,0.0,0.0,3
78.65714600,78657146,0.0,-0.03,0.0,0.42,137.07,137.07,0.0,0.0,3
78.75711900,78757119,0.0,-0.03,0.0,0.42,137.07,137.07,0.0,0.0,3
78.85691000,78856910,0.0,-0.03,0.0,0.42,137.07,137.07,0.0,0.0,3
78.95684500,78956845,0.0,-0.04,0.0,0.42,137.07,137.07,0.0,0.0,3
79.05715800,79057158,0.0,-0.04,0.0,0.42,137.07,137.07,0.0,0.0,3
79.15714500,79157145,0.0,-0.04,0.0,0.42,137.06,137.06,0.0,0.0,3
79.25716100,79257161,0.0,-0.04,0.0,0.42,137.06,137.06,0.0,0.0,3
79.35705600,79357056,0.0,-0.04,0.0,0.42,137.07,137.07,0.0,0.0,3
79.45712600,79457126,0.0,-0.04,0.0,0.42,137.07,137.07,0.0,0.0,3
79.55714100,79557141,0.0,-0.04,0.0,0.42,137.07,137.07,0.0,0.0,3
79.65710900,79657109,0.0,-0.04,0.0,0.42,137.07,137.07,0.0,0.0,3
79.75689800,79756898,0.0,-0.04,0.0,0.42,137.07,137.07,0.0,0.0,3
79.85694500,79856945,0.0,-0.04,0.0,0.41000000000000003,137.07,137.07,0.0,0.0,3
79.95685000,79956850,0.0,-0.04,0.0,0.41000000000000003,137.07,137.07,0.0,0.0,3
80.05695300,80056953,0.0,-0.04,0.0,0.41000000000000003,137.07,137.07,0.0,0.0,3
80.15700000,80157000,0.0,-0.04,0.0,0.41000000000000003,137.07,137.07,0.0,0.0,3
80.25704900,80257049,0.0,-0.04,0.0,0.41000000000000003,137.07,137.07,0.0,0.0,3
80.35717200,80357172,0.0,-0.04,0.0,0.41000000000000003,137.07,137.07,0.0,0.0,3
80.45712300,80457123,0.0,-0.04,0.0,0.41000000000000003,137.07,137.07,0.0,0.0,3
80.55710000,80557100,0.0,-0.04,0.0,0.41000000000000003,137.07,137.07,0.0,0.0,3
80.65690600,80656906,0.0,-0.05,0.0,0.41000000000000003,137.07,137.07,0.0,0.0,3
80.75682200,80756822,0.0,-0.05,0.0,0.41000000000000003,137.07,137.07,0.0,0.0,3
80.85684400,80856844,0.0,-0.05,0.0,0.41000000000000003,137.07,137.07,0.0,0.0,3
80.95684500,80956845,0.0,-0.05,0.0,0.41000000000000003,137.07,137.07,0.0,0.0,3
81.05698600,81056986,0.0,-0.05,0.0,0.4,137.07,137.07,0.0,0.0,3
81.15703300,81157033,0.0,-0.05,0.0,0.41000000000000003,137.07,137.07,0.0,0.0,3
81.25713200,81257132,0.0,-0.04,0.0,0.4,137.07,137.07,0.0,0.0,3
81.35716200,81357162,0.0,-0.04,0.0,0.4,137.07,137.07,0.0,0.0,3
81.45709600,81457096,0.0,-0.04,0.0,0.4,137.07,137.07,0.0,0.0,3
81.55692000,81556920,0.0,-0.04,0.0,0.4,137.07,137.07,0.0,0.0,3
81.65683500,81656835,0.0,-0.04,0.0,0.4,137.07,137.07,0.0,0.0,3
81.75683000,81756830,0.0,-0.04,0.0,0.4,137.06,137.06,0.0,0.0,3
81.85693000,81856930,0.0,-0.04,0.0,0.4,137.06,137.06,0.0,0.0,3
81.95697800,81956978,0.0,-0.04,0.0,0.4,137.06,137.06,0.0,0.0,3
82.05703800,82057038,0.0,-0.04,0.0,0.4,137.05,137.05,0.0,0.0,3
82.15712200,82157122,0.0,-0.04,0.0,0.4,137.05,137.05,0.0,0.0,3
82.25713500,82257135,0.0,-0.04,0.0,0.4,137.05,137.05,0.0,0.01,3
82.35714800,82357148,0.0,-0.04,0.0,0.4,137.05,137.05,0.0,0.0,3
82.45691700,82456917,0.0,-0.04,0.0,0.4,137.05,137.05,0.0,0.0,3
82.55684200,82556842,0.0,-0.04,0.0,0.4,137.04,137.04,0.0,0.0,3
82.65684000,82656840,0.0,-0.04,0.0,0.4,137.04,137.04,0.0,0.0,3
82.75695000,82756950,0.0,-0.04,0.0,0.4,137.04,137.04,0.0,0.0,3
82.85698600,82856986,0.0,-0.04,0.0,0.4,137.04,137.04,0.0,0.0,3
82.95710000,82957100,0.0,-0.04,0.0,0.4,137.04,137.04,0.0,0.0,3
83.05713700,83057137,0.0,-0.04,0.0,0.4,137.04,137.04,0.0,0.0,3
83.15713400,83157134,0.0,-0.04,0.0,0.4,137.03,137.03,0.0,0.0,3
83.25711100,83257111,0.0,-0.04,0.0,0.4,137.03,137.03,0.0,0.0,3
83.35693300,83356933,0.0,-0.04,0.0,0.4,137.03,137.03,0.0,0.0,3
83.45684000,83456840,0.0,-0.04,0.0,0.4,137.03,137.03,0.0,0.0,3
83.55691500,83556915,0.0,-0.04,0.0,0.4,137.02,137.02,0.0,0.0,3
83.65693000,83656930,0.0,-0.04,0.0,0.41000000000000003,137.02,137.02,0.0,0.0,3
83.75698600,83756986,0.0,-0.04,0.0,0.41000000000000003,137.01,137.01,0.0,0.0,3
83.85705400,83857054,0.0,-0.04,0.0,0.41000000000000003,137.02,137.02,0.0,0.0,3
83.95713200,83957132,0.0,-0.04,0.0,0.41000000000000003,137.02,137.02,0.0,0.0,3
84.05713700,84057137,0.0,-0.04,0.0,0.41000000000000003,137.02,137.02,0.0,0.0,3
84.15709800,84157098,0.0,-0.04,0.0,0.41000000000000003,137.02,137.02,0.0,0.0,3
84.25691000,84256910,0.0,-0.04,0.0,0.41000000000000003,137.02,137.02,0.0,0.0,3
84.35694900,84356949,0.0,-0.04,0.0,0.41000000000000003,137.02,137.02,0.0,0.0,3
84.45683900,84456839,0.0,-0.04,0.0,0.41000000000000003,137.02,137.02,0.0,0.0,3
84.55693600,84556936,0.0,-0.04,0.0,0.41000000000000003,137.02,137.02,0.0,0.0,3
84.65698700,84656987,0.0,-0.04,0.0,0.41000000000000003,137.02,137.02,0.0,0.0,3
84.75704700,84757047,0.0,-0.04,0.0,0.41000000000000003,137.01,137.01,0.0,0.0,3
84.85711100,84857111,0.0,-0.04,0.0,0.41000000000000003,137.02,137.02,0.0,0.0,3
84.95711200,84957112,0.0,-0.04,0.0,0.41000000000000003,137.02,137.02,0.0,0.0,3
85.05722600,85057226,0.0,-0.04,0.0,0.41000000000000003,137.02,137.02,0.0,0.0,3
85.15692500,85156925,0.0,-0.04,0.0,0.42,137.02,137.02,0.0,0.01,3
85.25684800,85256848,0.0,-0.04,0.0,0.42,137.01,137.01,0.0,0.0,3
85.35692800,85356928,0.0,-0.05,0.0,0.42,137.01,137.01,0.0,0.01,3
85.45717700,85457177,0.0,-0.05,0.0,0.43,137.01,137.01,0.0,0.01,3
85.55721700,85557217,0.0,-0.05,0.0,0.43,137.0,137.0,0.0,0.01,3
85.65703700,85657037,0.0,-0.05,0.0,0.43,137.0,137.0,0.0,0.01,3
85.75713100,85757131,0.0,-0.04,0.0,0.43,137.0,137.0,0.0,0.01,3
85.85711400,85857114,0.0,-0.04,0.0,0.43,137.0,137.0,0.0,0.0,3
85.95709500,85957095,0.0,-0.05,0.0,0.43,137.0,137.0,0.0,0.0,3
86.05692100,86056921,0.0,-0.04,0.0,0.42,137.0,137.0,0.0,0.0,3
86.15683400,86156834,0.0,-0.04,0.0,0.42,137.0,137.0,0.0,0.0,3
86.25684000,86256840,0.0,-0.04,0.0,0.42,137.0,137.0,0.0,0.0,3
86.35696900,86356969,0.0,-0.04,0.0,0.42,137.0,137.0,0.0,0.0,3
86.45699100,86456991,0.0,-0.04,0.0,0.43,137.0,137.0,0.0,0.0,3
86.55705000,86557050,0.0,-0.04,0.0,0.42,137.0,137.0,0.0,0.0,3
86.65713000,86657130,0.0,-0.04,0.0,0.42,137.0,137.0,0.0,0.0,3
86.75712800,86757128,0.0,-0.04,0.0,0.42,137.0,137.0,0.0,0.0,3
86.85711200,86857112,0.0,-0.04,0.0,0.42,137.0,137.0,0.0,0.0,3
86.95690800,86956908,0.0,-0.04,0.0,0.42,136.99,136.99,0.0,0.0,3
87.05695000,87056950,0.0,-0.04,0.0,0.43,136.99,136.99,0.0,0.0,3
87.15698400,87156984,0.0,-0.04,0.0,0.43,136.99,136.99,0.0,0.0,3
87.25693800,87256938,0.0,-0.04,0.0,0.42,136.98,136.98,0.0,0.0,3
87.35700500,87357005,0.0,-0.04,0.0,0.43,136.98,136.98,0.0,0.0,3
87.45702900,87457029,0.0,-0.04,0.0,0.43,136.97,136.97,0.0,0.0,3
87.55712600,87557126,0.0,-0.04,0.0,0.43,136.97,136.97,0.0,0.0,3
87.65711900,87657119,0.0,-0.04,0.0,0.43,136.97,136.97,0.0,0.0,3
87.75708100,87757081,0.0,-0.04,0.0,0.43,136.96,136.96,0.0,0.0,3
87.85691000,87856910,0.0,-0.04,0.0,0.43,136.96,136.96,0.0,0.0,3
87.95683600,87956836,0.0,-0.04,0.0,0.43,136.96,136.96,0.0,0.0,3
88.05693200,88056932,0.0,-0.05,0.0,0.43,136.96,136.96,0.0,0.0,3
88.15695000,88156950,0.0,-0.04,0.0,0.43,136.96,136.96,0.0,0.0,3
88.25697600,88256976,0.0,-0.05,0.0,0.43,136.96,136.96,0.0,0.0,3
88.35706000,88357060,0.0,-0.05,0.0,0.43,136.97,136.97,0.0,0.0,3
88.45711600,88457116,0.0,-0.05,0.0,0.43,136.96,136.96,0.0,0.0,3
88.55711600,88557116,0.0,-0.05,0.0,0.44,136.97,136.97,0.0,0.0,3
88.65711200,88657112,0.0,-0.05,0.0,0.44,136.96,136.96,0.0,0.0,3
88.75691000,88756910,0.0,-0.05,0.0,0.44,136.96,136.96,0.0,0.0,3
88.85683700,88856837,0.0,-0.05,0.0,0.44,136.95000000000002,136.95000000000002,0.0,0.0,3
88.95683100,88956831,0.0,-0.05,0.0,0.44,136.95000000000002,136.95000000000002,0.0,0.0,3
89.05694900,89056949,0.0,-0.06,0.0,0.43,136.95000000000002,136.95000000000002,0.0,0.0,3
89.15699100,89156991,0.0,-0.05,0.0,0.44,136.95000000000002,136.95000000000002,0.0,0.0,3
89.25710300,89257103,0.0,-0.05,0.0,0.44,136.95000000000002,136.95000000000002,0.0,0.0,3
89.35713300,89357133,0.0,-0.04,0.0,0.44,136.95000000000002,136.95000000000002,0.0,0.0,3
89.45712700,89457127,0.0,-0.05,0.0,0.44,136.94,136.94,0.0,0.0,3
89.55711500,89557115,0.0,-0.05,0.0,0.44,136.94,136.94,0.0,0.0,3
89.65726200,89657262,0.0,-0.05,0.0,0.44,136.94,136.94,0.0,0.0,3
89.75726700,89757267,0.0,-0.05,0.0,0.44,136.94,136.94,0.0,0.0,3
89.85715200,89857152,0.0,-0.06,0.0,0.44,136.94,136.94,0.0,0.0,3
89.95714500,89957145,0.0,-0.06,0.0,0.43,136.94,136.94,0.0,0.0,3
90.05716700,90057167,0.0,-0.06,0.0,0.43,136.94,136.94,0.0,0.0,3
90.15721300,90157213,0.0,-0.06,0.0,0.43,136.94,136.94,0.0,0.0,3
90.25730400,90257304,0.0,-0.06,0.0,0.43,136.94,136.94,0.0,0.0,3
90.35731800,90357318,0.0,-0.05,0.0,0.43,136.94,136.94,0.0,0.0,3
90.45736000,90457360,0.0,-0.05,0.0,0.43,136.94,136.94,0.0,0.0,3
90.55727000,90557270,0.0,-0.05,0.0,0.43,136.94,136.94,0.0,0.0,3
90.65724600,90657246,0.0,-0.05,0.0,0.43,136.94,136.94,0.0,0.0,3
90.75715500,90757155,0.0,-0.06,0.0,0.43,136.94,136.94,0.0,0.0,3
90.85714600,90857146,0.0,-0.06,0.0,0.43,136.94,136.94,0.0,0.0,3
90.95716500,90957165,0.0,-0.06,0.0,0.43,136.94,136.94,0.0,0.0,3
91.05721600,91057216,0.0,-0.07,0.0,0.43,136.94,136.94,0.0,0.0,3
91.15729800,91157298,0.0,-0.06,0.0,0.43,136.94,136.94,0.0,0.0,3
91.25730300,91257303,0.0,-0.07,0.0,0.43,136.94,136.94,0.0,0.0,3
91.35744200,91357442,0.0,-0.08,0.0,0.43,136.94,136.94,0.0,0.0,3
91.45725900,91457259,0.0,-0.08,0.0,0.43,136.94,136.94,0.0,0.0,3
91.55717200,91557172,0.0,-0.07,0.0,0.43,136.93,136.93,0.0,0.0,3
91.65715800,91657158,0.0,-0.08,0.0,0.43,136.93,136.93,0.0,0.0,3
91.75717800,91757178,0.0,-0.08,0.0,0.43,136.93,136.93,0.0,0.0,3
91.85715800,91857158,0.0,-0.08,0.0,0.43,136.92000000000002,136.92000000000002,0.0,0.0,3
91.95721400,91957214,0.0,-0.08,0.0,0.43,136.92000000000002,136.92000000000002,0.0,0.0,3
92.05713500,92057135,0.0,-0.08,0.0,0.42,136.91,136.91,0.0,0.01,3
92.15712700,92157127,0.0,-0.08,0.0,0.43,136.91,136.91,0.0,0.01,3
92.25709700,92257097,0.0,-0.08,0.0,0.43,136.9,136.9,0.0,0.01,3
92.35704700,92357047,0.0,-0.08,0.0,0.43,136.9,136.9,0.0,0.01,3
92.45683600,92456836,0.0,-0.08,0.0,0.43,136.9,136.9,0.0,0.01,3
92.55684300,92556843,0.0,-0.08,0.0,0.43,136.9,136.9,0.0,0.01,3
92.65694300,92656943,0.0,-0.08,0.0,0.43,136.89000000000001,136.89000000000001,0.0,0.01,3
92.75698600,92756986,0.0,-0.08,0.0,0.43,136.88,136.88,0.0,0.0,3
92.85703200,92857032,0.0,-0.08,0.0,0.43,136.89000000000001,136.89000000000001,0.0,0.0,3
92.95714700,92957147,0.0,-0.08,0.0,0.43,136.89000000000001,136.89000000000001,0.0,0.0,3
93.05714800,93057148,0.0,-0.08,0.0,0.43,136.88,136.88,0.0,0.01,3
93.15709600,93157096,0.0,-0.08,0.0,0.43,136.88,136.88,0.0,0.0,3
93.25691000,93256910,0.0,-0.08,0.0,0.43,136.87,136.87,0.0,0.0,3
93.35693800,93356938,0.0,-0.09,0.0,0.43,136.87,136.87,0.0,0.0,3
93.45684700,93456847,0.0,-0.08,0.0,0.43,136.86,136.86,0.0,0.0,3
93.55693400,93556934,0.0,-0.08,0.0,0.43,136.87,136.87,0.0,0.0,3
93.65698400,93656984,0.0,-0.08,0.0,0.43,136.86,136.86,0.0,0.0,3
93.75703600,93757036,0.0,-0.09,0.0,0.43,136.86,136.86,0.0,0.0,3
93.85713200,93857132,0.0,-0.08,0.0,0.43,136.86,136.86,0.0,0.0,3
93.95711300,93957113,0.0,-0.09,0.0,0.43,136.86,136.86,0.0,0.0,3
94.05711800,94057118,0.0,-0.09,0.0,0.43,136.86,136.86,0.0,0.0,3
94.15690800,94156908,0.0,-0.09,0.0,0.43,136.86,136.86,0.0,0.0,3
94.25684000,94256840,0.0,-0.08,0.0,0.43,136.86,136.86,0.0,0.0,3
94.35694400,94356944,0.0,-0.09,0.0,0.43,136.86,136.86,0.0,0.0,3
94.45689000,94456890,0.0,-0.09,0.0,0.42,136.86,136.86,0.0,0.0,3
94.55699100,94556991,0.0,-0.09,0.0,0.42,136.86,136.86,0.0,0.0,3
94.65704200,94657042,0.0,-0.09,0.0,0.42,136.86,136.86,0.0,0.0,3
94.75712800,94757128,0.0,-0.09,0.0,0.42,136.86,136.86,0.0,0.0,3
94.85710900,94857109,0.0,-0.09,0.0,0.42,136.86,136.86,0.0,0.0,3
94.95712000,94957120,0.0,-0.08,0.0,0.42,136.86,136.86,0.0,0.0,3
95.05691400,95056914,0.0,-0.09,0.0,0.42,136.86,136.86,0.0,0.0,3
95.15683900,95156839,0.0,-0.09,0.0,0.42,136.86,136.86,0.0,0.0,3
95.25684100,95256841,0.0,-0.09,0.0,0.42,136.86,136.86,0.0,0.0,3
95.35696400,95356964,0.0,-0.09,0.0,0.41000000000000003,136.86,136.86,0.0,0.0,3
95.45700600,95457006,0.0,-0.09,0.0,0.42,136.86,136.86,0.0,0.0,3
95.55712300,95557123,0.0,-0.08,0.0,0.41000000000000003,136.86,136.86,0.0,0.0,3
95.65731600,95657316,0.0,-0.08,0.0,0.41000000000000003,136.87,136.87,0.0,0.01,3
95.75729500,95757295,0.0,-0.08,0.0,0.41000000000000003,136.87,136.87,0.0,0.01,3
95.85735000,95857350,0.0,-0.08,0.0,0.41000000000000003,136.87,136.87,0.0,0.01,3
95.95689700,95956897,0.0,-0.07,0.0,0.41000000000000003,136.87,136.87,0.0,0.0,3
96.05683400,96056834,0.0,-0.07,0.0,0.41000000000000003,136.87,136.87,0.0,0.0,3
96.15683400,96156834,0.0,-0.07,0.0,0.41000000000000003,136.87,136.87,0.0,0.0,3
96.25692800,96256928,0.0,-0.07,0.0,0.41000000000000003,136.87,136.87,0.0,0.0,3
96.35701100,96357011,0.0,-0.07,0.0,0.41000000000000003,136.87,136.87,0.0,0.0,3
96.45703600,96457036,0.0,-0.07,0.0,0.41000000000000003,136.87,136.87,0.0,0.0,3
96.55714400,96557144,0.0,-0.07,0.0,0.41000000000000003,136.86,136.86,0.0,0.0,3
