timestamp,TimeUS,C,Q1,Q2,Q3,Q4
9.45641100,9456411,2,1.0,0.0,0.0,0.0
9.55641500,9556415,2,1.0,0.0,0.0,0.0
9.65641800,9656418,2,1.0,0.0,0.0,0.0
9.75642100,9756421,2,1.0,0.0,0.0,0.0
9.85642400,9856424,2,1.0,0.0,0.0,0.0
9.95647500,9956475,2,1.0,0.0,0.0,0.0
10.05647600,10056476,2,1.0,0.0,0.0,0.0
10.15648400,10156484,2,1.0,0.0,0.0,0.0
10.25640700,10256407,2,1.0,0.0,0.0,0.0
10.35640700,10356407,2,1.0,0.0,0.0,0.0
10.45642000,10456420,2,0.9999915957450867,-0.0005554247763939202,0.004067268222570419,-2.2165815607877448e-05
10.55641500,10556415,2,0.9999915957450867,-0.0005064494325779378,0.00406357878819108,-5.361469084164128e-05
10.65640800,10656408,2,0.9999915957450867,-0.0004469513660296798,0.004067993722856045,-7.147398719098419e-05
10.75641500,10756415,2,0.9999916553497314,-0.00047580336104147136,0.00405352795496583,-4.98765948577784e-05
10.85646500,10856465,2,0.9999917149543762,-0.0005425533163361251,0.004037788137793541,-3.9221304177772254e-05
10.95647600,10956476,2,0.9999918341636658,-0.0005603558965958655,0.003997928462922573,-4.294637983548455e-05
11.05646900,11056469,2,0.999991774559021,-0.000541541026905179,0.004018356557935476,-5.028176019550301e-05
11.15641600,11156416,2,0.9999918341636658,-0.0005566269974224269,0.003995923791080713,-3.5143428249284625e-05
11.25641300,11256413,2,0.999991774559021,-0.0005969215417280793,0.004009617958217859,-2.34378530876711e-05
11.35641200,11356412,2,0.9999917149543762,-0.0006464470061473548,0.0040203845128417015,4.873995294474298e-06
11.45643800,11456438,2,0.9999917149543762,-0.000651132664643228,0.0040181465446949005,-3.0519684514729306e-05
11.55640800,11556408,2,0.9999916553497314,-0.0006596408202312887,0.004029497038573027,-4.5799013605574146e-05
11.65641800,11656418,2,0.9999915957450867,-0.0006536369910463691,0.004047268070280552,-5.265778236207552e-05
11.75645800,11756458,2,0.9999916553497314,-0.0006681064842268825,0.0040334961377084255,-2.734226109168958e-05
11.85648900,11856489,2,0.999991774559021,-0.0006750538595952094,0.004006185103207827,-3.616682442952879e-05
11.95646400,11956464,2,0.4068182408809662,-0.0038748967926949263,0.0009721636888571084,0.9135003685951233
12.05641000,12056410,2,0.4048869013786316,-0.0038705351762473583,0.0009170150733552873,0.9143581390380859
12.15642000,12156420,2,0.40088561177253723,-0.0038881059736013412,0.0009370274492539465,0.916119396686554
12.25641400,12256414,2,0.39565911889076233,-0.003909904044121504,0.0010292951483279467,0.9183885455131531
12.35641500,12356415,2,0.39042696356773376,-0.003901211777701974,0.0010626557050272822,0.9206250309944153
12.45641100,12456411,2,0.38604795932769775,-0.003915891051292419,0.0011015452910214663,0.9224697351455688
12.55642800,12556428,2,0.3827707767486572,-0.00394944753497839,0.001131332595832646,0.9238342046737671
12.65645700,12656457,2,0.380511075258255,-0.003926978446543217,0.001073471619747579,0.9247673749923706
12.75646800,12756468,2,0.37883859872817993,-0.003907406236976385,0.0011402224190533161,0.925453782081604
12.85646300,12856463,2,0.37760499119758606,-0.003907772246748209,0.0011104840086773038,0.9259578585624695
12.95642700,12956427,2,0.3767262399196625,-0.00392378494143486,0.0010704136220738292,0.9263157248497009
13.05641700,13056417,2,0.37611520290374756,-0.003915952052921057,0.0010607428848743439,0.9265640377998352
13.15641600,13156416,2,0.37560075521469116,-0.00394617673009634,0.0010782754980027676,0.9267725348472595
13.25641800,13256418,2,0.37510377168655396,-0.003978598862886429,0.001099397661164403,0.9269736409187317
13.35640500,13356405,2,0.3746519982814789,-0.004035672172904015,0.0011331047862768173,0.9271560311317444
13.45642000,13456420,2,0.374279260635376,-0.004079087171703577,0.0011554000666365027,0.9273063540458679
13.55646500,13556465,2,0.37396153807640076,-0.004093578550964594,0.001150979078374803,0.9274344444274902
13.65646500,13656465,2,0.37371647357940674,-0.004126287531107664,0.001097506145015359,0.9275331497192383
13.75646400,13756464,2,0.3733263909816742,-0.004137274343520403,0.0010881831403821707,0.9276902079582214
13.85642600,13856426,2,0.37297213077545166,-0.004177626222372055,0.0010417798766866326,0.9278325438499451
13.95641700,13956417,2,0.3726748526096344,-0.004165580961853266,0.0010134996846318245,0.9279521107673645
14.05641700,14056417,2,0.3723415434360504,-0.004206894431263208,0.0009841551072895527,0.9280857443809509
14.15642200,14156422,2,0.3719756305217743,-0.004194207023829222,0.000977949472144246,0.9282324910163879
14.25640400,14256404,2,0.3715422451496124,-0.0041998750530183315,0.0009494323167018592,0.9284060597419739
14.35642100,14356421,2,0.37105870246887207,-0.004216616041958332,0.0008895919308997691,0.9285994172096252
14.45646400,14456464,2,0.37069007754325867,-0.004199313465505838,0.0008213519467972219,0.92874675989151
14.55647700,14556477,2,0.3707179129123688,-0.004213079810142517,0.0007650830666534603,0.9287356734275818
14.65646100,14656461,2,0.3722217381000519,-0.004161692224442959,0.0007171887555159628,0.9281342029571533
14.75641500,14756415,2,0.3750858008861542,-0.004171584267169237,0.0007643505232408643,0.9269803762435913
14.85641200,14856412,2,0.3780532479286194,-0.004092550370842218,0.0007490896387025714,0.9257745146751404
14.95641600,14956416,2,0.3804566562175751,-0.004077973309904337,0.0007400672766380012,0.9247894883155823
15.05641800,15056418,2,0.3819378614425659,-0.0040035247802734375,0.0007595433853566647,0.9241790175437927
15.15640800,15156408,2,0.38253435492515564,-0.003983769565820694,0.0007320521981455386,0.9239323735237122
15.25642200,15256422,2,0.3824867606163025,-0.003958217334002256,0.0007023694925010204,0.9239522218704224
15.35646400,15356464,2,0.382027804851532,-0.0038804891519248486,0.0006926745409145951,0.9241424202919006
15.45647000,15456470,2,0.3814142644405365,-0.0038764483761042356,0.0006648271810263395,0.9243958592414856
15.55646800,15556468,2,0.38075384497642517,-0.003830172587186098,0.0006296871579252183,0.9246683120727539
15.65641900,15656419,2,0.3801164925098419,-0.003767198882997036,0.0006056695710867643,0.9249307513237
15.75641800,15756418,2,0.3794451951980591,-0.0037073136772960424,0.0006025301408953965,0.9252066016197205
15.85642000,15856420,2,0.37878045439720154,-0.003656053449958563,0.0005756748141720891,0.9254791736602783
15.95643900,15956439,2,0.3781083822250366,-0.003580161603167653,0.0005678072921000421,0.9257542490959167
16.05640900,16056409,2,0.3774964213371277,-0.003524311352521181,0.0005799307255074382,0.92600417137146
16.15642200,16156422,2,0.3767976462841034,-0.003502997336909175,0.0005576364346779883,0.9262887835502625
16.25646000,16256460,2,0.3760729730129242,-0.0035162600688636303,0.0005488476017490029,0.9265832304954529
16.35646700,16356467,2,0.375430166721344,-0.003410015255212784,0.0005845330306328833,0.9268442392349243
16.45646800,16456468,2,0.3749425709247589,-0.003379589645192027,0.0006102541810832918,0.9270416498184204
16.55642300,16556423,2,0.3744843602180481,-0.003392694052308798,0.0006498489528894424,0.9272267818450928
16.65641500,16656415,2,0.37404873967170715,-0.0033754364121705294,0.0006232553860172629,0.927402675151825
16.75642100,16756421,2,0.3735487461090088,-0.003402205416932702,0.000606600078754127,0.9276041388511658
16.85641700,16856417,2,0.3731246888637543,-0.0033588537480682135,0.0006131315603852272,0.9277749061584473
16.95640400,16956404,2,0.3727593421936035,-0.0032666607294231653,0.0006542149349115789,0.9279220700263977
17.05643400,17056434,2,0.3724580407142639,-0.003246724372729659,0.0006082883919589221,0.9280431270599365
17.15646000,17156460,2,0.37213191390037537,-0.00325572257861495,0.0006161937490105629,0.9281739592552185
17.25646300,17256463,2,0.37185806035995483,-0.0032968504820019007,0.0006286691641435027,0.9282835125923157
17.35646000,17356460,2,0.37154409289360046,-0.0033419125247746706,0.0006608873372897506,0.9284090399742126
17.45641200,17456412,2,0.3723813593387604,-0.0033143560867756605,0.0006818983820267022,0.9280736446380615
17.55641800,17556418,2,0.37496981024742126,-0.0033467435277998447,0.0006572119891643524,0.9270307421684265
17.65641500,17656415,2,0.37814268469810486,-0.00339523539878428,0.0006902177119627595,0.9257408380508423
17.75641400,17756414,2,0.3805733323097229,-0.003338094102218747,0.0007158512016758323,0.9247444272041321
17.85641400,17856414,2,0.38211342692375183,-0.003409468336030841,0.0007106697303242981,0.9241088628768921
17.95642400,17956424,2,0.38286736607551575,-0.003381142159923911,0.0007138361106626689,0.9237968325614929
18.05646800,18056468,2,0.38293108344078064,-0.0035966073628515005,0.0007541071390733123,0.9237695932388306
18.15646500,18156465,2,0.3824429512023926,-0.0037333336658775806,0.0007263237494044006,0.9239712953567505
18.25647200,18256472,2,0.38170117139816284,-0.0036718135233968496,0.0007486061076633632,0.924278199672699
18.35641000,18356410,2,0.38084858655929565,-0.003597311908379197,0.0007381591130979359,0.9246301054954529
18.45642000,18456420,2,0.3801177442073822,-0.003740905551239848,0.0007574515766464174,0.924930214881897
18.55641300,18556413,2,0.3793739378452301,-0.0037181058432906866,0.0007410779362544417,0.9252356886863708
18.65641200,18656412,2,0.3786603808403015,-0.0037133819423615932,0.0007002541096881032,0.9255279898643494
18.75640800,18756408,2,0.3780496120452881,-0.0037970393896102905,0.0007026173989288509,0.9257772564888
18.85642900,18856429,2,0.37747442722320557,-0.0038244822062551975,0.0007015317678451538,0.926011860370636
18.95647200,18956472,2,0.3769156336784363,-0.0038089973386377096,0.0007646759040653706,0.9262394309043884
19.05647600,19056476,2,0.3764275908470154,-0.0038193059153854847,0.0007457853062078357,0.9264378547668457
19.15646900,19156469,2,0.3758951425552368,-0.003822256112471223,0.0006772719789296389,0.9266541004180908
19.25640300,19256403,2,0.3754664361476898,-0.00375674432143569,0.0006838663830421865,0.926828145980835
19.35640500,19356405,2,0.37503769993782043,-0.003666263073682785,0.000647189503069967,0.9270020723342896
19.45641600,19456416,2,0.3753630220890045,-0.003668404882773757,0.000690596119966358,0.9268703460693359
19.55642100,19556421,2,0.3772572875022888,-0.003606954589486122,0.000672289461363107,0.9261012077331543
19.65641300,19656413,2,0.3809783160686493,-0.0037677078507840633,0.0007305829203687608,0.9245759844779968
19.75641800,19756418,2,0.3861508369445801,-0.0036125904880464077,0.0007616900256834924,0.9224282503128052
19.85647300,19856473,2,0.39233487844467163,-0.0036605731584131718,0.0008110097260214388,0.9198148250579834
19.95646800,19956468,2,0.39857015013694763,-0.0036790338344872,0.0007991278544068336,0.9171301126480103
20.05646400,20056464,2,0.40352296829223633,-0.0036356563214212656,0.0007913617300800979,0.9149619340896606
20.15641500,20156415,2,0.40665313601493835,-0.003766255686059594,0.000816773041151464,0.9135745167732239
20.25640600,20256406,2,0.4079660475254059,-0.0036815900821238756,0.0007714987732470036,0.9129893779754639
20.35640500,20356405,2,0.40795886516571045,-0.0037023990880697966,0.000789756653830409,0.9129924774169922
20.45643900,20456439,2,0.4070669412612915,-0.0037328298203647137,0.0007456137100234628,0.9133903980255127
20.55641300,20556413,2,0.4056987762451172,-0.0037311865016818047,0.0007470386917702854,0.9139989018440247
20.65642400,20656424,2,0.4041111469268799,-0.0037850269582122564,0.00072203588206321,0.9147017598152161
20.75645800,20756458,2,0.4024723768234253,-0.003826613537967205,0.0006823672447353601,0.9154238700866699
20.85646200,20856462,2,0.4009144604206085,-0.003832872724160552,0.0006760989199392498,0.9161072373390198
20.95646300,20956463,2,0.3995506763458252,-0.0038583120331168175,0.0006561497575603426,0.9167027473449707
21.05640900,21056409,2,0.3984435498714447,-0.003902863012626767,0.0006411616341210902,0.9171843528747559
21.15640800,21156408,2,0.3975261449813843,-0.003929214086383581,0.0006312777986750007,0.9175822138786316
21.25640500,21256405,2,0.3967055082321167,-0.004008251708000898,0.0006085452623665333,0.9179369807243347
21.35641900,21356419,2,0.39592084288597107,-0.004019796382635832,0.00059329072246328,0.9182756543159485
21.45641900,21456419,2,0.3951430022716522,-0.0039447578601539135,0.0005831027519889176,0.9186109900474548
21.55643400,21556434,2,0.3944205343723297,-0.0040304167196154594,0.0006234541651792824,0.9189209938049316
21.65645800,21656458,2,0.39377492666244507,-0.00399912241846323,0.0006095390999689698,0.9191979765892029
21.75646500,21756465,2,0.3930094838142395,-0.004019984044134617,0.0005969202611595392,0.9195254445075989
21.85646800,21856468,2,0.3921661078929901,-0.0040368190966546535,0.0005967621691524982,0.9198853969573975
21.95640400,21956404,2,0.3913257420063019,-0.004081086255609989,0.0006406307220458984,0.920242965221405
22.05640800,22056408,2,0.3905753493309021,-0.004086277447640896,0.0006075572455301881,0.920561671257019
22.15641200,22156412,2,0.38992786407470703,-0.004094157833606005,0.0006221005460247397,0.9208360910415649
22.25642500,22256425,2,0.389221727848053,-0.004098897334188223,0.0006306245923042297,0.9211347699165344
22.35640400,22356404,2,0.38849589228630066,-0.004124912898987532,0.0006683013634756207,0.9214409589767456
22.45643200,22456432,2,0.38783809542655945,-0.0041640521958470345,0.000678847951348871,0.9217178821563721
22.55646100,22556461,2,0.387239933013916,-0.0042095789685845375,0.0006770181353203952,0.9219691157341003
22.65647300,22656473,2,0.38665977120399475,-0.004171597305685282,0.0006523575866594911,0.9222127795219421
22.75646500,22756465,2,0.3861843943595886,-0.004168959800153971,0.0006960465107113123,0.9224119186401367
22.85640400,22856404,2,0.38575848937034607,-0.004163597244769335,0.0006984813371673226,0.9225901365280151
22.95640400,22956404,2,0.3853612244129181,-0.004157571122050285,0.0007380053284578025,0.9227561354637146
23.05641000,23056410,2,0.3849439024925232,-0.004143966361880302,0.0006886454066261649,0.9229304194450378
23.15641100,23156411,2,0.384465754032135,-0.004201310221105814,0.0006736238137818873,0.9231294393539429
23.25640800,23256408,2,0.3839642405509949,-0.004231821279972792,0.0007439254550263286,0.923337996006012
23.35641500,23356415,2,0.383483350276947,-0.004207398276776075,0.000699480006005615,0.9235379099845886
23.45646400,23456464,2,0.3830498456954956,-0.0041705225594341755,0.0007224662695080042,0.9237179756164551
23.55647400,23556474,2,0.3826151490211487,-0.004136569332331419,0.0007151531171984971,0.9238982796669006
23.65646200,23656462,2,0.3821912705898285,-0.00420113792642951,0.0007068874547258019,0.9240733981132507
23.75640700,23756407,2,0.3816992938518524,-0.004193941596895456,0.0007545407861471176,0.9242767691612244
23.85641100,23856411,2,0.381224125623703,-0.004225329030305147,0.0007352712564170361,0.9244726896286011
23.95640400,23956404,2,0.38073718547821045,-0.004275198094546795,0.0007802278269082308,0.9246730804443359
24.05643700,24056437,2,0.38025373220443726,-0.004269998054951429,0.0008035247446969151,0.9248719811439514
24.15642100,24156421,2,0.37975841760635376,-0.004258906003087759,0.0008189608342945576,0.9250755310058594
24.25643200,24256432,2,0.3793650269508362,-0.004284057766199112,0.0008173512178473175,0.9252368211746216
24.35645600,24356456,2,0.37889644503593445,-0.00428429339081049,0.0008110966300591826,0.9254288077354431
24.45646800,24456468,2,0.37847164273262024,-0.004262314643710852,0.0008109910413622856,0.9256027340888977
24.55646400,24556464,2,0.3781474530696869,-0.00425029406324029,0.0008377564372494817,0.9257352352142334
24.65640400,24656404,2,0.3778652846813202,-0.004265967756509781,0.0009027200867421925,0.9258503317832947
24.75641200,24756412,2,0.3775961697101593,-0.004221410024911165,0.0008718923781998456,0.92596036195755
24.85640800,24856408,2,0.3773234486579895,-0.004217289853841066,0.0008775760652497411,0.9260715246200562
24.95641900,24956419,2,0.3770160675048828,-0.004267701413482428,0.0008699011523276567,0.9261964559555054
25.05640900,25056409,2,0.3766796886920929,-0.004314187448471785,0.0008545336313545704,0.9263331294059753
25.15642000,25156420,2,0.37633731961250305,-0.0043083964847028255,0.0008125590975396335,0.9264723658561707
25.25646000,25256460,2,0.3759738504886627,-0.004350292030721903,0.000836185528896749,0.9266197085380554
25.35645900,25356459,2,0.3755189776420593,-0.00438237888738513,0.0008531907224096358,0.9268039464950562
25.45646600,25456466,2,0.37513428926467896,-0.004428563639521599,0.0008651327225379646,0.9269595146179199
25.55640800,25556408,2,0.37476062774658203,-0.004450234584510326,0.0008432675385847688,0.9271105527877808
25.65640400,25656404,2,0.3743226230144501,-0.004442994948476553,0.0008590496145188808,0.9272875189781189
25.75641200,25756412,2,0.37385472655296326,-0.0044477032497525215,0.0008667183574289083,0.9274762272834778
25.85641200,25856412,2,0.37342369556427,-0.004439488984644413,0.0009205812239088118,0.9276497960090637
25.95640500,25956405,2,0.3730296790599823,-0.0044368552044034,0.0009140280308201909,0.9278083443641663
26.05644700,26056447,2,0.3727395236492157,-0.0044528404250741005,0.0008962447755038738,0.9279248714447021
26.15646500,26156465,2,0.3724808096885681,-0.004429008811712265,0.0008679009042680264,0.92802894115448
26.25646000,26256460,2,0.37227725982666016,-0.004407412372529507,0.000950997113250196,0.9281105995178223
26.35646100,26356461,2,0.3720845580101013,-0.004392593167722225,0.0009711748571135104,0.928187906742096
26.45641000,26456410,2,0.3718762993812561,-0.0044516162015497684,0.0009965290082618594,0.9282710552215576
26.55640700,26556407,2,0.3716376721858978,-0.0044064028188586235,0.000996971968561411,0.9283668398857117
26.65640600,26656406,2,0.3713902235031128,-0.004401582293212414,0.0009795638034120202,0.9284659028053284
26.75640800,26756408,2,0.3711099922657013,-0.004390425514429808,0.0009435410611331463,0.9285780787467957
26.85640800,26856408,2,0.37089404463768005,-0.004328647628426552,0.0009069090010598302,0.9286646842956543
26.95642200,26956422,2,0.37068620324134827,-0.004308491945266724,0.0008805785910226405,0.9287477731704712
27.05647200,27056472,2,0.37049585580825806,-0.004229934886097908,0.0008943150169216096,0.9288240671157837
27.15647500,27156475,2,0.3703058660030365,-0.004223459865897894,0.0008473005145788193,0.928899884223938
27.25646700,27256467,2,0.37007561326026917,-0.004223099444061518,0.0008506198646500707,0.9289916753768921
27.35640400,27356404,2,0.36985087394714355,-0.004185762722045183,0.000852497760206461,0.9290813207626343
27.45640700,27456407,2,0.3696269989013672,-0.004232835955917835,0.0008486079750582576,0.9291701912879944
27.55642000,27556420,2,0.3694034814834595,-0.00424768403172493,0.0008483870187774301,0.9292590022087097
27.65642000,27656420,2,0.3691646158695221,-0.004253752063959837,0.0008338149054907262,0.9293538928031921
27.75640800,27756408,2,0.3689284920692444,-0.004284936469048262,0.0008125404710881412,0.9294475317001343
27.85643100,27856431,2,0.368733674287796,-0.00425338139757514,0.0007937488844618201,0.9295250177383423
27.95646100,27956461,2,0.36856669187545776,-0.004219789523631334,0.000778320012614131,0.9295914173126221
28.05647900,28056479,2,0.3684387803077698,-0.004208417609333992,0.000863760185893625,0.9296420812606812
28.15646700,28156467,2,0.36836904287338257,-0.00415635434910655,0.000894450640771538,0.9296699166297913
28.25640500,28256405,2,0.3682832717895508,-0.0041510011069476604,0.0009015326504595578,0.929703950881958
28.35640600,28356406,2,0.36820125579833984,-0.004106960259377956,0.0008702856139279902,0.9297366142272949
28.45641100,28456411,2,0.36814507842063904,-0.0041068969294428825,0.0009320663521066308,0.9297588467597961
28.55643300,28556433,2,0.368049681186676,-0.004081269726157188,0.0009249932481907308,0.9297966957092285
28.65640700,28656407,2,0.3679245710372925,-0.0040425145998597145,0.000931337068323046,0.9298464059829712
28.75644100,28756441,2,0.3678067624568939,-0.004076978657394648,0.0009434251114726067,0.9298928380012512
28.85646300,28856463,2,0.36777716875076294,-0.004139890428632498,0.0008866953430697322,0.9299042820930481
28.95646500,28956465,2,0.367727667093277,-0.004153304733335972,0.0009189334814436734,0.9299237728118896
29.05646400,29056464,2,0.3676862418651581,-0.004078445490449667,0.0008411452290602028,0.9299405813217163
29.15640800,29156408,2,0.36761412024497986,-0.003996928222477436,0.0008060833788476884,0.9299694895744324
29.25641000,29256410,2,0.3674737811088562,-0.003966217860579491,0.0008045402355492115,0.9300251007080078
29.35640400,29356404,2,0.3673464059829712,-0.003963627386838198,0.0007547732093371451,0.930075466632843
29.45640700,29456407,2,0.36716416478157043,-0.003980535082519054,0.0006968141533434391,0.9301473498344421
29.55640900,29556409,2,0.36705729365348816,-0.0039665671065449715,0.0006698690121993423,0.9301896095275879
29.65641800,29656418,2,0.36693477630615234,-0.00399718526750803,0.0006305230199359357,0.930237889289856
29.75646400,29756464,2,0.3667360842227936,-0.004010063596069813,0.0006499504670500755,0.930316150188446
29.85646700,29856467,2,0.3665403723716736,-0.004038595594465733,0.0006252972525544465,0.9303931593894958
29.95646600,29956466,2,0.3664107024669647,-0.00403154082596302,0.0006369296461343765,0.9304443001747131
30.05639600,30056396,2,0.3663337528705597,-0.004069696180522442,0.0006543933413922787,0.9304744005203247
30.15640000,30156400,2,0.3662845492362976,-0.0040790424682199955,0.000597670441493392,0.9304937720298767
30.25639100,30256391,2,0.36624661087989807,-0.004085032269358635,0.0005687820957973599,0.9305086731910706
30.35640700,30356407,2,0.3662324547767639,-0.004116084426641464,0.0005971845821477473,0.9305140972137451
30.45639600,30456396,2,0.3662206530570984,-0.004118331242352724,0.000596976256929338,0.9305187463760376
30.55641000,30556410,2,0.3662010431289673,-0.004070822149515152,0.0005746993119828403,0.9305266737937927
30.65644900,30656449,2,0.3661690056324005,-0.004035215359181166,0.000581241853069514,0.9305394291877747
30.75645700,30756457,2,0.36608293652534485,-0.004004616755992174,0.0005626147612929344,0.9305734634399414
30.85645100,30856451,2,0.36596617102622986,-0.004024336114525795,0.0004970544250681996,0.9306192994117737
30.95640100,30956401,2,0.36576130986213684,-0.004008110146969557,0.0004739954019896686,0.9306999444961548
31.05639500,31056395,2,0.3656153082847595,-0.003977913875132799,0.00040793183143250644,0.930757462978363
31.15639700,31156397,2,0.36547237634658813,-0.003971128258854151,0.0004380160535220057,0.9308136105537415
31.25639300,31256393,2,0.36531275510787964,-0.003922253847122192,0.0004410002438817173,0.9308764934539795
31.35639500,31356395,2,0.3652002811431885,-0.003931394778192043,0.00043934397399425507,0.9309205412864685
31.45641700,31456417,2,0.36514726281166077,-0.003927440848201513,0.00045500058331526816,0.9309414029121399
31.55644900,31556449,2,0.36504659056663513,-0.003933259751647711,0.0004351024981588125,0.9309808611869812
31.65646000,31656460,2,0.3650176227092743,-0.003988524433225393,0.0003990906698163599,0.9309919476509094
31.75645200,31756452,2,0.36494573950767517,-0.003994523547589779,0.0003857250849250704,0.9310201406478882
31.85639900,31856399,2,0.3649173974990845,-0.004015500191599131,0.0003569545515347272,0.9310311675071716
31.95639600,31956396,2,0.3649066090583801,-0.003974047023802996,0.00037367359618656337,0.931035578250885
32.05639500,32056395,2,0.3649030327796936,-0.003992278128862381,0.0003844982129521668,0.9310368895530701
32.15640200,32156402,2,0.36481571197509766,-0.004011636134237051,0.0004376185534056276,0.9310709834098816
32.25639300,32256393,2,0.3647291660308838,-0.004049982875585556,0.00043392370571382344,0.9311047196388245
32.35640500,32356405,2,0.3645518124103546,-0.004063175059854984,0.0003951737016905099,0.9311741590499878
32.45644500,32456445,2,0.36445724964141846,-0.0040891654789447784,0.0004449672996997833,0.9312110543251038
32.55645200,32556452,2,0.3643432557582855,-0.004059422295540571,0.0004989022854715586,0.9312557578086853
32.65645100,32656451,2,0.36428141593933105,-0.004086233209818602,0.0004929256392642856,0.9312798380851746
32.75640200,32756402,2,0.36424022912979126,-0.004145627375692129,0.0004737656272482127,0.9312956929206848
32.85639200,32856392,2,0.364194393157959,-0.004114675335586071,0.00045235062134452164,0.9313137531280518
32.95639400,32956394,2,0.364158570766449,-0.004131594207137823,0.0004201387637294829,0.9313277006149292
33.05641500,33056415,2,0.3641613721847534,-0.0041331080719828606,0.0004274057282600552,0.9313266277313232
33.15639700,33156397,2,0.36415669322013855,-0.0041284034959971905,0.0003775053774006665,0.9313284754753113
33.25642600,33256426,2,0.36417868733406067,-0.004109564702957869,0.0003920928866136819,0.9313199520111084
33.35644600,33356446,2,0.3641982674598694,-0.0041757915169000626,0.00038988617598079145,0.9313119649887085
33.45645000,33456450,2,0.36418628692626953,-0.004194977227598429,0.00039877640665508807,0.931316614151001
33.55646900,33556469,2,0.3641915023326874,-0.004242945462465286,0.0004251747450325638,0.9313143491744995
33.65640100,33656401,2,0.3642179071903229,-0.004211225546896458,0.0004019693296868354,0.9313041567802429
33.75639700,33756397,2,0.364258736371994,-0.0043024769984185696,0.0004161351243965328,0.9312877655029297
33.85640000,33856400,2,0.3642481565475464,-0.004354703240096569,0.0003918333095498383,0.9312916398048401
33.95639300,33956393,2,0.36420780420303345,-0.0043588075786828995,0.0004009322728961706,0.9313074350357056
34.05639400,34056394,2,0.3641265630722046,-0.0043578725308179855,0.00038479393697343767,0.9313392043113708
34.15641000,34156410,2,0.3639483153820038,-0.004353510681539774,0.00035082665272057056,0.9314088821411133
34.25644800,34256448,2,0.36382636427879333,-0.00432978430762887,0.00032862156513147056,0.9314566850662231
34.35645600,34356456,2,0.36369115114212036,-0.004310683812946081,0.00030503544257953763,0.9315095543861389
34.45645400,34456454,2,0.363629549741745,-0.004304772242903709,0.0003266338899265975,0.9315336346626282
34.55640700,34556407,2,0.36355745792388916,-0.004327962175011635,0.0002826913259923458,0.9315616488456726
34.65639400,34656394,2,0.363552987575531,-0.004355364479124546,0.0002944213920272887,0.9315633177757263
34.75639500,34756395,2,0.3635108470916748,-0.004342962522059679,0.00025672322954051197,0.9315798282623291
34.85639600,34856396,2,0.3634759187698364,-0.004353450611233711,0.0002525001182220876,0.9315933585166931
34.95639300,34956393,2,0.36341047286987305,-0.00435661431401968,0.00025740175624378026,0.9316189289093018
35.05640400,35056404,2,0.36342161893844604,-0.004326709546148777,0.0002746391110122204,0.9316146969795227
35.15644600,35156446,2,0.36345013976097107,-0.004335019271820784,0.0002787091361824423,0.9316035509109497
35.25646200,35256462,2,0.3634698688983917,-0.004329290706664324,0.00026412151055410504,0.9315958619117737
35.35645200,35356452,2,0.3635168969631195,-0.004374220035970211,0.00028563119121827185,0.9315772652626038
35.45639700,35456397,2,0.36356639862060547,-0.004335549660027027,0.00027038229745812714,0.9315581917762756
35.55640000,35556400,2,0.36359086632728577,-0.004321826156228781,0.00026128548779524863,0.9315486550331116
35.65639900,35656399,2,0.3635607659816742,-0.004364663269370794,0.0002752554137259722,0.931560218334198
35.75639700,35756397,2,0.3635076582431793,-0.004346962086856365,0.00025213463231921196,0.9315810203552246
35.85640900,35856409,2,0.36343634128570557,-0.004347608890384436,0.00018043765157926828,0.9316088557243347
35.95641800,35956418,2,0.3633611500263214,-0.004361206199973822,0.00023180340940598398,0.9316381216049194
36.05644600,36056446,2,0.3633330762386322,-0.004341647494584322,0.00014378591731656343,0.9316492080688477
36.15645300,36156453,2,0.3632400333881378,-0.004327123053371906,0.00016475841403007507,0.9316855072975159
36.25645400,36256454,2,0.36321404576301575,-0.004318007733672857,0.00016917998436838388,0.9316956996917725
36.35639300,36356393,2,0.36320069432258606,-0.004291243385523558,0.00014303429634310305,0.9317010045051575
36.45639600,36456396,2,0.36328554153442383,-0.004300014581531286,0.00010594898776616901,0.9316679239273071
36.55639800,36556398,2,0.36335867643356323,-0.0044083986431360245,0.00010903988004429266,0.9316388964653015
36.65640300,36656403,2,0.3634515702724457,-0.004414161667227745,9.955515270121396e-05,0.9316025972366333
36.75639600,36756396,2,0.3635096251964569,-0.004395213909447193,9.64101855061017e-05,0.9315800666809082
36.85641800,36856418,2,0.36354899406433105,-0.004427107982337475,7.028188701951876e-05,0.9315645694732666
36.95645300,36956453,2,0.36359459161758423,-0.004447105806320906,6.879639840917662e-05,0.931546688079834
37.05645000,37056450,2,0.3635990619659424,-0.004391669295728207,8.25208771857433e-05,0.9315451979637146
37.15645400,37156454,2,0.3636034429073334,-0.0044280001893639565,7.5114170613233e-05,0.9315432906150818
37.25640400,37256404,2,0.36362284421920776,-0.004368675407022238,5.6895656598499045e-05,0.9315360188484192
37.35639300,37356393,2,0.36359256505966187,-0.004397605545818806,5.011724351788871e-05,0.9315477013587952
37.45639600,37456396,2,0.36358726024627686,-0.004418528638780117,2.6390996481495677e-06,0.9315496683120728
37.55639800,37556398,2,0.363595187664032,-0.004388801753520966,-2.435213355056476e-05,0.931546688079834
37.65639400,37656394,2,0.3635977804660797,-0.004376688972115517,-4.072499359608628e-05,0.9315457344055176
37.75641300,37756413,2,0.36364099383354187,-0.004384947475045919,9.391928870172706e-06,0.9315288662910461
37.85647400,37856474,2,0.36372771859169006,-0.004423432517796755,-1.2403350410750136e-05,0.9314948320388794
37.95644800,37956448,2,0.3637654781341553,-0.00440765218809247,-6.762576231267303e-05,0.9314801096916199
38.05645000,38056450,2,0.3638017177581787,-0.004408375360071659,-6.321155524346977e-05,0.9314659833908081
38.15639900,38156399,2,0.3637889623641968,-0.004430694971233606,-5.434695412986912e-05,0.9314708709716797
38.25639400,38256394,2,0.36366575956344604,-0.004437507130205631,-3.907031350536272e-05,0.9315189123153687
38.35639400,38356394,2,0.3636040985584259,-0.004434823989868164,-1.512636026745895e-05,0.9315429925918579
38.45639500,38456395,2,0.3635450005531311,-0.004445397295057774,-1.0044426744570956e-05,0.931566059589386
38.55639400,38556394,2,0.36352023482322693,-0.004446940962225199,7.502777407353278e-06,0.9315757155418396
38.65642100,38656421,2,0.36350932717323303,-0.004427983891218901,7.761585948173888e-06,0.9315800070762634
38.75645200,38756452,2,0.36352023482322693,-0.004427745006978512,1.6343292372766882e-05,0.9315757751464844
38.85646700,38856467,2,0.36350178718566895,-0.00438387505710125,-1.5611318303854205e-05,0.9315831661224365
38.95645400,38956454,2,0.3634394407272339,-0.004383299499750137,-4.424362850841135e-05,0.9316075444221497
39.05639300,39056393,2,0.3634185791015625,-0.004359476268291473,-3.2743937481427565e-05,0.9316157698631287
39.15639600,39156396,2,0.36341825127601624,-0.00433675991371274,-5.5842472647782415e-05,0.9316160082817078
39.25639800,39256398,2,0.36346885561943054,-0.004348603077232838,-6.390066118910909e-06,0.9315962195396423
39.35639400,39356394,2,0.3635352551937103,-0.004354249686002731,-1.1791528777393978e-05,0.931570291519165
39.45640200,39456402,2,0.3635473847389221,-0.004322361666709185,-8.390978473471478e-05,0.9315657019615173
39.55641100,39556411,2,0.36358198523521423,-0.004265760071575642,-8.947776223067194e-05,0.9315524101257324
39.65644400,39656444,2,0.3636407256126404,-0.004228884819895029,-0.00010286839824402705,0.9315296411514282
39.75645700,39756457,2,0.3637149930000305,-0.004202418960630894,-0.000107167026726529,0.9315007925033569
39.85645900,39856459,2,0.36374127864837646,-0.004208470694720745,-0.0001255988172488287,0.9314904808998108
39.95639300,39956393,2,0.36374184489250183,-0.0042183795012533665,-0.00012203500955365598,0.9314902424812317
40.05639500,40056395,2,0.36378341913223267,-0.0042126416228711605,-0.00013410845713224262,0.9314740300178528
40.15640100,40156401,2,0.3637567460536957,-0.004207746125757694,-0.00015173210704233497,0.9314844608306885
40.25639400,40256394,2,0.36379340291023254,-0.004134699702262878,-0.00015875183453317732,0.9314704537391663
40.35639300,40356393,2,0.36380326747894287,-0.004078772850334644,-0.00016592181054875255,0.9314668774604797
40.45640100,40456401,2,0.36382922530174255,-0.004040249157696962,-9.903540194500238e-05,0.9314569234848022
40.55645000,40556450,2,0.3638446629047394,-0.0040078843012452126,-0.00012188002438051626,0.9314510226249695
40.65645100,40656451,2,0.363840252161026,-0.003954906947910786,-9.731743921292946e-05,0.9314529895782471
40.75645400,40756454,2,0.3638680577278137,-0.0039683254435658455,-9.353393397759646e-05,0.9314420223236084
40.85640100,40856401,2,0.36385834217071533,-0.003931939136236906,-7.073122833389789e-05,0.9314460158348083
40.95639200,40956392,2,0.3639097809791565,-0.003906394820660353,-8.97665522643365e-05,0.9314259886741638
41.05639500,41056395,2,0.36395201086997986,-0.003887228202074766,-0.00012160720507381484,0.9314095973968506
41.15639600,41156396,2,0.36396902799606323,-0.003885001875460148,-0.00017540931003168225,0.9314029216766357
41.25639500,41256395,2,0.36403214931488037,-0.0038890033029019833,-0.000120511744171381,0.9313782453536987
41.35641100,41356411,2,0.36401456594467163,-0.003907139878720045,-7.203958375612274e-05,0.9313850402832031
41.45644700,41456447,2,0.3640707731246948,-0.003901086747646332,-5.8974303101422265e-05,0.9313631057739258
41.55645500,41556455,2,0.36408305168151855,-0.0038948680739849806,-5.6469776609446853e-05,0.9313583374023438
41.65645200,41656452,2,0.36412468552589417,-0.0038637612015008926,-8.727757085580379e-05,0.9313421845436096
41.75639600,41756396,2,0.36413756012916565,-0.003867175430059433,-9.639711788622662e-05,0.9313371181488037
41.85640400,41856404,2,0.36415573954582214,-0.0038509781006723642,-8.533568325219676e-05,0.9313300848007202
41.95639300,41956393,2,0.3641461133956909,-0.0038342492189258337,-0.00011478501255623996,0.9313339591026306
42.05639500,42056395,2,0.36420759558677673,-0.0037594351451843977,-0.00015764233830850571,0.9313101768493652
42.15639900,42156399,2,0.36419805884361267,-0.0037604474928230047,-0.00015206355601549149,0.9313139319419861
42.25640400,42256404,2,0.36413535475730896,-0.0037793952506035566,-0.00010805469355545938,0.931338369846344
42.35644500,42356445,2,0.3640885353088379,-0.003723065136000514,-0.0001251433277502656,0.9313569068908691
42.45646300,42456463,2,0.3640737235546112,-0.003712865523993969,-0.00012104485358577222,0.9313627481460571
42.55646000,42556460,2,0.36410948634147644,-0.0037388247437775135,-0.00012569210957735777,0.9313486218452454
42.65639400,42656394,2,0.3641132712364197,-0.0037295056972652674,-9.487628994975239e-05,0.9313471913337708
42.75639600,42756396,2,0.3641398251056671,-0.003724051406607032,-0.00014176042168401182,0.9313368201255798
42.85640000,42856400,2,0.364120215177536,-0.0036807844880968332,-0.00016157985373865813,0.9313446879386902
42.95639400,42956394,2,0.364174485206604,-0.003638095688074827,-0.00020092446357011795,0.9313235878944397
43.05639500,43056395,2,0.36424267292022705,-0.0036000406835228205,-0.00015065231127664447,0.9312971234321594
43.15641400,43156414,2,0.36427780985832214,-0.003546724561601877,-0.0001512232847744599,0.9312835931777954
43.25645000,43256450,2,0.3642715513706207,-0.003529890673235059,-0.0001676294341450557,0.931286096572876
43.35645500,43356455,2,0.3642174005508423,-0.0035086802672594786,-0.00019661856640595943,0.931307315826416
43.45645200,43456452,2,0.3642256557941437,-0.003473845776170492,-0.00023166766914073378,0.9313042163848877
43.55639700,43556397,2,0.36418086290359497,-0.0034520577173680067,-0.0002434233174426481,0.9313217997550964
43.65639500,43656395,2,0.36414214968681335,-0.003398537402972579,-0.0002536081010475755,0.9313371181488037
43.75639600,43756396,2,0.3640982508659363,-0.0033860099501907825,-0.0002671136462595314,0.9313543438911438
43.85640000,43856400,2,0.36402565240859985,-0.003387995297089219,-0.000244221359025687,0.9313827157020569
43.95639300,43956393,2,0.36403945088386536,-0.0033996214624494314,-0.0002253668790217489,0.9313772916793823
44.05641400,44056414,2,0.3640368580818176,-0.0034309071488678455,-0.00019703416910488158,0.931378185749054
44.15645300,44156453,2,0.3640168011188507,-0.003401301335543394,-0.00019562408851925284,0.9313861727714539
44.25645100,44256451,2,0.3640388250350952,-0.003407529555261135,-0.00016565127589274198,0.9313775300979614
44.35644900,44356449,2,0.36404284834861755,-0.0034104492515325546,-0.0001435447484254837,0.9313759207725525
44.45639500,44456395,2,0.36408212780952454,-0.0034644613042473793,-0.00014455740165431052,0.9313603639602661
44.55639400,44556394,2,0.3640839755535126,-0.0034705542493611574,-0.00015087051724549383,0.9313596487045288
44.65639500,44656395,2,0.3641534149646759,-0.003482884494587779,-0.00010704976011766121,0.9313324689865112
44.75639600,44756396,2,0.3641752600669861,-0.003466475522145629,-0.00014211579400580376,0.9313239455223083
44.85639600,44856396,2,0.3641321361064911,-0.003422349691390991,-0.00017972514615394175,0.9313409924507141
44.95640400,44956404,2,0.3641258478164673,-0.0034028736408799887,-0.0001651341881370172,0.9313434958457947
45.05644600,45056446,2,0.3641393482685089,-0.0033685199450701475,-0.00018389035540167242,0.931338369846344
45.15645500,45156455,2,0.3641347289085388,-0.003373426152393222,-0.0001741790329106152,0.9313401579856873
45.25645700,45256457,2,0.36412081122398376,-0.0033983218017965555,-0.00015474508109036833,0.931345522403717
45.35639300,45356393,2,0.36408600211143494,-0.0033821254037320614,-0.0001384828647132963,0.9313591718673706
45.45639600,45456396,2,0.36402902007102966,-0.0033689525444060564,-0.00016041997878346592,0.9313815236091614
45.55639900,45556399,2,0.36402803659439087,-0.00335572543554008,-0.0001445231755496934,0.9313819408416748
45.65639500,45656395,2,0.36403030157089233,-0.003357943380251527,-0.00015973889094311744,0.9313810467720032
45.75639700,45756397,2,0.36402788758277893,-0.0033992754761129618,-0.00013909960398450494,0.9313818216323853
45.85641700,45856417,2,0.3640010356903076,-0.0033638086169958115,-0.00016467056411784142,0.9313924312591553
45.95645000,45956450,2,0.36397823691368103,-0.0034405391197651625,-0.00016367962234653533,0.9314010739326477
46.05646600,46056466,2,0.3639117181301117,-0.003447196912020445,-0.0001810332469176501,0.9314270615577698
46.15645900,46156459,2,0.3638743758201599,-0.0034169647842645645,-0.0001655657688388601,0.9314417243003845
46.25639300,46256393,2,0.3638458549976349,-0.003437409643083811,-0.00020369546837173402,0.9314528107643127
46.35639200,46356392,2,0.36384010314941406,-0.003486675675958395,-0.0002349310670979321,0.9314548373222351
46.45639900,46456399,2,0.36380887031555176,-0.003450716845691204,-0.000222350747208111,0.9314671754837036
46.55639500,46556395,2,0.36377957463264465,-0.003463538596406579,-0.00019528124539647251,0.9314786195755005
46.65639700,46656397,2,0.36375901103019714,-0.0034910617396235466,-0.00018999638268724084,0.9314865469932556
46.75639900,46756399,2,0.36370712518692017,-0.003526940243318677,-0.0001863993238657713,0.9315066337585449
46.85645300,46856453,2,0.363638311624527,-0.003508358495309949,-0.00017889791342895478,0.9315335750579834
46.95646400,46956464,2,0.36362576484680176,-0.0034976715687662363,-0.00015675810573156923,0.9315385222434998
47.05645100,47056451,2,0.3635968565940857,-0.0034994715824723244,-0.00015227848780341446,0.9315497875213623
47.15640600,47156406,2,0.36359864473342896,-0.0035406912211328745,-0.00012595091538969427,0.9315489530563354
47.25639700,47256397,2,0.3635888397693634,-0.0036118614953011274,-0.00014822566299699247,0.931552529335022
47.35639300,47356393,2,0.36357372999191284,-0.0035862289369106293,-0.00013177057553548366,0.9315584897994995
47.45640100,47456401,2,0.3635364770889282,-0.0036407182924449444,-0.00014447596913669258,0.9315728545188904
47.55639800,47556398,2,0.3635343015193939,-0.00366577017121017,-0.00012312454055063426,0.9315735697746277
47.65641400,47656414,2,0.3635214865207672,-0.0037474180571734905,-0.00014447137073148042,0.9315782785415649
47.75645500,47756455,2,0.3635184168815613,-0.003808180335909128,-0.00019349035574123263,0.9315792322158813
47.85645300,47856453,2,0.36348316073417664,-0.003817054908722639,-0.00021378669771365821,0.9315929412841797
47.95645000,47956450,2,0.363523006439209,-0.003822378348559141,-0.00021510515944100916,0.9315773844718933
48.05639400,48056394,2,0.36355215311050415,-0.0038645064923912287,-0.00019200083625037223,0.9315658211708069
48.15640100,48156401,2,0.36359918117523193,-0.003914160653948784,-0.0002352675946895033,0.931547224521637
48.25640500,48256405,2,0.3635837733745575,-0.003926892764866352,-0.00029666145564988256,0.9315531849861145
48.35639500,48356395,2,0.36360520124435425,-0.003890986554324627,-0.00029598342371173203,0.9315449595451355
48.45639600,48456396,2,0.36366498470306396,-0.003912698943167925,-0.0003063124604523182,0.9315215349197388
48.55642000,48556420,2,0.3637092709541321,-0.0039113182574510574,-0.00033303641248494387,0.9315042495727539
48.65645400,48656454,2,0.36377039551734924,-0.003955043386667967,-0.00029246826306916773,0.9314802289009094
48.75645400,48756454,2,0.36381587386131287,-0.004006009548902512,-0.00029297079890966415,0.9314622282981873
48.85645300,48856453,2,0.3638284504413605,-0.004077771678566933,-0.00031389278592541814,0.931456983089447
48.95639300,48956393,2,0.3637986183166504,-0.00409109378233552,-0.000264968752162531,0.9314686059951782
49.05639700,49056397,2,0.3638053238391876,-0.004089411348104477,-0.0002682092599570751,0.9314659833908081
49.15639700,49156397,2,0.3638053238391876,-0.004100360907614231,-0.0002967308973893523,0.9314659237861633
49.25639700,49256397,2,0.3637435734272003,-0.004112784750759602,-0.00032543501583859324,0.9314900040626526
49.35640000,49356400,2,0.3637343943119049,-0.004122236277908087,-0.00029548435122705996,0.9314935207366943
49.45640700,49456407,2,0.3637389540672302,-0.004134600516408682,-0.0002617114514578134,0.9314917325973511
49.55645200,49556452,2,0.3637210726737976,-0.00419148663058877,-0.0002885539142880589,0.9314984083175659
49.65645800,49656458,2,0.36374202370643616,-0.00419231504201889,-0.00027481879806146026,0.9314902424812317
49.75645200,49756452,2,0.3637811243534088,-0.0041894917376339436,-0.00030525634065270424,0.9314749836921692
49.85639900,49856399,2,0.3638242185115814,-0.004171261563897133,-0.0003431876248214394,0.9314582347869873
49.95639300,49956393,2,0.36379387974739075,-0.004192114807665348,-0.0003581118944566697,0.9314699769020081
50.05639600,50056396,2,0.3637620210647583,-0.004212046507745981,-0.0003634625463746488,0.9314823150634766
50.15642800,50156428,2,0.36374810338020325,-0.004223673604428768,-0.0003958297020290047,0.9314876794815063
50.25639300,50256393,2,0.36377352476119995,-0.004259943496435881,-0.0003964850911870599,0.9314776062965393
50.35640900,50356409,2,0.36376145482063293,-0.004291808698326349,-0.0004110448353458196,0.9314821362495422
50.45644800,50456448,2,0.36374807357788086,-0.0043634516187012196,-0.0004208585014566779,0.9314870238304138
50.55645900,50556459,2,0.3638029396533966,-0.0043583461083471775,-0.0004248331824783236,0.9314656257629395
50.65645600,50656456,2,0.36380404233932495,-0.004416046664118767,-0.00047437596367672086,0.9314649105072021
50.75639600,50756396,2,0.36381080746650696,-0.004467626567929983,-0.0005220325547270477,0.9314619898796082
50.85639600,50856396,2,0.36383679509162903,-0.0044916351325809956,-0.0004747399943880737,0.9314517378807068
50.95639200,50956392,2,0.3638019561767578,-0.004486707970499992,-0.0004970793379470706,0.9314653873443604
51.05642200,51056422,2,0.3637811243534088,-0.004490920342504978,-0.000456646695965901,0.9314734935760498
51.15639600,51156396,2,0.36379513144493103,-0.004479589872062206,-0.00041587770101614296,0.93146812915802
51.25641400,51256414,2,0.3638436198234558,-0.004527756944298744,-0.00045109825441613793,0.9314489364624023
51.35644700,51356447,2,0.36388441920280457,-0.004550398327410221,-0.0004568012082017958,0.9314329028129578
51.45645100,51456451,2,0.3638870120048523,-0.0045446124859154224,-0.0004487145342864096,0.9314318895339966
51.55645500,51556455,2,0.36383894085884094,-0.004571442026644945,-0.00048200503806583583,0.9314505457878113
51.65639800,51656398,2,0.36386123299598694,-0.004577434156090021,-0.0004495813336689025,0.9314417839050293
51.75639700,51756397,2,0.36389729380607605,-0.004602699540555477,-0.00044330203672870994,0.9314275979995728
51.85639900,51856399,2,0.3639257550239563,-0.0046025109477341175,-0.0004437369352672249,0.9314164519309998
51.95639200,51956392,2,0.3639044165611267,-0.004605917260050774,-0.0005502941785380244,0.9314247369766235
52.05639300,52056393,2,0.36398735642433167,-0.004625328816473484,-0.0005419433582574129,0.931392252445221
52.15641100,52156411,2,0.3639957010746002,-0.004625976085662842,-0.0005692276172339916,0.9313889741897583
52.25644700,52256447,2,0.3639566898345947,-0.004639152437448502,-0.0005747586255893111,0.9314041137695312
52.35644400,52356444,2,0.36398348212242126,-0.004654723219573498,-0.0005673585110343993,0.9313936233520508
52.45645200,52456452,2,0.36403152346611023,-0.0046024988405406475,-0.0005777763435617089,0.9313750863075256
52.55639100,52556391,2,0.36409422755241394,-0.00460038660094142,-0.0006284786504693329,0.9313505291938782
52.65639800,52656398,2,0.3641465902328491,-0.004612191580235958,-0.000609847076702863,0.9313300251960754
52.75639600,52756396,2,0.3642320930957794,-0.004619945771992207,-0.0006745035643689334,0.9312965273857117
52.85639700,52856397,2,0.36423730850219727,-0.004610014613717794,-0.0006638889317400753,0.9312945008277893
52.95639300,52956393,2,0.36425381898880005,-0.00459872093051672,-0.0007041789358481765,0.9312881231307983
53.05641300,53056413,2,0.36428773403167725,-0.0045944745652377605,-0.0007580046658404171,0.9312748312950134
53.15644800,53156448,2,0.3643049895763397,-0.004593419376760721,-0.0007603869889862835,0.931268036365509
53.25646100,53256461,2,0.36426979303359985,-0.004610494244843721,-0.0007568196160718799,0.9312817454338074
53.35645100,53356451,2,0.3642139732837677,-0.0045913769863545895,-0.000778334157075733,0.9313036799430847
53.45639600,53456396,2,0.36416059732437134,-0.004600036423653364,-0.000760031514801085,0.9313244819641113
53.55639800,53556398,2,0.3640899658203125,-0.004583706613630056,-0.0007829496171325445,0.9313521981239319
53.65639800,53656398,2,0.36402642726898193,-0.0046598599292337894,-0.0007877813186496496,0.9313766360282898
53.75641600,53756416,2,0.36397403478622437,-0.004736997187137604,-0.0007765993941575289,0.9313967227935791
53.85640000,53856400,2,0.3639220893383026,-0.004729037638753653,-0.0007523591048084199,0.9314171075820923
53.95641900,53956419,2,0.3639242351055145,-0.004715579561889172,-0.0007601308170706034,0.9314163327217102
54.05644600,54056446,2,0.3639433979988098,-0.004657247569411993,-0.0007335752015933394,0.9314091205596924
54.15645900,54156459,2,0.3639576733112335,-0.004620975349098444,-0.0007129148580133915,0.9314037561416626
54.25645500,54256455,2,0.363954097032547,-0.00458047678694129,-0.0006986683583818376,0.9314053654670715
54.35639400,54356394,2,0.363970547914505,-0.0045550549402832985,-0.0007112228195182979,0.9313990473747253
54.45639700,54456397,2,0.3639986515045166,-0.004535428248345852,-0.0007087620324455202,0.9313881397247314
54.55639400,54556394,2,0.36400794982910156,-0.004508507438004017,-0.0006967622321099043,0.9313846826553345
54.65641200,54656412,2,0.3640277087688446,-0.0044779907912015915,-0.0006858023116365075,0.931377112865448
54.75639500,54756395,2,0.3640376925468445,-0.004512892570346594,-0.000709592190105468,0.9313730001449585
54.85641300,54856413,2,0.36402732133865356,-0.0044641438871622086,-0.000675815565045923,0.9313773512840271
54.95644900,54956449,2,0.36405104398727417,-0.00445251539349556,-0.0005852332687936723,0.9313681721687317
55.05644700,55056447,2,0.36408835649490356,-0.004461304750293493,-0.0005906628794036806,0.9313535094261169
55.15645300,55156453,2,0.3640874922275543,-0.004406224004924297,-0.0005657444125972688,0.9313541650772095
55.25639700,55256397,2,0.36404022574424744,-0.004438962787389755,-0.0005174028920009732,0.9313725233078003
55.35639300,55356393,2,0.36399123072624207,-0.0044792285189032555,-0.0005295620067045093,0.9313914775848389
55.45639800,55456398,2,0.36402344703674316,-0.004469658248126507,-0.0005105684394948184,0.9313789010047913
55.55640100,55556401,2,0.3640032708644867,-0.004408079665154219,-0.000539336702786386,0.9313870668411255
55.65639600,55656396,2,0.36399737000465393,-0.004397784825414419,-0.0005660311435349286,0.9313894510269165
55.75641400,55756414,2,0.36400389671325684,-0.004366098437458277,-0.0005514876684173942,0.9313870072364807
55.85645700,55856457,2,0.3639654815196991,-0.004357407800853252,-0.0005449324380606413,0.9314020872116089
55.95645500,55956455,2,0.3639662265777588,-0.004417352378368378,-0.0005140037974342704,0.9314015507698059
56.05645000,56056450,2,0.3639757037162781,-0.004418376367539167,-0.0004878227773588151,0.9313978552818298
56.15639900,56156399,2,0.3639497756958008,-0.00441163731738925,-0.0004609766765497625,0.9314079880714417
56.25639700,56256397,2,0.3639374077320099,-0.004385938867926598,-0.0003690115991048515,0.9314129948616028
56.35639400,56356394,2,0.36392495036125183,-0.004427995998412371,-0.00031622458482161164,0.93141770362854
56.45639600,56456396,2,0.36391180753707886,-0.0043971240520477295,-0.00032568027381785214,0.9314229488372803
56.55639400,56556394,2,0.3639276325702667,-0.004377664998173714,-0.00036632356932386756,0.9314168691635132
56.65641000,56656410,2,0.36390578746795654,-0.00439129862934351,-0.00032721436582505703,0.9314253330230713
56.75645700,56756457,2,0.3638913929462433,-0.004436108749359846,-0.0002787616685964167,0.9314307570457458
56.85646300,56856463,2,0.3639131784439087,-0.004360172897577286,-0.00026751423138193786,0.9314226508140564
56.95645200,56956452,2,0.36391597986221313,-0.0043732584454119205,-0.00028068909887224436,0.9314214587211609
57.05640300,57056403,2,0.36392277479171753,-0.00433335080742836,-0.00028183028916828334,0.9314190149307251
57.15639500,57156395,2,0.3639463484287262,-0.00429697148501873,-0.00030673740548081696,0.9314099550247192
57.25640000,57256400,2,0.3639909327030182,-0.004282417707145214,-0.0003046799683943391,0.9313926100730896
57.35639300,57356393,2,0.36399850249290466,-0.004297218285501003,-0.0002625426568556577,0.931389570236206
57.45639600,57456396,2,0.36398324370384216,-0.004331657662987709,-0.0002697398012969643,0.931395411491394
57.55640600,57556406,2,0.3639797270298004,-0.004334484227001667,-0.0002835604827851057,0.9313967227935791
57.65645900,57656459,2,0.36395618319511414,-0.004308315925300121,-0.00026903863181360066,0.9314060807228088
57.75645800,57756458,2,0.3639225661754608,-0.0043129753321409225,-0.00027124551706947386,0.9314191937446594
57.85645600,57856456,2,0.3638894855976105,-0.004268510267138481,-0.00023972251801751554,0.93143230676651
57.95639300,57956393,2,0.36388862133026123,-0.0042844293639063835,-0.00021279184147715569,0.9314326047897339
58.05639300,58056393,2,0.3638971745967865,-0.004310448653995991,-0.00024453451624140143,0.9314291477203369
58.15639900,58156399,2,0.36386436223983765,-0.0043186829425394535,-0.00024123000912368298,0.9314419031143188
58.25642000,58256420,2,0.3638816773891449,-0.004268973600119352,-0.0002397470670985058,0.9314353466033936
58.35639600,58356396,2,0.3638633191585541,-0.004268269520252943,-0.00020372586732264608,0.9314425587654114
58.45639800,58456398,2,0.36382317543029785,-0.0042353845201432705,-0.00021537713473662734,0.9314583539962769
58.55645500,58556455,2,0.36385586857795715,-0.004264154005795717,-0.00018350983737036586,0.9314454793930054
58.65645200,58656452,2,0.36386799812316895,-0.004303366411477327,-0.00019456252630334347,0.931440532207489
58.75645200,58756452,2,0.3639359772205353,-0.00426445109769702,-0.00018598022870719433,0.9314141869544983
58.85639900,58856399,2,0.36396896839141846,-0.004224384669214487,-0.00019264171714894474,0.9314014911651611
58.95639300,58956393,2,0.3640051484107971,-0.004227420315146446,-0.00021808796736877412,0.9313873052597046
59.05639500,59056395,2,0.3639933466911316,-0.004241985268890858,-0.0002438262599753216,0.9313918352127075
59.15639600,59156396,2,0.36397960782051086,-0.004204664379358292,-0.0002379790530540049,0.9313973784446716
59.25640500,59256405,2,0.36398229002952576,-0.004186619538813829,-0.00027139848680235445,0.9313964247703552
59.35641200,59356412,2,0.36407262086868286,-0.00418194429948926,-0.00024920213036239147,0.9313611388206482
59.45644700,59456447,2,0.3641086220741272,-0.004128327127546072,-0.00022315072419587523,0.9313473105430603
59.55645700,59556457,2,0.36411139369010925,-0.00405225669965148,-0.0001491987204644829,0.931346595287323
59.65645100,59656451,2,0.3641670048236847,-0.003964358475059271,-0.0001432038116035983,0.9313251972198486
59.75639500,59756395,2,0.36413976550102234,-0.003946431912481785,-0.00013676182425115258,0.9313359260559082
59.85639900,59856399,2,0.36415308713912964,-0.003902651136741042,-0.00013287844194564968,0.9313309192657471
59.95639300,59956393,2,0.36418595910072327,-0.0038835115265101194,-0.00013985879195388407,0.9313181638717651
60.05641500,60056415,2,0.36423057317733765,-0.003913696855306625,-0.0001222468272317201,0.9313005805015564
60.15641800,60156418,2,0.3643215000629425,-0.003852174151688814,-0.0001317957794526592,0.9312652349472046
60.25642000,60256420,2,0.36433640122413635,-0.0038427230902016163,-0.0001255088864127174,0.9312594532966614
60.35644400,60356444,2,0.3643317222595215,-0.0037709781900048256,-9.979096648748964e-05,0.9312615990638733
60.45645200,60456452,2,0.36431407928466797,-0.0037562581710517406,-7.732535596005619e-05,0.931268572807312
60.55645500,60556455,2,0.36431774497032166,-0.003779880004003644,-0.00011369436833774671,0.9312670230865479
60.65639500,60656395,2,0.364317923784256,-0.003762723645195365,-0.00010283228766638786,0.9312670230865479
60.75639400,60756394,2,0.36433145403862,-0.0037284744903445244,-8.116614480968565e-05,0.9312618970870972
60.85639900,60856399,2,0.36431795358657837,-0.0036737138871103525,-6.53850074741058e-05,0.9312673807144165
60.95640800,60956408,2,0.364343523979187,-0.0036520676221698523,-8.498014358337969e-05,0.9312574863433838
61.05639300,61056393,2,0.3643608093261719,-0.0036517814733088017,-6.929221126483753e-05,0.9312506914138794
61.15641700,61156417,2,0.36432287096977234,-0.0036347047425806522,-7.116167398635298e-05,0.9312655925750732
61.25645100,61256451,2,0.3642880320549011,-0.0036287575494498014,-7.074914901750162e-05,0.9312792420387268
61.35645600,61356456,2,0.3642844259738922,-0.003583876881748438,-6.905991904204711e-05,0.9312808513641357
61.45645500,61456455,2,0.3642432987689972,-0.0035742949694395065,-2.319077066204045e-05,0.9312969446182251
61.55640000,61556400,2,0.3642100691795349,-0.0035778761375695467,-2.699009382922668e-05,0.9313099384307861
61.65639400,61656394,2,0.36422768235206604,-0.0035856652539223433,2.0442028471734375e-05,0.9313030242919922
61.75639400,61756394,2,0.3641703128814697,-0.003538827644661069,-3.284792182967067e-05,0.9313256740570068
61.85641000,61856410,2,0.36413639783859253,-0.0035408088006079197,-9.297939868702088e-06,0.931338906288147
61.95639300,61956393,2,0.3641122579574585,-0.003521360456943512,-2.4505177862010896e-05,0.9313483834266663
62.05641100,62056411,2,0.36409327387809753,-0.003591947490349412,4.678688492276706e-05,0.9313555955886841
62.15645100,62156451,2,0.3639930486679077,-0.0036074721720069647,2.2905613150214776e-05,0.9313946962356567
62.25645200,62256452,2,0.36390912532806396,-0.003629883751273155,2.4762524844845757e-05,0.9314273595809937
62.35645200,62356452,2,0.3638584315776825,-0.0036474724765866995,2.1838213797309436e-05,0.9314470887184143
62.45639600,62456396,2,0.3638544976711273,-0.003640952752903104,-2.4330143787665293e-05,0.9314486980438232
62.55639300,62556393,2,0.36380302906036377,-0.003647066652774811,-9.695618791738525e-05,0.9314687848091125
62.65639400,62656394,2,0.36380064487457275,-0.0035888173151761293,-0.00010973258031299338,0.9314699172973633
62.75641900,62756419,2,0.3637695908546448,-0.0035000997595489025,-0.00013283001317176968,0.9314823746681213
62.85639600,62856396,2,0.36376574635505676,-0.00351039320230484,-0.00012383041030261666,0.9314838647842407
62.95641800,62956418,2,0.36378318071365356,-0.0034593292511999607,-0.00015595612057950348,0.9314771890640259
63.05644600,63056446,2,0.3637681305408478,-0.0034466846846044064,-0.00014942949928808957,0.9314831495285034
63.15645400,63156454,2,0.3638257682323456,-0.0034444944467395544,-0.00017525798466522247,0.9314606189727783
63.25645700,63256457,2,0.3638547658920288,-0.0034011153038591146,-0.0001688994962023571,0.9314494729042053
63.35639400,63356394,2,0.36381444334983826,-0.0034068753011524677,-0.00016986610717140138,0.931465208530426
63.45640600,63456406,2,0.3638322055339813,-0.003396005602553487,-0.00019041550694964826,0.9314582943916321
63.55640200,63556402,2,0.3638344407081604,-0.0033593398984521627,-0.0002400246012257412,0.93145751953125
63.65640700,63656407,2,0.3638117015361786,-0.0033841661643236876,-0.0002788908313959837,0.9314663410186768
63.75639400,63756394,2,0.3638005554676056,-0.003338438691571355,-0.0002635980781633407,0.9314708709716797
63.85641700,63856417,2,0.3638279139995575,-0.0033690561540424824,-0.000268517091171816,0.9314600825309753
63.95644600,63956446,2,0.36380085349082947,-0.0033693332225084305,-0.00028883121558465064,0.9314706325531006
64.05645900,64056459,2,0.36382630467414856,-0.0033794823102653027,-0.0002794254687614739,0.9314606189727783
64.15645700,64156457,2,0.3638785779476166,-0.0034275490324944258,-0.00029343305504880846,0.9314400553703308
64.25639400,64256394,2,0.363939106464386,-0.003427065908908844,-0.0003159230400342494,0.931416392326355
64.35639300,64356393,2,0.3640080690383911,-0.003431031247600913,-0.0003386366879567504,0.9313893914222717
64.45640200,64456402,2,0.36401307582855225,-0.003418377134948969,-0.0002973282535094768,0.9313875436782837
64.55639600,64556396,2,0.3640083968639374,-0.0034069318789988756,-0.00027491559740155935,0.9313893914222717
64.65639300,64656393,2,0.3640247583389282,-0.003391202539205551,-0.00026428818819113076,0.9313830733299255
64.75642200,64756422,2,0.3639671206474304,-0.0034280430991202593,-0.000286355905700475,0.9314054250717163
64.85645300,64856453,2,0.36395373940467834,-0.0034365402534604073,-0.0002657059230841696,0.9314106702804565
64.95646800,64956468,2,0.3639294505119324,-0.0034344273153692484,-0.00027619264437817037,0.9314201474189758
65.05645500,65056455,2,0.363878458738327,-0.0034973393194377422,-0.0002890355826821178,0.9314398169517517
65.15640400,65156404,2,0.36385199427604675,-0.0034786087926477194,-0.000308394170133397,0.9314502477645874
65.25639600,65256396,2,0.3638499975204468,-0.0034775130916386843,-0.00030704718665219843,0.9314510226249695
65.35639400,65356394,2,0.36386924982070923,-0.003458089893683791,-0.00034392031375318766,0.9314435720443726
65.45639600,65456396,2,0.3638865351676941,-0.00343211367726326,-0.0003693720791488886,0.9314368963241577
65.55639900,65556399,2,0.36389729380607605,-0.0034427621867507696,-0.00038159010000526905,0.9314326643943787
65.65641100,65656411,2,0.36393144726753235,-0.0034423323813825846,-0.0004073492018505931,0.9314192533493042
65.75645500,65756455,2,0.3639555871486664,-0.0034365439787507057,-0.00044310459634289145,0.9314098358154297
65.85645200,65856452,2,0.3640264868736267,-0.0034409891813993454,-0.0004542195238173008,0.9313821196556091
65.95645000,65956450,2,0.3640269637107849,-0.003440995467826724,-0.00046776860835962,0.9313819408416748
66.05639900,66056399,2,0.364020973443985,-0.003389635356143117,-0.00045261558261699975,0.9313845038414001
66.15639700,66156397,2,0.3639962375164032,-0.0034048480447381735,-0.00040752789936959743,0.931394100189209
66.25639300,66256393,2,0.3639931082725525,-0.0034108939580619335,-0.00048224706551991403,0.9313952922821045
66.35639300,66356393,2,0.3640075623989105,-0.0034303374122828245,-0.0004833541461266577,0.931389570236206
