timestamp,TimeUS,C,Roll,Pitch,Yaw,VN,VE,VD,dPD,PN,PE,PD,GX,GY,GZ,OH
9.45641100,9456411,2,0.0,0.0,0.0,0.0,0.0,0.0,0.0,0.0,0.0,0.0,0.0,0.0,0.0,0.0
9.55641500,9556415,2,0.0,0.0,0.0,0.0,0.0,0.0,0.0,0.0,0.0,0.0,0.0,0.0,0.0,0.0
9.65641800,9656418,2,0.0,0.0,0.0,0.0,0.0,0.0,0.0,0.0,0.0,0.0,0.0,0.0,0.0,0.0
9.75642100,9756421,2,0.0,0.0,0.0,0.0,0.0,0.0,0.0,0.0,0.0,0.0,0.0,0.0,0.0,0.0
9.85642400,9856424,2,0.0,0.0,0.0,0.0,0.0,0.0,0.0,0.0,0.0,0.0,0.0,0.0,0.0,0.0
9.95647500,9956475,2,0.0,0.0,0.0,0.0,0.0,0.0,0.0,0.0,0.0,0.0,0.0,0.0,0.0,0.0
10.05647600,10056476,2,0.0,0.0,0.0,0.0,0.0,0.0,0.0,0.0,0.0,0.0,0.0,0.0,0.0,0.0
10.15648400,10156484,2,0.0,0.0,0.0,0.0,0.0,0.0,0.0,0.0,0.0,0.0,0.0,0.0,0.0,0.0
10.25640700,10256407,2,0.0,0.0,0.0,0.0,0.0,0.0,0.0,0.0,0.0,0.0,0.0,0.0,0.0,0.0
10.35640700,10356407,2,0.0,0.0,0.0,0.0,0.0,0.0,0.0,0.0,0.0,0.0,0.0,0.0,0.0,0.0
10.45642000,10456420,2,-0.06,0.46,359.99,0.00021351169561967254,0.0006157258758321404,0.017251446843147278,0.002610467141494155,0.0,0.0,0.0005924102733843029,0.0,0.0,0.0,0.0
10.55641500,10556415,2,-0.05,0.46,359.99,-0.00021716694755014032,0.001203301246277988,0.06045365706086159,0.03085743449628353,0.0,0.0,0.004437824245542288,0.0,0.0,0.0,0.0
10.65640800,10656408,2,-0.05,0.46,359.99,-0.001743994769640267,0.0017543011344969273,0.10348622500896454,-0.31010329723358154,0.0,0.0,-0.036412402987480164,0.0,0.0,0.0,0.0
10.75641500,10756415,2,-0.05,0.46,359.99,-0.0023531268816441298,0.002178352791815996,0.13298718631267548,-0.373408704996109,0.0,0.0,-0.06379320472478867,0.0,0.0,0.0,0.0
10.85646500,10856465,2,-0.06,0.46,359.99,-0.0031485771760344505,0.0014920512912794948,0.1524278223514557,-0.2655342221260071,0.0,0.0,-0.08283033221960068,0.0,0.0,0.0,0.0
10.95647600,10956476,2,-0.06,0.45,359.99,-0.003652201732620597,0.0018783677369356155,0.16440777480602264,-0.15450087189674377,0.0,0.0,-0.09647123515605927,0.0,0.0,0.0,0.0
11.05646900,11056469,2,-0.06,0.46,359.99,-0.0038322084583342075,0.0025071678683161736,0.1694670170545578,-0.08645515143871307,0.0,0.0,-0.10586261749267578,0.0,0.0,0.0,0.0
11.15641600,11156416,2,-0.06,0.45,359.99,-0.002842736430466175,0.002588336355984211,0.17226292192935944,-0.04644715413451195,0.0,0.0,-0.11253563314676285,0.0,0.0,0.0,0.0
11.25641300,11256413,2,-0.06,0.45,359.99,-0.00298853637650609,0.003003084333613515,0.17110593616962433,-0.06437293440103531,0.0,0.0,-0.12231872975826263,0.0,0.0,0.0,0.0
11.35641200,11356412,2,-0.07,0.46,0.0,-0.0038648450281471014,0.002878844039514661,0.16977210342884064,-0.03887225687503815,0.0,0.0,-0.12480838596820831,0.0,0.0,0.0,0.0
11.45643800,11456438,2,-0.07,0.46,359.99,-0.0023177354596555233,0.0020778614562004805,0.16826023161411285,0.04604557901620865,0.0,0.0,-0.12057296186685562,0.0,0.0,0.0,0.0
11.55640800,11556408,2,-0.07,0.46,359.99,-0.0021310101728886366,0.0011311868438497186,0.16619308292865753,0.0857025533914566,0.0,0.0,-0.11496462672948837,0.0,0.0,0.0,0.0
11.65641800,11656418,2,-0.07,0.46,359.99,-0.0024147985968738794,6.134566501714289e-05,0.16299916803836823,0.06984882801771164,0.0,0.0,-0.10980120301246643,0.0,0.0,0.0,0.0
11.75645800,11756458,2,-0.07,0.46,359.99,-0.00253462977707386,-0.00095722934929654,0.1573771834373474,0.022767124697566032,0.0,0.0,-0.10898392647504807,0.0,0.0,0.0,0.0
11.85648900,11856489,2,-0.07,0.45,359.99,-0.0015095510752871633,-0.0012473083334043622,0.14955958724021912,-0.023016436025500298,0.0,0.0,-0.11095167696475983,0.0,0.0,0.0,0.0
11.95646400,11956464,2,-0.07,0.45,131.98,-0.001313807093538344,-0.0010531811276450753,0.14096392691135406,-0.044847652316093445,0.0,0.0,-0.11398583650588989,0.0,0.0,0.0,0.0
12.05641000,12056410,2,-0.08,0.44,132.23,0.00018311919120606035,-0.0005028303130529821,0.1316826045513153,-0.058307401835918427,0.0,0.0,-0.11873900145292282,0.0,0.0,0.0,0.0
12.15642000,12156420,2,-0.08,0.45,132.73,0.0002682566409930587,0.0005068710306659341,0.12254206091165543,-0.0719185397028923,0.0,0.0,-0.12478788942098618,0.0,0.0,0.0,0.0
12.25641400,12256414,2,-0.06,0.45,133.38,-0.00015144348435569555,0.0002870917378459126,0.11476781964302063,-0.06334242969751358,0.0,0.0,-0.1299152672290802,0.0,0.0,0.0,0.0
12.35641500,12356415,2,-0.06,0.45,134.03,-0.0003353204228915274,-0.0002480375114828348,0.10504874587059021,-0.09796410799026489,0.0,0.0,-0.14035451412200928,0.0,0.0,-0.01,0.0
12.45641100,12456411,2,-0.05,0.46,134.58,-0.0010631370823830366,-0.0006808044272474945,0.0922904685139656,-0.16440019011497498,0.0,0.0,-0.1556418389081955,0.0,0.0,-0.01,0.0
12.55642800,12556428,2,-0.05,0.46,134.98,-0.0013894039439037442,-0.001443686312995851,0.07965655624866486,-0.20222456753253937,0.0,0.0,-0.17386718094348907,0.0,0.0,-0.01,0.0
12.65645700,12656457,2,-0.05,0.46,135.26,-0.0015966275241225958,-0.002335544675588608,0.0690988227725029,-0.18761314451694489,0.0,0.0,-0.18974709510803223,0.0,0.0,-0.01,0.0
12.75646800,12756468,2,-0.04,0.46,135.47,-0.000948077708017081,-0.002464230637997389,0.05924985930323601,-0.16841980814933777,0.0,0.0,-0.2060304880142212,0.0,0.0,-0.02,0.0
12.85646300,12856463,2,-0.05,0.46,135.62,-0.0009583465871401131,-0.0025064919609576464,0.04949778690934181,-0.15529422461986542,0.0,0.0,-0.2206888198852539,0.0,0.0,-0.02,0.0
12.95642700,12956427,2,-0.05,0.46,135.73,-0.0011543206637725234,-0.0033706198446452618,0.04042726755142212,-0.12142346054315567,0.0,0.0,-0.2327091246843338,0.0,0.0,-0.03,0.0
13.05641700,13056417,2,-0.05,0.46,135.81,-0.0017424970865249634,-0.0038530572783201933,0.03362279757857323,-0.10235735028982162,0.0,0.0,-0.24383050203323364,0.0,0.0,-0.03,0.0
13.15641600,13156416,2,-0.05,0.46,135.87,-0.001560523989610374,-0.004321714397519827,0.026899978518486023,-0.08926954120397568,0.0,0.0,-0.25338757038116455,0.0,0.0,-0.04,0.0
13.25641800,13256418,2,-0.05,0.46,135.93,-0.0018132125260308385,-0.0039777192287147045,0.022178681567311287,-0.0513947494328022,0.0,0.0,-0.25890442728996277,0.0,0.0,-0.04,0.0
13.35640500,13356405,2,-0.05,0.47000000000000003,135.99,-0.0015629702247679234,-0.0042339772917330265,0.019424207508563995,0.0013818226289004087,0.0,0.0,-0.25992441177368164,0.0,0.0,-0.04,0.0
13.45642000,13456420,2,-0.05,0.48,136.03,-0.00030293548479676247,-0.0041586426086723804,0.016958853229880333,0.0227984469383955,0.0,0.0,-0.25999364256858826,0.0,0.0,-0.04,0.0
13.55646500,13556465,2,-0.05,0.48,136.07,0.0007693986408412457,-0.004468562547117472,0.015113533474504948,0.02286347933113575,0.0,0.0,-0.25938543677330017,0.0,0.0,-0.05,0.0
13.65646500,13656465,2,-0.06,0.48,136.1,0.0017606851179152727,-0.0059186918660998344,0.011557202786207199,-0.006936226971447468,0.0,0.0,-0.2618253231048584,0.0,0.0,-0.05,0.0
13.75646400,13756464,2,-0.06,0.48,136.15,0.002640716265887022,-0.006149230059236288,0.006499411538243294,-0.06883115321397781,0.0,0.0,-0.26906052231788635,0.0,0.0,-0.06,0.0
13.85642600,13856426,2,-0.06,0.48,136.2,0.0025506026577204466,-0.006453768350183964,-0.0004984381957910955,-0.11831379681825638,0.0,0.0,-0.2795998156070709,0.0,0.0,-0.06,0.0
13.95641700,13956417,2,-0.07,0.48,136.23,0.0024135385174304247,-0.0073622181080281734,-0.007103376090526581,-0.13183289766311646,0.0,0.0,-0.29062169790267944,0.0,0.0,-0.06,0.0
14.05641700,14056417,2,-0.07,0.48,136.27,0.00383831188082695,-0.007325102109462023,-0.0121134202927351,-0.09924694150686264,0.0,0.0,-0.2985510528087616,0.0,0.0,-0.07,0.0
14.15642200,14156422,2,-0.07,0.48,136.32,0.004179620649665594,-0.006735003553330898,-0.016945447772741318,-0.07024005800485611,0.0,0.0,-0.3055734634399414,0.0,0.0,-0.08,0.0
14.25640400,14256404,2,-0.07,0.48,136.37,0.004132505040615797,-0.007087422534823418,-0.02255905233323574,-0.09495369344949722,0.0,0.0,-0.3161994516849518,0.0,0.0,-0.09,0.0
14.35642100,14356421,2,-0.08,0.48,136.43,0.0044229282066226006,-0.007281136699020863,-0.025401268154382706,-0.08199997246265411,0.0,0.0,-0.32304394245147705,0.0,0.0,-0.09,0.0
14.45646400,14456464,2,-0.09,0.48,136.48,0.004973268136382103,-0.006810781545937061,-0.028427772223949432,-0.0461951307952404,0.0,0.0,-0.32817307114601135,0.0,0.0,-0.1,0.0
14.55647700,14556477,2,-0.09,0.48,136.47,0.005618041846901178,-0.006725050508975983,-0.030860383063554764,-0.037603698670864105,0.0,0.0,-0.3326370418071747,0.0,0.0,-0.05,0.0
14.65646100,14656461,2,-0.1,0.47000000000000003,136.29,0.005958163645118475,-0.0075076185166835785,-0.031044842675328255,-0.00449636485427618,0.0,0.0,-0.33340832591056824,0.0,0.01,0.12,0.0
14.75641500,14756415,2,-0.09,0.47000000000000003,135.93,0.0054464396089315414,-0.006722019985318184,-0.032900094985961914,-0.014015342108905315,0.0,0.0,-0.33692121505737305,0.0,0.01,0.19,0.0
14.85641200,14856412,2,-0.09,0.46,135.57,0.005946439225226641,-0.006741367280483246,-0.03698579594492912,-0.05717043951153755,0.0,0.0,-0.34299156069755554,0.0,0.01,0.18,0.0
14.95641600,14956416,2,-0.09,0.46,135.27,0.006855641957372427,-0.006377964746206999,-0.03888911381363869,-0.06184769421815872,0.0,0.0,-0.34840404987335205,0.0,0.01,0.16,0.0
15.05641800,15056418,2,-0.09,0.45,135.09,0.00729732122272253,-0.006398497149348259,-0.03845189884305,-0.010643870569765568,0.0,0.0,-0.3481786251068115,0.0,0.01,0.15,0.0
15.15640800,15156408,2,-0.09,0.45,135.01,0.007206914480775595,-0.005228943191468716,-0.03607427701354027,0.040698613971471786,0.0,0.0,-0.34540244936943054,0.0,0.01,0.12,0.0
15.25642200,15256422,2,-0.09,0.44,135.02,0.007157422602176666,-0.005097072571516037,-0.035693466663360596,0.02526221238076687,0.0,0.0,-0.34506818652153015,0.0,0.01,0.11,0.0
15.35646400,15356464,2,-0.09,0.44,135.08,0.006978707853704691,-0.005001788027584553,-0.03706950321793556,-0.011166689917445183,0.0,0.0,-0.34683021903038025,0.0,0.02,0.09,0.0
15.45647000,15456470,2,-0.09,0.43,135.15,0.005917686503380537,-0.0038404923398047686,-0.041670139878988266,-0.07365228235721588,0.0,0.0,-0.3546495735645294,0.0,0.02,0.08,0.0
15.55646800,15556468,2,-0.1,0.43,135.23,0.005477962549775839,-0.0032655263785272837,-0.04512463137507439,-0.10458439588546753,0.0,0.0,-0.36270013451576233,0.0,0.02,0.07,0.0
15.65641900,15656419,2,-0.09,0.42,135.31,0.00556061090901494,-0.0032952723558992147,-0.04912227764725685,-0.0905754491686821,0.0,0.0,-0.3702532947063446,0.0,0.02,0.05,0.0
15.75641800,15756418,2,-0.09,0.41000000000000003,135.4,0.004786421544849873,-0.0035591144114732742,-0.05193052440881729,-0.08605723828077316,0.0,0.0,-0.37814295291900635,0.0,0.02,0.02,0.0
15.85642000,15856420,2,-0.09,0.41000000000000003,135.48,0.003830766072496772,-0.0023641646839678288,-0.053002189844846725,-0.06126300245523453,0.0,0.0,-0.38351327180862427,0.0,0.02,0.02,0.0
15.95643900,15956439,2,-0.09,0.4,135.56,0.003440998960286379,-0.0018339169910177588,-0.05236846208572388,-0.006020409986376762,0.0,0.0,-0.3839116096496582,0.0,0.02,0.0,0.0
16.05640900,16056409,2,-0.09,0.39,135.64000000000001,0.0030578048899769783,-0.0010544173419475555,-0.0532471127808094,-0.004795726854354143,0.0,0.0,-0.3868497610092163,0.0,0.02,-0.01,0.0
16.15642200,16156422,2,-0.09,0.39,135.72,0.0020480097737163305,0.0001960124500328675,-0.05474788695573807,-0.04114948958158493,0.0,0.0,-0.39160871505737305,0.0,0.02,-0.04,0.0
16.25646000,16256460,2,-0.09,0.39,135.81,0.0005650857929140329,0.0011728610843420029,-0.055220428854227066,-0.0383104644715786,0.0,0.0,-0.39474329352378845,0.0,0.02,-0.05,0.0
16.35646700,16356467,2,-0.08,0.38,135.89000000000001,-0.0001932246086653322,0.0021999848540872335,-0.053642790764570236,0.0004942522500641644,0.0,0.0,-0.39395594596862793,0.0,0.02,-0.06,0.0
16.45646800,16456468,2,-0.08,0.38,135.95,-0.0008323679794557393,0.002208900637924671,-0.052535515278577805,0.03124227188527584,0.0,0.0,-0.39204561710357666,0.0,0.03,-0.06,0.0
16.55642300,16556423,2,-0.07,0.38,136.01,-0.0024870361667126417,0.0031609097495675087,-0.05158277228474617,0.014042509719729424,0.0,0.0,-0.3924832344055176,0.0,0.03,-0.07,0.0
16.65641500,16656415,2,-0.07,0.38,136.06,-0.002867471193894744,0.0037018628790974617,-0.05115416273474693,0.0001623879070393741,0.0,0.0,-0.3923754394054413,0.0,0.03,-0.09,0.0
16.75642100,16756421,2,-0.08,0.38,136.13,-0.0036700533237308264,0.005697315558791161,-0.050557736307382584,0.007693248800933361,0.0,0.0,-0.3917078673839569,0.0,0.03,-0.09,0.0
16.85641700,16856417,2,-0.07,0.38,136.18,-0.005100843030959368,0.006972223520278931,-0.050172578543424606,-0.008663196116685867,0.0,0.0,-0.39336878061294556,0.0,0.03,-0.1,0.0
16.95640400,16956404,2,-0.06,0.37,136.22,-0.00536931399255991,0.007374695036560297,-0.051662836223840714,-0.04797685518860817,0.0,0.0,-0.3983125388622284,0.0,0.03,-0.1,0.0
17.05643400,17056434,2,-0.07,0.37,136.26,-0.006364514119923115,0.007828646339476109,-0.05237140879034996,-0.052661553025245667,0.0,0.0,-0.40175360441207886,0.0,0.02,-0.1,0.0
17.15646000,17156460,2,-0.07,0.37,136.3,-0.006817796267569065,0.007709368597716093,-0.05116092413663864,-0.015901358798146248,0.0,0.0,-0.4023064374923706,0.0,0.02,-0.12,0.0
17.25646300,17256463,2,-0.07,0.37,136.33,-0.007205233909189701,0.008550270460546017,-0.051198214292526245,-0.012507446110248566,0.0,0.0,-0.40479058027267456,0.0,0.02,-0.12,0.0
17.35646000,17356460,2,-0.07,0.38,136.37,-0.007173782214522362,0.008413508534431458,-0.051828641444444656,-0.03638987988233566,0.0,0.0,-0.4086194932460785,0.0,0.02,-0.12,0.0
17.45641200,17456412,2,-0.06,0.38,136.27,-0.007752796169370413,0.008031218312680721,-0.05224189907312393,-0.044651228934526443,0.0,0.0,-0.412815660238266,0.0,0.02,0.06,0.0
17.55641800,17556418,2,-0.07,0.38,135.95,-0.007896366529166698,0.007868011482059956,-0.05313706398010254,-0.044250890612602234,0.0,0.0,-0.41669076681137085,0.0,0.02,0.2,0.0
17.65641500,17656415,2,-0.07,0.39,135.56,-0.008598421700298786,0.007158108055591583,-0.05193841829895973,-0.004735680762678385,0.0,0.0,-0.4159316122531891,0.0,0.02,0.17,0.0
17.75641400,17756414,2,-0.06,0.38,135.26,-0.008845056407153606,0.0056705656461417675,-0.04956835135817528,0.034858234226703644,0.0,0.0,-0.4137464463710785,0.0,0.02,0.15,0.0
17.85641400,17856414,2,-0.07,0.39,135.07,-0.00699241179972887,0.005422730464488268,-0.04684779420495033,0.034378934651613235,0.0,0.0,-0.4118274748325348,0.0,0.02,0.13,0.0
17.95642400,17956424,2,-0.07,0.38,134.97,-0.005656200926750898,0.004998468328267336,-0.044340524822473526,0.04688356816768646,0.0,0.0,-0.4074312448501587,0.0,0.02,0.12,0.0
18.05646800,18056468,2,-0.07,0.41000000000000003,134.96,-0.0016030131373554468,0.002444871934130788,-0.04203907400369644,0.04991104081273079,0.0,0.0,-0.40393149852752686,0.0,0.02,0.1,0.0
18.15646500,18156465,2,-0.08,0.42,135.02,-0.008654380217194557,0.0068777394481003284,-0.040703289210796356,0.015439667738974094,0.0,0.0,-0.40350502729415894,0.0,0.02,0.08,0.0
18.25647200,18256472,2,-0.08,0.42,135.12,-0.008028275333344936,0.006201958749443293,-0.038013357669115067,0.019688287749886513,0.0,0.0,-0.40016037225723267,0.0,0.02,0.06,0.0
18.35641000,18356410,2,-0.07,0.41000000000000003,135.22,-0.006570661440491676,0.004232709761708975,-0.034645725041627884,0.062049832195043564,0.0,0.0,-0.39387136697769165,0.0,0.02,0.05,0.0
18.45642000,18456420,2,-0.08,0.42,135.31,-0.00693706888705492,0.002942404942587018,-0.029944323003292084,0.07931645959615707,0.0,0.0,-0.3872090280056,0.0,0.02,0.04,0.0
18.55641300,18556413,2,-0.08,0.42,135.4,-0.00782143883407116,0.003479849547147751,-0.024590855464339256,0.09648950397968292,0.0,0.0,-0.3781352937221527,0.0,0.02,0.03,0.0
18.65641200,18656412,2,-0.08,0.42,135.49,-0.00315456697717309,0.001617400674149394,-0.021208185702562332,0.08874279260635376,0.0,0.0,-0.3712594509124756,0.0,0.02,0.01,0.0
18.75640800,18756408,2,-0.08,0.43,135.57,-0.006858589593321085,0.0026272281538695097,-0.019000153988599777,0.043629180639982224,0.0,0.0,-0.3676524758338928,0.0,0.02,0.0,0.0
18.85642900,18856429,2,-0.09,0.43,135.64000000000001,-0.00763043062761426,0.0028831392992287874,-0.018638066947460175,0.00711163692176342,0.0,0.0,-0.3664909601211548,0.0,0.02,0.0,0.0
18.95647200,18956472,2,-0.08,0.43,135.71,-0.005413588602095842,0.0009321895777247846,-0.01817174255847931,-0.012175156734883785,0.0,0.0,-0.3664095103740692,0.0,0.02,-0.01,0.0
19.05647600,19056476,2,-0.08,0.43,135.77,-0.006880974862724543,0.0016110538272187114,-0.01888706535100937,-0.04047686979174614,0.0,0.0,-0.3701827824115753,0.0,0.02,-0.03,0.0
19.15646900,19156469,2,-0.09,0.43,135.84,-0.008497779257595539,0.0038104907143861055,-0.021188130602240562,-0.0674680843949318,0.0,0.0,-0.374994158744812,0.0,0.02,-0.03,0.0
19.25640300,19256403,2,-0.08,0.42,135.89000000000001,-0.0014934270875528455,0.000933079922106117,-0.01943998411297798,-0.03717421367764473,0.0,0.0,-0.37663158774375916,0.0,0.01,-0.04,0.0
19.35640500,19356405,2,-0.08,0.41000000000000003,135.94,-0.01670205220580101,0.009259916841983795,-0.020053841173648834,-0.0076478212140500546,0.0,0.0,-0.37737515568733215,0.0,0.01,-0.04,0.0
19.45641600,19456416,2,-0.08,0.41000000000000003,135.9,0.0030036659445613623,0.0019847180228680372,-0.020315907895565033,-0.03305094689130783,0.0,0.0,-0.38208797574043274,0.0,0.01,0.04,0.0
19.55642100,19556421,2,-0.08,0.41000000000000003,135.67000000000002,-0.007946104742586613,0.006685247644782066,-0.022583823651075363,-0.05505240708589554,0.0,0.0,-0.3864472210407257,0.0,0.01,0.19,0.0
19.65641300,19656413,2,-0.08,0.43,135.21,-0.0038077919743955135,0.0054779937490820885,-0.023431850597262383,-0.03707839176058769,0.0,0.0,-0.3893948495388031,0.0,0.01,0.32,0.0
19.75641800,19756418,2,-0.07,0.41000000000000003,134.56,0.0007618264062330127,0.0038434448651969433,-0.024587130174040794,-0.03393425792455673,0.0,0.0,-0.3930111229419708,0.0,0.01,0.46,0.0
19.85647300,19856473,2,-0.07,0.42,133.79,-0.006645540706813335,0.006490570958703756,-0.025198573246598244,-0.023037709295749664,0.0,0.0,-0.3946937620639801,0.0,0.01,0.58,0.0
19.95646800,19956468,2,-0.08,0.42,133.02,1.5819989130250178e-05,0.003277464536949992,-0.02253715880215168,0.03752845898270607,0.0,0.0,-0.39006948471069336,0.0,0.01,0.63,0.0
20.05646400,20056464,2,-0.08,0.41000000000000003,132.4,-0.002576820319518447,0.004217806272208691,-0.01731845550239086,0.1271955668926239,0.0,0.0,-0.37742799520492554,0.0,0.01,0.59,0.0
20.15641500,20156415,2,-0.09,0.43,132.0,-0.0036136198323220015,0.005169467069208622,-0.011887237429618835,0.16053889691829681,0.0,0.0,-0.36606565117836,0.0,0.01,0.56,0.0
20.25640600,20256406,2,-0.09,0.42,131.84,0.0004710259090643376,0.003976292442530394,-0.008312974125146866,0.1279265284538269,0.0,0.0,-0.3554656207561493,0.0,0.01,0.53,0.0
20.35640500,20356405,2,-0.09,0.42,131.84,-0.00252690096385777,0.005608038976788521,-0.00545995170250535,0.1147686243057251,0.0,0.0,-0.3452480733394623,0.0,0.01,0.5,0.0
20.45643900,20456439,2,-0.09,0.42,131.95,-0.0005272371927276254,0.005083110183477402,-0.002400275319814682,0.08785945922136307,0.0,0.0,-0.337352454662323,0.0,0.01,0.47000000000000003,0.0
20.55641300,20556413,2,-0.09,0.42,132.12,0.0013268659822642803,0.004973717499524355,0.0005325761158019304,0.061297740787267685,0.0,0.0,-0.33116018772125244,0.0,0.01,0.44,0.0
20.65642400,20656424,2,-0.09,0.43,132.32,0.00045265082735568285,0.0053087095730006695,0.002224699128419161,0.03747164085507393,0.0,0.0,-0.3269709646701813,0.0,0.01,0.41000000000000003,0.0
20.75645800,20756458,2,-0.1,0.43,132.53,0.0033549426589161158,0.005195001605898142,0.003519269172102213,0.031268320977687836,0.0,0.0,-0.3225778043270111,0.0,0.01,0.38,0.0
20.85646200,20856462,2,-0.1,0.43,132.72,0.004343562293797731,0.005163880065083504,0.004691008478403091,0.03850719705224037,0.0,0.0,-0.31797701120376587,0.0,0.01,0.35000000000000003,0.0
20.95646300,20956463,2,-0.1,0.43,132.89000000000001,0.004003980662673712,0.006950658280402422,0.004446181934326887,0.008475304581224918,0.0,0.0,-0.3178828954696655,0.0,0.01,0.34,0.0
21.05640900,21056409,2,-0.11,0.43,133.03,0.005325415637344122,0.006457234267145395,0.004631266463547945,-0.020329385995864868,0.0,0.0,-0.31875425577163696,0.0,0.01,0.32,0.0
21.15640800,21156408,2,-0.11,0.44,133.15,0.006005263887345791,0.0062555912882089615,0.005739687010645866,0.009512189775705338,0.0,0.0,-0.31562888622283936,0.0,0.01,0.3,0.0
21.25640500,21256405,2,-0.11,0.44,133.25,0.005247840657830238,0.006437669508159161,0.007538348902016878,0.028585879132151604,0.0,0.0,-0.31345200538635254,0.0,0.01,0.28,0.0
21.35641900,21356419,2,-0.11,0.44,133.35,0.006706721615046263,0.0053046345710754395,0.0066509004682302475,-0.036036960780620575,0.0,0.0,-0.3190534710884094,0.0,0.01,0.26,0.0
21.45641900,21456419,2,-0.11,0.44,133.44,0.0067458683624863625,0.005812226328998804,0.004243673291057348,-0.09881199896335602,0.0,0.0,-0.32728326320648193,0.0,0.01,0.25,0.0
21.55643400,21556434,2,-0.11,0.45,133.53,0.006396903190761805,0.005997833795845509,0.001100365654565394,-0.12756970524787903,0.0,0.0,-0.3381987512111664,0.0,0.01,0.23,0.0
21.65645800,21656458,2,-0.11,0.44,133.61,0.007184986490756273,0.0051238760352134705,-0.00288360845297575,-0.13282708823680878,0.0,0.0,-0.34895309805870056,0.0,0.01,0.21,0.0
21.75646500,21756465,2,-0.11,0.45,133.71,0.007812933064997196,0.004878751002252102,-0.005220822524279356,-0.09961556643247604,0.0,0.0,-0.35676661133766174,0.0,0.01,0.19,0.0
21.85646800,21856468,2,-0.11,0.45,133.82,0.007584703154861927,0.004280877765268087,-0.007835381664335728,-0.10391462594270706,0.0,0.0,-0.3681829273700714,0.0,0.01,0.18,0.0
21.95640400,21956404,2,-0.11,0.45,133.92000000000002,0.008676018565893173,0.002838241634890437,-0.009987805038690567,-0.08317387104034424,0.0,0.0,-0.3744533061981201,0.0,0.01,0.16,0.0
22.05640800,22056408,2,-0.11,0.45,134.01,0.00937983300536871,0.0017993473447859287,-0.010591053403913975,-0.024758361279964447,0.0,0.0,-0.37697136402130127,0.0,0.01,0.15,0.0
22.15641200,22156412,2,-0.11,0.45,134.09,0.009791163727641106,0.0018290389562025666,-0.009419484995305538,0.022615032270550728,0.0,0.0,-0.3755126893520355,0.0,0.01,0.14,0.0
22.25642500,22256425,2,-0.11,0.46,134.18,0.010291355662047863,0.000552124110981822,-0.007968130521476269,0.03848053142428398,0.0,0.0,-0.3742372393608093,0.0,0.01,0.12,0.0
22.35640400,22356404,2,-0.11,0.46,134.27,0.00985462311655283,-0.0004946811823174357,-0.006603904068470001,0.04339013993740082,0.0,0.0,-0.37084829807281494,0.0,0.01,0.11,0.0
22.45643200,22456432,2,-0.11,0.46,134.35,0.00994172878563404,-0.0008375150500796735,-0.004659502301365137,0.06408806890249252,0.0,0.0,-0.3653274178504944,0.0,0.01,0.1,0.0
22.55646100,22556461,2,-0.11,0.47000000000000003,134.43,0.011273827403783798,-0.0015944516053423285,-0.002779961097985506,0.06491918116807938,0.0,0.0,-0.36051303148269653,0.0,0.01,0.09,0.0
22.65647300,22656473,2,-0.11,0.46,134.5,0.011717741377651691,-0.0013003333006054163,-0.0016171809984371066,0.0449802502989769,0.0,0.0,-0.3571147322654724,0.0,0.01,0.09,0.0
22.75646500,22756465,2,-0.11,0.47000000000000003,134.56,0.010896038264036179,-0.0014169049682095647,-0.0014209748478606343,0.028833165764808655,0.0,0.0,-0.35423919558525085,0.0,0.01,0.08,0.0
22.85640400,22856404,2,-0.11,0.47000000000000003,134.61,0.011014905758202076,-0.0021145383361727,0.0009695388143882155,0.03454873710870743,0.0,0.0,-0.35019728541374207,0.0,0.01,0.07,0.0
22.95640400,22956404,2,-0.1,0.47000000000000003,134.66,0.010793320834636688,-0.0035741995088756084,0.003114347578957677,0.05437814071774483,0.0,0.0,-0.34445735812187195,0.0,0.01,0.06,0.0
23.05641000,23056410,2,-0.1,0.46,134.71,0.011148435063660145,-0.003949134144932032,0.005314167123287916,0.04472919553518295,0.0,0.0,-0.3414527177810669,0.0,0.01,0.06,0.0
23.15641100,23156411,2,-0.11,0.47000000000000003,134.77,0.01075144112110138,-0.004377152305096388,0.0062455469742417336,0.016542132943868637,0.0,0.0,-0.3398592174053192,0.0,0.01,0.04,0.0
23.25640800,23256408,2,-0.1,0.48,134.84,0.010807237587869167,-0.0049309455789625645,0.006944537162780762,-0.005522146821022034,0.0,0.0,-0.34018272161483765,0.0,0.01,0.04,0.0
23.35641500,23356415,2,-0.11,0.47000000000000003,134.89000000000001,0.01109337992966175,-0.00526003073900938,0.008537215180695057,0.0001465144014218822,0.0,0.0,-0.3385995626449585,0.0,0.01,0.03,0.0
23.45646400,23456464,2,-0.1,0.47000000000000003,134.95,0.01152866892516613,-0.005979057867079973,0.008274519816040993,0.003977866377681494,0.0,0.0,-0.33839505910873413,0.0,0.01,0.03,0.0
23.55647400,23556474,2,-0.1,0.46,135.0,0.011866800487041473,-0.00569929787889123,0.008880265057086945,-0.0012129507958889008,0.0,0.0,-0.33807262778282166,0.0,0.01,0.02,0.0
23.65646200,23656462,2,-0.1,0.47000000000000003,135.06,0.0114644356071949,-0.005584212951362133,0.008933959528803825,-0.005490636453032494,0.0,0.0,-0.33864519000053406,0.0,0.01,0.01,0.0
23.75640700,23756407,2,-0.1,0.47000000000000003,135.12,0.011954085901379585,-0.005293342284858227,0.007619411218911409,-0.025383058935403824,0.0,0.0,-0.3412884771823883,0.0,0.01,0.0,0.0
23.85641100,23856411,2,-0.1,0.47000000000000003,135.18,0.012540336698293686,-0.005524983163923025,0.0068169548176229,-0.036495257169008255,0.0,0.0,-0.3441162109375,0.0,0.01,0.0,0.0
23.95640400,23956404,2,-0.1,0.48,135.24,0.012503497302532196,-0.005485170986503363,0.006325530353933573,-0.03385745733976364,0.0,0.0,-0.3468494415283203,0.0,0.01,0.0,0.0
24.05643700,24056437,2,-0.1,0.48,135.3,0.012665427289903164,-0.005423686932772398,0.006866360083222389,-0.020895030349493027,0.0,0.0,-0.3483075499534607,0.0,0.01,0.0,0.0
24.15642100,24156421,2,-0.09,0.48,135.36,0.013061126694083214,-0.005504867527633905,0.007194295059889555,0.0008857413195073605,0.0,0.0,-0.3479715585708618,0.0,0.01,-0.01,0.0
24.25643200,24256432,2,-0.09,0.48,135.41,0.013400557450950146,-0.006055344361811876,0.008829968050122261,0.03436581790447235,0.0,0.0,-0.3444308042526245,0.0,0.01,-0.02,0.0
24.35645600,24356456,2,-0.1,0.48,135.46,0.014296327717602253,-0.006533687934279442,0.008820755407214165,0.03141473978757858,0.0,0.0,-0.34343990683555603,0.0,0.01,-0.02,0.0
24.45646800,24456468,2,-0.09,0.48,135.52,0.014153378084301949,-0.007495096419006586,0.010439560748636723,-0.003011004999279976,0.0,0.0,-0.344705194234848,0.0,0.01,-0.03,0.0
24.55646400,24556464,2,-0.09,0.48,135.56,0.014124737121164799,-0.008215196430683136,0.011321510188281536,-0.030763864517211914,0.0,0.0,-0.3477049171924591,0.0,0.01,-0.03,0.0
24.65640400,24656404,2,-0.08,0.49,135.59,0.013813864439725876,-0.009278337471187115,0.010515441186726093,-0.04302642121911049,0.0,0.0,-0.35090959072113037,0.0,0.01,-0.03,0.0
24.75641200,24756412,2,-0.09,0.48,135.62,0.014036319218575954,-0.010421466082334518,0.010978594422340393,-0.029213842004537582,0.0,0.0,-0.35257887840270996,0.0,0.01,-0.04,0.0
24.85640800,24856408,2,-0.08,0.48,135.66,0.014886085875332355,-0.010000346228480339,0.01172078587114811,0.012742768041789532,0.0,0.0,-0.35012322664260864,0.0,0.01,-0.04,0.0
24.95641900,24956419,2,-0.09,0.49,135.7,0.015404440462589264,-0.010531307198107243,0.013206900097429752,0.053826458752155304,0.0,0.0,-0.3454079329967499,0.0,0.01,-0.04,0.0
25.05640900,25056409,2,-0.09,0.49,135.74,0.0159150417894125,-0.012178652919828892,0.01482870988547802,0.050268590450286865,0.0,0.0,-0.34256744384765625,0.0,0.01,-0.05,0.0
25.15642000,25156420,2,-0.09,0.49,135.78,0.01596207357943058,-0.012741684913635254,0.015829255804419518,0.025666268542408943,0.0,0.0,-0.34085166454315186,0.0,0.01,-0.05,0.0
25.25646000,25256460,2,-0.09,0.49,135.83,0.016124553978443146,-0.01301563624292612,0.015738343819975853,0.011392048560082912,0.0,0.0,-0.33967259526252747,0.0,0.01,-0.06,0.0
25.35645900,25356459,2,-0.09,0.5,135.88,0.016553154215216637,-0.014273026026785374,0.015730125829577446,0.006177103146910667,0.0,0.0,-0.33867138624191284,0.0,0.01,-0.06,0.0
25.45646600,25456466,2,-0.09,0.5,135.93,0.017211150377988815,-0.014614683575928211,0.01604573242366314,0.0021841786801815033,0.0,0.0,-0.33830687403678894,0.0,0.01,-0.06,0.0
25.55640800,25556408,2,-0.1,0.5,135.98,0.017618190497159958,-0.015674645081162453,0.017051642760634422,0.014585889875888824,0.0,0.0,-0.3359678387641907,0.0,0.02,-0.07,0.0
25.65640400,25656404,2,-0.09,0.5,136.03,0.018363626673817635,-0.015781279653310776,0.018032215535640717,0.01186972577124834,0.0,0.0,-0.3357454240322113,0.0,0.02,-0.08,0.0
25.75641200,25756412,2,-0.09,0.5,136.09,0.019067488610744476,-0.0159908514469862,0.018952885642647743,0.02540755458176136,0.0,0.0,-0.33187708258628845,0.0,0.02,-0.08,0.0
25.85641200,25856412,2,-0.09,0.51,136.14000000000001,0.019712163135409355,-0.01611144281923771,0.02036607824265957,0.04852689057588577,0.0,0.0,-0.32775962352752686,0.0,0.02,-0.08,0.0
25.95640500,25956405,2,-0.09,0.51,136.19,0.020233016461133957,-0.01653747633099556,0.021769680082798004,0.04560335725545883,0.0,0.0,-0.3239927291870117,0.0,0.02,-0.08,0.0
26.05644700,26056447,2,-0.09,0.51,136.22,0.021140599623322487,-0.015576989389955997,0.022073766216635704,0.032096318900585175,0.0,0.0,-0.3214268386363983,0.0,0.02,-0.08,0.0
26.15646500,26156465,2,-0.09,0.5,136.26,0.022061167284846306,-0.01537367608398199,0.02137354388833046,-0.0060380687937140465,0.0,0.0,-0.3224758207798004,0.0,0.02,-0.08,0.0
26.25646000,26256460,2,-0.08,0.5,136.28,0.022243117913603783,-0.01646754890680313,0.02107684686779976,-0.0439627431333065,0.0,0.0,-0.3258885443210602,0.0,0.02,-0.09,0.0
26.35646100,26356461,2,-0.08,0.5,136.31,0.021622013300657272,-0.0175522118806839,0.02118748612701893,-0.05043976381421089,0.0,0.0,-0.3292883336544037,0.0,0.02,-0.09,0.0
26.45641000,26456410,2,-0.08,0.51,136.33,0.02162371762096882,-0.018614277243614197,0.021211260929703712,-0.028061192482709885,0.0,0.0,-0.3306882679462433,0.0,0.02,-0.09,0.0
26.55640700,26556407,2,-0.08,0.51,136.36,0.02161751687526703,-0.019779598340392113,0.02122318558394909,-0.003922622185200453,0.0,0.0,-0.3309561312198639,0.0,0.02,-0.09,0.0
26.65640600,26656406,2,-0.08,0.5,136.39000000000001,0.021559637039899826,-0.02028580941259861,0.021839246153831482,-0.00018302915850654244,0.0,0.0,-0.3314913511276245,0.0,0.02,-0.1,0.0
26.75640800,26756408,2,-0.08,0.5,136.43,0.020743491128087044,-0.02054472640156746,0.021574830636382103,-0.0037166434340178967,0.0,0.0,-0.33208855986595154,0.0,0.02,-0.1,0.0
26.85640800,26856408,2,-0.08,0.49,136.45,0.020324068143963814,-0.020665694028139114,0.023317554965615273,0.032616615295410156,0.0,0.0,-0.3282450735569,0.0,0.02,-0.1,0.0
26.95642200,26956422,2,-0.08,0.49,136.48,0.021269075572490692,-0.021438835188746452,0.02479744702577591,0.07221203297376633,0.0,0.0,-0.3221508860588074,0.0,0.02,-0.1,0.0
27.05647200,27056472,2,-0.08,0.48,136.5,0.02082429826259613,-0.02063767798244953,0.024594539776444435,0.06356118619441986,0.0,0.0,-0.31754353642463684,0.0,0.02,-0.1,0.0
27.15647500,27156475,2,-0.08,0.48,136.53,0.020014064386487007,-0.02060467004776001,0.025677740573883057,0.044296737760305405,0.0,0.0,-0.3138319253921509,0.0,0.02,-0.1,0.0
27.25646700,27256467,2,-0.08,0.48,136.55,0.020005183294415474,-0.019539114087820053,0.0267363041639328,0.04543986916542053,0.0,0.0,-0.3091262876987457,0.0,0.02,-0.1,0.0
27.35640400,27356404,2,-0.08,0.48,136.58,0.019198762252926826,-0.020340174436569214,0.028359368443489075,0.05033116787672043,0.0,0.0,-0.3043809235095978,0.0,0.02,-0.11,0.0
27.45640700,27456407,2,-0.08,0.48,136.61,0.018389489501714706,-0.020962893962860107,0.03131750226020813,0.05975880101323128,0.0,0.0,-0.2984331548213959,0.0,0.02,-0.11,0.0
27.55642000,27556420,2,-0.08,0.48,136.64000000000001,0.018094949424266815,-0.02142319828271866,0.033904414623975754,0.06242384761571884,0.0,0.0,-0.29279395937919617,0.0,0.02,-0.11,0.0
27.65642000,27656420,2,-0.09,0.48,136.67000000000002,0.01709822379052639,-0.021831590682268143,0.035598814487457275,0.043309081345796585,0.0,0.0,-0.28886502981185913,0.0,0.02,-0.11,0.0
27.75640800,27756408,2,-0.09,0.49,136.70000000000002,0.016895869746804237,-0.02143329568207264,0.03696545585989952,0.036470480263233185,0.0,0.0,-0.28464874625205994,0.0,0.02,-0.11,0.0
27.85643100,27856431,2,-0.09,0.48,136.72,0.017012689262628555,-0.021924810484051704,0.03795210272073746,0.04762169346213341,0.0,0.0,-0.27946677803993225,0.0,0.02,-0.11,0.0
27.95646100,27956461,2,-0.09,0.48,136.74,0.016408003866672516,-0.0223520640283823,0.03914976492524147,0.04116053134202957,0.0,0.0,-0.2758174240589142,0.0,0.02,-0.11,0.0
28.05647900,28056479,2,-0.08,0.48,136.76,0.015553527511656284,-0.02172004245221615,0.039271384477615356,0.02130432054400444,0.0,0.0,-0.2735140025615692,0.0,0.02,-0.11,0.0
28.15646700,28156467,2,-0.08,0.48,136.76,0.01506640762090683,-0.020885195583105087,0.04030297324061394,0.014715584926307201,0.0,0.0,-0.2714453637599945,0.0,0.02,-0.11,0.0
28.25640500,28256405,2,-0.07,0.48,136.77,0.01424425095319748,-0.021119963377714157,0.04056242108345032,0.025205863639712334,0.0,0.0,-0.2681691646575928,0.0,0.02,-0.11,0.0
28.35640600,28356406,2,-0.08,0.47000000000000003,136.78,0.013255971483886242,-0.020697375759482384,0.04049346596002579,0.013996762223541737,0.0,0.0,-0.2672320306301117,0.0,0.02,-0.11,0.0
28.45641100,28456411,2,-0.07,0.47000000000000003,136.79,0.0123679731041193,-0.020320309326052666,0.04081442207098007,-0.008029451593756676,0.0,0.0,-0.2675160765647888,0.0,0.02,-0.11,0.0
28.55643300,28556433,2,-0.07,0.47000000000000003,136.8,0.012285410426557064,-0.020072517916560173,0.04131628945469856,0.0004203819262329489,0.0,0.0,-0.26652249693870544,0.0,0.02,-0.11,0.0
28.65640700,28656407,2,-0.07,0.47000000000000003,136.82,0.012310050427913666,-0.02024252526462078,0.041522394865751266,0.028620325028896332,0.0,0.0,-0.26311951875686646,0.0,0.02,-0.11,0.0
28.75644100,28756441,2,-0.07,0.47000000000000003,136.83,0.011722728610038757,-0.020435698330402374,0.042245831340551376,0.04359806329011917,0.0,0.0,-0.2594936788082123,0.0,0.02,-0.11,0.0
28.85646300,28856463,2,-0.07,0.47000000000000003,136.84,0.011447038501501083,-0.01961570605635643,0.04199354350566864,0.029619920998811722,0.0,0.0,-0.25735172629356384,0.0,0.02,-0.11,0.0
28.95646500,28956465,2,-0.07,0.48,136.84,0.011049565859138966,-0.01979762874543667,0.04237319156527519,0.006516744382679462,0.0,0.0,-0.25686097145080566,0.0,0.02,-0.11,0.0
29.05646400,29056464,2,-0.08,0.47000000000000003,136.85,0.010219689458608627,-0.01898355968296528,0.04288202524185181,-0.010450427420437336,0.0,0.0,-0.25743380188941956,0.0,0.02,-0.11,0.0
29.15640800,29156408,2,-0.08,0.45,136.86,0.009417383931577206,-0.019947214052081108,0.042534321546554565,-0.011074820533394814,0.0,0.0,-0.25761640071868896,0.0,0.02,-0.11,0.0
29.25641000,29256410,2,-0.08,0.45,136.87,0.010079149156808853,-0.0206137765198946,0.04246211424469948,-0.008792405016720295,0.0,0.0,-0.25815650820732117,0.0,0.02,-0.11,0.0
29.35640400,29356404,2,-0.08,0.45,136.89000000000001,0.009359695948660374,-0.02070986106991768,0.041913747787475586,-0.017161650583148003,0.0,0.0,-0.25967535376548767,0.0,0.02,-0.11,0.0
29.45640700,29456407,2,-0.09,0.45,136.91,0.008752197958528996,-0.020554479211568832,0.04138600453734398,-0.04120960831642151,0.0,0.0,-0.26371636986732483,0.0,0.02,-0.11,0.0
29.55640900,29556409,2,-0.09,0.45,136.93,0.00860501453280449,-0.01945321634411812,0.04046386107802391,-0.0589740015566349,0.0,0.0,-0.26857802271842957,0.0,0.02,-0.11,0.0
29.65641800,29656418,2,-0.1,0.45,136.94,0.00875520147383213,-0.01804005727171898,0.03879295289516449,-0.0394577831029892,0.0,0.0,-0.2710898816585541,0.0,0.02,-0.11,0.0
29.75646400,29756464,2,-0.09,0.45,136.97,0.009081272408366203,-0.017268238589167595,0.03925446793437004,-0.006632378790527582,0.0,0.0,-0.27162039279937744,0.0,0.02,-0.11,0.0
29.85646700,29856467,2,-0.1,0.45,136.99,0.008677857927978039,-0.016327999532222748,0.03926267474889755,0.006767230108380318,0.0,0.0,-0.27164801955223083,0.0,0.02,-0.11,0.0
29.95646600,29956466,2,-0.1,0.45,137.01,0.008559783920645714,-0.01569584757089615,0.03930477052927017,0.008871350437402725,0.0,0.0,-0.2713789641857147,0.0,0.02,-0.11,0.0
30.05639600,30056396,2,-0.1,0.46,137.01,0.008015097118914127,-0.015036197379231453,0.0391809344291687,0.021706681698560715,0.0,0.0,-0.26936325430870056,0.0,0.02,-0.11,0.0
30.15640000,30156400,2,-0.1,0.46,137.02,0.00796540081501007,-0.014018814079463482,0.03915790840983391,0.022385386750102043,0.0,0.0,-0.2680028975009918,0.0,0.02,-0.11,0.0
30.25639100,30256391,2,-0.11,0.45,137.03,0.00804030429571867,-0.012495914474129677,0.038287077099084854,-0.007192268967628479,0.0,0.0,-0.26929229497909546,0.0,0.02,-0.11,0.0
30.35640700,30356407,2,-0.1,0.46,137.03,0.008061230182647705,-0.011203679256141186,0.03854549303650856,-0.018316013738512993,0.0,0.0,-0.2703934907913208,0.0,0.02,-0.11,0.0
30.45639600,30456396,2,-0.1,0.46,137.03,0.008345264010131359,-0.010400321334600449,0.03806314989924431,-0.009643055498600006,0.0,0.0,-0.2708137631416321,0.0,0.02,-0.11,0.0
30.55641000,30556410,2,-0.1,0.45,137.03,0.00824673194438219,-0.008928058668971062,0.03828049823641777,-0.0046922191977500916,0.0,0.0,-0.27116405963897705,0.0,0.02,-0.11,0.0
30.65644900,30656449,2,-0.1,0.45,137.04,0.007953906431794167,-0.008246896788477898,0.03658309951424599,-0.0017045850399881601,0.0,0.0,-0.2712024450302124,0.0,0.02,-0.11,0.0
30.75645700,30756457,2,-0.1,0.45,137.05,0.007464961614459753,-0.007023700512945652,0.03626731038093567,-0.0014425546396523714,0.0,0.0,-0.2715097963809967,0.0,0.02,-0.11,0.0
30.85645100,30856451,2,-0.11,0.45,137.06,0.008246731013059616,-0.00584775023162365,0.036302145570516586,-0.003722929395735264,0.0,0.0,-0.27188336849212646,0.0,0.02,-0.11,0.0
30.95640100,30956401,2,-0.11,0.44,137.09,0.00892095547169447,-0.005229005124419928,0.03561502695083618,-0.01841108128428459,0.0,0.0,-0.2739377021789551,0.0,0.02,-0.11,0.0
31.05639500,31056395,2,-0.12,0.44,137.1,0.008662406355142593,-0.0042847199365496635,0.036127135157585144,-0.008292410522699356,0.0,0.0,-0.2738054692745209,0.0,0.02,-0.11,0.0
31.15639700,31156397,2,-0.11,0.44,137.12,0.009193819016218185,-0.003870429238304496,0.037609491497278214,0.02837522327899933,0.0,0.0,-0.2709464728832245,0.0,0.02,-0.11,0.0
31.25639300,31256393,2,-0.11,0.43,137.14000000000001,0.009250013157725334,-0.0029504909180104733,0.03679697588086128,0.02854735031723976,0.0,0.0,-0.2692340016365051,0.0,0.02,-0.11,0.0
31.35639500,31356395,2,-0.11,0.43,137.15,0.00959753803908825,-0.0013631628826260567,0.03632039949297905,0.008478501811623573,0.0,0.0,-0.268836110830307,0.0,0.02,-0.11,0.0
31.45641700,31456417,2,-0.11,0.43,137.16,0.010159696452319622,-0.0009315493516623974,0.03571154922246933,-0.004559662658721209,0.0,0.0,-0.2691658139228821,0.0,0.02,-0.11,0.0
31.55644900,31556449,2,-0.11,0.43,137.17000000000002,0.00928005576133728,-0.00025334215024486184,0.035859812051057816,0.00694908807054162,0.0,0.0,-0.2676963210105896,0.0,0.02,-0.11,0.0
31.65646000,31656460,2,-0.12,0.44,137.18,0.009754365310072899,-0.0004336441634222865,0.03616373613476753,0.025267155840992928,0.0,0.0,-0.2653093934059143,0.0,0.02,-0.11,0.0
31.75645200,31756452,2,-0.12,0.44,137.19,0.010195265524089336,-0.0003438798012211919,0.038056157529354095,0.030174126848578453,0.0,0.0,-0.26279935240745544,0.0,0.02,-0.11,0.0
31.85639900,31856399,2,-0.12,0.44,137.19,0.010950259864330292,0.00032267349888570607,0.0389355905354023,0.02544521354138851,0.0,0.0,-0.260686457157135,0.0,0.02,-0.11,0.0
31.95639600,31956396,2,-0.12,0.43,137.19,0.010491334833204746,0.0003871239023283124,0.039545897394418716,0.02463323064148426,0.0,0.0,-0.2581234276294708,0.0,0.02,-0.11,0.0
32.05639500,32056395,2,-0.12,0.44,137.19,0.010291115380823612,0.001265171216800809,0.03995019569993019,0.04350829869508743,0.0,0.0,-0.2535226345062256,0.0,0.02,-0.11,0.0
32.15640200,32156402,2,-0.12,0.44,137.20000000000002,0.010489572770893574,0.0011975325178354979,0.040844060480594635,0.054177094250917435,0.0,0.0,-0.24881133437156677,0.0,0.02,-0.11,0.0
32.25639300,32256393,2,-0.12,0.45,137.21,0.011027222499251366,0.0006923329783603549,0.04259038716554642,0.045144740492105484,0.0,0.0,-0.2449408918619156,0.0,0.02,-0.11,0.0
32.35640500,32356405,2,-0.12,0.45,137.23,0.011027427390217781,0.0007714550592936575,0.043231863528490067,0.01889997161924839,0.0,0.0,-0.24350708723068237,0.0,0.02,-0.11,0.0
32.45644500,32456445,2,-0.12,0.45,137.25,0.010921420529484749,7.41333860787563e-05,0.0439089871942997,-0.011530735529959202,0.0,0.0,-0.24421174824237823,0.0,0.02,-0.11,0.0
32.55645200,32556452,2,-0.11,0.45,137.26,0.012066353112459183,-4.9599439080338925e-05,0.043429821729660034,-0.018773594871163368,0.0,0.0,-0.24475574493408203,0.0,0.02,-0.11,0.0
32.65645100,32656451,2,-0.11,0.45,137.27,0.011759638786315918,6.0296504670986906e-05,0.044215064495801926,0.01178763248026371,0.0,0.0,-0.24230319261550903,0.0,0.02,-0.11,0.0
32.75640200,32756402,2,-0.12,0.46,137.27,0.012297388166189194,0.000614072079770267,0.04518425464630127,0.023188991472125053,0.0,0.0,-0.24070918560028076,0.0,0.02,-0.11,0.0
32.85639200,32856392,2,-0.12,0.45,137.28,0.012752563692629337,-7.178535452112556e-05,0.046251483261585236,0.015682615339756012,0.0,0.0,-0.23927338421344757,0.0,0.02,-0.11,0.0
32.95639400,32956394,2,-0.12,0.45,137.28,0.013506815768778324,-9.053084795596078e-05,0.04677634313702583,0.027766697108745575,0.0,0.0,-0.2362796664237976,0.0,0.02,-0.11,0.0
33.05641500,33056415,2,-0.12,0.45,137.28,0.013959419913589954,-0.0007847109227441251,0.04662136733531952,0.016659673303365707,0.0,0.0,-0.2353484183549881,0.0,0.02,-0.11,0.0
33.15639700,33156397,2,-0.13,0.45,137.28,0.01442041527479887,-0.0008286360534839332,0.04586653411388397,-0.01871453784406185,0.0,0.0,-0.23717357218265533,0.0,0.03,-0.1,0.0
33.25642600,33256426,2,-0.12,0.45,137.28,0.01438259705901146,-0.0005037661758251488,0.0456719845533371,-0.024236546829342842,0.0,0.0,-0.2383517473936081,0.0,0.03,-0.1,0.0
33.35644600,33356446,2,-0.13,0.46,137.28,0.014761623926460743,-0.0010764708276838064,0.04543482884764671,-0.009779518470168114,0.0,0.0,-0.2386641800403595,0.0,0.03,-0.1,0.0
33.45645000,33456450,2,-0.13,0.46,137.28,0.015230358578264713,-0.0018242524238303304,0.04524671658873558,-0.011906715109944344,0.0,0.0,-0.23995356261730194,0.0,0.03,-0.1,0.0
33.55646900,33556469,2,-0.13,0.47000000000000003,137.28,0.01651858165860176,-0.0030819131061434746,0.045538101345300674,-0.010843126103281975,0.0,0.0,-0.2406044900417328,0.0,0.03,-0.1,0.0
33.65640100,33656401,2,-0.13,0.46,137.28,0.017490800470113754,-0.003222814993932843,0.044496893882751465,-0.010939852334558964,0.0,0.0,-0.24171082675457,0.0,0.03,-0.1,0.0
33.75639700,33756397,2,-0.13,0.47000000000000003,137.27,0.017922576516866684,-0.003465095767751336,0.04468562826514244,-0.02135392278432846,0.0,0.0,-0.24381710588932037,0.0,0.03,-0.1,0.0
33.85640000,33856400,2,-0.13,0.48,137.27,0.01850564032793045,-0.004321558866649866,0.04494307190179825,-0.0224533099681139,0.0,0.0,-0.24559934437274933,0.0,0.03,-0.1,0.0
33.95639300,33956393,2,-0.13,0.48,137.28,0.01945088431239128,-0.003863252466544509,0.042808692902326584,-0.0332036092877388,0.0,0.0,-0.24884402751922607,0.0,0.03,-0.1,0.0
34.05639400,34056394,2,-0.14,0.48,137.29,0.0199052095413208,-0.004255596082657576,0.041844286024570465,-0.042765289545059204,0.0,0.0,-0.25270724296569824,0.0,0.03,-0.1,0.0
34.15641000,34156410,2,-0.14,0.47000000000000003,137.31,0.020330455154180527,-0.004117568954825401,0.04032667353749275,-0.04491905868053436,0.0,0.0,-0.25667130947113037,0.0,0.03,-0.1,0.0
34.25644800,34256448,2,-0.14,0.47000000000000003,137.32,0.02033819630742073,-0.004102242179214954,0.0391651876270771,-0.037665512412786484,0.0,0.0,-0.259842187166214,0.0,0.03,-0.1,0.0
34.35645600,34356456,2,-0.14,0.47000000000000003,137.34,0.02010578289628029,-0.0027001569978892803,0.03772897273302078,-0.031451355665922165,0.0,0.0,-0.26299014687538147,0.0,0.03,-0.1,0.0
34.45645400,34456454,2,-0.14,0.47000000000000003,137.35,0.020835109055042267,-0.001890075160190463,0.03641778230667114,-0.027267759665846825,0.0,0.0,-0.2654765546321869,0.0,0.03,-0.1,0.0
34.55640700,34556407,2,-0.15,0.47000000000000003,137.36,0.021520977839827538,-0.0004860397893935442,0.03566617891192436,-0.010321840643882751,0.0,0.0,-0.2663675844669342,0.0,0.03,-0.1,0.0
34.65639400,34656394,2,-0.15,0.47000000000000003,137.36,0.02178366668522358,0.0001301100419368595,0.034527577459812164,-1.9911216440959834e-05,0.0,0.0,-0.2668877840042114,0.0,0.03,-0.1,0.0
34.75639500,34756395,2,-0.15,0.47000000000000003,137.36,0.02193116396665573,0.0014792088186368346,0.03314654901623726,0.0009132089908234775,0.0,0.0,-0.26716911792755127,0.0,0.03,-0.1,0.0
34.85639600,34856396,2,-0.15,0.47000000000000003,137.37,0.022847428917884827,0.0012191052082926035,0.03357965499162674,0.011313333176076412,0.0,0.0,-0.2662006914615631,0.0,0.03,-0.1,0.0
34.95639300,34956393,2,-0.15,0.47000000000000003,137.37,0.023004060611128807,0.0016223444836214185,0.03359909728169441,0.009969726204872131,0.0,0.0,-0.2659357190132141,0.0,0.03,-0.1,0.0
35.05640400,35056404,2,-0.15,0.47000000000000003,137.37,0.024339603260159492,0.0021882890723645687,0.033684466034173965,0.0006458315765485168,0.0,0.0,-0.26594802737236023,0.0,0.03,-0.1,0.0
35.15644600,35156446,2,-0.15,0.47000000000000003,137.37,0.024607231840491295,0.0023007537238299847,0.032327618449926376,-0.01388573832809925,0.0,0.0,-0.2675929367542267,0.0,0.03,-0.1,0.0
35.25646200,35256462,2,-0.15,0.47000000000000003,137.37,0.024929895997047424,0.002955114934593439,0.03257938474416733,-0.02336021699011326,0.0,0.0,-0.2693091332912445,0.0,0.03,-0.09,0.0
35.35645200,35356452,2,-0.15,0.47000000000000003,137.36,0.02461237646639347,0.00356092257425189,0.03337342292070389,-0.0085355956107378,0.0,0.0,-0.26952090859413147,0.0,0.03,-0.09,0.0
35.45639700,35456397,2,-0.15,0.47000000000000003,137.36,0.025642182677984238,0.0038029460702091455,0.03374827280640602,0.0047507998533546925,0.0,0.0,-0.26914653182029724,0.0,0.03,-0.09,0.0
35.55640000,35556400,2,-0.15,0.47000000000000003,137.35,0.02550438418984413,0.0046267760917544365,0.03366317227482796,-0.007564381696283817,0.0,0.0,-0.2705174386501312,0.0,0.03,-0.09,0.0
35.65639900,35656399,2,-0.15,0.47000000000000003,137.36,0.026062162593007088,0.005170134361833334,0.032739121466875076,-0.037968311458826065,0.0,0.0,-0.27429816126823425,0.0,0.03,-0.09,0.0
35.75639700,35756397,2,-0.15,0.47000000000000003,137.36,0.027213476598262787,0.004555580671876669,0.031372006982564926,-0.05583755299448967,0.0,0.0,-0.278920441865921,0.0,0.03,-0.09,0.0
35.85640900,35856409,2,-0.16,0.47000000000000003,137.37,0.02722676284611225,0.0045247757807374,0.030277756974101067,-0.0658072978258133,0.0,0.0,-0.2847588062286377,0.0,0.03,-0.09,0.0
35.95641800,35956418,2,-0.15,0.47000000000000003,137.38,0.027091043069958687,0.004133749753236771,0.028698882088065147,-0.06470528244972229,0.0,0.0,-0.2900376617908478,0.0,0.03,-0.09,0.0
36.05644600,36056446,2,-0.16,0.46,137.38,0.027610182762145996,0.00414830818772316,0.02855277806520462,-0.03649193048477173,0.0,0.0,-0.29282668232917786,0.0,0.03,-0.09,0.0
36.15645300,36156453,2,-0.16,0.46,137.4,0.027999039739370346,0.003859828459098935,0.028322815895080566,-0.011766208335757256,0.0,0.0,-0.2943473160266876,0.0,0.03,-0.09,0.0
36.25645400,36256454,2,-0.16,0.46,137.4,0.027265725657343864,0.003117080545052886,0.030005671083927155,0.009477098472416401,0.0,0.0,-0.2938496172428131,0.0,0.03,-0.09,0.0
36.35639300,36356393,2,-0.16,0.46,137.4,0.02666696533560753,0.0029975860379636288,0.029945125803351402,0.02569512650370598,0.0,0.0,-0.2921830713748932,0.0,0.03,-0.09,0.0
36.45639600,36456396,2,-0.16,0.46,137.39000000000001,0.02625291235744953,0.003283916972577572,0.03189389035105705,0.03175896778702736,0.0,0.0,-0.2899588346481323,0.0,0.03,-0.09,0.0
36.55639800,36556398,2,-0.17,0.47000000000000003,137.38,0.027045102789998055,0.0029628414195030928,0.03184610977768898,0.02440797910094261,0.0,0.0,-0.2883862257003784,0.0,0.03,-0.09,0.0
36.65640300,36656403,2,-0.17,0.47000000000000003,137.37,0.027581308037042618,0.003464645240455866,0.032050784677267075,0.0187542624771595,0.0,0.0,-0.2865610122680664,0.0,0.03,-0.09,0.0
36.75639600,36756396,2,-0.17,0.47000000000000003,137.36,0.02757762372493744,0.00395998964086175,0.032892145216464996,0.015609778463840485,0.0,0.0,-0.28528088331222534,0.0,0.03,-0.08,0.0
36.85641800,36856418,2,-0.17,0.47000000000000003,137.36,0.028515765443444252,0.004246579483151436,0.03289751708507538,0.0036029815673828125,0.0,0.0,-0.2848868668079376,0.0,0.03,-0.08,0.0
36.95645300,36956453,2,-0.17,0.47000000000000003,137.35,0.028033457696437836,0.004116336349397898,0.03280941769480705,-0.01149493083357811,0.0,0.0,-0.2859267592430115,0.0,0.03,-0.08,0.0
37.05645000,37056450,2,-0.17,0.47000000000000003,137.35,0.028588561341166496,0.004547672811895609,0.032135751098394394,-0.017765607684850693,0.0,0.0,-0.2868715524673462,0.0,0.03,-0.08,0.0
37.15645400,37156454,2,-0.17,0.47000000000000003,137.35,0.028314482420682907,0.004443971440196037,0.03229348361492157,-0.023682454600930214,0.0,0.0,-0.28906360268592834,0.0,0.03,-0.08,0.0
37.25640400,37256404,2,-0.17,0.46,137.35,0.028306076303124428,0.004069990012794733,0.0313425287604332,-0.036269474774599075,0.0,0.0,-0.292115718126297,0.0,0.03,-0.08,0.0
37.35639300,37356393,2,-0.17,0.47000000000000003,137.35,0.028371378779411316,0.005403509829193354,0.031239734962582588,-0.025757649913430214,0.0,0.0,-0.2937150299549103,0.0,0.03,-0.08,0.0
37.45639600,37456396,2,-0.18,0.47000000000000003,137.35,0.028747793287038803,0.005168433301150799,0.031880952417850494,0.010549688711762428,0.0,0.0,-0.29202035069465637,0.0,0.03,-0.08,0.0
37.55639800,37556398,2,-0.18,0.46,137.35,0.029212327674031258,0.006041775923222303,0.032752979546785355,0.03532632812857628,0.0,0.0,-0.2894632816314697,0.0,0.03,-0.08,0.0
37.65639400,37656394,2,-0.18,0.46,137.35,0.030487360432744026,0.006044751964509487,0.03403310850262642,0.03476886823773384,0.0,0.0,-0.28700870275497437,0.0,0.03,-0.08,0.0
37.75641300,37756413,2,-0.18,0.46,137.35,0.031577788293361664,0.0065539744682610035,0.03485381603240967,0.03099651075899601,0.0,0.0,-0.28445160388946533,0.0,0.03,-0.08,0.0
37.85647400,37856474,2,-0.18,0.47000000000000003,137.34,0.03219261020421982,0.006564663723111153,0.03599368780851364,0.02692287229001522,0.0,0.0,-0.2821952998638153,0.0,0.03,-0.08,0.0
37.95644800,37956448,2,-0.19,0.46,137.33,0.032127637416124344,0.005813684780150652,0.037192706018686295,0.027584124356508255,0.0,0.0,-0.27936890721321106,0.0,0.03,-0.08,0.0
38.05645000,38056450,2,-0.19,0.46,137.33,0.0325174443423748,0.005226890556514263,0.03778525069355965,0.028712719678878784,0.0,0.0,-0.2766759991645813,0.0,0.03,-0.08,0.0
38.15639900,38156399,2,-0.19,0.47000000000000003,137.33,0.03374215587973595,0.005470707546919584,0.038166921585798264,0.02620406448841095,0.0,0.0,-0.27400121092796326,0.0,0.03,-0.08,0.0
38.25639400,38256394,2,-0.18,0.47000000000000003,137.34,0.03390054032206535,0.004542623180896044,0.03894273191690445,0.025946514680981636,0.0,0.0,-0.2714327573776245,0.0,0.03,-0.08,0.0
38.35639400,38356394,2,-0.18,0.47000000000000003,137.35,0.033846039324998856,0.00407071877270937,0.03991971164941788,0.020863914862275124,0.0,0.0,-0.2694297730922699,0.0,0.03,-0.08,0.0
38.45639500,38456395,2,-0.18,0.47000000000000003,137.36,0.03403618559241295,0.0036420035175979137,0.041143570095300674,0.005349904298782349,0.0,0.0,-0.26906344294548035,0.0,0.03,-0.08,0.0
38.55639400,38556394,2,-0.18,0.47000000000000003,137.36,0.03482646122574806,0.002237368607893586,0.04133659973740578,-0.012424590066075325,0.0,0.0,-0.2697916328907013,0.0,0.03,-0.08,0.0
38.65642100,38656421,2,-0.18,0.47000000000000003,137.36,0.03542478382587433,0.0016404320485889912,0.041238389909267426,-0.012659110128879547,0.0,0.0,-0.2700880169868469,0.0,0.03,-0.08,0.0
38.75645200,38756452,2,-0.18,0.47000000000000003,137.36,0.03538462519645691,0.001157706486992538,0.04092502221465111,-0.0056489394046366215,0.0,0.0,-0.2702307403087616,0.0,0.03,-0.07,0.0
38.85646700,38856467,2,-0.18,0.46,137.36,0.03541138395667076,0.00044714994146488607,0.04083693027496338,-0.009037649258971214,0.0,0.0,-0.27115651965141296,0.0,0.03,-0.07,0.0
38.95645400,38956454,2,-0.18,0.46,137.37,0.03504451736807823,0.0007694565574638546,0.04033196344971657,-0.01644926890730858,0.0,0.0,-0.27255311608314514,0.0,0.03,-0.07,0.0
39.05639300,39056393,2,-0.18,0.46,137.37,0.03514350205659866,0.0014586768811568618,0.040293775498867035,-0.01289444975554943,0.0,0.0,-0.273290753364563,0.0,0.03,-0.07,0.0
39.15639600,39156396,2,-0.18,0.46,137.37,0.034547463059425354,0.0021705313120037317,0.03956037387251854,-0.012130636721849442,0.0,0.0,-0.27453452348709106,0.0,0.03,-0.07,0.0
39.25639800,39256398,2,-0.18,0.46,137.37,0.03446946665644646,0.0031776688992977142,0.03971469774842262,-0.005888358224183321,0.0,0.0,-0.2746027112007141,0.0,0.03,-0.07,0.0
39.35639400,39356394,2,-0.18,0.46,137.36,0.034330908209085464,0.0038291781675070524,0.03975219279527664,0.010555083863437176,0.0,0.0,-0.2735949456691742,0.0,0.03,-0.07,0.0
39.45640200,39456402,2,-0.18,0.45,137.36,0.034338243305683136,0.004390724468976259,0.04098556935787201,0.014356148429214954,0.0,0.0,-0.27271050214767456,0.0,0.03,-0.07,0.0
39.55641100,39556411,2,-0.18,0.45,137.35,0.03414447605609894,0.0037883161567151546,0.041164662688970566,1.4329848454508465e-05,0.0,0.0,-0.2733088731765747,0.0,0.03,-0.07,0.0
39.65644400,39656444,2,-0.18,0.44,137.35,0.03320994973182678,0.0030081181321293116,0.040873557329177856,-0.0035346748773008585,0.0,0.0,-0.2730570435523987,0.0,0.03,-0.07,0.0
39.75645700,39756457,2,-0.18,0.44,137.34,0.03291307017207146,0.0034040301106870174,0.041659798473119736,0.005375870503485203,0.0,0.0,-0.2725735604763031,0.0,0.03,-0.07,0.0
39.85645900,39856459,2,-0.18,0.44,137.33,0.03293061628937721,0.004037587903439999,0.04139993339776993,-0.0007827845402061939,0.0,0.0,-0.2727648913860321,0.0,0.03,-0.07,0.0
39.95639300,39956393,2,-0.18,0.44,137.33,0.03333287686109543,0.004984820727258921,0.04095320403575897,-0.0010119513608515263,0.0,0.0,-0.27248865365982056,0.0,0.03,-0.07,0.0
40.05639500,40056395,2,-0.18,0.44,137.33,0.03324093669652939,0.00571780139580369,0.04132414981722832,0.0008347375551238656,0.0,0.0,-0.27245956659317017,0.0,0.03,-0.07,0.0
40.15640100,40156401,2,-0.19,0.44,137.33,0.032214872539043427,0.006881331093609333,0.04122605919837952,0.0054990379139781,0.0,0.0,-0.27155736088752747,0.0,0.03,-0.07,0.0
40.25639400,40256394,2,-0.18,0.43,137.33,0.03224511444568634,0.008120337501168251,0.040539346635341644,0.016270145773887634,0.0,0.0,-0.2699980139732361,0.0,0.03,-0.07,0.0
40.35639300,40356393,2,-0.18,0.42,137.33,0.032278019934892654,0.008550730533897877,0.04210701584815979,0.0186403077095747,0.0,0.0,-0.26855939626693726,0.0,0.03,-0.07,0.0
40.45640100,40456401,2,-0.17,0.42,137.32,0.03230642154812813,0.008886897005140781,0.042877521365880966,0.011635774746537209,0.0,0.0,-0.2677134573459625,0.0,0.03,-0.07,0.0
40.55645000,40556450,2,-0.18,0.42,137.32,0.031083812937140465,0.010098280385136604,0.04323064163327217,0.008906365372240543,0.0,0.0,-0.26664355397224426,0.0,0.03,-0.07,0.0
40.65645100,40656451,2,-0.17,0.41000000000000003,137.32,0.03138589486479759,0.010242769494652748,0.04277093708515167,-0.014268985018134117,0.0,0.0,-0.2688908576965332,0.0,0.03,-0.07,0.0
40.75645400,40756454,2,-0.17,0.41000000000000003,137.32,0.030548101291060448,0.010210584849119186,0.04164084419608116,-0.047850415110588074,0.0,0.0,-0.27276453375816345,0.0,0.03,-0.07,0.0
40.85640100,40856401,2,-0.17,0.41000000000000003,137.32,0.029980488121509552,0.010135801509022713,0.04027893394231796,-0.05120758339762688,0.0,0.0,-0.27655813097953796,0.0,0.03,-0.06,0.0
40.95639200,40956392,2,-0.17,0.41000000000000003,137.31,0.029000308364629745,0.010995421558618546,0.03874187543988228,-0.04877549037337303,0.0,0.0,-0.28053295612335205,0.0,0.03,-0.06,0.0
41.05639500,41056395,2,-0.17,0.4,137.31,0.029228869825601578,0.011319547891616821,0.038595691323280334,-0.030168404802680016,0.0,0.0,-0.2825246751308441,0.0,0.03,-0.06,0.0
41.15639600,41156396,2,-0.18,0.4,137.31,0.02822452411055565,0.011768090538680553,0.03823497146368027,-0.010912394151091576,0.0,0.0,-0.2838364541530609,0.0,0.03,-0.06,0.0
41.25639500,41256395,2,-0.17,0.41000000000000003,137.3,0.028392646461725235,0.012167947366833687,0.037682339549064636,-0.009835117496550083,0.0,0.0,-0.2852058708667755,0.0,0.03,-0.06,0.0
41.35641100,41356411,2,-0.17,0.41000000000000003,137.3,0.02734718844294548,0.012662000022828579,0.03669052943587303,-0.016465645283460617,0.0,0.0,-0.2872961461544037,0.0,0.03,-0.06,0.0
41.45644700,41456447,2,-0.16,0.41000000000000003,137.29,0.02605772204697132,0.013350664637982845,0.03566817566752434,-0.016503654420375824,0.0,0.0,-0.28857773542404175,0.0,0.03,-0.06,0.0
41.55645500,41556455,2,-0.16,0.41000000000000003,137.29,0.02572590298950672,0.013689234852790833,0.0334494486451149,-0.020049337297677994,0.0,0.0,-0.29093626141548157,0.0,0.03,-0.06,0.0
41.65645200,41656452,2,-0.17,0.4,137.29,0.02435726672410965,0.014285087585449219,0.03313658758997917,-0.018273381516337395,0.0,0.0,-0.2921183109283447,0.0,0.03,-0.06,0.0
41.75639600,41756396,2,-0.17,0.4,137.29,0.02297544665634632,0.01490488275885582,0.03231091797351837,-0.009222760796546936,0.0,0.0,-0.29335570335388184,0.0,0.03,-0.06,0.0
41.85640400,41856404,2,-0.16,0.4,137.28,0.022554511204361916,0.01509564183652401,0.0311589278280735,-0.0314449816942215,0.0,0.0,-0.29706892371177673,0.0,0.03,-0.06,0.0
41.95639300,41956393,2,-0.17,0.4,137.28,0.022122716531157494,0.015810994431376457,0.02979182079434395,-0.05232406035065651,0.0,0.0,-0.3016261160373688,0.0,0.03,-0.06,0.0
42.05639500,42056395,2,-0.17,0.39,137.28,0.02134576067328453,0.01635245978832245,0.02847275324165821,-0.044166915118694305,0.0,0.0,-0.30488938093185425,0.0,0.03,-0.06,0.0
42.15639900,42156399,2,-0.17,0.39,137.28,0.01999964378774166,0.01612161286175251,0.028121866285800934,-0.020665928721427917,0.0,0.0,-0.3064790666103363,0.0,0.03,-0.06,0.0
42.25640400,42256404,2,-0.16,0.39,137.29,0.019149919971823692,0.016417095437645912,0.028567690402269363,-0.003333745989948511,0.0,0.0,-0.3071410357952118,0.0,0.03,-0.06,0.0
42.35644500,42356445,2,-0.16,0.39,137.29,0.018411114811897278,0.01736285537481308,0.027931397780776024,-0.0022420298773795366,0.0,0.0,-0.3080293834209442,0.0,0.03,-0.06,0.0
42.45646300,42456463,2,-0.16,0.39,137.29,0.01785481721162796,0.01761765591800213,0.027699412778019905,0.005076229572296143,0.0,0.0,-0.3074266314506531,0.0,0.03,-0.06,0.0
42.55646000,42556460,2,-0.16,0.39,137.29,0.01669277995824814,0.017940960824489594,0.02840956673026085,0.012648351490497589,0.0,0.0,-0.3069937527179718,0.0,0.03,-0.06,0.0
42.65639400,42656394,2,-0.16,0.39,137.29,0.015561606734991074,0.018430061638355255,0.02814628556370735,0.008871025405824184,0.0,0.0,-0.3061887323856354,0.0,0.03,-0.06,0.0
42.75639600,42756396,2,-0.17,0.39,137.28,0.014635962434113026,0.018091939389705658,0.027758263051509857,-0.003171111224219203,0.0,0.0,-0.3073672652244568,0.0,0.03,-0.06,0.0
42.85640000,42856400,2,-0.17,0.38,137.29,0.014351836405694485,0.01827547885477543,0.028023075312376022,-0.024914903566241264,0.0,0.0,-0.30970853567123413,0.0,0.03,-0.06,0.0
42.95639400,42956394,2,-0.17,0.37,137.28,0.01367433462291956,0.018782928586006165,0.027238819748163223,-0.02634412981569767,0.0,0.0,-0.31156253814697266,0.0,0.03,-0.06,0.0
43.05639500,43056395,2,-0.16,0.37,137.27,0.011695299297571182,0.019106822088360786,0.027412917464971542,-0.011254021897912025,0.0,0.0,-0.3119622766971588,0.0,0.03,-0.06,0.0
43.15641400,43156414,2,-0.16,0.37,137.27,0.010830055922269821,0.019464662298560143,0.028072752058506012,0.010263398289680481,0.0,0.0,-0.31078046560287476,0.0,0.03,-0.06,0.0
43.25645000,43256450,2,-0.16,0.36,137.27,0.009478184394538403,0.019468460232019424,0.027722738683223724,0.008521034382283688,0.0,0.0,-0.31097832322120667,0.0,0.03,-0.06,0.0
43.35645500,43356455,2,-0.16,0.36,137.28,0.00887504406273365,0.020869314670562744,0.027683075517416,-0.014857016503810883,0.0,0.0,-0.31307747960090637,0.0,0.03,-0.06,0.0
43.45645200,43456452,2,-0.16,0.36,137.27,0.007861269637942314,0.021978270262479782,0.026905320584774017,-0.014057627879083157,0.0,0.0,-0.31335392594337463,0.0,0.03,-0.06,0.0
43.55639700,43556397,2,-0.17,0.35000000000000003,137.28,0.007188997231423855,0.022094979882240295,0.02621278539299965,0.006485632620751858,0.0,0.0,-0.31236252188682556,0.0,0.03,-0.06,0.0
43.65639500,43656395,2,-0.16,0.35000000000000003,137.28,0.006039063446223736,0.024234896525740623,0.025802267715334892,0.022499242797493935,0.0,0.0,-0.31024640798568726,0.0,0.03,-0.05,0.0
43.75639600,43756396,2,-0.16,0.35000000000000003,137.29,0.005125248804688454,0.025777403265237808,0.025457119569182396,0.029481379315257072,0.0,0.0,-0.30792272090911865,0.0,0.03,-0.05,0.0
43.85640000,43856400,2,-0.16,0.35000000000000003,137.3,0.004288665484637022,0.026456627994775772,0.026563972234725952,0.03593791276216507,0.0,0.0,-0.3046383261680603,0.0,0.03,-0.05,0.0
