timestamp,TimeUS,DesRoll,Roll,DesPitch,Pitch,DesYaw,Yaw,ErrRP,ErrYaw,AEKF
1682105465.10530496,10508280,0.0,0.33,0.0,-1.1,359.99,0.0,1.0,1.0,0
1682105465.20508385,10608059,0.0,0.34,0.0,-1.1,89.73,89.73,1.0,0.64,0
1682105465.30513287,10708108,0.0,0.31,0.0,-1.09,89.91,89.91,0.8,0.51,0
1682105465.40522480,10808200,0.0,0.31,0.0,-1.09,90.07000000000001,90.07000000000001,0.8,0.42,0
1682105465.50521898,10908194,0.0,0.29,0.0,-1.06,90.21000000000001,90.21000000000001,0.64,0.34,0
1682105465.60521388,11008189,0.0,0.3,0.0,-1.03,90.39,90.39,0.64,0.28,0
1682105465.70509696,11108072,0.0,0.28,0.0,-1.0,90.32000000000001,90.32000000000001,0.51,0.22,0
1682105465.80506301,11208038,0.0,0.29,0.0,-0.97,90.22,90.22,0.51,0.18,0
1682105465.90504789,11308023,0.0,0.29,0.0,-0.9500000000000001,90.14,90.14,0.41000000000000003,0.15,0
1682105466.00508690,11408062,0.0,0.3,0.0,-0.9400000000000001,89.99,89.99,0.41000000000000003,0.12,0
1682105466.10518098,11508156,0.0,0.3,0.0,-0.92,90.06,90.06,0.32,0.1,0
1682105466.20524383,11608219,0.0,0.3,0.0,-0.9,89.96000000000001,89.96000000000001,0.32,0.08,0
1682105466.30532789,11708303,0.0,0.31,0.0,-0.89,89.93,89.93,0.26,0.07,0
1682105466.40531683,11808292,0.0,0.31,0.0,-0.88,89.94,89.94,0.26,0.05,0
1682105466.50530696,11908282,0.0,0.32,0.0,-0.88,89.88,89.88,0.21,0.04,0
1682105466.60530996,12008285,0.0,0.32,0.0,-0.88,90.11,90.11,0.21,0.04,0
1682105466.70519781,12108173,0.0,0.33,0.0,-0.88,90.08,90.08,0.16,0.04,0
1682105466.80518198,12208157,0.0,0.33,0.0,-0.88,89.94,89.94,0.16,0.03,0
1682105466.90518785,12308163,0.0,0.34,0.0,-0.88,89.73,89.73,0.13,0.04,0
1682105467.00521803,12408193,0.0,0.33,0.0,-0.89,89.5,89.5,0.13,0.04,0
1682105467.10526085,12508236,-0.28,-0.18,-0.24,-1.34,0.0,0.0,0.1,0.03,3
1682105467.20560193,12608577,-0.14,-0.18,-0.12,-1.34,0.0,0.0,0.1,0.03,3
1682105467.30560303,12708578,-0.07,-0.17,-0.06,-1.33,359.98,359.99,0.08,0.03,3
1682105467.40537381,12808349,-0.03,-0.17,-0.03,-1.33,359.98,359.99,0.08,0.02,3
1682105467.50535583,12908331,-0.01,-0.17,-0.01,-1.32,359.98,359.99,0.06,0.02,3
1682105467.60524988,13008225,-0.01,-0.17,0.0,-1.32,359.97,359.98,0.06,0.02,3
1682105467.70525289,13108228,0.0,-0.17,0.0,-1.31,359.97,359.98,0.05,0.01,3
1682105467.80522680,13208202,0.0,-0.16,0.0,-1.31,359.97,359.98,0.05,0.02,3
1682105467.90523195,13308207,0.0,-0.16,0.0,-1.3,359.97,359.98,0.04,0.02,3
1682105468.00529599,13408271,0.0,-0.16,0.0,-1.3,359.96,359.97,0.04,0.01,3
1682105468.10540581,13508381,0.0,-0.17,0.0,-1.3,359.97,359.98,0.03,0.01,3
1682105468.20535183,13608327,0.0,-0.16,0.0,-1.3,359.96,359.97,0.03,0.01,3
1682105468.30537987,13708355,0.0,-0.17,0.0,-1.31,359.95,359.96,0.02,0.01,3
1682105468.40555882,13808534,0.0,-0.17,0.0,-1.31,359.95,359.96,0.02,0.01,3
1682105468.50555682,13908532,0.0,-0.17,0.0,-1.32,359.94,359.95,0.02,0.02,3
1682105468.60530901,14008284,0.01,-0.15,-0.01,-1.35,87.17,87.17,0.02,0.02,3
1682105468.70520997,14108185,0.0,-0.16,0.0,-1.34,87.35000000000001,87.35000000000001,0.01,0.02,3
1682105468.80525303,14208228,0.0,-0.17,0.0,-1.33,87.64,87.64,0.01,0.02,3
1682105468.90526295,14308238,0.0,-0.18,0.0,-1.33,88.02,88.02,0.01,0.02,3
1682105469.00546193,14408437,0.0,-0.19,0.0,-1.32,88.43,88.43,0.01,0.01,3
1682105469.10557580,14508551,0.0,-0.2,0.0,-1.31,88.8,88.8,0.01,0.01,3
1682105469.20539284,14608368,0.0,-0.21,0.0,-1.31,89.10000000000001,89.10000000000001,0.01,0.01,3
1682105469.30537295,14708348,0.0,-0.2,0.0,-1.31,89.31,89.31,0.0,0.02,3
1682105469.40524793,14808223,0.0,-0.21,0.0,-1.31,89.45,89.45,0.0,0.02,3
1682105469.50530195,14908277,0.0,-0.2,0.0,-1.3,89.56,89.56,0.0,0.01,3
1682105469.60525298,15008228,0.0,-0.2,0.0,-1.31,89.64,89.64,0.0,0.01,3
1682105469.70522189,15108197,0.0,-0.2,0.0,-1.31,89.69,89.69,0.0,0.02,3
1682105469.80527282,15208248,0.0,-0.19,0.0,-1.31,89.74,89.74,0.0,0.01,3
1682105469.90541101,15308386,0.0,-0.18,0.0,-1.32,89.8,89.8,0.0,0.01,3
1682105470.00540185,15408377,0.0,-0.18,0.0,-1.32,89.84,89.84,0.0,0.01,3
1682105470.10542083,15508396,0.0,-0.17,0.0,-1.33,89.87,89.87,0.0,0.01,3
1682105470.20555091,15608526,0.0,-0.16,0.0,-1.34,89.89,89.89,0.0,0.01,3
1682105470.30553484,15708510,0.0,-0.15,0.0,-1.35,89.94,89.94,0.0,0.01,3
1682105470.40555596,15808531,0.0,-0.14,0.0,-1.37,90.0,90.0,0.0,0.01,3
1682105470.50546885,15908444,0.0,-0.13,0.0,-1.3800000000000001,90.05,90.05,0.0,0.01,3
1682105470.60541701,16008392,0.0,-0.12,0.0,-1.3900000000000001,90.08,90.08,0.0,0.01,3
1682105470.70542097,16108396,0.0,-0.11,0.0,-1.3900000000000001,90.10000000000001,90.10000000000001,0.0,0.01,3
1682105470.80557990,16208555,0.0,-0.1,0.0,-1.4000000000000001,90.11,90.11,0.0,0.01,3
1682105470.90557003,16308545,0.0,-0.09,0.0,-1.41,90.12,90.12,0.0,0.01,3
1682105471.00561285,16408588,0.0,-0.08,0.0,-1.41,90.13,90.13,0.0,0.01,3
1682105471.10561681,16508592,0.0,-0.07,0.0,-1.41,90.15,90.15,0.0,0.01,3
1682105471.20552993,16608505,0.0,-0.06,0.0,-1.42,90.16,90.16,0.0,0.01,3
1682105471.30555582,16708531,0.0,-0.06,0.0,-1.42,90.17,90.17,0.0,0.01,3
1682105471.40521002,16808185,0.0,-0.05,0.0,-1.43,90.17,90.17,0.0,0.01,3
1682105471.50523901,16908214,0.0,-0.04,0.0,-1.43,90.16,90.16,0.0,0.01,3
1682105471.60527587,17008251,0.0,-0.04,0.0,-1.44,90.14,90.14,0.0,0.01,3
1682105471.70536089,17108336,0.0,-0.03,0.0,-1.44,90.15,90.15,0.0,0.01,3
1682105471.80538797,17208363,0.0,-0.03,0.0,-1.44,90.17,90.17,0.0,0.01,3
1682105471.90540981,17308385,0.0,-0.03,0.0,-1.45,90.19,90.19,0.0,0.01,3
1682105472.00539899,17408374,0.0,-0.03,0.0,-1.45,90.23,90.23,0.0,0.01,3
1682105472.10524487,17508220,0.0,-0.03,0.0,-1.46,90.26,90.26,0.0,0.01,3
1682105472.20559788,17608573,0.0,-0.03,0.0,-1.46,90.28,90.28,0.0,0.01,3
1682105472.30551696,17708492,0.0,-0.04,0.0,-1.45,90.29,90.29,0.0,0.02,3
1682105472.40523100,17808206,0.0,-0.04,0.0,-1.45,90.29,90.29,0.0,0.02,3
1682105472.50527191,17908247,0.0,-0.05,0.0,-1.45,90.25,90.25,0.0,0.02,3
1682105472.60541892,18008394,0.0,-0.05,0.0,-1.45,90.19,90.19,0.0,0.02,3
1682105472.70538902,18108364,0.0,-0.06,0.0,-1.45,90.12,90.12,0.0,0.02,3
1682105472.80538583,18208361,0.0,-0.06,0.0,-1.45,90.05,90.05,0.0,0.01,3
1682105472.90557885,18308554,0.0,-0.07,0.0,-1.45,90.01,90.01,0.0,0.01,3
1682105473.00560403,18408579,0.0,-0.07,0.0,-1.45,89.98,89.98,0.0,0.01,3
1682105473.10561895,18508594,0.0,-0.08,0.0,-1.45,89.94,89.94,0.0,0.01,3
1682105473.20531487,18608290,0.0,-0.08,0.0,-1.45,89.91,89.91,0.0,0.02,3
1682105473.30521989,18708195,0.0,-0.08,0.0,-1.45,89.91,89.91,0.0,0.01,3
1682105473.40526295,18808238,0.0,-0.09,0.0,-1.45,89.93,89.93,0.0,0.02,3
1682105473.50542092,18908396,0.0,-0.09,0.0,-1.44,89.98,89.98,0.0,0.02,3
1682105473.60535693,19008332,0.0,-0.1,0.0,-1.45,90.07000000000001,90.07000000000001,0.0,0.02,3
1682105473.70562291,19108598,0.0,-0.1,0.0,-1.44,90.17,90.17,0.0,0.02,3
1682105473.80559301,19208568,0.0,-0.1,0.0,-1.44,90.25,90.25,0.0,0.01,3
1682105473.90523887,19308214,0.0,-0.11,0.0,-1.44,90.3,90.3,0.0,0.01,3
1682105474.00561094,19408586,0.0,-0.11,0.0,-1.45,90.34,90.34,0.0,0.02,3
1682105474.10550094,19508476,0.0,-0.11,0.0,-1.45,90.39,90.39,0.0,0.01,3
1682105474.20540285,19608378,0.0,-0.12,0.0,-1.44,90.45,90.45,0.0,0.02,3
1682105474.30541492,19708390,0.0,-0.12,0.0,-1.44,90.51,90.51,0.0,0.02,3
1682105474.40558696,19808562,0.0,-0.12,0.0,-1.44,90.58,90.58,0.0,0.01,3
1682105474.50553894,19908514,0.0,-0.12,0.0,-1.44,90.66,90.66,0.0,0.01,3
1682105474.60557985,20008555,0.0,-0.12,0.0,-1.44,90.73,90.73,0.0,0.01,3
1682105474.70555091,20108526,0.0,-0.13,0.0,-1.44,90.8,90.8,0.0,0.01,3
1682105474.80525494,20208230,0.0,-0.13,0.0,-1.44,90.87,90.87,0.0,0.01,3
1682105474.90529490,20308270,0.0,-0.13,0.0,-1.44,90.92,90.92,0.0,0.01,3
1682105475.00528288,20408258,0.0,-0.14,0.0,-1.44,90.96000000000001,90.96000000000001,0.0,0.01,3
1682105475.10523891,20508214,0.0,-0.14,0.0,-1.45,91.0,91.0,0.0,0.01,3
1682105475.20527387,20608249,0.0,-0.14,0.0,-1.45,91.02,91.02,0.0,0.01,3
1682105475.30541801,20708393,0.0,-0.14,0.0,-1.45,91.05,91.05,0.0,0.01,3
1682105475.40538788,20808363,0.0,-0.14,0.0,-1.45,91.06,91.06,0.0,0.0,3
1682105475.50541782,20908393,0.0,-0.14,0.0,-1.45,91.08,91.08,0.0,0.01,3
1682105475.60556388,21008539,0.0,-0.14,0.0,-1.45,91.08,91.08,0.0,0.01,3
1682105475.70525193,21108227,0.0,-0.13,0.0,-1.45,91.05,91.05,0.0,0.01,3
1682105475.80525398,21208229,0.0,-0.13,0.0,-1.45,91.02,91.02,0.0,0.01,3
1682105475.90522981,21308205,0.0,-0.13,0.0,-1.45,90.99,90.99,0.0,0.01,3
1682105476.00526786,21408243,0.0,-0.13,0.0,-1.45,90.98,90.98,0.0,0.01,3
1682105476.10527396,21508249,0.0,-0.12,0.0,-1.45,90.98,90.98,0.0,0.01,3
1682105476.20543385,21608409,0.0,-0.12,0.0,-1.45,91.0,91.0,0.0,0.01,3
1682105476.30539393,21708369,0.0,-0.12,0.0,-1.45,91.03,91.03,0.0,0.01,3
1682105476.40541697,21808392,0.0,-0.12,0.0,-1.45,91.07000000000001,91.07000000000001,0.0,0.01,3
1682105476.50557399,21908549,0.0,-0.12,0.0,-1.45,91.11,91.11,0.0,0.02,3
1682105476.60524988,22008225,0.0,-0.12,0.0,-1.45,91.18,91.18,0.0,0.02,3
1682105476.70530391,22108279,0.0,-0.11,0.0,-1.45,91.27,91.27,0.0,0.02,3
1682105476.80522585,22208201,0.0,-0.11,0.0,-1.45,91.37,91.37,0.0,0.02,3
1682105476.90523601,22308211,0.0,-0.11,0.0,-1.44,91.45,91.45,0.0,0.01,3
1682105477.00531292,22408288,0.0,-0.11,0.0,-1.44,91.5,91.5,0.0,0.01,3
1682105477.10542393,22508399,0.0,-0.11,0.0,-1.44,91.53,91.53,0.0,0.01,3
1682105477.20538402,22608359,0.0,-0.1,0.0,-1.44,91.55,91.55,0.0,0.01,3
1682105477.30541492,22708390,0.0,-0.1,0.0,-1.44,91.57000000000001,91.57000000000001,0.0,0.01,3
1682105477.40562201,22808597,0.0,-0.1,0.0,-1.44,91.59,91.59,0.0,0.01,3
1682105477.50556183,22908537,0.0,-0.1,0.0,-1.44,91.58,91.58,0.0,0.01,3
1682105477.60529494,23008270,0.0,-0.1,0.0,-1.45,91.58,91.58,0.0,0.01,3
1682105477.70526290,23108238,0.0,-0.1,0.0,-1.45,91.60000000000001,91.60000000000001,0.0,0.01,3
1682105477.80524993,23208225,0.0,-0.1,0.0,-1.44,91.62,91.62,0.0,0.01,3
1682105477.90527701,23308252,0.0,-0.1,0.0,-1.44,91.64,91.64,0.0,0.01,3
1682105478.00544500,23408420,0.0,-0.09,0.0,-1.44,91.67,91.67,0.0,0.0,3
1682105478.10557699,23508552,0.0,-0.09,0.0,-1.44,91.69,91.69,0.0,0.01,3
1682105478.20561886,23608594,0.0,-0.09,0.0,-1.43,91.7,91.7,0.0,0.01,3
1682105478.30560088,23708576,0.0,-0.09,0.0,-1.43,91.68,91.68,0.0,0.01,3
1682105478.40524602,23808221,0.0,-0.09,0.0,-1.44,91.66,91.66,0.0,0.02,3
1682105478.50530696,23908282,0.0,-0.09,0.0,-1.44,91.64,91.64,0.0,0.01,3
1682105478.60526395,24008239,0.0,-0.08,0.0,-1.43,91.62,91.62,0.0,0.01,3
1682105478.70525503,24108230,0.0,-0.08,0.0,-1.43,91.60000000000001,91.60000000000001,0.0,0.01,3
1682105478.80528593,24208261,0.0,-0.07,0.0,-1.43,91.60000000000001,91.60000000000001,0.0,0.01,3
1682105478.90563583,24308611,0.0,-0.07,0.0,-1.43,91.61,91.61,0.0,0.01,3
1682105479.00563288,24408608,0.0,-0.07,0.0,-1.43,91.63,91.63,0.0,0.02,3
1682105479.10542488,24508400,0.0,-0.07,0.0,-1.43,91.63,91.63,0.0,0.02,3
1682105479.20535493,24608330,0.0,-0.07,0.0,-1.43,91.63,91.63,0.0,0.01,3
1682105479.30554986,24708525,0.0,-0.06,0.0,-1.43,91.63,91.63,0.0,0.01,3
1682105479.40556788,24808543,0.0,-0.06,0.0,-1.43,91.63,91.63,0.0,0.01,3
1682105479.50565600,24908631,0.0,-0.06,0.0,-1.42,91.64,91.64,0.0,0.02,3
1682105479.60542583,25008401,0.0,-0.06,0.0,-1.42,91.67,91.67,0.0,0.01,3
1682105479.70542884,25108404,0.0,-0.06,0.0,-1.42,91.7,91.7,0.0,0.01,3
1682105479.80559993,25208575,0.0,-0.05,0.0,-1.42,91.73,91.73,0.0,0.02,3
1682105479.90554881,25308524,0.0,-0.05,0.0,-1.41,91.76,91.76,0.0,0.02,3
1682105480.00568199,25408657,0.0,-0.05,0.0,-1.41,91.8,91.8,0.0,0.02,3
1682105480.10554099,25508516,0.0,-0.06,0.0,-1.42,91.82000000000001,91.82000000000001,0.0,0.01,3
1682105480.20553184,25608507,0.0,-0.06,0.0,-1.43,91.81,91.81,0.0,0.01,3
1682105480.30555701,25708532,0.0,-0.07,0.0,-1.44,91.83,91.83,0.0,0.02,3
1682105480.40549994,25808475,0.0,-0.04,0.0,-1.42,91.82000000000001,91.82000000000001,0.0,0.01,3
1682105480.50575900,25908734,0.0,-0.08,0.0,-1.43,91.81,91.81,0.0,0.01,3
1682105480.60529304,26008268,0.0,-0.05,0.0,-1.44,91.83,91.83,0.0,0.01,3
1682105480.70543981,26108415,0.0,-0.05,0.0,-1.43,91.82000000000001,91.82000000000001,0.0,0.01,3
1682105480.80539489,26208370,0.0,-0.05,0.0,-1.44,91.82000000000001,91.82000000000001,0.0,0.01,3
1682105480.90541792,26308393,0.0,-0.06,0.0,-1.44,91.81,91.81,0.0,0.02,3
1682105481.00542903,26408404,0.0,-0.05,0.0,-1.44,91.81,91.81,0.0,0.01,3
1682105481.10525489,26508230,0.0,-0.05,0.0,-1.44,91.76,91.76,0.0,0.01,3
1682105481.20529890,26608274,0.0,-0.04,0.0,-1.44,91.69,91.69,0.0,0.01,3
1682105481.30525303,26708228,0.0,-0.06,0.0,-1.46,91.69,91.69,0.0,0.01,3
1682105481.40545988,26808435,0.0,-0.04,0.0,-1.45,91.62,91.62,0.0,0.02,3
1682105481.50549197,26908467,0.0,-0.05,0.0,-1.47,91.61,91.61,0.0,0.02,3
1682105481.60544491,27008420,0.0,-0.05,0.0,-1.46,91.62,91.62,0.0,0.02,3
1682105481.70540285,27108378,0.0,-0.06,0.0,-1.47,91.59,91.59,0.0,0.01,3
1682105481.80540180,27208377,0.0,-0.06,0.0,-1.48,91.64,91.64,0.0,0.02,3
1682105481.90536785,27308343,0.0,-0.07,0.0,-1.49,91.64,91.64,0.0,0.01,3
1682105482.00537992,27408355,0.0,-0.07,0.0,-1.5,91.57000000000001,91.57000000000001,0.0,0.01,3
1682105482.10565186,27508627,0.0,-0.06,0.0,-1.52,91.62,91.62,0.0,0.02,3
1682105482.20525599,27608231,0.0,-0.07,0.0,-1.52,91.59,91.59,0.0,0.01,3
1682105482.30523586,27708211,0.0,-0.06,0.0,-1.52,91.57000000000001,91.57000000000001,0.0,0.01,3
1682105482.40528488,27808260,0.0,-0.07,0.0,-1.5,91.57000000000001,91.57000000000001,0.0,0.01,3
1682105482.50542092,27908396,0.0,-0.07,0.0,-1.52,91.53,91.53,0.0,0.01,3
1682105482.60536790,28008343,0.0,-0.07,0.0,-1.54,91.54,91.54,0.0,0.01,3
1682105482.70541382,28108389,0.0,-0.08,0.0,-1.52,91.52,91.52,0.0,0.01,3
1682105482.80534697,28208322,0.0,-0.08,0.0,-1.56,91.48,91.48,0.0,0.02,3
1682105482.90525889,28308234,0.0,-0.08,0.0,-1.56,91.48,91.48,0.0,0.02,3
1682105483.00536394,28408339,0.0,-0.09,0.0,-1.57,91.55,91.55,0.0,0.02,3
1682105483.10526085,28508236,0.0,-0.09,0.0,-1.59,91.57000000000001,91.57000000000001,0.0,0.02,3
1682105483.20544195,28608417,0.0,-0.09,0.0,-1.59,91.55,91.55,0.0,0.02,3
1682105483.30548000,28708455,0.0,-0.11,0.0,-1.58,91.61,91.61,0.0,0.01,3
1682105483.40561700,28808592,0.0,-0.08,0.0,-1.61,91.60000000000001,91.60000000000001,0.0,0.02,3
1682105483.50559282,28908568,0.0,-0.11,0.0,-1.61,91.60000000000001,91.60000000000001,0.0,0.01,3
1682105483.60561585,29008591,0.0,-0.09,0.0,-1.59,91.64,91.64,0.0,0.01,3
1682105483.70589781,29108873,0.0,-0.1,0.0,-1.59,91.63,91.63,0.0,0.02,3
1682105483.80525303,29208228,0.0,-0.08,0.0,-1.58,91.60000000000001,91.60000000000001,0.0,0.02,3
1682105483.90530682,29308282,0.0,-0.06,0.0,-1.55,91.63,91.63,0.0,0.01,3
1682105484.00528288,29408258,0.0,-0.02,0.0,-1.49,91.65,91.65,0.0,0.01,3
1682105484.10522485,29508200,0.0,-0.02,0.0,-1.46,91.57000000000001,91.57000000000001,0.0,0.01,3
1682105484.20526195,29608237,0.0,-0.03,0.0,-1.48,91.51,91.51,0.0,0.01,3
1682105484.30541897,29708394,0.0,-0.02,0.0,-1.48,91.59,91.59,0.0,0.02,3
1682105484.40558290,29808558,0.0,-0.02,0.0,-1.45,91.60000000000001,91.60000000000001,0.0,0.02,3
1682105484.50540686,29908382,0.0,0.0,0.0,-1.46,91.54,91.54,0.0,0.02,3
1682105484.60536003,30008335,0.0,-0.02,0.0,-1.46,91.58,91.58,0.0,0.02,3
1682105484.70523095,30108206,0.0,0.0,0.0,-1.45,91.61,91.61,0.0,0.03,3
1682105484.80523682,30208212,0.0,-0.01,0.0,-1.47,91.59,91.59,0.0,0.03,3
1682105484.90520096,30308176,0.0,0.0,0.0,-1.46,91.66,91.66,0.0,0.02,3
1682105485.00525784,30408233,0.0,-0.01,0.0,-1.46,91.73,91.73,0.0,0.02,3
1682105485.10524893,30508224,0.0,0.0,0.0,-1.46,91.73,91.73,0.0,0.02,3
1682105485.20539403,30608369,0.0,-0.01,0.0,-1.46,91.79,91.79,0.0,0.02,3
1682105485.30556989,30708545,0.0,0.0,0.0,-1.46,91.83,91.83,0.0,0.02,3
1682105485.40559888,30808574,0.0,-0.01,0.0,-1.46,91.78,91.78,0.0,0.02,3
1682105485.50535202,30908327,0.0,0.0,0.0,-1.45,91.77,91.77,0.0,0.02,3
1682105485.60524201,31008217,0.0,-0.01,0.0,-1.45,91.84,91.84,0.0,0.02,3
1682105485.70524788,31108223,0.0,0.0,0.0,-1.45,91.82000000000001,91.82000000000001,0.0,0.01,3
1682105485.80529189,31208267,0.0,-0.01,0.0,-1.45,91.81,91.81,0.0,0.01,3
1682105485.90542793,31308403,0.0,-0.01,0.0,-1.45,91.84,91.84,0.0,0.02,3
1682105486.00549483,31408470,0.0,0.0,0.0,-1.45,91.86,91.86,0.0,0.02,3
1682105486.10540581,31508381,0.0,-0.01,0.0,-1.44,91.86,91.86,0.0,0.01,3
1682105486.20535684,31608332,0.0,0.0,0.0,-1.45,91.89,91.89,0.0,0.01,3
1682105486.30535793,31708333,0.0,-0.01,0.0,-1.44,91.92,91.92,0.0,0.01,3
1682105486.40530086,31808276,0.0,0.0,0.0,-1.46,91.96000000000001,91.96000000000001,0.0,0.01,3
1682105486.50523591,31908211,0.0,-0.01,0.0,-1.45,91.91,91.91,0.0,0.01,3
1682105486.60558486,32008560,0.0,0.01,0.0,-1.44,91.89,91.89,0.0,0.01,3
1682105486.70551801,32108493,0.0,0.0,0.0,-1.44,91.96000000000001,91.96000000000001,0.0,0.01,3
1682105486.80521989,32208195,0.0,0.01,0.0,-1.43,91.9,91.9,0.0,0.01,3
1682105486.90526700,32308242,0.0,0.0,0.0,-1.43,91.89,91.89,0.0,0.01,3
1682105487.00544691,32408422,0.0,0.01,0.0,-1.42,91.96000000000001,91.96000000000001,0.0,0.01,3
1682105487.10537887,32508354,0.0,0.0,0.0,-1.43,91.93,91.93,0.0,0.01,3
1682105487.20537090,32608346,0.0,0.01,0.0,-1.43,91.87,91.87,0.0,0.01,3
1682105487.30556393,32708539,0.0,0.0,0.0,-1.43,91.9,91.9,0.0,0.01,3
1682105487.40554881,32808524,0.0,0.01,0.0,-1.43,91.85000000000001,91.85000000000001,0.0,0.01,3
1682105487.50559092,32908566,0.0,0.01,0.0,-1.43,91.77,91.77,0.0,0.01,3
1682105487.60521483,33008190,0.0,0.0,0.0,-1.43,91.79,91.79,0.0,0.01,3
1682105487.70525599,33108231,0.0,0.01,0.0,-1.41,91.75,91.75,0.0,0.01,3
1682105487.80525994,33208235,0.0,0.0,0.0,-1.43,91.68,91.68,0.0,0.01,3
1682105487.90541601,33308391,0.0,0.03,0.0,-1.42,91.71000000000001,91.71000000000001,0.0,0.02,3
1682105488.00539589,33408371,0.0,0.01,0.0,-1.42,91.68,91.68,0.0,0.01,3
1682105488.10560584,33508581,0.0,0.02,0.0,-1.43,91.62,91.62,0.0,0.01,3
1682105488.20555687,33608532,0.0,0.01,0.0,-1.42,91.65,91.65,0.0,0.02,3
1682105488.30523300,33708208,0.0,0.02,0.0,-1.42,91.64,91.64,0.0,0.03,3
1682105488.40530396,33808279,0.0,0.02,0.0,-1.43,91.62,91.62,0.0,0.04,3
1682105488.50520492,33908180,0.0,0.02,0.0,-1.42,91.71000000000001,91.71000000000001,0.0,0.04,3
1682105488.60522795,34008203,0.0,0.02,0.0,-1.43,91.77,91.77,0.0,0.03,3
1682105488.70525980,34108235,0.0,0.02,0.0,-1.43,91.79,91.79,0.0,0.06,3
1682105488.80560684,34208582,0.0,0.03,0.0,-1.43,91.88,91.88,0.0,0.07,3
1682105488.90558386,34308559,0.0,0.03,0.0,-1.43,91.99,91.99,0.0,0.07,3
1682105489.00540090,34408376,0.0,0.03,0.0,-1.43,92.06,92.06,0.0,0.07,3
1682105489.10534501,34508320,0.0,0.03,0.0,-1.43,92.18,92.18,0.0,0.06,3
1682105489.20551395,34608489,0.0,0.03,0.0,-1.43,92.29,92.29,0.0,0.06,3
1682105489.30554080,34708516,0.0,0.02,0.0,-1.43,92.31,92.31,0.0,0.05,3
1682105489.40546989,34808445,0.0,0.03,0.0,-1.44,92.37,92.37,0.0,0.04,3
1682105489.50543284,34908408,0.0,0.03,0.0,-1.43,92.43,92.43,0.0,0.03,3
1682105489.60547280,35008448,0.0,0.03,0.0,-1.43,92.41,92.41,0.0,0.04,3
1682105489.70542502,35108400,0.0,0.03,0.0,-1.43,92.43,92.43,0.0,0.05,3
1682105489.80537200,35208347,0.0,0.03,0.0,-1.43,92.49,92.49,0.0,0.05,3
1682105489.90540695,35308382,0.0,0.03,0.0,-1.44,92.5,92.5,0.0,0.04,3
1682105490.00544190,35408417,0.0,0.03,0.0,-1.44,92.54,92.54,0.0,0.04,3
1682105490.10556197,35508537,0.0,0.03,0.0,-1.44,92.60000000000001,92.60000000000001,0.0,0.04,3
1682105490.20559096,35608566,0.0,0.03,0.0,-1.44,92.61,92.61,0.0,0.04,3
1682105490.30525494,35708230,0.0,0.03,0.0,-1.44,92.65,92.65,0.0,0.04,3
1682105490.40522981,35808205,0.0,0.02,0.0,-1.43,92.71000000000001,92.71000000000001,0.0,0.04,3
1682105490.50526381,35908239,0.0,0.03,0.0,-1.43,92.73,92.73,0.0,0.04,3
1682105490.60539889,36008374,0.0,0.02,0.0,-1.43,92.76,92.76,0.0,0.04,3
1682105490.70536995,36108345,0.0,0.03,0.0,-1.43,92.83,92.83,0.0,0.03,3
1682105490.80559182,36208567,0.0,0.02,0.0,-1.44,92.85000000000001,92.85000000000001,0.0,0.03,3
1682105490.90557194,36308547,0.0,0.03,0.0,-1.44,92.86,92.86,0.0,0.04,3
1682105491.00535583,36408331,0.0,0.02,0.0,-1.43,92.87,92.87,0.0,0.04,3
1682105491.10524988,36508225,0.0,0.03,0.0,-1.44,92.92,92.92,0.0,0.04,3
1682105491.20526791,36608243,0.0,0.02,0.0,-1.44,92.95,92.95,0.0,0.04,3
1682105491.30526900,36708244,0.0,0.03,0.0,-1.44,92.98,92.98,0.0,0.04,3
1682105491.40527296,36808248,0.0,0.03,0.0,-1.45,93.01,93.01,0.0,0.05,3
1682105491.50562882,36908604,0.0,0.03,0.0,-1.44,93.0,93.0,0.0,0.05,3
1682105491.60560203,37008577,0.0,0.03,0.0,-1.44,92.94,92.94,0.0,0.06,3
1682105491.70543385,37108409,0.0,0.04,0.0,-1.44,92.88,92.88,0.0,0.05,3
1682105491.80536795,37208343,0.0,0.04,0.0,-1.44,92.81,92.81,0.0,0.05,3
1682105491.90552902,37308504,0.0,0.04,0.0,-1.45,92.74,92.74,0.0,0.06,3
1682105492.00563788,37408613,0.0,0.05,0.0,-1.45,92.68,92.68,0.0,0.06,3
1682105492.10565281,37508628,0.0,0.05,0.0,-1.45,92.61,92.61,0.0,0.06,3
1682105492.20545697,37608432,0.0,0.05,0.0,-1.45,92.51,92.51,0.0,0.07,3
1682105492.30549288,37708468,0.0,0.05,0.0,-1.45,92.44,92.44,0.0,0.07,3
1682105492.40543580,37808411,0.0,0.06,0.0,-1.45,92.35000000000001,92.35000000000001,0.0,0.06,3
1682105492.50541496,37908390,0.0,0.06,0.0,-1.45,92.25,92.25,0.0,0.06,3
1682105492.60539699,38008372,0.0,0.07,0.0,-1.45,92.19,92.19,0.0,0.05,3
1682105492.70538187,38108357,0.0,0.06,0.0,-1.46,92.13,92.13,0.0,0.06,3
1682105492.80524802,38208223,0.0,0.07,0.0,-1.46,92.05,92.05,0.0,0.06,3
1682105492.90529585,38308271,0.0,0.07,0.0,-1.46,92.0,92.0,0.0,0.05,3
1682105493.00530291,38408278,0.0,0.07,0.0,-1.46,91.94,91.94,0.0,0.05,3
1682105493.10544300,38508418,0.0,0.07,0.0,-1.46,91.87,91.87,0.0,0.05,3
1682105493.20527887,38608254,0.0,0.07,0.0,-1.46,91.82000000000001,91.82000000000001,0.0,0.05,3
1682105493.30541301,38708388,0.0,0.07,0.0,-1.46,91.76,91.76,0.0,0.05,3
1682105493.40537095,38808346,0.0,0.07,0.0,-1.47,91.69,91.69,0.0,0.05,3
1682105493.50539994,38908375,0.0,0.08,0.0,-1.47,91.63,91.63,0.0,0.05,3
1682105493.60536385,39008339,0.0,0.08,0.0,-1.47,91.57000000000001,91.57000000000001,0.0,0.04,3
1682105493.70524383,39108219,0.0,0.08,0.0,-1.47,91.51,91.51,0.0,0.04,3
1682105493.80559993,39208575,0.0,0.08,0.0,-1.48,91.46000000000001,91.46000000000001,0.0,0.03,3
1682105493.90526199,39308237,0.0,0.08,0.0,-1.47,91.42,91.42,0.0,0.04,3
1682105494.00528288,39408258,0.0,0.09,0.0,-1.47,91.37,91.37,0.0,0.04,3
1682105494.10527897,39508254,0.0,0.09,0.0,-1.47,91.33,91.33,0.0,0.04,3
1682105494.20542097,39608396,0.0,0.09,0.0,-1.47,91.3,91.3,0.0,0.03,3
1682105494.30538392,39708359,0.0,0.09,0.0,-1.48,91.25,91.25,0.0,0.04,3
1682105494.40539002,39808365,0.0,0.09,0.0,-1.48,91.2,91.2,0.0,0.03,3
1682105494.50554681,39908522,0.0,0.09,0.0,-1.48,91.17,91.17,0.0,0.02,3
1682105494.60555887,40008534,0.0,0.09,0.0,-1.48,91.13,91.13,0.0,0.03,3
1682105494.70562887,40108604,0.0,0.1,0.0,-1.48,91.09,91.09,0.0,0.04,3
1682105494.80526400,40208239,0.0,0.1,0.0,-1.48,91.06,91.06,0.0,0.03,3
1682105494.90522480,40308200,0.0,0.1,0.0,-1.48,91.02,91.02,0.0,0.02,3
1682105495.00532389,40408299,0.0,0.1,0.0,-1.48,90.99,90.99,0.0,0.02,3
1682105495.10543799,40508413,0.0,0.1,0.0,-1.48,90.97,90.97,0.0,0.02,3
1682105495.20542693,40608402,0.0,0.1,0.0,-1.48,90.94,90.94,0.0,0.02,3
1682105495.30538487,40708360,0.0,0.11,0.0,-1.49,90.92,90.92,0.0,0.02,3
1682105495.40536880,40808344,0.0,0.11,0.0,-1.49,90.91,90.91,0.0,0.02,3
1682105495.50557685,40908552,0.0,0.11,0.0,-1.49,90.88,90.88,0.0,0.03,3
1682105495.60559702,41008572,0.0,0.11,0.0,-1.49,90.84,90.84,0.0,0.04,3
1682105495.70526695,41108242,0.0,0.12,0.0,-1.49,90.8,90.8,0.0,0.04,3
1682105495.80522084,41208196,0.0,0.12,0.0,-1.49,90.75,90.75,0.0,0.04,3
1682105495.90527081,41308246,0.0,0.12,0.0,-1.49,90.69,90.69,0.0,0.04,3
1682105496.00545502,41408430,0.0,0.12,0.0,-1.49,90.65,90.65,0.0,0.03,3
1682105496.10537386,41508349,0.0,0.13,0.0,-1.49,90.60000000000001,90.60000000000001,0.0,0.04,3
1682105496.20562196,41608597,0.0,0.13,0.0,-1.49,90.55,90.55,0.0,0.04,3
1682105496.30568981,41708665,0.0,0.13,0.0,-1.48,90.51,90.51,0.0,0.04,3
1682105496.40525198,41808227,0.0,0.13,0.0,-1.48,90.46000000000001,90.46000000000001,0.0,0.03,3
1682105496.50530481,41908280,0.0,0.13,0.0,-1.48,90.41,90.41,0.0,0.04,3
1682105496.60526180,42008237,0.0,0.13,0.0,-1.48,90.37,90.37,0.0,0.04,3
1682105496.70523787,42108213,0.0,0.13,0.0,-1.48,90.33,90.33,0.0,0.04,3
1682105496.80526900,42208244,0.0,0.13,0.0,-1.48,90.28,90.28,0.0,0.04,3
1682105496.90560985,42308585,0.0,0.13,0.0,-1.48,90.23,90.23,0.0,0.05,3
1682105497.00563502,42408610,0.0,0.13,0.0,-1.48,90.19,90.19,0.0,0.04,3
1682105497.10539103,42508366,0.0,0.13,0.0,-1.48,90.16,90.16,0.0,0.04,3
1682105497.20535994,42608335,0.0,0.12,0.0,-1.48,90.14,90.14,0.0,0.04,3
1682105497.30525994,42708235,0.0,0.12,0.0,-1.48,90.12,90.12,0.0,0.04,3
1682105497.40530396,42808279,0.0,0.12,0.0,-1.48,90.09,90.09,0.0,0.04,3
1682105497.50525498,42908230,0.0,0.12,0.0,-1.48,90.05,90.05,0.0,0.03,3
1682105497.60544181,43008417,0.0,0.12,0.0,-1.48,90.01,90.01,0.0,0.03,3
1682105497.70547485,43108450,0.0,0.12,0.0,-1.48,89.97,89.97,0.0,0.03,3
1682105497.80542302,43208398,0.0,0.12,0.0,-1.48,89.93,89.93,0.0,0.03,3
1682105497.90538502,43308360,0.0,0.12,0.0,-1.48,89.89,89.89,0.0,0.03,3
1682105498.00542903,43408404,0.0,0.12,0.0,-1.48,89.85000000000001,89.85000000000001,0.0,0.03,3
1682105498.10537887,43508354,0.0,0.13,0.0,-1.48,89.82000000000001,89.82000000000001,0.0,0.02,3
1682105498.20556283,43608538,0.0,0.12,0.0,-1.49,89.79,89.79,0.0,0.02,3
1682105498.30560589,43708581,0.0,0.12,0.0,-1.49,89.76,89.76,0.0,0.02,3
1682105498.40531182,43808287,0.0,0.12,0.0,-1.49,89.74,89.74,0.0,0.02,3
1682105498.50521803,43908193,0.0,0.12,0.0,-1.49,89.72,89.72,0.0,0.01,3
1682105498.60527182,44008247,0.0,0.12,0.0,-1.49,89.7,89.7,0.0,0.01,3
1682105498.70542884,44108404,0.0,0.12,0.0,-1.48,89.68,89.68,0.0,0.02,3
1682105498.80539298,44208368,0.0,0.12,0.0,-1.48,89.66,89.66,0.0,0.02,3
1682105498.90562797,44308603,0.0,0.12,0.0,-1.48,89.62,89.62,0.0,0.02,3
1682105499.00565600,44408631,0.0,0.12,0.0,-1.49,89.59,89.59,0.0,0.02,3
1682105499.10524082,44508216,0.0,0.12,0.0,-1.48,89.55,89.55,0.0,0.02,3
1682105499.20556593,44608541,0.0,0.12,0.0,-1.48,89.52,89.52,0.0,0.03,3
1682105499.30550289,44708478,0.0,0.12,0.0,-1.49,89.48,89.48,0.0,0.02,3
1682105499.40541387,44808389,0.0,0.12,0.0,-1.48,89.45,89.45,0.0,0.02,3
1682105499.50544381,44908419,0.0,0.11,0.0,-1.48,89.42,89.42,0.0,0.02,3
1682105499.60583282,45008808,0.0,0.11,0.0,-1.48,89.4,89.4,0.0,0.01,3
1682105499.70575285,45108728,0.0,0.11,0.0,-1.48,89.39,89.39,0.0,0.02,3
1682105499.80558181,45208557,0.0,0.1,0.0,-1.48,89.37,89.37,0.0,0.02,3
1682105499.90551901,45308494,0.0,0.1,0.0,-1.48,89.35000000000001,89.35000000000001,0.0,0.02,3
1682105500.00559998,45408575,0.0,0.1,0.0,-1.48,89.33,89.32000000000001,0.0,0.02,3
1682105500.10555887,45508534,0.0,0.1,0.0,-1.47,89.29,89.29,0.0,0.02,3
1682105500.20548201,45608457,0.0,0.1,0.0,-1.47,89.27,89.27,0.0,0.03,3
1682105500.30575180,45708727,0.0,0.1,0.0,-1.47,89.24,89.24,0.0,0.03,3
1682105500.40548897,45808464,0.0,0.1,0.0,-1.47,89.2,89.2,0.0,0.04,3
1682105500.50543404,45908409,0.0,0.1,0.0,-1.47,89.16,89.16,0.0,0.03,3
1682105500.60538793,46008363,0.0,0.1,0.0,-1.47,89.11,89.11,0.0,0.03,3
1682105500.70539689,46108372,0.0,0.1,0.0,-1.48,89.08,89.08,0.0,0.03,3
1682105500.80538392,46208359,0.0,0.1,0.0,-1.48,89.05,89.05,0.0,0.03,3
1682105500.90524793,46308223,0.0,0.1,0.0,-1.47,89.02,89.02,0.0,0.03,3
1682105501.00537395,46408349,0.0,0.1,0.0,-1.47,88.99,88.99,0.0,0.02,3
1682105501.10520792,46508183,0.0,0.09,0.0,-1.48,88.96000000000001,88.96000000000001,0.0,0.02,3
1682105501.20522380,46608199,0.0,0.09,0.0,-1.47,88.95,88.95,0.0,0.02,3
1682105501.30526686,46708242,0.0,0.09,0.0,-1.47,88.92,88.92,0.0,0.01,3
1682105501.40548182,46808457,0.0,0.09,0.0,-1.48,88.9,88.9,0.0,0.01,3
1682105501.50559497,46908570,0.0,0.09,0.0,-1.48,88.89,88.89,0.0,0.02,3
1682105501.60562181,47008597,0.0,0.09,0.0,-1.48,88.89,88.89,0.0,0.01,3
1682105501.70537496,47108350,0.0,0.1,0.0,-1.48,88.89,88.89,0.0,0.02,3
1682105501.80524993,47208225,0.0,0.09,0.0,-1.48,88.89,88.89,0.0,0.02,3
1682105501.90524793,47308223,0.0,0.1,0.0,-1.48,88.88,88.88,0.0,0.01,3
1682105502.00528598,47408261,0.0,0.1,0.0,-1.48,88.86,88.86,0.0,0.01,3
1682105502.10545897,47508434,0.0,0.1,0.0,-1.48,88.84,88.84,0.0,0.01,3
1682105502.20550680,47608482,0.0,0.1,0.0,-1.48,88.83,88.83,0.0,0.02,3
1682105502.30540180,47708377,0.0,0.1,0.0,-1.48,88.81,88.81,0.0,0.02,3
1682105502.40539002,47808365,0.0,0.1,0.0,-1.48,88.82000000000001,88.82000000000001,0.0,0.02,3
1682105502.50540781,47908383,0.0,0.1,0.0,-1.48,88.82000000000001,88.82000000000001,0.0,0.02,3
1682105502.60541797,48008393,0.0,0.1,0.0,-1.48,88.81,88.81,0.0,0.02,3
1682105502.70524597,48108221,0.0,0.1,0.0,-1.48,88.8,88.8,0.0,0.02,3
1682105502.80562282,48208598,0.0,0.11,0.0,-1.48,88.79,88.79,0.0,0.02,3
1682105502.90553188,48308507,0.0,0.11,0.0,-1.48,88.77,88.77,0.0,0.01,3
1682105503.00527287,48408248,0.0,0.11,0.0,-1.48,88.75,88.75,0.0,0.01,3
1682105503.10526800,48508243,0.0,0.11,0.0,-1.48,88.73,88.73,0.0,0.01,3
1682105503.20541286,48608388,0.0,0.12,0.0,-1.48,88.72,88.72,0.0,0.02,3
1682105503.30537486,48708350,0.0,0.12,0.0,-1.48,88.7,88.7,0.0,0.02,3
1682105503.40540385,48808379,0.0,0.11,0.0,-1.49,88.68,88.68,0.0,0.01,3
1682105503.50535202,48908327,0.0,0.11,0.0,-1.49,88.66,88.66,0.0,0.01,3
1682105503.60524988,49008225,0.0,0.11,0.0,-1.49,88.64,88.64,0.0,0.01,3
1682105503.70524883,49108224,0.0,0.11,0.0,-1.49,88.63,88.63,0.0,0.02,3
1682105503.80526400,49208239,0.0,0.11,0.0,-1.49,88.61,88.61,0.0,0.01,3
1682105503.90523601,49308211,0.0,0.11,0.0,-1.49,88.60000000000001,88.60000000000001,0.0,0.01,3
1682105504.00553584,49408511,0.0,0.12,0.0,-1.49,88.58,88.58,0.0,0.01,3
1682105504.10541582,49508391,0.0,0.12,0.0,-1.49,88.56,88.56,0.0,0.01,3
1682105504.20538187,49608357,0.0,0.12,0.0,-1.49,88.55,88.55,0.0,0.01,3
1682105504.30541301,49708388,0.0,0.12,0.0,-1.49,88.54,88.54,0.0,0.01,3
1682105504.40555191,49808527,0.0,0.13,0.0,-1.49,88.53,88.53,0.0,0.01,3
1682105504.50554085,49908516,0.0,0.13,0.0,-1.49,88.51,88.51,0.0,0.02,3
1682105504.60554790,50008523,0.0,0.14,0.0,-1.49,88.49,88.49,0.0,0.01,3
1682105504.70564795,50108623,0.0,0.14,0.0,-1.49,88.46000000000001,88.46000000000001,0.0,0.01,3
1682105504.80552983,50208505,0.0,0.14,0.0,-1.5,88.44,88.44,0.0,0.02,3
1682105504.90548897,50308464,0.0,0.15,0.0,-1.49,88.42,88.42,0.0,0.02,3
1682105505.00573492,50408710,0.0,0.15,0.0,-1.5,88.39,88.39,0.0,0.02,3
1682105505.10559201,50508567,0.0,0.16,0.0,-1.5,88.38,88.38,0.0,0.01,3
1682105505.20562196,50608597,0.0,0.16,0.0,-1.5,88.37,88.37,0.0,0.02,3
1682105505.30579185,50708767,0.0,0.17,0.0,-1.51,88.36,88.36,0.0,0.02,3
1682105505.40556788,50808543,0.0,0.17,0.0,-1.51,88.36,88.36,0.0,0.01,3
1682105505.50562000,50908595,0.0,0.17,0.0,-1.5,88.35000000000001,88.35000000000001,0.0,0.02,3
1682105505.60552692,51008502,0.0,0.18,0.0,-1.51,88.34,88.34,0.0,0.02,3
1682105505.70548201,51108457,0.0,0.18,0.0,-1.5,88.32000000000001,88.32000000000001,0.0,0.01,3
1682105505.80549192,51208467,0.0,0.19,0.0,-1.51,88.31,88.31,0.0,0.02,3
1682105505.90561485,51308590,0.0,0.19,0.0,-1.51,88.3,88.3,0.0,0.02,3
1682105506.00563598,51408611,0.0,0.19,0.0,-1.51,88.29,88.29,0.0,0.02,3
1682105506.10561895,51508594,0.0,0.2,0.0,-1.51,88.28,88.28,0.0,0.01,3
1682105506.20555401,51608529,0.0,0.2,0.0,-1.51,88.26,88.26,0.0,0.02,3
1682105506.30556798,51708543,0.0,0.2,0.0,-1.51,88.26,88.26,0.0,0.02,3
1682105506.40562701,51808602,0.0,0.21,0.0,-1.51,88.26,88.26,0.0,0.02,3
1682105506.50526285,51908238,0.0,0.21,0.0,-1.52,88.26,88.26,0.0,0.01,3
1682105506.60524988,52008225,0.0,0.22,0.0,-1.51,88.25,88.25,0.0,0.01,3
1682105506.70529699,52108272,0.0,0.22,0.0,-1.51,88.26,88.26,0.0,0.01,3
1682105506.80543303,52208408,0.0,0.22,0.0,-1.51,88.25,88.25,0.0,0.01,3
1682105506.90538883,52308364,0.0,0.21,0.0,-1.52,88.25,88.25,0.0,0.02,3
1682105507.00547099,52408446,0.0,0.21,0.0,-1.52,88.25,88.25,0.0,0.01,3
1682105507.10535192,52508327,0.0,0.2,0.0,-1.51,88.24,88.24,0.0,0.01,3
1682105507.20524883,52608224,0.0,0.2,0.0,-1.52,88.22,88.22,0.0,0.02,3
1682105507.30530500,52708280,0.0,0.2,0.0,-1.52,88.21000000000001,88.21000000000001,0.0,0.03,3
1682105507.40525889,52808234,0.0,0.2,0.0,-1.53,88.21000000000001,88.21000000000001,0.0,0.02,3
1682105507.50548601,52908461,0.0,0.19,0.0,-1.53,88.21000000000001,88.21000000000001,0.0,0.02,3
1682105507.60528493,53008260,0.0,0.19,0.0,-1.53,88.21000000000001,88.21000000000001,0.0,0.02,3
1682105507.70542693,53108402,0.0,0.18,0.0,-1.52,88.21000000000001,88.21000000000001,0.0,0.02,3
1682105507.80538082,53208356,0.0,0.18,0.0,-1.51,88.22,88.22,0.0,0.02,3
1682105507.90538383,53308359,0.0,0.18,0.0,-1.51,88.23,88.23,0.0,0.02,3
1682105508.00542688,53408402,0.0,0.17,0.0,-1.51,88.22,88.22,0.0,0.02,3
1682105508.10526085,53508236,0.0,0.16,0.0,-1.5,88.22,88.22,0.0,0.02,3
1682105508.20562696,53608602,0.0,0.16,0.0,-1.5,88.2,88.2,0.0,0.02,3
1682105508.30527186,53708247,0.0,0.15,0.0,-1.5,88.19,88.19,0.0,0.01,3
1682105508.40541697,53808392,0.0,0.14,0.0,-1.5,88.17,88.17,0.0,0.01,3
1682105508.50541782,53908393,0.0,0.14,0.0,-1.5,88.16,88.16,0.0,0.01,3
1682105508.60558891,54008564,0.0,0.14,0.0,-1.51,88.15,88.15,0.0,0.01,3
1682105508.70556998,54108545,0.0,0.13,0.0,-1.51,88.13,88.13,0.0,0.01,3
1682105508.80556798,54208543,0.0,0.13,0.0,-1.51,88.12,88.12,0.0,0.01,3
1682105508.90584803,54308823,0.0,0.12,0.0,-1.52,88.12,88.12,0.0,0.01,3
1682105509.00563693,54408612,0.0,0.11,0.0,-1.52,88.11,88.11,0.0,0.01,3
1682105509.10561800,54508593,0.0,0.11,0.0,-1.52,88.11,88.11,0.0,0.01,3
1682105509.20553803,54608513,0.0,0.12,0.0,-1.53,88.12,88.12,0.0,0.01,3
1682105509.30547190,54708447,0.0,0.12,0.0,-1.53,88.12,88.12,0.0,0.01,3
1682105509.40547681,54808452,0.0,0.13,0.0,-1.52,88.12,88.12,0.0,0.01,3
1682105509.50541997,54908395,0.0,0.13,0.0,-1.52,88.11,88.11,0.0,0.01,3
1682105509.60558796,55008563,0.0,0.13,0.0,-1.51,88.11,88.11,0.0,0.01,3
1682105509.70561099,55108586,0.0,0.13,0.0,-1.5,88.10000000000001,88.10000000000001,0.0,0.01,3
1682105509.80558085,55208556,0.0,0.13,0.0,-1.5,88.10000000000001,88.10000000000001,0.0,0.01,3
1682105509.90557289,55308548,0.0,0.12,0.0,-1.5,88.09,88.09,0.0,0.01,3
1682105510.00564599,55408621,0.0,0.12,0.0,-1.5,88.09,88.09,0.0,0.02,3
1682105510.10558081,55508556,0.0,0.12,0.0,-1.5,88.08,88.08,0.0,0.02,3
1682105510.20544291,55608418,0.0,0.12,0.0,-1.5,88.06,88.06,0.0,0.03,3
1682105510.30548382,55708459,0.0,0.12,0.0,-1.5,88.03,88.03,0.0,0.03,3
1682105510.40561080,55808586,0.0,0.12,0.0,-1.5,88.0,88.0,0.0,0.02,3
1682105510.50576901,55908744,0.0,0.11,0.0,-1.5,87.97,87.97,0.0,0.03,3
1682105510.60561490,56008590,0.0,0.11,0.0,-1.5,87.95,87.95,0.0,0.03,3
1682105510.70535302,56108328,0.0,0.11,0.0,-1.5,87.92,87.92,0.0,0.04,3
1682105510.80525398,56208229,0.0,0.11,0.0,-1.51,87.88,87.88,0.0,0.03,3
1682105510.90530300,56308278,0.0,0.12,0.0,-1.51,87.86,87.86,0.0,0.03,3
1682105511.00539804,56408373,0.0,0.11,0.0,-1.52,87.83,87.83,0.0,0.02,3
1682105511.10523796,56508213,0.0,0.12,0.0,-1.52,87.79,87.79,0.0,0.02,3
1682105511.20528197,56608257,0.0,0.12,0.0,-1.51,87.79,87.79,0.0,0.02,3
1682105511.30542397,56708399,0.0,0.11,0.0,-1.51,87.77,87.77,0.0,0.02,3
1682105511.40558290,56808558,0.0,0.11,0.0,-1.51,87.73,87.73,0.0,0.02,3
1682105511.50537682,56908352,0.0,0.11,0.0,-1.51,87.73,87.73,0.0,0.02,3
1682105511.60535884,57008334,0.0,0.12,0.0,-1.51,87.72,87.72,0.0,0.02,3
1682105511.70525885,57108234,0.0,0.11,0.0,-1.5,87.69,87.69,0.0,0.02,3
1682105511.80530500,57208280,0.0,0.13,0.0,-1.51,87.68,87.68,0.0,0.01,3
1682105511.90525889,57308234,0.0,0.11,0.0,-1.5,87.68,87.68,0.0,0.01,3
1682105512.00529790,57408273,0.0,0.13,0.0,-1.5,87.65,87.65,0.0,0.02,3
1682105512.10527802,57508253,0.0,0.12,0.0,-1.5,87.65,87.65,0.0,0.01,3
1682105512.20546699,57608442,0.0,0.14,0.0,-1.5,87.66,87.66,0.0,0.02,3
1682105512.30560684,57708582,0.0,0.12,0.0,-1.5,87.65,87.65,0.0,0.01,3
1682105512.40560985,57808585,0.0,0.13,0.0,-1.49,87.65,87.65,0.0,0.02,3
1682105512.50554895,57908524,0.0,0.13,0.0,-1.49,87.65,87.65,0.0,0.02,3
1682105512.60555601,58008531,0.0,0.13,0.0,-1.5,87.63,87.63,0.0,0.02,3
1682105512.70556593,58108541,0.0,0.13,0.0,-1.49,87.62,87.62,0.0,0.02,3
1682105512.80549097,58208466,0.0,0.13,0.0,-1.49,87.60000000000001,87.60000000000001,0.0,0.03,3
1682105512.90542102,58308396,0.0,0.14,0.0,-1.5,87.57000000000001,87.57000000000001,0.0,0.03,3
1682105513.00550485,58408480,0.0,0.13,0.0,-1.49,87.55,87.55,0.0,0.03,3
1682105513.10559893,58508574,0.0,0.14,0.0,-1.49,87.52,87.52,0.0,0.03,3
1682105513.20560193,58608577,0.0,0.13,0.0,-1.49,87.49,87.49,0.0,0.03,3
1682105513.30543089,58708406,0.0,0.14,0.0,-1.49,87.46000000000001,87.46000000000001,0.0,0.03,3
1682105513.40538883,58808364,0.0,0.13,0.0,-1.49,87.44,87.44,0.0,0.03,3
1682105513.50524282,58908218,0.0,0.14,0.0,-1.49,87.41,87.41,0.0,0.03,3
1682105513.60525703,59008232,0.0,0.14,0.0,-1.49,87.39,87.39,0.0,0.03,3
1682105513.70521188,59108187,0.0,0.14,0.0,-1.49,87.38,87.38,0.0,0.03,3
1682105513.80548596,59208461,0.0,0.14,0.0,-1.49,87.35000000000001,87.35000000000001,0.0,0.04,3
1682105513.90527487,59308250,0.0,0.14,0.0,-1.49,87.33,87.33,0.0,0.04,3
1682105514.00546503,59408440,0.0,0.14,0.0,-1.47,87.32000000000001,87.32000000000001,0.0,0.04,3
1682105514.10537195,59508347,0.0,0.15,0.0,-1.48,87.28,87.28,0.0,0.04,3
1682105514.20538902,59608364,0.0,0.15,0.0,-1.48,87.25,87.25,0.0,0.04,3
1682105514.30535984,59708335,0.0,0.15,0.0,-1.47,87.22,87.22,0.0,0.05,3
1682105514.40523982,59808215,0.0,0.16,0.0,-1.47,87.17,87.17,0.0,0.05,3
1682105514.50562382,59908599,0.0,0.15,0.0,-1.46,87.13,87.13,0.0,0.04,3
1682105514.60522890,60008204,0.0,0.16,0.0,-1.46,87.10000000000001,87.10000000000001,0.0,0.04,3
1682105514.70523190,60108207,0.0,0.16,0.0,-1.45,87.06,87.06,0.0,0.03,3
1682105514.80528784,60208263,0.0,0.18,0.0,-1.44,87.03,87.03,0.0,0.03,3
1682105514.90541387,60308389,0.0,0.17,0.0,-1.44,87.02,87.02,0.0,0.02,3
1682105515.00543499,60408410,0.0,0.18,0.0,-1.44,87.0,87.0,0.0,0.02,3
1682105515.10538197,60508357,0.0,0.18,0.0,-1.45,86.98,86.98,0.0,0.03,3
1682105515.20542192,60608397,0.0,0.19,0.0,-1.45,86.99,86.99,0.0,0.02,3
1682105515.30525088,60708226,0.0,0.18,0.0,-1.44,86.99,86.99,0.0,0.02,3
1682105515.40559483,60808570,0.0,0.19,0.0,-1.44,86.99,86.99,0.0,0.02,3
1682105515.50551891,60908494,0.0,0.19,0.0,-1.44,87.0,87.0,0.0,0.02,3
1682105515.60546184,61008437,0.0,0.19,0.0,-1.44,87.0,87.0,0.0,0.02,3
1682105515.70547700,61108452,0.0,0.19,0.0,-1.44,87.0,87.0,0.0,0.02,3
1682105515.80563498,61208610,0.0,0.19,0.0,-1.44,87.0,87.0,0.0,0.01,3
1682105515.90558791,61308563,0.0,0.19,0.0,-1.44,86.98,86.98,0.0,0.01,3
1682105516.00565886,61408634,0.0,0.19,0.0,-1.44,86.97,86.97,0.0,0.01,3
1682105516.10579395,61508769,0.0,0.19,0.0,-1.43,86.97,86.97,0.0,0.01,3
1682105516.20579791,61608773,0.0,0.19,0.0,-1.43,86.96000000000001,86.96000000000001,0.0,0.01,3
1682105516.30561280,61708588,0.0,0.19,0.0,-1.43,86.94,86.94,0.0,0.01,3
1682105516.40552187,61808497,0.0,0.19,0.0,-1.43,86.94,86.94,0.0,0.01,3
1682105516.50548291,61908458,0.0,0.19,0.0,-1.43,86.94,86.94,0.0,0.01,3
1682105516.60548186,62008457,0.0,0.2,0.0,-1.42,86.92,86.92,0.0,0.01,3
1682105516.70561099,62108586,0.0,0.2,0.0,-1.42,86.92,86.92,0.0,0.01,3
1682105516.80560303,62208578,0.0,0.2,0.0,-1.42,86.91,86.91,0.0,0.01,3
1682105516.90561581,62308591,0.0,0.2,0.0,-1.42,86.9,86.9,0.0,0.01,3
1682105517.00564599,62408621,0.0,0.2,0.0,-1.42,86.9,86.9,0.0,0.02,3
1682105517.10525584,62508231,0.0,0.2,0.0,-1.42,86.9,86.9,0.0,0.02,3
1682105517.20530295,62608278,0.0,0.22,0.0,-1.42,86.88,86.88,0.0,0.02,3
1682105517.30535698,62708332,0.0,0.21,0.0,-1.42,86.88,86.88,0.0,0.02,3
1682105517.40524101,62808216,0.0,0.22,0.0,-1.42,86.88,86.88,0.0,0.01,3
1682105517.50528288,62908258,0.0,0.22,0.0,-1.41,86.86,86.86,0.0,0.01,3
1682105517.60541582,63008391,0.0,0.22,0.0,-1.41,86.85000000000001,86.85000000000001,0.0,0.01,3
1682105517.70559502,63108570,0.0,0.22,0.0,-1.41,86.84,86.84,0.0,0.02,3
1682105517.80556297,63208538,0.0,0.22,0.0,-1.4000000000000001,86.83,86.83,0.0,0.02,3
1682105517.90553689,63308512,0.0,0.22,0.0,-1.4000000000000001,86.82000000000001,86.82000000000001,0.0,0.02,3
1682105518.00559402,63408569,0.0,0.22,0.0,-1.4000000000000001,86.82000000000001,86.82000000000001,0.0,0.01,3
1682105518.10554790,63508523,0.0,0.22,0.0,-1.4000000000000001,86.81,86.81,0.0,0.01,3
1682105518.20549488,63608470,0.0,0.21,0.0,-1.4000000000000001,86.81,86.81,0.0,0.01,3
1682105518.30578899,63708764,0.0,0.22,0.0,-1.4000000000000001,86.81,86.81,0.0,0.01,3
1682105518.40548587,63808461,0.0,0.21,0.0,-1.4000000000000001,86.79,86.79,0.0,0.02,3
1682105518.50541091,63908386,0.0,0.22,0.0,-1.4000000000000001,86.79,86.79,0.0,0.02,3
1682105518.60536885,64008344,0.0,0.22,0.0,-1.4000000000000001,86.79,86.79,0.0,0.02,3
1682105518.70538998,64108365,0.0,0.22,0.0,-1.4000000000000001,86.79,86.79,0.0,0.02,3
1682105518.80536580,64208341,0.0,0.22,0.0,-1.4000000000000001,86.78,86.78,0.0,0.01,3
1682105518.90525293,64308228,0.0,0.23,0.0,-1.3900000000000001,86.77,86.77,0.0,0.02,3
1682105519.00537801,64408353,0.0,0.23,0.0,-1.3900000000000001,86.76,86.76,0.0,0.01,3
1682105519.10524297,64508218,0.0,0.23,0.0,-1.3900000000000001,86.75,86.75,0.0,0.02,3
1682105519.20548797,64608463,0.0,0.24,0.0,-1.3900000000000001,86.73,86.73,0.0,0.01,3
1682105519.30548286,64708458,0.0,0.24,0.0,-1.3800000000000001,86.72,86.72,0.0,0.02,3
1682105519.40544200,64808417,0.0,0.24,0.0,-1.3800000000000001,86.72,86.72,0.0,0.01,3
1682105519.50538802,64908363,0.0,0.24,0.0,-1.3800000000000001,86.71000000000001,86.71000000000001,0.0,0.01,3
1682105519.60539198,65008367,0.0,0.25,0.0,-1.3800000000000001,86.71000000000001,86.71000000000001,0.0,0.01,3
1682105519.70534301,65108318,0.0,0.25,0.0,-1.3800000000000001,86.7,86.7,0.0,0.01,3
1682105519.80525303,65208228,0.0,0.25,0.0,-1.3800000000000001,86.7,86.7,0.0,0.01,3
1682105519.90561080,65308586,0.0,0.25,0.0,-1.37,86.68,86.68,0.0,0.01,3
1682105520.00530887,65408284,0.0,0.26,0.0,-1.37,86.67,86.67,0.0,0.01,3
1682105520.10523582,65508211,0.0,0.26,0.0,-1.37,86.66,86.66,0.0,0.01,3
1682105520.20541692,65608392,0.0,0.27,0.0,-1.3800000000000001,86.65,86.65,0.0,0.01,3
1682105520.30560589,65708581,0.0,0.27,0.0,-1.3800000000000001,86.63,86.63,0.0,0.01,3
1682105520.40554285,65808518,0.0,0.27,0.0,-1.37,86.63,86.63,0.0,0.02,3
1682105520.50556588,65908541,0.0,0.27,0.0,-1.37,86.62,86.62,0.0,0.01,3
1682105520.60560799,66008583,0.0,0.27,0.0,-1.37,86.61,86.61,0.0,0.02,3
1682105520.70526099,66108236,0.0,0.28,0.0,-1.37,86.61,86.61,0.0,0.01,3
1682105520.80534697,66208322,0.0,0.27,0.0,-1.37,86.61,86.61,0.0,0.02,3
1682105520.90525103,66308226,0.0,0.27,0.0,-1.37,86.61,86.61,0.0,0.02,3
1682105521.00529981,66408275,0.0,0.27,0.0,-1.37,86.61,86.61,0.0,0.01,3
1682105521.10527396,66508249,0.0,0.27,0.0,-1.37,86.61,86.61,0.0,0.01,3
1682105521.20542693,66608402,0.0,0.27,0.0,-1.37,86.60000000000001,86.60000000000001,0.0,0.01,3
1682105521.30536199,66708337,0.0,0.27,0.0,-1.37,86.60000000000001,86.60000000000001,0.0,0.01,3
1682105521.40538001,66808355,0.0,0.28,0.0,-1.36,86.60000000000001,86.60000000000001,0.0,0.02,3
1682105521.50565696,66908632,0.0,0.28,0.0,-1.36,86.59,86.59,0.0,0.02,3
1682105521.60525203,67008227,0.0,0.28,0.0,-1.35,86.59,86.59,0.0,0.01,3
1682105521.70530295,67108278,0.0,0.28,0.0,-1.36,86.58,86.58,0.0,0.01,3
1682105521.80525994,67208235,0.0,0.28,0.0,-1.35,86.57000000000001,86.57000000000001,0.0,0.01,3
1682105521.90525103,67308226,0.0,0.28,0.0,-1.35,86.57000000000001,86.57000000000001,0.0,0.01,3
1682105522.00533080,67408306,0.0,0.28,0.0,-1.36,86.56,86.56,0.0,0.01,3
1682105522.10542393,67508399,0.0,0.29,0.0,-1.36,86.54,86.54,0.0,0.01,3
1682105522.20538998,67608365,0.0,0.29,0.0,-1.37,86.53,86.53,0.0,0.01,3
1682105522.30538201,67708357,0.0,0.29,0.0,-1.37,86.52,86.52,0.0,0.01,3
1682105522.40534997,67808325,0.0,0.29,0.0,-1.37,86.51,86.51,0.0,0.01,3
1682105522.50524998,67908225,0.0,0.29,0.0,-1.37,86.5,86.5,0.0,0.01,3
1682105522.60560894,68008584,0.0,0.29,0.0,-1.37,86.49,86.49,0.0,0.01,3
1682105522.70525599,68108231,0.0,0.29,0.0,-1.37,86.48,86.48,0.0,0.01,3
1682105522.80554295,68208518,0.0,0.29,0.0,-1.37,86.48,86.48,0.0,0.01,3
1682105522.90549898,68308474,0.0,0.29,0.0,-1.37,86.47,86.47,0.0,0.01,3
1682105523.00566292,68408638,0.0,0.29,0.0,-1.37,86.45,86.45,0.0,0.02,3
1682105523.10559082,68508566,0.0,0.29,0.0,-1.37,86.45,86.45,0.0,0.02,3
1682105523.20561481,68608590,0.0,0.29,0.0,-1.37,86.44,86.44,0.0,0.02,3
1682105523.30557799,68708553,0.0,0.29,0.0,-1.37,86.43,86.43,0.0,0.03,3
1682105523.40580797,68808783,0.0,0.3,0.0,-1.37,86.43,86.43,0.0,0.02,3
1682105523.50582695,68908802,0.0,0.3,0.0,-1.3800000000000001,86.42,86.42,0.0,0.02,3
1682105523.60569596,69008671,0.0,0.3,0.0,-1.3800000000000001,86.41,86.41,0.0,0.02,3
1682105523.70548391,69108459,0.0,0.3,0.0,-1.3800000000000001,86.39,86.39,0.0,0.02,3
1682105523.80549383,69208469,0.0,0.3,0.0,-1.37,86.39,86.39,0.0,0.01,3
1682105523.90561795,69308593,0.0,0.29,0.0,-1.37,86.38,86.38,0.0,0.01,3
1682105524.00564504,69408620,0.0,0.29,0.0,-1.37,86.38,86.38,0.0,0.01,3
1682105524.10561895,69508594,0.0,0.29,0.0,-1.37,86.37,86.37,0.0,0.01,3
1682105524.20556593,69608541,0.0,0.29,0.0,-1.37,86.36,86.36,0.0,0.01,3
1682105524.30525303,69708228,0.0,0.29,0.0,-1.37,86.36,86.36,0.0,0.02,3
1682105524.40531301,69808288,0.0,0.29,0.0,-1.37,86.36,86.36,0.0,0.02,3
1682105524.50525403,69908229,0.0,0.28,0.0,-1.37,86.35000000000001,86.35000000000001,0.0,0.02,3
1682105524.60524297,70008218,0.0,0.28,0.0,-1.37,86.35000000000001,86.35000000000001,0.0,0.02,3
1682105524.70527887,70108254,0.0,0.28,0.0,-1.36,86.35000000000001,86.35000000000001,0.0,0.02,3
1682105524.80542183,70208397,0.0,0.28,0.0,-1.36,86.35000000000001,86.35000000000001,0.0,0.02,3
1682105524.90539384,70308369,0.0,0.28,0.0,-1.36,86.35000000000001,86.35000000000001,0.0,0.02,3
1682105525.00545096,70408426,0.0,0.28,0.0,-1.36,86.35000000000001,86.35000000000001,0.0,0.02,3
1682105525.10556388,70508539,0.0,0.28,0.0,-1.36,86.34,86.34,0.0,0.02,3
1682105525.20526099,70608236,0.0,0.28,0.0,-1.36,86.35000000000001,86.35000000000001,0.0,0.03,3
1682105525.30531597,70708291,0.0,0.27,0.0,-1.37,86.35000000000001,86.35000000000001,0.0,0.02,3
1682105525.40525389,70808229,0.0,0.28,0.0,-1.37,86.35000000000001,86.35000000000001,0.0,0.02,3
1682105525.50522089,70908196,0.0,0.27,0.0,-1.37,86.35000000000001,86.35000000000001,0.0,0.02,3
1682105525.60526800,71008243,0.0,0.3,0.0,-1.37,86.35000000000001,86.35000000000001,0.0,0.03,3
1682105525.70542097,71108396,0.0,0.29,0.0,-1.37,86.35000000000001,86.35000000000001,0.0,0.02,3
1682105525.80537200,71208347,0.0,0.3,0.0,-1.37,86.36,86.36,0.0,0.02,3
1682105525.90537381,71308349,0.0,0.3,0.0,-1.3800000000000001,86.35000000000001,86.35000000000001,0.0,0.02,3
1682105526.00539899,71408374,0.0,0.29,0.0,-1.3800000000000001,86.35000000000001,86.35000000000001,0.0,0.02,3
1682105526.10526490,71508240,0.0,0.3,0.0,-1.37,86.35000000000001,86.35000000000001,0.0,0.02,3
1682105526.20559883,71608574,0.0,0.29,0.0,-1.37,86.33,86.33,0.0,0.02,3
1682105526.30526185,71708237,0.0,0.31,0.0,-1.37,86.32000000000001,86.32000000000001,0.0,0.01,3
1682105526.40542889,71808404,0.0,0.29,0.0,-1.37,86.31,86.31,0.0,0.01,3
1682105526.50542903,71908404,0.0,0.31,0.0,-1.36,86.3,86.3,0.0,0.02,3
1682105526.60558987,72008565,0.0,0.29,0.0,-1.36,86.29,86.29,0.0,0.02,3
1682105526.70556784,72108543,0.0,0.3,0.0,-1.36,86.29,86.29,0.0,0.02,3
1682105526.80555201,72208527,0.0,0.29,0.0,-1.36,86.27,86.27,0.0,0.01,3
1682105526.90552592,72308501,0.0,0.3,0.0,-1.35,86.26,86.26,0.0,0.01,3
1682105527.00580788,72408783,0.0,0.3,0.0,-1.35,86.25,86.25,0.0,0.02,3
1682105527.10579300,72508768,0.0,0.31,0.0,-1.35,86.24,86.24,0.0,0.04,3
1682105527.20525289,72608228,0.0,0.31,0.0,-1.35,86.24,86.24,0.0,0.08,3
1682105527.30525684,72708232,0.0,0.31,0.0,-1.34,86.26,86.26,0.0,0.11,3
1682105527.40533590,72808311,0.0,0.31,0.0,-1.34,86.31,86.31,0.0,0.11,3
1682105527.50542188,72908397,0.0,0.31,0.0,-1.35,86.36,86.36,0.0,0.1,3
1682105527.60539484,73008370,0.0,0.32,0.0,-1.35,86.42,86.42,0.0,0.09,3
1682105527.70539403,73108369,0.0,0.31,0.0,-1.35,86.46000000000001,86.46000000000001,0.0,0.09,3
1682105527.80570602,73208681,0.0,0.32,0.0,-1.35,86.49,86.49,0.0,0.1,3
1682105527.90525293,73308228,0.0,0.32,0.0,-1.36,86.53,86.53,0.0,0.11,3
1682105528.00538182,73408357,0.0,0.32,0.0,-1.35,86.57000000000001,86.57000000000001,0.0,0.09,3
