timestamp,TimeUS,I,Status,GMS,GWk,NSats,HDop,Lat,Lng,Alt,Spd,GCrs,VZ,Yaw,U
1682105465.20482993,10607805,0,1,0,0,0,100.0,0.0,0.0,0.0,0.0,0.0,0.0,0.0,1
1682105465.40488982,10807865,0,1,0,0,0,100.0,0.0,0.0,0.0,0.0,0.0,0.0,0.0,1
1682105465.60481787,11007793,0,1,0,0,0,100.0,0.0,0.0,0.0,0.0,0.0,0.0,0.0,1
1682105465.80482697,11207802,0,1,0,0,0,100.0,0.0,0.0,0.0,0.0,0.0,0.0,0.0,1
1682105466.00481987,11407795,0,1,0,0,0,100.0,0.0,0.0,0.0,0.0,0.0,0.0,0.0,1
1682105466.20502687,11608002,0,1,0,0,0,100.0,0.0,0.0,0.0,0.0,0.0,0.0,0.0,1
1682105466.40506196,11808037,0,1,0,0,0,100.0,0.0,0.0,0.0,0.0,0.0,0.0,0.0,1
1682105466.60499692,12007972,0,1,0,0,0,100.0,0.0,0.0,0.0,0.0,0.0,0.0,0.0,1
1682105466.74498987,12147965,0,1,0,0,0,100.0,0.0,0.0,0.0,0.0,0.0,0.0,0.0,1
1682105466.94507194,12348047,0,1,0,0,0,100.0,0.0,0.0,0.0,0.0,0.0,0.0,0.0,1
1682105467.14553189,12548507,0,1,0,0,0,100.0,0.0,0.0,0.0,0.0,0.0,0.0,0.0,1
1682105467.34563303,12748608,0,1,0,0,0,100.0,0.0,0.0,0.0,0.0,0.0,0.0,0.0,1
1682105467.54553699,12948512,0,1,0,0,0,100.0,0.0,0.0,0.0,0.0,0.0,0.0,0.0,1
1682105467.74565601,13148631,0,1,0,0,0,100.0,0.0,0.0,0.0,0.0,0.0,0.0,0.0,1
1682105467.94564080,13348616,0,1,0,0,0,100.0,0.0,0.0,0.0,0.0,0.0,0.0,0.0,1
1682105468.14610600,13549081,0,1,0,0,0,100.0,0.0,0.0,0.0,0.0,0.0,0.0,0.0,1
1682105468.34559298,13748568,0,1,0,0,0,100.0,0.0,0.0,0.0,0.0,0.0,0.0,0.0,1
1682105468.54577494,13948750,0,1,0,0,0,100.0,0.0,0.0,0.0,0.0,0.0,0.0,0.0,1
1682105468.74572802,14148703,0,1,0,0,0,100.0,0.0,0.0,0.0,0.0,0.0,0.0,0.0,1
1682105468.94569492,14348670,0,1,0,0,0,100.0,0.0,0.0,0.0,0.0,0.0,0.0,0.0,1
1682105469.14501381,14547989,0,1,0,0,0,100.0,0.0,0.0,0.0,0.0,0.0,0.0,0.0,1
1682105469.34502602,14748001,0,1,0,0,0,100.0,0.0,0.0,0.0,0.0,0.0,0.0,0.0,1
1682105469.54512596,14948101,0,1,0,0,0,100.0,0.0,0.0,0.0,0.0,0.0,0.0,0.0,1
1682105469.74516082,15148136,0,1,0,0,0,100.0,0.0,0.0,0.0,0.0,0.0,0.0,0.0,1
1682105469.94569683,15348672,0,1,0,0,0,100.0,0.0,0.0,0.0,0.0,0.0,0.0,0.0,1
1682105470.14500999,15547985,0,1,0,0,0,100.0,0.0,0.0,0.0,0.0,0.0,0.0,0.0,1
1682105470.34505796,15748033,0,1,0,0,0,100.0,0.0,0.0,0.0,0.0,0.0,0.0,0.0,1
1682105470.54513884,15948114,0,1,0,0,0,100.0,0.0,0.0,0.0,0.0,0.0,0.0,0.0,1
1682105470.74502301,16147998,0,1,0,0,0,100.0,0.0,0.0,0.0,0.0,0.0,0.0,0.0,1
1682105470.94500685,16347982,0,1,0,0,0,100.0,0.0,0.0,0.0,0.0,0.0,0.0,0.0,1
1682105471.14562082,16548596,0,1,0,0,0,100.0,0.0,0.0,0.0,0.0,0.0,0.0,0.0,1
1682105471.34558702,16748562,0,1,0,0,0,100.0,0.0,0.0,0.0,0.0,0.0,0.0,0.0,1
1682105471.54567695,16948652,0,1,0,0,0,100.0,0.0,0.0,0.0,0.0,0.0,0.0,0.0,1
1682105471.74564385,17148619,0,1,0,0,0,100.0,0.0,0.0,0.0,0.0,0.0,0.0,0.0,1
1682105471.94581485,17348790,0,1,0,0,0,100.0,0.0,0.0,0.0,0.0,0.0,0.0,0.0,1
1682105472.14565682,17548632,0,1,0,0,0,100.0,0.0,0.0,0.0,0.0,0.0,0.0,0.0,1
1682105472.34511590,17748091,0,1,0,0,0,100.0,0.0,0.0,0.0,0.0,0.0,0.0,0.0,1
1682105472.54506588,17948041,0,1,0,0,0,100.0,0.0,0.0,0.0,0.0,0.0,0.0,0.0,1
1682105472.76520300,18168178,0,1,0,0,0,100.0,0.0,0.0,0.0,0.0,0.0,0.0,0.0,1
1682105472.96539593,18368371,0,1,0,0,0,100.0,0.0,0.0,0.0,0.0,0.0,0.0,0.0,1
1682105473.16538501,18568360,0,1,0,0,0,100.0,0.0,0.0,0.0,0.0,0.0,0.0,0.0,1
1682105473.34514785,18748123,0,1,0,0,0,100.0,0.0,0.0,0.0,0.0,0.0,0.0,0.0,1
1682105473.56519103,18968166,0,1,0,0,0,100.0,0.0,0.0,0.0,0.0,0.0,0.0,0.0,1
1682105473.76525092,19168226,0,1,0,0,0,100.0,0.0,0.0,0.0,0.0,0.0,0.0,0.0,1
1682105473.96538281,19368358,0,1,0,0,0,100.0,0.0,0.0,0.0,0.0,0.0,0.0,0.0,1
1682105474.16537690,19568352,0,1,0,0,0,100.0,0.0,0.0,0.0,0.0,0.0,0.0,0.0,1
1682105474.34502196,19747997,0,1,0,0,0,100.0,0.0,0.0,0.0,0.0,0.0,0.0,0.0,1
1682105474.54572892,19948704,0,1,0,0,0,100.0,0.0,0.0,0.0,0.0,0.0,0.0,0.0,1
1682105474.74540997,20148385,0,1,0,0,0,100.0,0.0,0.0,0.0,0.0,0.0,0.0,0.0,1
1682105474.94571590,20348691,0,1,0,0,0,100.0,0.0,0.0,0.0,0.0,0.0,0.0,0.0,1
1682105475.14567304,20548648,0,1,0,0,0,100.0,0.0,0.0,0.0,0.0,0.0,0.0,0.0,1
1682105475.34563303,20748608,0,1,0,0,0,100.0,0.0,0.0,0.0,0.0,0.0,0.0,0.0,1
1682105475.54564190,20948617,0,1,0,0,0,100.0,0.0,0.0,0.0,0.0,0.0,0.0,0.0,1
1682105475.74554586,21148521,0,1,0,0,0,100.0,0.0,0.0,0.0,0.0,0.0,0.0,0.0,1
1682105475.94566488,21348640,0,1,0,0,0,100.0,0.0,0.0,0.0,0.0,0.0,0.0,0.0,1
1682105476.14575696,21548732,0,1,0,0,0,100.0,0.0,0.0,0.0,0.0,0.0,0.0,0.0,1
1682105476.34570003,21748675,0,1,0,0,0,100.0,0.0,0.0,0.0,0.0,0.0,0.0,0.0,1
1682105476.54502583,21948001,0,1,0,0,0,100.0,0.0,0.0,0.0,0.0,0.0,0.0,0.0,1
1682105476.74518585,22148161,0,1,0,0,0,100.0,0.0,0.0,0.0,0.0,0.0,0.0,0.0,1
1682105476.94515085,22348126,0,1,0,0,0,100.0,0.0,0.0,0.0,0.0,0.0,0.0,0.0,1
1682105477.14567685,22548652,0,1,0,0,0,100.0,0.0,0.0,0.0,0.0,0.0,0.0,0.0,1
1682105477.36524582,22768221,0,1,0,0,0,100.0,0.0,0.0,0.0,0.0,0.0,0.0,0.0,1
1682105477.56555295,22968528,0,1,0,0,0,100.0,0.0,0.0,0.0,0.0,0.0,0.0,0.0,1
1682105477.76529288,23168268,0,1,0,0,0,100.0,0.0,0.0,0.0,0.0,0.0,0.0,0.0,1
1682105477.96520901,23368184,0,1,0,0,0,100.0,0.0,0.0,0.0,0.0,0.0,0.0,0.0,1
1682105478.16519785,23568173,0,1,0,0,0,100.0,0.0,0.0,0.0,0.0,0.0,0.0,0.0,1
1682105478.36533284,23768308,0,1,0,0,0,100.0,0.0,0.0,0.0,0.0,0.0,0.0,0.0,1
1682105478.56557584,23968551,0,1,0,0,0,100.0,0.0,0.0,0.0,0.0,0.0,0.0,0.0,1
1682105478.76522493,24168200,0,1,0,0,0,100.0,0.0,0.0,0.0,0.0,0.0,0.0,0.0,1
1682105478.96519494,24368170,0,1,0,0,0,100.0,0.0,0.0,0.0,0.0,0.0,0.0,0.0,1
1682105479.16541696,24568392,0,1,0,0,0,100.0,0.0,0.0,0.0,0.0,0.0,0.0,0.0,1
1682105479.36535501,24768330,0,1,0,0,0,100.0,0.0,0.0,0.0,0.0,0.0,0.0,0.0,1
1682105479.54510784,24948083,0,1,0,0,0,100.0,0.0,0.0,0.0,0.0,0.0,0.0,0.0,1
1682105479.74568391,25148659,0,1,0,0,0,100.0,0.0,0.0,0.0,0.0,0.0,0.0,0.0,1
1682105479.94501591,25347991,0,1,0,0,0,100.0,0.0,0.0,0.0,0.0,0.0,0.0,0.0,1
1682105480.14502382,25547999,0,1,0,0,0,100.0,0.0,0.0,0.0,0.0,0.0,0.0,0.0,1
1682105480.36516380,25768139,0,1,0,0,0,100.0,0.0,0.0,0.0,0.0,0.0,0.0,0.0,1
1682105480.56525993,25968235,0,1,0,0,0,100.0,0.0,0.0,0.0,0.0,0.0,0.0,0.0,1
1682105480.76501489,26167990,0,1,0,0,0,100.0,0.0,0.0,0.0,0.0,0.0,0.0,0.0,1
1682105480.96506691,26368042,0,1,0,0,0,100.0,0.0,0.0,0.0,0.0,0.0,0.0,0.0,1
1682105481.16536903,26568344,0,1,0,0,0,100.0,0.0,0.0,0.0,0.0,0.0,0.0,0.0,1
1682105481.36536694,26768342,0,1,0,0,0,100.0,0.0,0.0,0.0,0.0,0.0,0.0,0.0,1
1682105481.56557798,26968553,0,1,0,0,0,100.0,0.0,0.0,0.0,0.0,0.0,0.0,0.0,1
1682105481.76523495,27168210,0,1,0,0,0,100.0,0.0,0.0,0.0,0.0,0.0,0.0,0.0,1
1682105481.96540785,27368383,0,1,0,0,0,100.0,0.0,0.0,0.0,0.0,0.0,0.0,0.0,1
1682105482.16537786,27568353,0,1,0,0,0,100.0,0.0,0.0,0.0,0.0,0.0,0.0,0.0,1
1682105482.36525488,27768230,0,1,0,0,0,100.0,0.0,0.0,0.0,0.0,0.0,0.0,0.0,1
1682105482.56523085,27968206,0,1,0,0,0,100.0,0.0,0.0,0.0,0.0,0.0,0.0,0.0,1
1682105482.76528287,28168258,0,1,0,0,0,100.0,0.0,0.0,0.0,0.0,0.0,0.0,0.0,1
1682105482.96537685,28368352,0,1,0,0,0,100.0,0.0,0.0,0.0,0.0,0.0,0.0,0.0,1
1682105483.16534901,28568324,0,1,0,0,0,100.0,0.0,0.0,0.0,0.0,0.0,0.0,0.0,1
1682105483.34502602,28748001,0,1,0,0,0,100.0,0.0,0.0,0.0,0.0,0.0,0.0,0.0,1
1682105483.54569101,28948666,0,1,0,0,0,100.0,0.0,0.0,0.0,0.0,0.0,0.0,0.0,1
1682105483.74547100,29148446,0,1,0,0,0,100.0,0.0,0.0,0.0,0.0,0.0,0.0,0.0,1
1682105483.94579601,29348771,0,1,0,0,0,100.0,0.0,0.0,0.0,0.0,0.0,0.0,0.0,1
1682105484.16501188,29567987,0,1,0,0,0,100.0,0.0,0.0,0.0,0.0,0.0,0.0,0.0,1
1682105484.36501193,29767987,0,1,0,0,0,100.0,0.0,0.0,0.0,0.0,0.0,0.0,0.0,1
1682105484.54502487,29948000,0,1,0,0,0,100.0,0.0,0.0,0.0,0.0,0.0,0.0,0.0,1
1682105484.74507093,30148046,0,1,0,0,0,100.0,0.0,0.0,0.0,0.0,0.0,0.0,0.0,1
1682105484.94570589,30348681,0,1,0,0,0,100.0,0.0,0.0,0.0,0.0,0.0,0.0,0.0,1
1682105485.14568496,30548660,0,1,0,0,0,100.0,0.0,0.0,0.0,0.0,0.0,0.0,0.0,1
1682105485.36501193,30767987,0,1,0,0,0,100.0,0.0,0.0,0.0,0.0,0.0,0.0,0.0,1
1682105485.56509280,30968068,0,1,0,0,0,100.0,0.0,0.0,0.0,0.0,0.0,0.0,0.0,1
1682105485.76509380,31168069,0,1,0,0,0,100.0,0.0,0.0,0.0,0.0,0.0,0.0,0.0,1
1682105485.96500182,31367977,0,1,0,0,0,100.0,0.0,0.0,0.0,0.0,0.0,0.0,0.0,1
1682105486.16499901,31567974,0,1,0,0,0,100.0,0.0,0.0,0.0,0.0,0.0,0.0,0.0,1
1682105486.36505485,31768030,0,1,0,0,0,100.0,0.0,0.0,0.0,0.0,0.0,0.0,0.0,1
1682105486.56512690,31968102,0,1,0,0,0,100.0,0.0,0.0,0.0,0.0,0.0,0.0,0.0,1
1682105486.76535583,32168331,0,1,0,0,0,100.0,0.0,0.0,0.0,0.0,0.0,0.0,0.0,1
1682105486.94506598,32348041,0,1,0,0,0,100.0,0.0,0.0,0.0,0.0,0.0,0.0,0.0,1
1682105487.16520381,32568179,0,1,0,0,0,100.0,0.0,0.0,0.0,0.0,0.0,0.0,0.0,1
1682105487.36533880,32768314,0,1,0,0,0,100.0,0.0,0.0,0.0,0.0,0.0,0.0,0.0,1
1682105487.56534600,32968321,0,1,0,0,0,100.0,0.0,0.0,0.0,0.0,0.0,0.0,0.0,1
1682105487.76552701,33168502,0,1,0,0,0,100.0,0.0,0.0,0.0,0.0,0.0,0.0,0.0,1
1682105487.96518588,33368161,0,1,0,0,0,100.0,0.0,0.0,0.0,0.0,0.0,0.0,0.0,1
1682105488.16525483,33568230,0,1,0,0,0,100.0,0.0,0.0,0.0,0.0,0.0,0.0,0.0,1
1682105488.34505486,33748030,0,1,0,0,0,100.0,0.0,0.0,0.0,0.0,0.0,0.0,0.0,1
1682105488.56531596,33968291,0,1,0,0,0,100.0,0.0,0.0,0.0,0.0,0.0,0.0,0.0,1
1682105488.74501801,34147993,0,1,0,0,0,100.0,0.0,0.0,0.0,0.0,0.0,0.0,0.0,1
1682105488.94499397,34347969,0,1,0,0,0,100.0,0.0,0.0,0.0,0.0,0.0,0.0,0.0,1
1682105489.14500880,34547984,0,1,0,0,0,100.0,0.0,0.0,0.0,0.0,0.0,0.0,0.0,1
1682105489.34511280,34748088,0,1,0,0,0,100.0,0.0,0.0,0.0,0.0,0.0,0.0,0.0,1
1682105489.56499887,34967974,0,1,0,0,0,100.0,0.0,0.0,0.0,0.0,0.0,0.0,0.0,1
1682105489.76520181,35168177,0,1,0,0,0,100.0,0.0,0.0,0.0,0.0,0.0,0.0,0.0,1
1682105489.96505094,35368026,0,1,0,0,0,100.0,0.0,0.0,0.0,0.0,0.0,0.0,0.0,1
1682105490.16511083,35568086,0,1,0,0,0,100.0,0.0,0.0,0.0,0.0,0.0,0.0,0.0,1
1682105490.36533999,35768315,0,1,0,0,0,100.0,0.0,0.0,0.0,0.0,0.0,0.0,0.0,1
1682105490.56498480,35967960,0,1,0,0,0,100.0,0.0,0.0,0.0,0.0,0.0,0.0,0.0,1
1682105490.76500392,36167979,0,1,0,0,0,100.0,0.0,0.0,0.0,0.0,0.0,0.0,0.0,1
1682105490.96515584,36368131,0,1,0,0,0,100.0,0.0,0.0,0.0,0.0,0.0,0.0,0.0,1
1682105491.20499992,36607975,0,3,502309205,2258,6,100.0,42.6899155,-84.48892699999999,280.22,0.09009439498186111,8.93956470489502,0.07000000029802322,0.0,1
1682105491.36500382,36767979,0,3,502309399,2258,6,100.0,42.6899029,-84.48892819999999,280.22,0.03661966696381569,235.0079803466797,-0.01100000087171793,0.0,1
1682105491.56517982,36968155,0,3,502309599,2258,6,100.0,42.689902499999995,-84.48892599999999,277.84000000000003,0.1032763347029686,223.43064880371094,0.024000000208616257,0.0,1
1682105491.76540089,37168376,0,3,502309799,2258,6,100.0,42.689902499999995,-84.4889238,276.12,0.12728315591812134,51.058982849121094,0.07700000703334808,0.0,1
1682105491.96511102,37368086,0,3,502309999,2258,6,100.0,42.6899027,-84.4889221,274.82,0.044271890074014664,18.434947967529297,0.06200000271201134,0.0,1
1682105492.16504693,37568022,0,3,502310199,2258,6,100.0,42.689903,-84.4889209,273.83,0.03661966696381569,235.0079803466797,0.03700000047683716,0.0,1
1682105492.36529899,37768274,0,3,502310399,2258,6,100.0,42.6899033,-84.4889199,273.03000000000003,0.05414794385433197,85.76360321044922,0.03700000047683716,0.0,1
1682105492.56521583,37968191,0,3,502310599,2258,6,100.0,42.6899034,-84.488919,272.38,0.016970563679933548,315.0,0.13300000131130219,0.0,1
1682105492.76515198,38168127,0,3,502310799,2258,6,100.0,42.6899035,-84.4889184,271.85,0.028178006410598755,27.474430084228516,0.04400000348687172,0.0,1
1682105492.96512485,38368100,0,3,502310999,2258,6,100.0,42.6899036,-84.488918,271.38,0.017088009044528008,69.4439468383789,0.10400000214576721,0.0,1
1682105493.16500783,38567983,0,3,502310199,2258,6,1.28,42.689903799999996,-84.4889178,270.99,0.04981967434287071,308.4801940917969,0.07700000703334808,0.0,1
1682105493.36501384,38767989,0,3,502310399,2258,6,1.28,42.6899039,-84.4889175,270.64,0.04512206092476845,12.804265022277832,0.03700000047683716,0.0,1
1682105493.56505680,38968032,0,3,502310599,2258,6,1.28,42.689904,-84.4889172,270.35,0.06768308579921722,102.80426025390625,0.08100000023841858,0.0,1
1682105493.76510382,39168079,0,3,502310799,2258,6,1.28,42.689904,-84.48891689999999,270.08,0.02865309827029705,29.248825073242188,0.0820000022649765,0.0,1
1682105493.96533799,39368313,0,3,502310999,2258,6,1.28,42.6899042,-84.48891669999999,269.82,0.04254409670829773,23.552261352539062,0.06700000166893005,0.0,1
1682105494.16499591,39567971,0,3,502311199,2258,6,1.28,42.689904399999996,-84.4889166,269.61,0.05745433270931244,58.523155212402344,0.1340000033378601,0.0,1
1682105494.36519194,39768167,0,3,502311399,2258,6,1.28,42.6899046,-84.4889165,269.4,0.011401754803955555,37.87498092651367,0.0010000000474974513,0.0,1
1682105494.56532097,39968296,0,3,502311599,2258,6,1.28,42.6899047,-84.4889164,269.22,0.02200000174343586,0.0,0.02800000086426735,0.0,1
1682105494.76542592,40168401,0,3,502311799,2258,6,1.28,42.6899048,-84.4889164,269.07,0.03801315650343895,54.637535095214844,0.04500000178813934,0.0,1
1682105494.96520281,40368178,0,3,502311999,2258,6,1.28,42.689904899999995,-84.4889163,268.91,0.04531004652380943,22.036226272583008,0.11100000888109207,0.0,1
1682105495.20512700,40608102,0,3,502312199,2258,9,0.97,42.6899048,-84.4889175,268.95,0.010816654190421104,56.309932708740234,0.06100000441074371,0.0,1
1682105495.38538599,40788361,0,3,502312399,2258,9,0.97,42.6899046,-84.48891859999999,269.02,0.006000000052154064,270.0,0.11100000888109207,0.0,1
1682105495.58505487,40988030,0,3,502312599,2258,9,0.97,42.6899047,-84.48892,269.14,0.024738634005188942,284.0362548828125,0.15000000596046448,0.0,1
1682105495.76553798,41168513,0,3,502312799,2258,9,0.97,42.6899048,-84.48892149999999,269.25,0.03324154019355774,263.0887756347656,0.08500000089406967,0.0,1
1682105495.98519802,41388173,0,3,502312999,2258,9,0.97,42.689904899999995,-84.488923,269.38,0.04632493853569031,283.73626708984375,0.15800000727176666,0.0,1
1682105496.18517089,41588146,0,3,502313199,2258,9,0.97,42.689904999999996,-84.4889244,269.5,0.02800000086426735,270.0,0.06300000101327896,0.0,1
1682105496.38511801,41788093,0,3,502313399,2258,9,0.97,42.6899051,-84.48892579999999,269.62,0.009219544939696789,257.47119140625,0.07600000500679016,0.0,1
1682105496.58502102,41987996,0,3,502313599,2258,9,0.97,42.6899052,-84.4889271,269.74,0.021587034687399864,346.6075134277344,0.024000000208616257,0.0,1
1682105496.78501081,42187986,0,3,502313799,2258,9,0.97,42.6899053,-84.4889283,269.87,0.03178049996495247,294.1455383300781,0.052000001072883606,0.0,1
1682105496.96519303,42368168,0,3,502313999,2258,9,0.97,42.6899053,-84.48892939999999,269.98,0.020124612376093864,243.43496704101562,0.1120000034570694,0.0,1
1682105497.20500803,42607983,0,3,502314199,2258,10,0.91,42.689905499999995,-84.48893059999999,270.05,0.0036055513191968203,33.690067291259766,0.032999999821186066,0.0,1
1682105497.38534093,42788316,0,3,502314399,2258,10,0.91,42.6899057,-84.4889316,270.12,0.029068883508443832,183.9451904296875,0.05700000375509262,0.0,1
1682105497.58500600,42987981,0,3,502314599,2258,10,0.91,42.6899058,-84.48893249999999,270.19,0.0187882948666811,205.20114135742188,0.010000000707805157,0.0,1
1682105497.78499794,43187973,0,3,502314799,2258,10,0.91,42.6899059,-84.4889335,270.26,0.0353553406894207,298.73980712890625,0.05900000408291817,0.0,1
1682105497.98511791,43388093,0,3,502314999,2258,10,0.91,42.689906099999995,-84.4889343,270.32,0.014422205276787281,33.690067291259766,0.015000000596046448,0.0,1
1682105498.18513489,43588110,0,3,502315199,2258,10,0.91,42.689906199999996,-84.48893509999999,270.38,0.0187882948666811,244.79888916015625,0.08900000154972076,0.0,1
1682105498.38499498,43787970,0,3,502315399,2258,10,0.91,42.6899063,-84.4889358,270.43,0.012727922759950161,315.0,0.07200000435113907,0.0,1
1682105498.58500695,43987982,0,3,502315599,2258,10,0.91,42.6899063,-84.4889366,270.5,0.005385165102779865,21.801406860351562,0.005000000353902578,0.0,1
1682105498.78526282,44188238,0,3,502315799,2258,10,0.91,42.6899064,-84.4889372,270.56,0.01726267673075199,190.00799560546875,0.0010000000474974513,0.0,1
1682105498.98508692,44388062,0,3,502315999,2258,10,0.91,42.6899065,-84.4889377,270.61,0.008544004522264004,249.4439697265625,0.04000000283122063,0.0,1
1682105499.18501997,44587995,0,3,502316199,2258,11,0.85,42.6899065,-84.4889381,270.68,0.011401754803955555,307.875,0.06200000271201134,0.0,1
1682105499.38523984,44788215,0,3,502316399,2258,12,0.85,42.6899063,-84.4889388,270.78000000000003,0.003162277862429619,288.4349365234375,0.030000001192092896,0.0,1
1682105499.58499098,44987966,0,3,502316599,2258,12,0.85,42.689906099999995,-84.48893939999999,270.88,0.011180341243743896,296.5650634765625,0.00800000037997961,0.0,1
1682105499.78516603,45188141,0,3,502316799,2258,12,0.85,42.6899059,-84.48893989999999,270.97,0.01100000087171793,180.0,0.023000001907348633,0.0,1
1682105499.98512101,45388096,0,3,502316999,2258,12,0.85,42.6899058,-84.4889402,271.04,0.010295630432665348,60.94539260864258,0.07100000232458115,0.0,1
1682105500.18500781,45587983,0,3,502317199,2258,12,0.85,42.6899057,-84.4889405,271.11,0.04201190546154976,88.63607025146484,0.0690000057220459,0.0,1
1682105500.38499904,45787974,0,3,502317399,2258,12,0.85,42.689905499999995,-84.4889408,271.17,0.010630146600306034,48.8140754699707,0.05100000277161598,0.0,1
1682105500.58505702,45988032,0,3,502317599,2258,12,0.85,42.6899053,-84.48894109999999,271.24,0.012529964558780193,208.61045837402344,0.06000000238418579,0.0,1
1682105500.78534484,46188320,0,3,502317799,2258,12,0.85,42.6899052,-84.4889413,271.31,0.0036055513191968203,123.6900634765625,-0.00800000037997961,0.0,1
1682105500.98528981,46388265,0,3,502317999,2258,12,0.85,42.689904999999996,-84.4889415,271.39,0.009999999776482582,143.13009643554688,0.08100000023841858,0.0,1
1682105501.18518281,46588158,0,3,502318199,2258,12,0.8300000000000001,42.689904899999995,-84.4889417,271.45,0.004242640919983387,45.0,0.0430000014603138,0.0,1
1682105501.38516092,46788136,0,3,502318399,2258,12,0.8300000000000001,42.6899048,-84.48894179999999,271.51,0.03138471022248268,202.4794464111328,0.06400000303983688,0.0,1
1682105501.58534884,46988324,0,3,502318599,2258,12,0.8300000000000001,42.6899047,-84.4889419,271.57,0.010000000707805157,0.0,0.06599999964237213,0.0,1
1682105501.78532791,47188303,0,3,502318799,2258,12,0.8300000000000001,42.6899046,-84.488942,271.62,0.0058309524320065975,239.0362548828125,0.04000000283122063,0.0,1
1682105501.98521781,47388193,0,3,502318999,2258,12,0.8300000000000001,42.6899046,-84.488942,271.66,0.004999999888241291,126.8698959350586,0.15700000524520874,0.0,1
1682105502.18518400,47588159,0,3,502319199,2258,12,0.8300000000000001,42.6899045,-84.4889421,271.7,0.03405877575278282,220.23635864257812,0.039000000804662704,0.0,1
1682105502.38521981,47788195,0,3,502319399,2258,12,0.8300000000000001,42.689904399999996,-84.4889421,271.73,0.01345362514257431,228.01278686523438,0.11700000613927841,0.0,1
1682105502.58551693,47988492,0,3,502319599,2258,12,0.8300000000000001,42.689904399999996,-84.4889421,271.78000000000003,0.04716990888118744,85.13548278808594,0.125,0.0,1
1682105502.78530788,48188283,0,3,502319799,2258,12,0.8300000000000001,42.689904299999995,-84.4889421,271.81,0.011661904864013195,210.96376037597656,0.052000001072883606,0.0,1
1682105502.98517895,48388154,0,3,502319999,2258,12,0.8300000000000001,42.689904299999995,-84.4889422,271.84000000000003,0.009486833587288857,288.4349365234375,0.02800000086426735,0.0,1
1682105503.18537092,48588346,0,3,502320199,2258,12,0.8300000000000001,42.689904299999995,-84.4889422,271.89,0.0070710680447518826,351.8699035644531,0.1770000010728836,0.0,1
1682105503.38539886,48788374,0,3,502320399,2258,12,0.8300000000000001,42.6899042,-84.48894229999999,271.9,0.0187882948666811,205.20114135742188,0.02500000037252903,0.0,1
1682105503.58537602,48988351,0,3,502320599,2258,12,0.8300000000000001,42.6899042,-84.48894229999999,271.95,0.013341664336621761,167.00537109375,0.08300000429153442,0.0,1
1682105503.78500295,49187978,0,3,502320799,2258,12,0.8300000000000001,42.6899041,-84.48894229999999,271.98,0.004472136031836271,116.5650405883789,0.052000001072883606,0.0,1
1682105503.98499584,49387971,0,3,502320999,2258,12,0.8300000000000001,42.6899041,-84.4889424,272.01,0.005099019967019558,281.3099365234375,0.029000001028180122,0.0,1
1682105504.18506885,49588044,0,3,502321199,2258,12,0.8300000000000001,42.6899041,-84.4889424,272.04,0.01303840521723032,85.60128784179688,0.014000000432133675,0.0,1
1682105504.38537693,49788352,0,3,502321399,2258,12,0.8300000000000001,42.6899041,-84.4889425,272.08,0.01720465160906315,144.46231079101562,-0.006000000052154064,0.0,1
1682105504.58501887,49987994,0,3,502321599,2258,12,0.8300000000000001,42.6899041,-84.4889425,272.13,0.016552945598959923,295.01690673828125,-0.021000001579523087,0.0,1
1682105504.78502202,50187997,0,3,502321799,2258,12,0.8300000000000001,42.6899041,-84.4889426,272.15,0.01004987582564354,174.28939819335938,-0.036000002175569534,0.0,1
1682105504.98520494,50388180,0,3,502321999,2258,12,0.8300000000000001,42.6899041,-84.4889427,272.2,0.02416609413921833,114.4439468383789,0.023000001907348633,0.0,1
1682105505.18510294,50588078,0,3,502322199,2258,12,0.8300000000000001,42.6899041,-84.4889427,272.24,0.005385165102779865,111.80139923095703,0.010000000707805157,0.0,1
1682105505.38535500,50788330,0,3,502322399,2258,12,0.8300000000000001,42.6899041,-84.4889427,272.27,0.017888544127345085,116.5650405883789,0.036000002175569534,0.0,1
1682105505.58521080,50988186,0,3,502322599,2258,12,0.8300000000000001,42.6899042,-84.4889427,272.3,0.02789265289902687,345.4655456542969,0.06599999964237213,0.0,1
1682105505.78517890,51188154,0,3,502322799,2258,12,0.8300000000000001,42.6899042,-84.48894279999999,272.33,0.04850773513317108,165.67726135253906,0.08800000697374344,0.0,1
1682105505.98523903,51388214,0,3,502322999,2258,12,0.8300000000000001,42.6899042,-84.48894279999999,272.35,0.03413209691643715,264.9575500488281,0.06000000238418579,0.0,1
1682105506.18554401,51588519,0,3,502323199,2258,12,0.8300000000000001,42.689904299999995,-84.4889429,272.37,0.01004987582564354,275.7106018066406,0.058000002056360245,0.0,1
1682105506.38503885,51788014,0,3,502323399,2258,12,0.8300000000000001,42.689904299999995,-84.4889429,272.38,0.0650000050663948,149.48976135253906,0.11700000613927841,0.0,1
1682105506.58499789,51987973,0,3,502323599,2258,12,0.8300000000000001,42.689904299999995,-84.4889429,272.39,0.0259422454982996,242.44720458984375,0.0020000000949949026,0.0,1
1682105506.78496695,52187942,0,3,502323799,2258,12,0.8300000000000001,42.689904399999996,-84.4889429,272.42,0.05239275097846985,13.240518569946289,0.0560000017285347,0.0,1
1682105506.98515582,52388131,0,3,502323999,2258,12,0.8300000000000001,42.6899045,-84.4889429,272.44,0.039051249623298645,140.1944122314453,0.03500000014901161,0.0,1
1682105507.18502688,52588002,0,3,502324199,2258,12,0.8300000000000001,42.6899045,-84.4889429,272.45,0.0213775597512722,190.78431701660156,0.023000001907348633,0.0,1
1682105507.38522792,52788203,0,3,502324399,2258,12,0.8300000000000001,42.6899046,-84.48894299999999,272.48,0.047423623502254486,317.56378173828125,0.0430000014603138,0.0,1
1682105507.58520389,52988179,0,3,502324599,2258,12,0.8300000000000001,42.6899047,-84.4889431,272.5,0.025612497702240944,231.34019470214844,0.026000000536441803,0.0,1
1682105507.78529000,53188265,0,3,502324799,2258,12,0.8300000000000001,42.6899047,-84.4889432,272.51,0.026000000536441803,247.380126953125,0.08000000566244125,0.0,1
1682105507.98556685,53388542,0,3,502324999,2258,12,0.8300000000000001,42.6899048,-84.4889433,272.51,0.00824621133506298,345.9637451171875,0.039000000804662704,0.0,1
1682105508.18502593,53588001,0,3,502325199,2258,12,0.8300000000000001,42.689904899999995,-84.4889434,272.51,0.03577708825469017,26.56505012512207,0.018000001087784767,0.0,1
1682105508.38500190,53787977,0,3,502325399,2258,12,0.8300000000000001,42.689904899999995,-84.4889434,272.53000000000003,0.024331049993634224,80.53767395019531,0.030000001192092896,0.0,1
1682105508.58499002,53987965,0,3,502325599,2258,12,0.8300000000000001,42.689904999999996,-84.4889433,272.53000000000003,0.03397057577967644,42.61405563354492,0.06100000441074371,0.0,1
1682105508.78509784,54188073,0,3,502325799,2258,12,0.8300000000000001,42.6899051,-84.4889432,272.54,0.05920304358005524,52.54941940307617,0.030000001192092896,0.0,1
1682105508.98505902,54388034,0,3,502325999,2258,12,0.8300000000000001,42.6899052,-84.4889432,272.56,0.07446476072072983,165.21726989746094,0.07000000029802322,0.0,1
1682105509.18501282,54587988,0,3,502326199,2258,12,0.8300000000000001,42.6899051,-84.4889432,272.57,0.03841874748468399,231.34019470214844,-0.11400000751018524,0.0,1
1682105509.38500381,54787979,0,3,502326399,2258,12,0.8300000000000001,42.6899051,-84.4889433,272.57,0.06529930979013443,152.65011596679688,0.09600000083446503,0.0,1
1682105509.58506203,54988037,0,3,502326599,2258,12,0.8300000000000001,42.6899052,-84.4889433,272.6,0.07580237835645676,329.0362548828125,0.01900000125169754,0.0,1
1682105509.78535986,55188335,0,3,502326799,2258,12,0.8300000000000001,42.6899053,-84.4889433,272.59000000000003,0.04548626393079758,123.3406982421875,-0.003000000026077032,0.0,1
1682105509.98501801,55387993,0,3,502326999,2258,12,0.8300000000000001,42.6899053,-84.4889432,272.58,0.015000000596046448,216.86990356445312,-0.03500000014901161,0.0,1
1682105510.18517995,55588155,0,3,502327199,2258,12,0.8300000000000001,42.689905499999995,-84.48894299999999,272.55,0.05824946612119675,348.111328125,0.005000000353902578,0.0,1
1682105510.38516903,55788144,0,3,502327399,2258,12,0.8300000000000001,42.689905599999996,-84.48894279999999,272.51,0.03471311181783676,168.36634826660156,-0.01900000125169754,0.0,1
1682105510.58533883,55988314,0,3,502327599,2258,12,0.8300000000000001,42.6899057,-84.4889424,272.46,0.05580322444438934,126.25382995605469,-0.0020000000949949026,0.0,1
1682105510.78530884,56188284,0,3,502327799,2258,12,0.8300000000000001,42.6899057,-84.4889422,272.44,0.003000000026077032,90.0,-0.04800000041723251,0.0,1
1682105510.98552680,56388502,0,3,502327999,2258,12,0.8300000000000001,42.6899058,-84.488942,272.41,0.02147091180086136,332.241455078125,0.01600000075995922,0.0,1
1682105511.18499398,56587969,0,3,502328199,2258,12,0.8300000000000001,42.6899059,-84.48894179999999,272.37,0.007810249924659729,320.1944274902344,-0.014000000432133675,0.0,1
1682105511.38506603,56788041,0,3,502328399,2258,12,0.8300000000000001,42.689906099999995,-84.48894159999999,272.34000000000003,0.00824621133506298,255.96377563476562,0.00800000037997961,0.0,1
1682105511.58510089,56988076,0,3,502328599,2258,12,0.8300000000000001,42.689906199999996,-84.4889413,272.29,0.031112700700759888,45.0,0.08300000429153442,0.0,1
1682105511.78536201,57188337,0,3,502328799,2258,12,0.8300000000000001,42.6899063,-84.488941,272.24,0.030016662552952766,271.9091491699219,0.015000000596046448,0.0,1
1682105511.98524880,57388224,0,3,502328999,2258,12,0.8300000000000001,42.6899064,-84.4889408,272.21,0.008944272063672543,153.43495178222656,0.04200000315904617,0.0,1
1682105512.18498588,57587961,0,3,502329199,2258,12,0.8300000000000001,42.6899065,-84.4889405,272.16,0.011401754803955555,195.255126953125,0.027000000700354576,0.0,1
1682105512.38541198,57788387,0,3,502329399,2258,12,0.8300000000000001,42.6899066,-84.4889402,272.11,0.027313001453876495,156.25050354003906,0.0860000029206276,0.0,1
1682105512.58541989,57988395,0,3,502329599,2258,12,0.8300000000000001,42.689906699999995,-84.48893989999999,272.06,0.030016662552952766,150.01834106445312,0.02500000037252903,0.0,1
1682105512.78524494,58188220,0,3,502329799,2258,12,0.8300000000000001,42.689906799999996,-84.4889395,272.0,0.05011985823512077,61.3895378112793,0.07000000029802322,0.0,1
1682105512.98520994,58388185,0,3,502329999,2258,12,0.8300000000000001,42.689907,-84.4889391,271.93,0.02961418591439724,11.68936824798584,0.055000003427267075,0.0,1
1682105513.18526387,58588239,0,3,502330199,2258,12,0.8300000000000001,42.6899071,-84.4889388,271.88,0.034828152507543564,39.17365646362305,0.13300000131130219,0.0,1
1682105513.38536596,58788341,0,3,502330399,2258,12,0.8300000000000001,42.6899072,-84.4889385,271.81,0.017000000923871994,90.0,0.10300000756978989,0.0,1
1682105513.58555102,58988526,0,3,502330599,2258,12,0.8300000000000001,42.689907399999996,-84.48893819999999,271.75,0.08820431679487228,3.9004933834075928,0.04700000211596489,0.0,1
1682105513.78498101,59187956,0,3,502330799,2258,12,0.8300000000000001,42.6899075,-84.48893799999999,271.69,0.05600892752408981,181.02304077148438,0.046000003814697266,0.0,1
1682105513.98493195,59387907,0,3,502330999,2258,12,0.8300000000000001,42.6899075,-84.4889377,271.64,0.005099019967019558,191.3099365234375,0.05000000074505806,0.0,1
1682105514.18510389,59588079,0,3,502331199,2258,12,0.8300000000000001,42.6899076,-84.48893749999999,271.58,0.04534313827753067,318.5763244628906,-0.04800000041723251,0.0,1
1682105514.38503003,59788005,0,3,502331399,2258,12,0.8300000000000001,42.6899078,-84.4889374,271.55,0.09484724700450897,294.94390869140625,-0.09400000423192978,0.0,1
1682105514.58520699,59988182,0,3,502331599,2258,12,0.8300000000000001,42.6899077,-84.4889372,271.48,0.17100292444229126,179.66493225097656,0.012000000104308128,0.0,1
1682105514.78518391,60188159,0,3,502331799,2258,12,0.8300000000000001,42.6899077,-84.4889369,271.42,0.05536244809627533,73.20162963867188,0.04200000315904617,0.0,1
1682105514.98522782,60388203,0,3,502331999,2258,12,0.8300000000000001,42.6899078,-84.4889366,271.37,0.024698181077837944,338.62939453125,0.014000000432133675,0.0,1
1682105515.18551493,60588490,0,3,502332199,2258,12,0.8300000000000001,42.689907999999996,-84.48893629999999,271.31,0.025495098903775215,228.17984008789062,0.06000000238418579,0.0,1
1682105515.38528681,60788262,0,3,502332399,2258,12,0.8300000000000001,42.6899081,-84.4889359,271.25,0.028792360797524452,69.6768569946289,0.09800000488758087,0.0,1
1682105515.58517694,60988152,0,3,502332599,2258,12,0.8300000000000001,42.6899083,-84.48893559999999,271.18,0.05000000074505806,16.26020622253418,0.08300000429153442,0.0,1
1682105515.78536797,61188343,0,3,502332799,2258,12,0.8300000000000001,42.6899084,-84.4889353,271.11,0.017888544127345085,333.4349365234375,0.10200000554323196,0.0,1
1682105515.98511696,61388092,0,3,502332999,2258,12,0.8300000000000001,42.689908599999995,-84.488935,271.04,0.015620499849319458,230.19442749023438,0.14600001275539398,0.0,1
1682105516.18512893,61588104,0,3,502333199,2258,12,0.8300000000000001,42.6899087,-84.4889348,270.97,0.016124514862895012,119.744873046875,0.12200000882148743,0.0,1
1682105516.38499188,61787967,0,3,502333399,2258,12,0.8300000000000001,42.6899088,-84.4889345,270.92,0.03178049996495247,114.14553833007812,0.09800000488758087,0.0,1
1682105516.58499980,61987975,0,3,502333599,2258,12,0.8300000000000001,42.6899089,-84.4889343,270.86,0.018384777009487152,292.380126953125,0.039000000804662704,0.0,1
1682105516.78506184,62188037,0,3,502333799,2258,12,0.8300000000000001,42.689909,-84.488934,270.79,0.003162277862429619,108.43494415283203,0.08400000631809235,0.0,1
1682105516.98513198,62388107,0,3,502333999,2258,12,0.8300000000000001,42.6899091,-84.4889338,270.73,0.01969771645963192,156.03750610351562,0.06200000271201134,0.0,1
1682105517.18500900,62587984,0,3,502334199,2258,12,0.8300000000000001,42.689909199999995,-84.4889336,270.68,0.046389658004045486,82.56858825683594,0.15300001204013824,0.0,1
1682105517.38529801,62788273,0,3,502334399,2258,12,0.8300000000000001,42.6899093,-84.4889334,270.61,0.00854400359094143,339.4439697265625,0.05000000074505806,0.0,1
1682105517.58498192,62987957,0,3,502334599,2258,12,0.8300000000000001,42.6899094,-84.4889333,270.57,0.0353553406894207,315.0,0.1080000028014183,0.0,1
1682105517.78516984,63188145,0,3,502334799,2258,12,0.8300000000000001,42.6899096,-84.48893319999999,270.51,0.02154066041111946,21.801406860351562,-0.024000000208616257,0.0,1
1682105517.98503685,63388012,0,3,502334999,2258,12,0.8300000000000001,42.6899097,-84.4889331,270.47,0.032649654895067215,40.03025817871094,0.07800000160932541,0.0,1
1682105518.18524981,63588225,0,3,502335199,2258,12,0.8300000000000001,42.689909799999995,-84.4889329,270.42,0.02202271670103073,177.39743041992188,0.027000000700354576,0.0,1
1682105518.38499904,63787974,0,3,502335399,2258,12,0.8300000000000001,42.689909799999995,-84.4889328,270.37,0.010440307669341564,286.6992492675781,0.007000000216066837,0.0,1
1682105518.58503795,63988013,0,3,502335599,2258,12,0.8300000000000001,42.689909899999996,-84.48893269999999,270.33,0.006082762498408556,350.5376892089844,0.020000001415610313,0.0,1
1682105518.78551483,64188490,0,3,502335799,2258,12,0.8300000000000001,42.68991,-84.48893269999999,270.29,0.018027758225798607,273.1798400878906,0.06400000303983688,0.0,1
1682105518.98539090,64388366,0,3,502335999,2258,12,0.8300000000000001,42.6899101,-84.4889326,270.24,0.03577708825469017,153.43495178222656,0.08500000089406967,0.0,1
1682105519.18501592,64587991,0,3,502336199,2258,12,0.8300000000000001,42.6899102,-84.48893249999999,270.2,0.01345362514257431,318.0127868652344,0.03400000184774399,0.0,1
1682105519.38496995,64787945,0,3,502336399,2258,12,0.8300000000000001,42.6899103,-84.4889324,270.16,0.018027756363153458,70.5599594116211,0.06400000303983688,0.0,1
1682105519.58509994,64988075,0,3,502336599,2258,12,0.8300000000000001,42.689910399999995,-84.4889324,270.12,0.028442926704883575,190.1246795654297,0.07800000160932541,0.0,1
1682105519.78512597,65188101,0,3,502336799,2258,12,0.8300000000000001,42.689910499999996,-84.4889323,270.08,0.007810249924659729,309.8055725097656,0.02500000037252903,0.0,1
1682105519.98522091,65388196,0,3,502336999,2258,12,0.8300000000000001,42.689910499999996,-84.4889323,270.05,0.033105891197919846,154.9831085205078,0.005000000353902578,0.0,1
1682105520.18520594,65588181,0,3,502337199,2258,12,0.8300000000000001,42.6899106,-84.4889322,270.03000000000003,0.025495100766420364,115.55996704101562,0.06400000303983688,0.0,1
1682105520.38542295,65788398,0,3,502337399,2258,12,0.8300000000000001,42.6899107,-84.4889322,269.99,0.005099019967019558,191.3099365234375,0.020000001415610313,0.0,1
1682105520.58538294,65988358,0,3,502337599,2258,12,0.8300000000000001,42.6899108,-84.4889322,269.96,0.027856776490807533,111.03750610351562,0.02500000037252903,0.0,1
1682105520.78532791,66188303,0,3,502337799,2258,12,0.8300000000000001,42.6899109,-84.4889321,269.92,0.02607681229710579,327.52880859375,0.08300000429153442,0.0,1
1682105520.98529887,66388274,0,3,502337999,2258,12,0.8300000000000001,42.689910999999995,-84.4889322,269.89,0.012041594833135605,318.366455078125,0.036000002175569534,0.0,1
1682105521.20515299,66608128,0,3,502338199,2258,13,0.79,42.689911099999996,-84.4889321,269.84000000000003,0.020615529268980026,194.0362548828125,0.03200000151991844,0.0,1
1682105521.38509393,66788069,0,3,502338399,2258,13,0.79,42.6899113,-84.4889319,269.79,0.020024985074996948,2.8624048233032227,0.023000001907348633,0.0,1
1682105521.58528280,66988258,0,3,502338599,2258,13,0.79,42.6899114,-84.4889318,269.74,0.054203324019908905,142.495849609375,-0.07000000029802322,0.0,1
1682105521.78520489,67188180,0,3,502338799,2258,13,0.79,42.6899115,-84.4889316,269.68,0.008062257431447506,60.25511169433594,0.0560000017285347,0.0,1
1682105521.98517990,67388155,0,3,502338999,2258,13,0.79,42.689911699999996,-84.4889314,269.64,0.02831960655748844,47.86240005493164,0.10700000822544098,0.0,1
1682105522.18523502,67588210,0,3,502339199,2258,13,0.79,42.6899119,-84.48893129999999,269.59000000000003,0.0150332972407341,176.18592834472656,0.10000000149011612,0.0,1
1682105522.38554788,67788523,0,3,502339399,2258,13,0.79,42.689912,-84.4889312,269.53000000000003,0.009433981962502003,57.99461364746094,0.04100000113248825,0.0,1
1682105522.58502698,67988002,0,3,502339599,2258,13,0.79,42.689912199999995,-84.4889311,269.48,0.023194829002022743,277.431396484375,0.055000003427267075,0.0,1
1682105522.78500986,68187985,0,3,502339799,2258,13,0.79,42.689912299999996,-84.488931,269.44,0.012806248851120472,128.65980529785156,0.10200000554323196,0.0,1
1682105522.98519301,68388168,0,3,502339999,2258,13,0.79,42.6899124,-84.4889309,269.39,0.03841874748468399,128.65980529785156,0.0430000014603138,0.0,1
1682105523.18541002,68588385,0,3,502340199,2258,13,0.79,42.6899125,-84.48893079999999,269.35,0.016124514862895012,299.744873046875,0.07900000363588333,0.0,1
1682105523.38503289,68788008,0,3,502340399,2258,13,0.79,42.6899126,-84.48893079999999,269.31,0.028442926704883575,100.12466430664062,0.09300000220537186,0.0,1
1682105523.58499599,68987971,0,3,502340599,2258,13,0.79,42.6899127,-84.4889307,269.26,0.033600594848394394,36.52885437011719,-0.0010000000474974513,0.0,1
1682105523.78500199,69187977,0,3,502340799,2258,13,0.79,42.689912899999996,-84.48893059999999,269.22,0.0036055513191968203,236.3099365234375,0.02200000174343586,0.0,1
1682105523.98526287,69388238,0,3,502340999,2258,13,0.79,42.689913,-84.4889305,269.18,0.017000000923871994,151.927490234375,0.02800000086426735,0.0,1
1682105524.18507385,69588049,0,3,502341199,2258,13,0.79,42.6899131,-84.4889304,269.12,0.028231190517544746,337.0679016113281,0.07400000095367432,0.0,1
1682105524.38500190,69787977,0,3,502341399,2258,13,0.79,42.6899132,-84.48893029999999,269.07,0.013416407629847527,333.4349365234375,0.032999999821186066,0.0,1
1682105524.58501697,69987992,0,3,502341599,2258,13,0.79,42.6899133,-84.48893029999999,269.02,0.032649654895067215,319.9697265625,0.026000000536441803,0.0,1
1682105524.78519201,70188167,0,3,502341799,2258,13,0.79,42.689913399999995,-84.4889302,268.98,0.03606937825679779,136.12330627441406,0.023000001907348633,0.0,1
1682105524.98509192,70388067,0,3,502341999,2258,13,0.79,42.689913499999996,-84.48893009999999,268.94,0.0756637305021286,352.4053649902344,0.0860000029206276,0.0,1
1682105525.20499587,70607971,0,3,502342199,2258,15,0.79,42.689913499999996,-84.48893,268.93,0.0573149211704731,173.99098205566406,0.04800000041723251,0.0,1
1682105525.38524103,70788216,0,3,502342399,2258,15,0.79,42.6899133,-84.48893,268.93,0.02961418591439724,191.6893768310547,0.05300000309944153,0.0,1
1682105525.58520985,70988185,0,3,502342599,2258,15,0.79,42.6899132,-84.48893,268.93,0.015264337882399559,148.39248657226562,0.06200000271201134,0.0,1
1682105525.78525901,71188234,0,3,502342799,2258,15,0.79,42.6899131,-84.48893,268.92,0.02163330838084221,326.3099365234375,0.15600000321865082,0.0,1
1682105525.98558187,71388557,0,3,502342999,2258,15,0.79,42.6899131,-84.48893,268.91,0.010000000707805157,270.0,0.039000000804662704,0.0,1
1682105526.18501687,71587992,0,3,502343199,2258,15,0.7000000000000001,42.689913,-84.48893,268.91,0.0010000000474974513,90.0,0.05700000375509262,0.0,1
1682105526.38500381,71787979,0,3,502343399,2258,15,0.7000000000000001,42.689912899999996,-84.48893,268.91,0.024041632190346718,225.0,0.04800000041723251,0.0,1
1682105526.58521700,71988192,0,3,502343599,2258,15,0.7000000000000001,42.689912799999995,-84.48893009999999,268.9,0.037121422588825226,274.6354675292969,0.0650000050663948,0.0,1
1682105526.78540587,72188381,0,3,502343799,2258,15,0.7000000000000001,42.6899127,-84.48893009999999,268.89,0.03492850065231323,246.37063598632812,0.02200000174343586,0.0,1
1682105526.98503780,72388013,0,3,502343999,2258,15,0.7000000000000001,42.6899125,-84.48893009999999,268.88,0.07592760026454926,220.19204711914062,-0.012000000104308128,0.0,1
1682105527.18500185,72587977,0,3,502344199,2258,15,0.7000000000000001,42.689912299999996,-84.48893,268.87,0.05092151090502739,70.49755096435547,0.03200000151991844,0.0,1
1682105527.38500690,72787982,0,3,502344399,2258,15,0.7000000000000001,42.689912199999995,-84.4889298,268.88,0.03220248594880104,143.84181213378906,0.06800000369548798,0.0,1
1682105527.58526301,72988238,0,3,502344599,2258,15,0.7000000000000001,42.6899121,-84.4889298,268.87,0.017088009044528008,290.5560607910156,0.006000000052154064,0.0,1
1682105527.78511381,73188089,0,3,502344799,2258,15,0.7000000000000001,42.689912,-84.4889298,268.87,0.004242640919983387,135.0,0.009000000543892384,0.0,1
1682105527.98501086,73387986,0,3,502344999,2258,15,0.7000000000000001,42.6899118,-84.4889297,268.86,0.020223749801516533,81.46923065185547,0.06100000441074371,0.0,1
