timestamp,TimeUS,C,Q1,Q2,Q3,Q4
1682105466.10474300,11507718,2,1.0,0.0,0.0,0.0
1682105466.20480394,11607779,2,1.0,0.0,0.0,0.0
1682105466.30478096,11707756,2,1.0,0.0,0.0,0.0
1682105466.40475392,11807729,2,1.0,0.0,0.0,0.0
1682105466.50475097,11907726,2,1.0,0.0,0.0,0.0
1682105466.60472393,12007699,2,1.0,0.0,0.0,0.0
1682105466.70473099,12107706,2,1.0,0.0,0.0,0.0
1682105466.80472684,12207702,2,1.0,0.0,0.0,0.0
1682105466.90472102,12307696,2,1.0,0.0,0.0,0.0
1682105467.00474000,12407715,2,1.0,0.0,0.0,0.0
1682105467.10479689,12507772,2,0.9999668598175049,0.0038630636408925056,-0.007168029900640249,7.606936560478061e-05
1682105467.20477200,12607747,2,0.9999671578407288,0.0037906731013208628,-0.007158685941249132,0.00012505835911724716
1682105467.30476499,12707740,2,0.9999672770500183,0.003791499650105834,-0.0071453507989645,7.313046080525964e-05
1682105467.40474391,12807719,2,0.999967634677887,0.0037448029033839703,-0.007121626287698746,4.468106635613367e-05
1682105467.50471902,12907694,2,0.9999677538871765,0.003704773960635066,-0.007120931521058083,6.839429988758639e-05
1682105467.60472393,13007699,2,0.9999678730964661,0.0036798412911593914,-0.007121029309928417,1.5083825019246433e-05
1682105467.70472503,13107700,2,0.9999679327011108,0.0036736621987074614,-0.007115177344530821,5.21576039318461e-05
1682105467.80471897,13207694,2,0.9999682307243347,0.0036446868907660246,-0.007089405320584774,0.0001720705913612619
1682105467.90472388,13307699,2,0.9999683499336243,0.003562112571671605,-0.007115003652870655,0.00011466312571428716
1682105468.00476789,13407743,2,0.999968409538269,0.0035505499690771103,-0.007112983614206314,0.00016542893717996776
1682105468.10477781,13507753,2,0.9999686479568481,0.003453346434980631,-0.007123679853975773,0.00019185442943125963
1682105468.20476103,13607736,2,0.9999688863754272,0.0033490515779703856,-0.007144617848098278,0.0001466679823352024
1682105468.30476403,13707739,2,0.9999688863754272,0.0032284960616379976,-0.00719702523201704,0.00013503481750376523
1682105468.40471601,13807691,2,0.9999686479568481,0.003183192340657115,-0.007249960210174322,0.00019941705977544188
1682105468.50472093,13907696,2,0.9999685883522034,0.0030792027246207,-0.007296770345419645,0.0002090302004944533
1682105468.60471392,14007689,2,0.7368048429489136,0.007233315147459507,-0.003529090667143464,0.6760575771331787
1682105468.70472288,14107698,2,0.7358394265174866,0.007133660838007927,-0.0035154088400304317,0.6771093606948853
1682105468.80472803,14207703,2,0.7341222167015076,0.007091211155056953,-0.0035163427237421274,0.6789712309837341
1682105468.90480185,14307777,2,0.7318160533905029,0.00706598162651062,-0.0035430556163191795,0.6814563870429993
1682105469.00478482,14407760,2,0.7293053865432739,0.006987808272242546,-0.0035667414776980877,0.6841433644294739
1682105469.10480094,14507776,2,0.7270505428314209,0.006924553774297237,-0.003519001416862011,0.6865400075912476
1682105469.20474100,14607716,2,0.7252160310745239,0.0068700918927788734,-0.0035101340617984533,0.6884781718254089
1682105469.30471301,14707688,2,0.723869800567627,0.006860625930130482,-0.003514649113640189,0.6898935437202454
1682105469.40471601,14807691,2,0.7229450941085815,0.006815379485487938,-0.003524667350575328,0.6908628940582275
1682105469.50472188,14907697,2,0.722303569316864,0.006825637072324753,-0.0035162572748959064,0.6915335059165955
1682105469.60472393,15007699,2,0.7218141555786133,0.006744234822690487,-0.0034676247742027044,0.6920453906059265
1682105469.70472288,15107698,2,0.7215356230735779,0.006759637035429478,-0.0034819766879081726,0.6923355460166931
1682105469.80480695,15207782,2,0.721246063709259,0.006708189379423857,-0.0034839289728552103,0.6926376819610596
1682105469.90478086,15307756,2,0.7208907008171082,0.006722161080688238,-0.003546026535332203,0.6930071115493774
1682105470.00479603,15407771,2,0.7206457853317261,0.006723098922520876,-0.003541934071108699,0.6932617425918579
1682105470.10474801,15507723,2,0.720556914806366,0.0067049115896224976,-0.0035567546728998423,0.6933543086051941
1682105470.20471096,15607686,2,0.7203948497772217,0.006759085226804018,-0.0036037240643054247,0.6935219168663025
1682105470.30471396,15707689,2,0.720137894153595,0.0067654987797141075,-0.0036153215914964676,0.6937885284423828
1682105470.40471387,15807689,2,0.7198631167411804,0.006841116119176149,-0.0036605489440262318,0.6940726637840271
1682105470.50471091,15907686,2,0.7196260094642639,0.006895009428262711,-0.0037129935808479786,0.6943176984786987
1682105470.60472584,16007701,2,0.7194646000862122,0.006959227845072746,-0.0037085593212395906,0.6944843530654907
1682105470.70479894,16107774,2,0.7194116711616516,0.0069487253203988075,-0.0037377371918410063,0.6945391297340393
1682105470.80477881,16207754,2,0.7193946242332458,0.0069693950936198235,-0.0037572497967630625,0.694556474685669
1682105470.90476203,16307737,2,0.7194013595581055,0.0069823781959712505,-0.003782226238399744,0.6945492625236511
1682105471.00474596,16407721,2,0.7193458080291748,0.00707774655893445,-0.003845079569146037,0.6946054100990295
1682105471.10471892,16507694,2,0.7192564606666565,0.007170451804995537,-0.0038228428456932306,0.6946971416473389
1682105471.20472097,16607696,2,0.7191897034645081,0.007192948833107948,-0.0038391579873859882,0.6947659254074097
1682105471.30472398,16707699,2,0.7191756367683411,0.007270937319844961,-0.0039010720793157816,0.6947793364524841
1682105471.40471101,16807686,2,0.7191686034202576,0.007311250548809767,-0.003934216685593128,0.694786012172699
1682105471.50472999,16907705,2,0.7192646265029907,0.007360875606536865,-0.003920812625437975,0.6946861147880554
1682105471.60480189,17007777,2,0.7193616628646851,0.007371256593614817,-0.003935420885682106,0.6945855021476746
1682105471.70477796,17107753,2,0.719304621219635,0.007395626977086067,-0.003919860348105431,0.6946443915367126
1682105471.80480003,17207775,2,0.7192815542221069,0.007428429555147886,-0.003918736707419157,0.6946679353713989
1682105471.90475082,17307726,2,0.7191504836082458,0.007465488743036985,-0.0038940543308854103,0.6948033571243286
1682105472.00472403,17407699,2,0.7189462184906006,0.007507252506911755,-0.0038526642601937056,0.695014476776123
1682105472.10472584,17507701,2,0.7188414335250854,0.00754535710439086,-0.0038421449717134237,0.695122480392456
1682105472.20472193,17607697,2,0.7187789678573608,0.007559611462056637,-0.0037988130934536457,0.6951872110366821
1682105472.30472183,17707697,2,0.7186658978462219,0.007594687398523092,-0.0038366166409105062,0.6953034996986389
1682105472.40473485,17807710,2,0.718717098236084,0.007673922926187515,-0.0038380371406674385,0.6952496767044067
1682105472.50479484,17907770,2,0.7189589738845825,0.007669729180634022,-0.0038460493087768555,0.6949995756149292
1682105472.60477495,18007750,2,0.7193222641944885,0.007707036100327969,-0.003850463079288602,0.6946231126785278
1682105472.70480084,18107776,2,0.7197546362876892,0.007666788995265961,-0.0038681887090206146,0.6941754221916199
1682105472.80473995,18207715,2,0.7201411724090576,0.0076730698347091675,-0.003870557527989149,0.6937743425369263
1682105472.90471101,18307686,2,0.7203878164291382,0.007649734150618315,-0.003920335788279772,0.6935181617736816
1682105473.00471687,18407692,2,0.720568835735321,0.007629365660250187,-0.003879738040268421,0.6933305859565735
1682105473.10471487,18507690,2,0.7207528948783875,0.007624405436217785,-0.003888216335326433,0.6931392550468445
1682105473.20471787,18607693,2,0.7209117412567139,0.007687476463615894,-0.003855534829199314,0.6929734945297241
1682105473.30472589,18707701,2,0.7209829688072205,0.007661116775125265,-0.0038495466578751802,0.692899763584137
1682105473.40479684,18807772,2,0.7208515405654907,0.007648950908333063,-0.003853329923003912,0.6930366158485413
1682105473.50477982,18907755,2,0.7206176519393921,0.0076753562316298485,-0.003834604052826762,0.6932796239852905
1682105473.60475683,19007732,2,0.7201487421989441,0.007665570825338364,-0.0038187566678971052,0.6937668323516846
1682105473.70474291,19107718,2,0.7196145057678223,0.007646423764526844,-0.0037884844932705164,0.69432133436203
1682105473.80471182,19207687,2,0.7191304564476013,0.007614476606249809,-0.0037782504223287106,0.6948230862617493
1682105473.90471196,19307687,2,0.7188328504562378,0.007615686859935522,-0.0037569005507975817,0.6951310634613037
1682105474.00471497,19407690,2,0.7186154723167419,0.007642274722456932,-0.003762217005714774,0.6953555345535278
1682105474.10472393,19507699,2,0.7183445692062378,0.007633943110704422,-0.003724832320585847,0.6956356167793274
1682105474.20472097,19607696,2,0.7180548310279846,0.00759093975648284,-0.003713348414748907,0.6959352493286133
1682105474.30480480,19707780,2,0.7177412509918213,0.007571963593363762,-0.0036974488757550716,0.6962589025497437
1682105474.40478492,19807760,2,0.7173229455947876,0.007548440247774124,-0.0036902553401887417,0.6966901421546936
1682105474.50474286,19907718,2,0.7168638706207275,0.00754493847489357,-0.0036772468592971563,0.6971626281738281
1682105474.60474396,20007719,2,0.7164813876152039,0.0075669982470571995,-0.0037689500022679567,0.6975549459457397
1682105474.70473194,20107707,2,0.7161033749580383,0.007573302369564772,-0.003779100952669978,0.6979429125785828
1682105474.80471182,20207687,2,0.7157513499259949,0.007637336850166321,-0.003738157218322158,0.6983034610748291
1682105474.90471101,20307686,2,0.7154918909072876,0.0075957863591611385,-0.003712570760399103,0.6985698938369751
1682105475.00472283,20407698,2,0.7152613997459412,0.0075874049216508865,-0.0037389067001640797,0.6988058090209961
1682105475.10472989,20507705,2,0.7150754928588867,0.007659253664314747,-0.003749745199456811,0.6989952325820923
1682105475.20479703,20607772,2,0.7149156332015991,0.007698250934481621,-0.0037730177864432335,0.6991581916809082
1682105475.30477786,20707753,2,0.7147828936576843,0.0076819355599582195,-0.0037669665180146694,0.6992940902709961
1682105475.40480399,20807779,2,0.714655339717865,0.007701474707573652,-0.003742127912119031,0.6994243860244751
1682105475.50475383,20907729,2,0.714565098285675,0.007700133137404919,-0.003793222364038229,0.6995162963867188
1682105475.60471988,21007695,2,0.7146477103233337,0.0077121746726334095,-0.0038244901224970818,0.6994315981864929
1682105475.70471382,21107689,2,0.7147812843322754,0.007707887329161167,-0.0038200202398002148,0.699295163154602
1682105475.80471087,21207686,2,0.7149537205696106,0.007732557598501444,-0.0038385724183171988,0.6991184949874878
1682105475.90471101,21307686,2,0.715091347694397,0.007746085524559021,-0.0038183352444320917,0.6989776492118835
1682105476.00474691,21407722,2,0.7151390314102173,0.007740847300738096,-0.00379747711122036,0.6989290714263916
1682105476.10479903,21507774,2,0.7151066064834595,0.007714531850069761,-0.0037582367658615112,0.6989627480506897
1682105476.20477080,21607746,2,0.7149631977081299,0.007761099375784397,-0.0037716063670814037,0.6991088390350342
1682105476.30480099,21707776,2,0.7147937417030334,0.007789339404553175,-0.00376191851682961,0.6992818117141724
1682105476.40474892,21807724,2,0.71458899974823,0.0077410186640918255,-0.0037095064762979746,0.6994918584823608
1682105476.50472188,21907697,2,0.7143377661705017,0.007712377235293388,-0.003736351151019335,0.6997486352920532
1682105476.60471392,22007689,2,0.7139580845832825,0.00769546814262867,-0.0037698415108025074,0.7001360058784485
1682105476.70471692,22107692,2,0.7134402394294739,0.007697152439504862,-0.003745501395314932,0.7006638050079346
1682105476.80471087,22207686,2,0.7128649950027466,0.007695293053984642,-0.003701823763549328,0.7012493014335632
1682105476.90473390,22307709,2,0.7124140858650208,0.007690142840147018,-0.0037164122331887484,0.7017073631286621
1682105477.00481486,22407790,2,0.7120980024337769,0.007705956231802702,-0.0037103958893567324,0.7020279765129089
1682105477.10477281,22507748,2,0.7119302749633789,0.007676699664443731,-0.0037044514901936054,0.7021984457969666
1682105477.20478582,22607761,2,0.7117816805839539,0.00764864357188344,-0.0036839095409959555,0.7023494243621826
1682105477.30474687,22707722,2,0.7116613984107971,0.007575025781989098,-0.0036492873914539814,0.7024722695350647
1682105477.40471196,22807687,2,0.7115776538848877,0.007581993471831083,-0.0036699892953038216,0.7025569677352905
1682105477.50471091,22907686,2,0.7115814685821533,0.007608016952872276,-0.0036502068396657705,0.7025529146194458
1682105477.60471392,23007689,2,0.7115994095802307,0.007606372237205505,-0.0036736337933689356,0.7025346159934998
1682105477.70472789,23107703,2,0.7115609049797058,0.00763460760936141,-0.003685192670673132,0.702573299407959
1682105477.80473995,23207715,2,0.7114810943603516,0.0076256003230810165,-0.0036560557782649994,0.7026543617248535
1682105477.90479898,23307774,2,0.7113527059555054,0.007655676919966936,-0.0036719536874443293,0.7027839422225952
1682105478.00477386,23407749,2,0.7111810445785522,0.007664941716939211,-0.003685404546558857,0.7029574513435364
1682105478.10475993,23507735,2,0.7110095620155334,0.007658590096980333,-0.0037399698048830032,0.7031306624412537
1682105478.20473886,23607714,2,0.7109594941139221,0.007669871207326651,-0.0037499144673347473,0.7031810879707336
1682105478.30471492,23707690,2,0.7110006809234619,0.0076959868893027306,-0.003709267359226942,0.7031394243240356
1682105478.40472484,23807700,2,0.7111275792121887,0.007675542030483484,-0.0037298023235052824,0.703011155128479
1682105478.50471091,23907686,2,0.7112773656845093,0.007713029161095619,-0.0037518241442739964,0.7028591632843018
1682105478.60471797,24007693,2,0.7114607691764832,0.00771485548466444,-0.003788572736084461,0.7026732563972473
1682105478.70474100,24107716,2,0.7115461230278015,0.007683183532208204,-0.003800000762566924,0.7025871276855469
1682105478.80480695,24207782,2,0.7115616202354431,0.007712672930210829,-0.003784213215112686,0.7025712132453918
1682105478.90476990,24307745,2,0.7114627957344055,0.007745023816823959,-0.0038194959051907063,0.702670693397522
1682105479.00479984,24407775,2,0.7113046050071716,0.007732308469712734,-0.003824598854407668,0.702830970287323
1682105479.10474300,24507718,2,0.7112402319908142,0.007763156667351723,-0.003853415371850133,0.7028955817222595
1682105479.20471096,24607686,2,0.7111829519271851,0.007749633863568306,-0.0038809122052043676,0.702953577041626
1682105479.30471992,24707695,2,0.7111396193504333,0.007763873785734177,-0.00392766110599041,0.7029969692230225
1682105479.40470982,24807685,2,0.7111037969589233,0.007722204085439444,-0.003936129622161388,0.7030336260795593
1682105479.50470996,24907685,2,0.7110174298286438,0.0077094752341508865,-0.003957763779908419,0.7031210064888
1682105479.60474491,25007720,2,0.7108225226402283,0.007748350966721773,-0.003986777272075415,0.7033174633979797
1682105479.70481682,25107792,2,0.7106125950813293,0.007715951651334763,-0.003991312347352505,0.7035298943519592
1682105479.80478001,25207755,2,0.7104805111885071,0.007764705456793308,-0.003946315962821245,0.7036629915237427
1682105479.90478802,25307763,2,0.7102797627449036,0.00779931852594018,-0.003982760943472385,0.7038650512695312
1682105480.00480485,25407780,2,0.7099884748458862,0.00775838503614068,-0.0040223924443125725,0.7041590809822083
1682105480.10471487,25507690,2,0.7098135948181152,0.007737789303064346,-0.0041497512720525265,0.7043348550796509
1682105480.20471787,25607693,2,0.7098402976989746,0.007786029018461704,-0.004179455805569887,0.7043071985244751
1682105480.30472493,25707700,2,0.7097533345222473,0.007807418238371611,-0.004437664523720741,0.7043930292129517
1682105480.40472794,25807703,2,0.7097207307815552,0.007872975431382656,-0.004220847971737385,0.7044264674186707
1682105480.50473380,25907709,2,0.7097598910331726,0.007641636300832033,-0.004540267866104841,0.7043876051902771
1682105480.60479784,26007773,2,0.7095960974693298,0.007844719104468822,-0.004404574166983366,0.7045512199401855
1682105480.70478487,26107760,2,0.7095819711685181,0.007703361567109823,-0.004382913466542959,0.7045671343803406
1682105480.80479693,26207772,2,0.709542989730835,0.007816850207746029,-0.004413175396621227,0.704604983329773
1682105480.90474391,26307719,2,0.709557831287384,0.007707343436777592,-0.004466892220079899,0.7045908570289612
1682105481.00471783,26407693,2,0.7095006108283997,0.00771226966753602,-0.004469023551791906,0.7046484351158142
1682105481.10471702,26507692,2,0.709805965423584,0.007716457825154066,-0.004447945859283209,0.704340934753418
1682105481.20471883,26607694,2,0.7101515531539917,0.007761289365589619,-0.00450005941092968,0.7039916515350342
1682105481.30471396,26707689,2,0.7101329565048218,0.007765387184917927,-0.004698748234659433,0.7040091156959534
1682105481.40473199,26807707,2,0.7104646563529968,0.007765385787934065,-0.004475268069654703,0.7036758065223694
1682105481.50481081,26907786,2,0.710486114025116,0.007740899920463562,-0.00466128857806325,0.7036532163619995
1682105481.60477901,27007754,2,0.7104015350341797,0.007718594279140234,-0.004694702569395304,0.7037386298179626
1682105481.70479393,27107769,2,0.7105176448822021,0.007680289912968874,-0.004743332043290138,0.703621506690979
1682105481.80474401,27207719,2,0.7101725339889526,0.007756915874779224,-0.0048444983549416065,0.7039682269096375
1682105481.90471101,27307686,2,0.7101202011108398,0.007685176562517881,-0.004963153041899204,0.7040210366249084
1682105482.00471401,27407689,2,0.7105259299278259,0.007585474755614996,-0.005044284742325544,0.7036120295524597
1682105482.10471487,27507690,2,0.7102265357971191,0.00774643337354064,-0.00510620791465044,0.703912079334259
1682105482.20471096,27607686,2,0.7103691101074219,0.007602836936712265,-0.005281307268887758,0.7037684321403503
1682105482.30472398,27707699,2,0.7104683518409729,0.0076148128136992455,-0.005198407918214798,0.7036687731742859
1682105482.40478992,27807765,2,0.7105059623718262,0.007525848224759102,-0.005100081209093332,0.7036324143409729
1682105482.50477195,27907747,2,0.7107486724853516,0.0076466393657028675,-0.0052674016915261745,0.7033847570419312
1682105482.60475183,28007727,2,0.7107349038124084,0.00777263892814517,-0.005416261963546276,0.7033961415290833
1682105482.70474601,28107721,2,0.7107882499694824,0.007528852205723524,-0.005400022026151419,0.7033450603485107
1682105482.80471087,28207686,2,0.7110734581947327,0.007684225682169199,-0.00561880599707365,0.7030532956123352
1682105482.90472388,28307699,2,0.7110633850097656,0.0077096871100366116,-0.005662496667355299,0.7030628323554993
1682105483.00471783,28407693,2,0.7106189131736755,0.007760841399431229,-0.0057091680355370045,0.7035111784934998
1682105483.10471082,28507686,2,0.7104701995849609,0.00785805657505989,-0.005774177145212889,0.70365971326828
1682105483.20472097,28607696,2,0.7106277346611023,0.007874119095504284,-0.005842307582497597,0.7034999132156372
1682105483.30480385,28707779,2,0.710273265838623,0.007746691815555096,-0.005883349571377039,0.7038588523864746
1682105483.40477395,28807749,2,0.7102866768836975,0.008109956048429012,-0.005896486341953278,0.7038410902023315
1682105483.50480580,28907781,2,0.7103006839752197,0.007921782322227955,-0.00608148705214262,0.7038275003433228
1682105483.60474586,29007721,2,0.709994912147522,0.007926279678940773,-0.0057604569010436535,0.7041386365890503
1682105483.70471287,29107688,2,0.7100326418876648,0.007863955572247505,-0.005895901937037706,0.7041001319885254
1682105483.80471396,29207689,2,0.7102212309837341,0.008068371564149857,-0.005755066405981779,0.7039087414741516
1682105483.90471101,29307686,2,0.7100486755371094,0.007980482652783394,-0.005568583961576223,0.7040853500366211
1682105484.00472093,29407696,2,0.7099807262420654,0.0078935781493783,-0.004942642990499735,0.7041595578193665
1682105484.10472488,29507700,2,0.7104009389877319,0.0076203979551792145,-0.004770532250404358,0.7037398219108582
1682105484.20480490,29607780,2,0.7107738256454468,0.007656896486878395,-0.00492313364520669,0.7033617496490479
1682105484.30477095,29707746,2,0.7102987766265869,0.007797326892614365,-0.004864758346229792,0.7038403153419495
1682105484.40480494,29807780,2,0.7102254033088684,0.007636327296495438,-0.004681300837546587,0.703917384147644
1682105484.50474501,29907720,2,0.7105398774147034,0.0076848543249070644,-0.004679661709815264,0.7035994529724121
1682105484.60470295,30007678,2,0.7102842330932617,0.007676470559090376,-0.004742395132780075,0.7038571834564209
1682105484.70471597,30107691,2,0.7101219296455383,0.0076748705469071865,-0.00462053157389164,0.7040217518806458
1682105484.80470991,30207685,2,0.7102875113487244,0.007710690144449472,-0.004756677430123091,0.7038533687591553
1682105484.90470695,30307682,2,0.7098178863525391,0.007748940959572792,-0.004681431222707033,0.7043270468711853
1682105485.00472689,30407702,2,0.7093833088874817,0.007654415909200907,-0.004704323597252369,0.7047656774520874
1682105485.10475302,30507728,2,0.7093744277954102,0.007763191591948271,-0.004684153012931347,0.704773485660553
1682105485.20476389,30607739,2,0.709022045135498,0.007693852763622999,-0.004780739080160856,0.7051281332969666
1682105485.30474901,30707724,2,0.7086760401725769,0.0078001380898058414,-0.004663308151066303,0.7054755091667175
1682105485.40475082,30807726,2,0.7090128064155579,0.00772243132814765,-0.004805885720998049,0.7051369547843933
1682105485.50470281,30907678,2,0.7090024948120117,0.00772826699540019,-0.004659612663090229,0.7051482796669006
1682105485.60471201,31007687,2,0.7084932923316956,0.007663912605494261,-0.00475054606795311,0.7056599259376526
1682105485.70471191,31107687,2,0.708593487739563,0.007686063181608915,-0.004739380441606045,0.7055591344833374
1682105485.80471396,31207689,2,0.7087042927742004,0.007739545311778784,-0.004759151954203844,0.7054471373558044
1682105485.90471196,31307687,2,0.708463191986084,0.007736160885542631,-0.00477191898971796,0.7056892514228821
1682105486.00478983,31407765,2,0.7083353996276855,0.00783183891326189,-0.004712242167443037,0.7058168649673462
1682105486.10476494,31507740,2,0.7083175182342529,0.007752417586743832,-0.0048149339854717255,0.7058349847793579
1682105486.20471096,31607686,2,0.7081596851348877,0.007884006947278976,-0.0046724360436201096,0.7059928178787231
1682105486.30473995,31707715,2,0.7078879475593567,0.007720117457211018,-0.004795849323272705,0.7062662839889526
1682105486.40471101,31807686,2,0.7076388597488403,0.00783457886427641,-0.0046974788419902325,0.7065152525901794
1682105486.50470781,31907683,2,0.7079551219940186,0.00765935517847538,-0.004765364807099104,0.7061998248100281
1682105486.60471201,32007687,2,0.7080314755439758,0.007833207026124,-0.004597943741828203,0.7061224579811096
1682105486.70470595,32107681,2,0.7075701951980591,0.007628493942320347,-0.004788525402545929,0.706585705280304
1682105486.80471396,32207689,2,0.7078839540481567,0.00776740163564682,-0.004639342427253723,0.7062708139419556
1682105486.90475988,32307735,2,0.7080102562904358,0.007610610220581293,-0.004773628432303667,0.7061449885368347
1682105487.00477099,32407746,2,0.7075129151344299,0.007668600417673588,-0.004656750243157148,0.7066434621810913
1682105487.10478687,32507762,2,0.7077084183692932,0.007662701886147261,-0.004705874715000391,0.706447422504425
1682105487.20472884,32607704,2,0.7080360054969788,0.007711324840784073,-0.0046593728475272655,0.7061188817024231
1682105487.30470181,32707677,2,0.7077881097793579,0.007654473185539246,-0.004615490324795246,0.7063682675361633
1682105487.40469790,32807673,2,0.708082377910614,0.007664529141038656,-0.004594122990965843,0.7060732841491699
1682105487.50470090,32907676,2,0.7085154056549072,0.0076569742523133755,-0.004572296515107155,0.7056390047073364
1682105487.60470200,33007677,2,0.7083499431610107,0.00758139044046402,-0.004566724877804518,0.7058059573173523
1682105487.70471501,33107690,2,0.708620011806488,0.007509113289415836,-0.004392895381897688,0.7055366635322571
1682105487.80474401,33207719,2,0.7090277671813965,0.007500967942178249,-0.00453673442825675,0.7051260471343994
1682105487.90475988,33307735,2,0.708793580532074,0.0076073408126831055,-0.00428977282717824,0.7053619027137756
1682105488.00477600,33407751,2,0.7089093923568726,0.007486146874725819,-0.004308184143155813,0.7052466869354248
1682105488.10474586,33507721,2,0.7092767953872681,0.007634258829057217,-0.004308093339204788,0.7048755884170532
1682105488.20469999,33607675,2,0.7090302109718323,0.007579161785542965,-0.004254231695085764,0.7051244974136353
1682105488.30470181,33707677,2,0.7090516686439514,0.007606797385960817,-0.004207521211355925,0.7051029205322266
1682105488.40472293,33807698,2,0.7091772556304932,0.007600884884595871,-0.004242165479809046,0.7049764394760132
1682105488.50469995,33907675,2,0.7086402177810669,0.007534409407526255,-0.004172229673713446,0.7055174708366394
1682105488.60471797,34007693,2,0.7082046866416931,0.007569893728941679,-0.004252311773598194,0.7059537768363953
1682105488.70479202,34107767,2,0.7080385088920593,0.007532975170761347,-0.004235333297401667,0.7061209678649902
1682105488.80476880,34207744,2,0.7074325084686279,0.007581405341625214,-0.004220073111355305,0.7067276239395142
1682105488.90472603,34307701,2,0.7067954540252686,0.007532178889960051,-0.0042609223164618015,0.7073650360107422
1682105489.00473499,34407710,2,0.7064315676689148,0.0074968598783016205,-0.004179245792329311,0.7077293395996094
1682105489.10469985,34507675,2,0.7057276368141174,0.007474225480109453,-0.004234137944877148,0.7084311246871948
1682105489.20470881,34607684,2,0.7050992846488953,0.007473355624824762,-0.004192098509520292,0.7090567946434021
1682105489.30471182,34707687,2,0.7049289345741272,0.007403295952826738,-0.0042139641009271145,0.7092267870903015
1682105489.40471482,34807690,2,0.7045547366142273,0.007420761045068502,-0.004178731236606836,0.7095985412597656
1682105489.50471902,34907694,2,0.7042493224143982,0.0074082971550524235,-0.004176595248281956,0.7099018096923828
1682105489.60476398,35007739,2,0.7044262290000916,0.007396621163934469,-0.004165187012404203,0.7097264528274536
1682105489.70477295,35107748,2,0.7043071389198303,0.007350676693022251,-0.004160355776548386,0.7098451256752014
1682105489.80471492,35207690,2,0.7039971351623535,0.007358634378761053,-0.004176121670752764,0.7101523876190186
1682105489.90473199,35307707,2,0.7039750218391418,0.007421040441840887,-0.0041997721418738365,0.7101735472679138
1682105490.00470495,35407680,2,0.7037613391876221,0.007377313449978828,-0.004236734937876463,0.7103855013847351
1682105490.10471201,35507687,2,0.7033810615539551,0.007378172595053911,-0.004220472648739815,0.7107621431350708
1682105490.20471096,35607686,2,0.7033810019493103,0.007421921007335186,-0.004266382195055485,0.7107614278793335
1682105490.30470300,35707678,2,0.703214168548584,0.007446367759257555,-0.004228971432894468,0.7109264731407166
1682105490.40473199,35807707,2,0.7028545141220093,0.00742676155641675,-0.004207906778901815,0.7112824320793152
1682105490.50474191,35907717,2,0.702727735042572,0.007442101836204529,-0.004168075043708086,0.7114077210426331
1682105490.60476780,36007743,2,0.7026089429855347,0.0074617983773350716,-0.004188057035207748,0.7115247845649719
1682105490.70479584,36107771,2,0.7022600769996643,0.007477545645087957,-0.004150481894612312,0.7118691205978394
1682105490.80474186,36207717,2,0.7020869851112366,0.007438051979988813,-0.004175661597400904,0.7120401263237
1682105490.90470481,36307680,2,0.7021245956420898,0.007417361252009869,-0.004142906051129103,0.7120034098625183
1682105491.00470686,36407682,2,0.702084481716156,0.007390949875116348,-0.004118048120290041,0.7120434045791626
1682105491.10469985,36507675,2,0.7018588781356812,0.007409264333546162,-0.0041191717609763145,0.7122656106948853
1682105491.20470095,36607676,2,0.7017233967781067,0.0074058049358427525,-0.004112065304070711,0.7123991250991821
1682105491.30473089,36707706,2,0.7015656232833862,0.007444519083946943,-0.00406590336933732,0.7125543355941772
1682105491.40480590,36807781,2,0.7014405131340027,0.007489208597689867,-0.004103870131075382,0.7126768231391907
1682105491.50477290,36907748,2,0.7015939354896545,0.007450660690665245,-0.004112687427550554,0.7125262022018433
1682105491.60474992,37007725,2,0.7019767761230469,0.007469397038221359,-0.004123054910451174,0.7121487259864807
1682105491.70473385,37107709,2,0.7023240923881531,0.007466974202543497,-0.004175587557256222,0.7118059396743774
1682105491.80469990,37207675,2,0.702781081199646,0.007474531419575214,-0.004148215055465698,0.7113548517227173
1682105491.90470600,37307681,2,0.7032371759414673,0.007509217597544193,-0.004170726519078016,0.7109034657478333
1682105492.00471282,37407688,2,0.7036342620849609,0.00751493452116847,-0.004165805410593748,0.7105103731155396
1682105492.10471392,37507689,2,0.704169750213623,0.0074913520365953445,-0.004208025988191366,0.7099797129631042
1682105492.20472288,37607698,2,0.7047396302223206,0.007495624478906393,-0.004202207550406456,0.709414005279541
1682105492.30480480,37707780,2,0.7052678465843201,0.00748238991945982,-0.004217221401631832,0.7088889479637146
1682105492.40476584,37807741,2,0.7058522701263428,0.00748024508357048,-0.004201174713671207,0.708307147026062
1682105492.50478697,37907762,2,0.7064546346664429,0.007454082369804382,-0.00421482790261507,0.7077065110206604
1682105492.60473299,38007708,2,0.7068600654602051,0.0074376254342496395,-0.004223655443638563,0.707301676273346
1682105492.70470500,38107680,2,0.7072579264640808,0.007430121302604675,-0.004187506157904863,0.7069041728973389
1682105492.80470991,38207685,2,0.7077527642250061,0.007390875369310379,-0.004175900481641293,0.706409215927124
1682105492.90471196,38307687,2,0.7081556916236877,0.0073877242393791676,-0.004170327913016081,0.706005334854126
1682105493.00471282,38407688,2,0.7085288763046265,0.007330725900828838,-0.004176538437604904,0.70563143491745
1682105493.10471296,38507688,2,0.708988606929779,0.007345334626734257,-0.004160738084465265,0.7051694393157959
1682105493.20474291,38607718,2,0.7093088626861572,0.0073361205868422985,-0.004130637738853693,0.704847514629364
1682105493.30476689,38707742,2,0.7096684575080872,0.007348340004682541,-0.004138525575399399,0.704485297203064
1682105493.40471387,38807689,2,0.7101250886917114,0.007322060875594616,-0.004167979117482901,0.7040250897407532
1682105493.50473785,38907713,2,0.710486114025116,0.007325455080717802,-0.004191565327346325,0.7036606073379517
1682105493.60470796,39007683,2,0.7108076810836792,0.007298433221876621,-0.004200207535177469,0.7033360004425049
1682105493.70471597,39107691,2,0.7112889885902405,0.007355630397796631,-0.004181772004812956,0.7028487920761108
1682105493.80471492,39207690,2,0.7116068005561829,0.007347635924816132,-0.004208346363157034,0.7025269269943237
1682105493.90470290,39307678,2,0.7118459343910217,0.007385429926216602,-0.0042013064958155155,0.7022842168807983
1682105494.00471497,39407690,2,0.7121782302856445,0.0073953359387815,-0.004189249128103256,0.7019472718238831
1682105494.10475993,39507735,2,0.7124565839767456,0.0073643638752400875,-0.004177355207502842,0.7016651630401611
1682105494.20476198,39607737,2,0.712716817855835,0.007335393689572811,-0.004201606847345829,0.7014009356498718
1682105494.30472398,39707699,2,0.7130059003829956,0.007329000625759363,-0.004296225029975176,0.7011065483093262
1682105494.40473700,39807712,2,0.7132968902587891,0.007325222250074148,-0.004293190781027079,0.7008105516433716
1682105494.50469899,39907674,2,0.7135449647903442,0.007310578599572182,-0.004324736539274454,0.7005579471588135
1682105494.60469890,40007674,2,0.7138482332229614,0.007279433775693178,-0.004292058292776346,0.7002494931221008
1682105494.70470691,40107682,2,0.714093804359436,0.007240804843604565,-0.004239229951053858,0.6999997496604919
1682105494.80470085,40207676,2,0.7143063545227051,0.007244805805385113,-0.0042673018760979176,0.6997826099395752
1682105494.90471196,40307687,2,0.7146019339561462,0.007139238063246012,-0.004236341454088688,0.6994820833206177
1682105495.00475693,40407732,2,0.7147907018661499,0.007150235585868359,-0.0041835252195596695,0.6992893815040588
1682105495.10476494,40507740,2,0.714971661567688,0.007170102093368769,-0.004193903412669897,0.6991041302680969
1682105495.20478988,40607765,2,0.7151922583580017,0.007166028488427401,-0.004179276525974274,0.6988785266876221
1682105495.30473280,40707708,2,0.7153704762458801,0.007141868583858013,-0.004166232421994209,0.6986964344978333
1682105495.40470290,40807678,2,0.7155296802520752,0.00718644866719842,-0.0042068492621183395,0.6985327005386353
1682105495.50470686,40907682,2,0.7157735824584961,0.007192798424512148,-0.004232082050293684,0.6982825994491577
1682105495.60470080,41007676,2,0.716083824634552,0.007212555967271328,-0.004221170209348202,0.6979643106460571
1682105495.70470190,41107677,2,0.7163492441177368,0.007234164979308844,-0.004217664711177349,0.6976916193962097
1682105495.80471587,41207691,2,0.7167328000068665,0.007224404718726873,-0.004293294623494148,0.6972972750663757
1682105495.90474200,41307717,2,0.717103123664856,0.007237131707370281,-0.004324352368712425,0.6969160437583923
1682105496.00476193,41407737,2,0.7174161672592163,0.007222515065222979,-0.004365065600723028,0.6965937614440918
1682105496.10477901,41507754,2,0.7177752256393433,0.007252197712659836,-0.00437746848911047,0.6962233781814575
1682105496.20473385,41607709,2,0.7180931568145752,0.007250277325510979,-0.004380658734589815,0.6958954334259033
1682105496.30470991,41707685,2,0.718360960483551,0.007261919789016247,-0.004417293705046177,0.6956186294555664
1682105496.40471387,41807689,2,0.718684732913971,0.007264052517712116,-0.004460242111235857,0.695283830165863
1682105496.50470400,41907679,2,0.7190284729003906,0.007319844327867031,-0.004526113159954548,0.6949273347854614
1682105496.60469985,42007675,2,0.719283401966095,0.007246851455420256,-0.004520657937973738,0.6946642398834229
1682105496.70471597,42107691,2,0.7195748090744019,0.007231040392071009,-0.004591107368469238,0.6943621039390564
1682105496.80474281,42207718,2,0.7199028134346008,0.007216451223939657,-0.004597039427608252,0.6940221190452576
1682105496.90476394,42307739,2,0.7202016711235046,0.007165496237576008,-0.004613549914211035,0.6937124133110046
1682105497.00474691,42407722,2,0.7204716205596924,0.007117161992937326,-0.0046567064709961414,0.6934322714805603
1682105497.10473895,42507714,2,0.7206757068634033,0.007113701198250055,-0.004708265885710716,0.6932198405265808
1682105497.20470500,42607680,2,0.7208048105239868,0.007054676301777363,-0.004769554361701012,0.693085789680481
1682105497.30470395,42707679,2,0.7209418416023254,0.007060342468321323,-0.0047781215980648994,0.6929431557655334
1682105497.40470290,42807678,2,0.721160888671875,0.0070425779558718204,-0.004773051477968693,0.6927153468132019
1682105497.50469899,42907674,2,0.7213824987411499,0.007024756167083979,-0.004740992560982704,0.692484974861145
1682105497.60470986,43007685,2,0.7216479778289795,0.00702410563826561,-0.004764034412801266,0.6922081708908081
1682105497.70474386,43107719,2,0.7219094038009644,0.007006974890828133,-0.004748126957565546,0.6919357776641846
1682105497.80476689,43207742,2,0.7221528887748718,0.007001990918070078,-0.004777444060891867,0.6916815042495728
1682105497.90475297,43307728,2,0.722385823726654,0.007020513527095318,-0.0047434065490961075,0.6914382576942444
1682105498.00473380,43407709,2,0.7226040959358215,0.006957618985325098,-0.004758859518915415,0.6912107467651367
1682105498.10470390,43507679,2,0.7227759957313538,0.006936276331543922,-0.004776316229254007,0.6910310983657837
1682105498.20470381,43607679,2,0.722964346408844,0.0069015356712043285,-0.004759388975799084,0.6908344626426697
1682105498.30470300,43707678,2,0.7231931686401367,0.006945228669792414,-0.004740529228001833,0.6905946135520935
1682105498.40470695,43807682,2,0.7233545780181885,0.006933973170816898,-0.004700839053839445,0.6904259324073792
1682105498.50471783,43907693,2,0.7234788537025452,0.006918003782629967,-0.004682803060859442,0.6902959942817688
1682105498.60474086,44007716,2,0.723592221736908,0.006881759036332369,-0.004707880783826113,0.690177321434021
1682105498.70476985,44107745,2,0.7237136960029602,0.006864870898425579,-0.004727035760879517,0.6900500059127808
1682105498.80471182,44207687,2,0.7238595485687256,0.006819644011557102,-0.004722632933408022,0.6898974776268005
1682105498.90473104,44307706,2,0.7241019606590271,0.006827124394476414,-0.004745716694742441,0.6896427869796753
1682105499.00470281,44407678,2,0.7242864966392517,0.006872809492051601,-0.004807937890291214,0.6894481182098389
1682105499.10469890,44507674,2,0.7245246171951294,0.006855465937405825,-0.0048481314443051815,0.6891977787017822
1682105499.20469999,44607675,2,0.7247390151023865,0.006853610742837191,-0.004889977164566517,0.688971996307373
1682105499.30470395,44707679,2,0.7249720096588135,0.0068674334324896336,-0.004925443325191736,0.6887264251708984
1682105499.40473199,44807707,2,0.7251695394515991,0.006895866245031357,-0.004954889416694641,0.6885179877281189
1682105499.50481892,44907794,2,0.7253605723381042,0.006855534389615059,-0.004960928577929735,0.6883171200752258
1682105499.60476995,45007745,2,0.7254661321640015,0.006834427360445261,-0.0049577197059988976,0.6882060766220093
1682105499.70479298,45107768,2,0.7255795001983643,0.006794116925448179,-0.004937770310789347,0.6880871057510376
1682105499.80473399,45207709,2,0.7257099151611328,0.00674224179238081,-0.004919608123600483,0.6879501938819885
1682105499.90469980,45307675,2,0.7258766293525696,0.0067503973841667175,-0.004925895016640425,0.6877741813659668
1682105500.00470686,45407682,2,0.7260360717773438,0.006712522357702255,-0.00494091073051095,0.6876060962677002
1682105500.10471392,45507689,2,0.7262325286865234,0.00675405515357852,-0.004951619543135166,0.6873981356620789
1682105500.20471096,45607686,2,0.7264122366905212,0.006751387845724821,-0.004966252949088812,0.6872081160545349
1682105500.30472398,45707699,2,0.7265831828117371,0.006737960502505302,-0.0049778795801103115,0.6870274543762207
1682105500.40480995,45807785,2,0.7268298268318176,0.006726951338350773,-0.005000595934689045,0.6867664456367493
1682105500.50476885,45907744,2,0.7271060347557068,0.006735977251082659,-0.005026430357247591,0.6864737272262573
1682105500.60473394,46007709,2,0.727349042892456,0.006750965025275946,-0.005027813836932182,0.6862160563468933
1682105500.70474482,46107720,2,0.727561891078949,0.006763986311852932,-0.005058527924120426,0.6859900951385498
1682105500.80470991,46207685,2,0.7277498841285706,0.006819040048867464,-0.0050233337096869946,0.6857903599739075
1682105500.90470982,46307685,2,0.7279109954833984,0.006812717765569687,-0.005033326335251331,0.6856192946434021
1682105501.00471401,46407689,2,0.7280758619308472,0.006816199515014887,-0.0049742115661501884,0.6854446530342102
1682105501.10470986,46507685,2,0.7282189130783081,0.006805014330893755,-0.004990209825336933,0.685292661190033
1682105501.20471001,46607685,2,0.728304386138916,0.006850672420114279,-0.005000123288482428,0.6852012872695923
1682105501.30476403,46707739,2,0.7284497022628784,0.006802618037909269,-0.005020753014832735,0.6850470900535583
1682105501.40476489,46807740,2,0.7285905480384827,0.0067772637121379375,-0.005098882131278515,0.6848970055580139
1682105501.50477290,46907748,2,0.7286034822463989,0.0067712110467255116,-0.005093513987958431,0.6848832964897156
1682105501.60473895,47007714,2,0.7286216616630554,0.0068121422082185745,-0.0050884876400232315,0.6848636269569397
1682105501.70470190,47107677,2,0.7286277413368225,0.0068298871628940105,-0.0051102410070598125,0.6848568320274353
1682105501.80471396,47207689,2,0.7286459803581238,0.006874494254589081,-0.00512935733422637,0.6848368048667908
1682105501.90470886,47307684,2,0.7287315130233765,0.006952366791665554,-0.0052089998498559,0.6847444176673889
1682105502.00470591,47407681,2,0.7288292646408081,0.006965963635593653,-0.0052580153569579124,0.6846398115158081
1682105502.10471797,47507693,2,0.7289246916770935,0.006962399929761887,-0.005286280997097492,0.6845380663871765
1682105502.20475101,47607726,2,0.7290253639221191,0.006964270491153002,-0.005266892723739147,0.6844310164451599
1682105502.30476403,47707739,2,0.7290922999382019,0.006962628103792667,-0.005293591879308224,0.6843594908714294
1682105502.40479898,47807774,2,0.7290359735488892,0.006976653356105089,-0.0053056273609399796,0.6844192743301392
1682105502.50474000,47907715,2,0.7289851903915405,0.006971572991460562,-0.0052724373526871204,0.6844736337661743
1682105502.60470390,48007679,2,0.7289855480194092,0.007003708742558956,-0.005261319689452648,0.6844730377197266
1682105502.70471501,48107690,2,0.7290284633636475,0.007011009380221367,-0.005301767028868198,0.6844269633293152
1682105502.80471182,48207687,2,0.729137122631073,0.007061925251036882,-0.005297649651765823,0.6843106746673584
1682105502.90470982,48307685,2,0.7292662262916565,0.007037035189568996,-0.0053347013890743256,0.684173047542572
1682105503.00471401,48407689,2,0.7293642163276672,0.00708478968590498,-0.005322958342730999,0.6840682029724121
1682105503.10479689,48507772,2,0.7294575572013855,0.007109011057764292,-0.005284336861222982,0.683968722820282
1682105503.20476484,48607740,2,0.72954261302948,0.007157430052757263,-0.0053275092504918575,0.6838771104812622
1682105503.30472398,48707699,2,0.7296292781829834,0.007163615431636572,-0.005312161520123482,0.6837847232818604
1682105503.40473485,48807710,2,0.729730486869812,0.0071733249351382256,-0.00538309570401907,0.6836760640144348
1682105503.50469995,48907675,2,0.7298213243484497,0.007164604030549526,-0.005401531234383583,0.6835790872573853
1682105503.60469985,49007675,2,0.7299133539199829,0.007217737380415201,-0.005405401345342398,0.6834802031517029
1682105503.70470190,49107677,2,0.7300013899803162,0.007211444433778524,-0.005436602048575878,0.6833860278129578
1682105503.80471587,49207691,2,0.7300660610198975,0.0072222305461764336,-0.005392100661993027,0.6833171248435974
1682105503.90471888,49307694,2,0.7301232814788818,0.007196681573987007,-0.0053841774351894855,0.6832563281059265
1682105504.00474596,49407721,2,0.7302088141441345,0.00719345873221755,-0.005400436464697123,0.6831648349761963
1682105504.10477185,49507747,2,0.7302895784378052,0.0072030313313007355,-0.005363612901419401,0.6830786466598511
1682105504.20473599,49607711,2,0.7303658127784729,0.007233867887407541,-0.005397577304393053,0.6829965710639954
1682105504.30473495,49707710,2,0.7304444313049316,0.007224367465823889,-0.005393251311033964,0.6829126477241516
1682105504.40470695,49807682,2,0.7305153012275696,0.007263255305588245,-0.005372319836169481,0.6828365921974182
1682105504.50470781,49907683,2,0.7305606603622437,0.0072793844155967236,-0.005418140906840563,0.6827874779701233
1682105504.60470080,50007676,2,0.7306361794471741,0.0072763762436807156,-0.005396724212914705,0.682706892490387
1682105504.70470595,50107681,2,0.7307822704315186,0.007252571638673544,-0.005398675799369812,0.6825507283210754
1682105504.80471992,50207695,2,0.7308866381645203,0.007211734540760517,-0.00541645335033536,0.6824393272399902
1682105504.90474486,50307720,2,0.7310253381729126,0.007165071554481983,-0.0054367464035749435,0.6822910308837891
1682105505.00476789,50407743,2,0.7311660647392273,0.0072061773389577866,-0.0054308525286614895,0.6821398138999939
1682105505.10479689,50507772,2,0.7312197685241699,0.007152996491640806,-0.0054208324290812016,0.6820828914642334
1682105505.20473981,50607715,2,0.7312712669372559,0.007100638002157211,-0.005402573850005865,0.6820284128189087
1682105505.30470490,50707680,2,0.7313008904457092,0.007068305741995573,-0.005440691486001015,0.6819966435432434
1682105505.40471292,50807688,2,0.7312811613082886,0.007052969187498093,-0.005453561432659626,0.6820179224014282
1682105505.50469995,50907675,2,0.7312641739845276,0.0070569682866334915,-0.0054625398479402065,0.6820359826087952
1682105505.60470796,51007683,2,0.7313128113746643,0.0070172022096812725,-0.005444747861474752,0.6819843649864197
1682105505.70473886,51107714,2,0.7314011454582214,0.006990828085690737,-0.005436265841126442,0.6818899512290955
1682105505.80480289,51207778,2,0.731512188911438,0.006994790397584438,-0.005468582268804312,0.6817705631256104
1682105505.90476203,51307737,2,0.7316026091575623,0.0069802976213395596,-0.00545146781951189,0.6816738247871399
1682105506.00479388,51407769,2,0.7316750884056091,0.006993256974965334,-0.0054695685394108295,0.6815957427024841
1682105506.10474586,51507721,2,0.7316915988922119,0.00700265122577548,-0.005402044393122196,0.6815784573554993
1682105506.20469999,51607675,2,0.7317206859588623,0.0069282338954508305,-0.0053787510842084885,0.6815481781959534
1682105506.30471802,51707693,2,0.7317714691162109,0.006958422251045704,-0.005393957253545523,0.6814932227134705
1682105506.40471697,51807692,2,0.7317479252815247,0.006968405097723007,-0.005416714586317539,0.6815181970596313
1682105506.50469995,51907675,2,0.7317100167274475,0.00693852175027132,-0.005377219058573246,0.6815595030784607
1682105506.60472584,52007701,2,0.7317250370979309,0.006941631436347961,-0.005333395674824715,0.6815437078475952
1682105506.70478296,52107758,2,0.7317405939102173,0.006927859038114548,-0.0053039854392409325,0.6815273761749268
1682105506.80476189,52207737,2,0.7317720651626587,0.006953979842364788,-0.005274326540529728,0.6814935803413391
1682105506.90471196,52307687,2,0.7317913174629211,0.0069200764410197735,-0.005287733860313892,0.6814731359481812
1682105507.00474381,52407719,2,0.7318021059036255,0.006920605432242155,-0.005288481712341309,0.6814615726470947
1682105507.10470700,52507682,2,0.7318793535232544,0.006917351391166449,-0.005291815847158432,0.6813786029815674
1682105507.20471692,52607692,2,0.7319462895393372,0.006872458849102259,-0.005286224186420441,0.6813071370124817
1682105507.30471587,52707691,2,0.7320437431335449,0.006834349595010281,-0.005260258913040161,0.6812030076980591
1682105507.40471482,52807690,2,0.732067883014679,0.006823698524385691,-0.005195290315896273,0.6811777353286743
1682105507.50471282,52907688,2,0.7320584654808044,0.006821606308221817,-0.00516462279483676,0.6811881065368652
1682105507.60474181,53007717,2,0.7320401668548584,0.006814982276409864,-0.005137300584465265,0.6812080144882202
1682105507.70476484,53107740,2,0.7320438027381897,0.006802103016525507,-0.005160880740731955,0.681204080581665
1682105507.80474901,53207724,2,0.7320279479026794,0.006778919603675604,-0.005145822651684284,0.6812214255332947
1682105507.90472984,53307705,2,0.7319920659065247,0.006771271117031574,-0.005157822277396917,0.6812599897384644
1682105508.00470281,53407678,2,0.7320013046264648,0.006732671055942774,-0.005187031347304583,0.6812502145767212
1682105508.10470295,53507678,2,0.7320286631584167,0.006677382159978151,-0.005092073231935501,0.6812220811843872
1682105508.20469999,53607675,2,0.7320805788040161,0.0066342405043542385,-0.005065251141786575,0.6811668872833252
1682105508.30470300,53707678,2,0.7321528196334839,0.0065922667272388935,-0.005071491468697786,0.6810896396636963
1682105508.40471792,53807693,2,0.7322015166282654,0.006573657039552927,-0.005068979226052761,0.681037425994873
1682105508.50474191,53907717,2,0.7322633266448975,0.006570419296622276,-0.005047043785452843,0.6809712052345276
1682105508.60476398,54007739,2,0.7323615550994873,0.006581466645002365,-0.005087218713015318,0.6808651089668274
1682105508.70479298,54107768,2,0.7324430346488953,0.006579382345080376,-0.0051054516807198524,0.680777370929718
1682105508.80473590,54207711,2,0.7325034141540527,0.006596138700842857,-0.005147283431142569,0.6807119250297546
1682105508.90469980,54307675,2,0.7325471639633179,0.006558509543538094,-0.005169031675904989,0.6806650161743164
1682105509.00470281,54407678,2,0.7325640916824341,0.006576099433004856,-0.005129622761160135,0.6806469559669495
1682105509.10469985,54507675,2,0.7325392365455627,0.006620456930249929,-0.005098124034702778,0.6806735396385193
1682105509.20470095,54607676,2,0.7325517535209656,0.006681822240352631,-0.005066879093647003,0.6806596517562866
1682105509.30471396,54707689,2,0.7325267791748047,0.006689034402370453,-0.005008220206946135,0.680686891078949
1682105509.40474296,54807718,2,0.7325204014778137,0.006681161932647228,-0.00497149582952261,0.6806941628456116
1682105509.50476289,54907738,2,0.7325600385665894,0.006719781085848808,-0.004914364777505398,0.6806515455245972
1682105509.60472393,55007699,2,0.7325725555419922,0.006770479492843151,-0.004827900789678097,0.6806381940841675
1682105509.70474100,55107716,2,0.7326034903526306,0.006729614455252886,-0.004785391502082348,0.6806055307388306
1682105509.80470300,55207678,2,0.7326685190200806,0.006653145886957645,-0.0047616418451070786,0.6805364489555359
1682105509.90470982,55307685,2,0.7327373027801514,0.0066866762936115265,-0.004780039191246033,0.6804620027542114
1682105510.00471187,55407687,2,0.7327826023101807,0.006640054285526276,-0.00473456084728241,0.6804139614105225
1682105510.10471797,55507693,2,0.7328399419784546,0.006657256279140711,-0.0047590769827365875,0.6803518533706665
1682105510.20471191,55607687,2,0.7329580187797546,0.006635671015828848,-0.004773619119077921,0.6802247762680054
1682105510.30476284,55707738,2,0.7330911755561829,0.006624341942369938,-0.004739940166473389,0.6800816059112549
1682105510.40476489,55807740,2,0.7332673072814941,0.006659482140094042,-0.004779602866619825,0.679891049861908
1682105510.50472689,55907702,2,0.7334822416305542,0.006690782494843006,-0.00475922180339694,0.6796590089797974
1682105510.60474181,56007717,2,0.7336110472679138,0.006694320123642683,-0.004732742439955473,0.6795201301574707
1682105510.70471096,56107686,2,0.7337791919708252,0.006816635839641094,-0.004812151659280062,0.6793367862701416
1682105510.80470896,56207684,2,0.7340429425239563,0.0068117780610919,-0.00497672101482749,0.6790506839752197
1682105510.90471387,56307689,2,0.73411625623703,0.00684309983626008,-0.0048491195775568485,0.6789720058441162
1682105511.00470281,56407678,2,0.7342522144317627,0.006849666591733694,-0.005000556819140911,0.6788238286972046
1682105511.10472989,56507705,2,0.7345054149627686,0.006887437310069799,-0.004983843304216862,0.678549587726593
1682105511.20478892,56607764,2,0.7345664501190186,0.006887367926537991,-0.005000732839107513,0.6784833669662476
1682105511.30476499,56707740,2,0.7346616983413696,0.006872149650007486,-0.004982467275112867,0.67838054895401
1682105511.40479398,56807769,2,0.7348513603210449,0.006842495407909155,-0.004961669445037842,0.6781755089759827
1682105511.50473380,56907709,2,0.734891414642334,0.006856140680611134,-0.005023112986236811,0.6781315207481384
1682105511.60470796,57007683,2,0.7349255084991455,0.006891855038702488,-0.005013443063944578,0.6780943274497986
1682105511.70470381,57107679,2,0.7350299954414368,0.006767565850168467,-0.005114926490932703,0.6779814958572388
1682105511.80470395,57207679,2,0.7350766658782959,0.006921006366610527,-0.00501461373642087,0.6779301166534424
1682105511.90469980,57307675,2,0.7350954413414001,0.00672181835398078,-0.005133350379765034,0.6779108643531799
1682105512.00472689,57407702,2,0.7352125644683838,0.006819446571171284,-0.005029572639614344,0.6777836680412292
1682105512.10475993,57507735,2,0.735213577747345,0.006734558846801519,-0.005157841835170984,0.677782416343689
1682105512.20476389,57607739,2,0.7351757884025574,0.006796352099627256,-0.005032861605286598,0.6778237819671631
1682105512.30474186,57707717,2,0.73525071144104,0.006753165740519762,-0.005174827761948109,0.6777418255805969
1682105512.40473580,57807711,2,0.7352336049079895,0.006862391252070665,-0.0050781527534127235,0.6777600646018982
1682105512.50470901,57907684,2,0.7351936101913452,0.006851851940155029,-0.005133235361427069,0.677803099155426
1682105512.60470986,58007685,2,0.735318124294281,0.006919597275555134,-0.00517097394913435,0.6776670813560486
1682105512.70471692,58107692,2,0.7353420257568359,0.006947891786694527,-0.005193578079342842,0.6776406168937683
1682105512.80470800,58207683,2,0.7354115843772888,0.006989939138293266,-0.005232375115156174,0.6775643825531006
1682105512.90471983,58307695,2,0.7355867028236389,0.007042442914098501,-0.005206524860113859,0.6773739457130432
1682105513.00475097,58407726,2,0.7357313632965088,0.0069813355803489685,-0.005287230014801025,0.6772168278694153
1682105513.10476398,58507739,2,0.7358947396278381,0.006984675768762827,-0.005239000543951988,0.6770396828651428
1682105513.20479703,58607772,2,0.7361034154891968,0.0069102137349545956,-0.005328823812305927,0.6768128275871277
1682105513.30473590,58707711,2,0.7362083792686462,0.006956872064620256,-0.005242191720753908,0.6766988635063171
1682105513.40470386,58807679,2,0.7363253831863403,0.006851946469396353,-0.005315140821039677,0.6765720248222351
1682105513.50471783,58907693,2,0.7365168929100037,0.0068859378807246685,-0.0052869077771902084,0.676363468170166
1682105513.60469890,59007674,2,0.7366220951080322,0.006807601545006037,-0.005324128083884716,0.6762493848800659
1682105513.70471191,59107687,2,0.736649751663208,0.006858036387711763,-0.005303074140101671,0.6762188673019409
1682105513.80472684,59207702,2,0.7367656826972961,0.006828518584370613,-0.00534575991332531,0.6760925650596619
1682105513.90474081,59307716,2,0.7368683815002441,0.00684195663779974,-0.005344923119992018,0.6759805083274841
1682105514.00476503,59407740,2,0.7369250059127808,0.006789080332964659,-0.0052259075455367565,0.6759202480316162
1682105514.10474801,59507723,2,0.7371294498443604,0.006778873037546873,-0.005221255589276552,0.675697386264801
1682105514.20473003,59607705,2,0.7373173236846924,0.006720053963363171,-0.005191967822611332,0.6754931807518005
1682105514.30470991,59707685,2,0.7374376058578491,0.006660535465925932,-0.005179134197533131,0.6753625273704529
1682105514.40471482,59807690,2,0.7377076745033264,0.006707728840410709,-0.005177438259124756,0.6750670671463013
1682105514.50471091,59907686,2,0.7379090189933777,0.0065513006411492825,-0.005200799088925123,0.6748483180999756
1682105514.60469985,60007675,2,0.7380387783050537,0.006607536692172289,-0.005092313978821039,0.674706757068634
1682105514.70472288,60107698,2,0.7382341027259827,0.006552140694111586,-0.005125642288476229,0.6744932532310486
1682105514.80475783,60207733,2,0.7383848428726196,0.006657748483121395,-0.004960422869771719,0.6743285059928894
1682105514.90476084,60307736,2,0.7384610176086426,0.006722790654748678,-0.005054894834756851,0.674243688583374
1682105515.00473785,60407713,2,0.7385913133621216,0.0067763072438538074,-0.0049329171888530254,0.6741013526916504
1682105515.10473680,60507712,2,0.7386673092842102,0.006740833632647991,-0.004971473943442106,0.674018144607544
1682105515.20469999,60607675,2,0.7386142015457153,0.006792150903493166,-0.004989925771951675,0.674075722694397
1682105515.30470181,60707677,2,0.7385791540145874,0.006769115105271339,-0.004999023862183094,0.6741142868995667
1682105515.40470195,60807677,2,0.7386050224304199,0.006828135810792446,-0.004985592793673277,0.6740854382514954
1682105515.50469899,60907674,2,0.7384846806526184,0.006792586296796799,-0.004948493558913469,0.6742178797721863
1682105515.60471082,61007686,2,0.738450288772583,0.00672042416408658,-0.0049460045993328094,0.6742563247680664
1682105515.70479393,61107769,2,0.7384499907493591,0.006748073734343052,-0.004954352043569088,0.6742562651634216
1682105515.80476594,61207741,2,0.7383999824523926,0.006673763506114483,-0.005061328411102295,0.6743109822273254
1682105515.90479398,61307769,2,0.7384015917778015,0.006738891359418631,-0.005001186393201351,0.6743090152740479
1682105516.00474381,61407719,2,0.738456666469574,0.006665434688329697,-0.005033774767071009,0.6742492318153381
1682105516.10470581,61507681,2,0.7384240627288818,0.006637056823819876,-0.004944570828229189,0.6742858290672302
1682105516.20471096,61607686,2,0.7384723424911499,0.0065650916658341885,-0.004985421895980835,0.6742333769798279
1682105516.30470300,61707678,2,0.7385187149047852,0.006567069329321384,-0.0049395184032619,0.6741828918457031
1682105516.40471101,61807686,2,0.7385257482528687,0.0065656923688948154,-0.004938154015690088,0.6741752028465271
1682105516.50471902,61907694,2,0.7385727763175964,0.006589809898287058,-0.00487048365175724,0.6741239428520203
1682105516.60473990,62007715,2,0.7386409640312195,0.006627779453992844,-0.004891980439424515,0.6740487217903137
1682105516.70477486,62107750,2,0.7386016249656677,0.0066095320507884026,-0.004835525993257761,0.6740924119949341
1682105516.80472302,62207698,2,0.7386012673377991,0.0065854317508637905,-0.004817216191440821,0.6740931272506714
1682105516.90473104,62307706,2,0.7386462092399597,0.006577671505510807,-0.004828817676752806,0.6740438938140869
1682105517.00470281,62407678,2,0.7386564016342163,0.006628816481679678,-0.004851984325796366,0.6740320920944214
1682105517.10469890,62507674,2,0.7386825084686279,0.006569432094693184,-0.00485226372256875,0.6740040183067322
1682105517.20469999,62607675,2,0.7387323975563049,0.0066033583134412766,-0.004828325938433409,0.6739492416381836
1682105517.30471587,62707691,2,0.7387556433677673,0.006620184052735567,-0.004902961663901806,0.6739230155944824
1682105517.40472698,62807702,2,0.7387986779212952,0.006657586432993412,-0.004853897262364626,0.6738758087158203
1682105517.50474501,62907720,2,0.7388620972633362,0.006650704424828291,-0.00488852197304368,0.6738060712814331
1682105517.60475993,63007735,2,0.7388924360275269,0.006648242473602295,-0.004891722928732634,0.6737728714942932
1682105517.70474195,63107717,2,0.7389335036277771,0.006611829157918692,-0.004898406099528074,0.6737281084060669
1682105517.80473185,63207707,2,0.7389990091323853,0.006606534589082003,-0.0048948838375508785,0.6736562848091125
1682105517.90470982,63307685,2,0.7390211224555969,0.006557419430464506,-0.004832491744309664,0.6736329793930054
1682105518.00471401,63407689,2,0.7390268445014954,0.006526721175760031,-0.004886934533715248,0.6736266613006592
1682105518.10471702,63507692,2,0.7390251159667969,0.00655803456902504,-0.004814864601939917,0.6736287474632263
1682105518.20471096,63607686,2,0.7390428781509399,0.006502645090222359,-0.004848414100706577,0.6736095547676086
1682105518.30472183,63707697,2,0.7390503883361816,0.006502190604805946,-0.004819084424525499,0.673601508140564
1682105518.40480089,63807776,2,0.7391017079353333,0.00640429463237524,-0.004838181659579277,0.6735460162162781
1682105518.50475883,63907734,2,0.7391167879104614,0.006385992746800184,-0.004752736072987318,0.6735302805900574
1682105518.60475802,64007733,2,0.7390531301498413,0.006313103251159191,-0.0047368574887514114,0.6736009120941162
1682105518.70475101,64107726,2,0.7390622496604919,0.006317175924777985,-0.004727406892925501,0.673590898513794
1682105518.80469990,64207675,2,0.7390888929367065,0.006316532846540213,-0.004740849137306213,0.6735615730285645
1682105518.90470982,64307685,2,0.7391183972358704,0.00627015670761466,-0.004684122744947672,0.673530101776123
1682105519.00471497,64407690,2,0.7391926050186157,0.006264944560825825,-0.004685283172875643,0.6734486222267151
1682105519.10471392,64507689,2,0.7392634749412537,0.006219841074198484,-0.004661474842578173,0.6733714938163757
1682105519.20471287,64607688,2,0.7393446564674377,0.006175434682518244,-0.004593656398355961,0.6732831597328186
1682105519.30479002,64707765,2,0.7394062280654907,0.006135883741080761,-0.004587011411786079,0.6732159852981567
1682105519.40476394,64807739,2,0.739430844783783,0.006164183374494314,-0.004573676735162735,0.6731887459754944
1682105519.50472593,64907701,2,0.7394562363624573,0.006138417404145002,-0.004574349615722895,0.6731611490249634
1682105519.60472989,65007705,2,0.7394750714302063,0.006103826686739922,-0.004547814838588238,0.6731408834457397
1682105519.70470285,65107678,2,0.7394754886627197,0.006015008315443993,-0.004531297367066145,0.673141360282898
1682105519.80470800,65207683,2,0.7394787073135376,0.006021077279001474,-0.004539330955594778,0.6731376647949219
1682105519.90470099,65307676,2,0.7395452857017517,0.006044386886060238,-0.004517860244959593,0.6730645298957825
1682105520.00470281,65407678,2,0.7396076917648315,0.005997170228511095,-0.004472457803785801,0.6729966402053833
1682105520.10471582,65507691,2,0.7396436333656311,0.006023422349244356,-0.0044585056602954865,0.6729570031166077
