timestamp,TimeUS,C,Roll,Pitch,Yaw,VN,VE,VD,dPD,PN,PE,PD,GX,GY,GZ,OH
1682105466.10474300,11507718,2,0.0,0.0,0.0,0.0,0.0,0.0,0.0,0.0,0.0,0.0,0.0,0.0,0.0,0.0
1682105466.20480394,11607779,2,0.0,0.0,0.0,0.0,0.0,0.0,0.0,0.0,0.0,0.0,0.0,0.0,0.0,0.0
1682105466.30478096,11707756,2,0.0,0.0,0.0,0.0,0.0,0.0,0.0,0.0,0.0,0.0,0.0,0.0,0.0,0.0
1682105466.40475392,11807729,2,0.0,0.0,0.0,0.0,0.0,0.0,0.0,0.0,0.0,0.0,0.0,0.0,0.0,0.0
1682105466.50475097,11907726,2,0.0,0.0,0.0,0.0,0.0,0.0,0.0,0.0,0.0,0.0,0.0,0.0,0.0,0.0
1682105466.60472393,12007699,2,0.0,0.0,0.0,0.0,0.0,0.0,0.0,0.0,0.0,0.0,0.0,0.0,0.0,0.0
1682105466.70473099,12107706,2,0.0,0.0,0.0,0.0,0.0,0.0,0.0,0.0,0.0,0.0,0.0,0.0,0.0,0.0
1682105466.80472684,12207702,2,0.0,0.0,0.0,0.0,0.0,0.0,0.0,0.0,0.0,0.0,0.0,0.0,0.0,0.0
1682105466.90472102,12307696,2,0.0,0.0,0.0,0.0,0.0,0.0,0.0,0.0,0.0,0.0,0.0,0.0,0.0,0.0
1682105467.00474000,12407715,2,0.0,0.0,0.0,0.0,0.0,0.0,0.0,0.0,0.0,0.0,0.0,0.0,0.0,0.0
1682105467.10479689,12507772,2,0.44,-0.8200000000000001,0.0,-0.0007709583733230829,0.0026523189153522253,0.010223357938230038,-0.0008112277137115598,0.0,0.0,0.000378721219021827,0.0,0.0,0.0,0.0
1682105467.20477200,12607747,2,0.43,-0.8200000000000001,0.01,-0.002897705417126417,0.004082084633409977,0.04858310893177986,0.024438366293907166,0.0,0.0,0.0036766757257282734,0.0,0.0,0.0,0.0
1682105467.30476499,12707740,2,0.43,-0.81,0.0,-0.003949136473238468,0.0068536363542079926,0.09286549687385559,2.392122507095337,0.0,0.0,0.2886350154876709,0.0,0.0,0.0,0.0
1682105467.40474391,12807719,2,0.42,-0.81,0.0,-0.004768966697156429,0.00716386828571558,0.12445574998855591,3.6351757049560547,0.0,0.0,0.5810731053352356,0.0,0.0,0.0,0.0
1682105467.50471902,12907694,2,0.42,-0.81,0.0,-0.0053315735422074795,0.010539439506828785,0.146389439702034,3.0926897525787354,0.0,0.0,0.8214682936668396,0.0,0.0,0.0,0.0
1682105467.60472393,13007699,2,0.42,-0.81,359.99,-0.005753454752266407,0.010127941146492958,0.1605394333600998,2.154850482940674,0.0,0.0,1.007670283317566,0.0,0.0,0.0,0.0
1682105467.70472503,13107700,2,0.42,-0.81,0.0,-0.006882947403937578,0.012619595043361187,0.17047572135925293,1.4386723041534424,0.0,0.0,1.1545807123184204,0.0,0.0,0.0,0.0
1682105467.80471897,13207694,2,0.41000000000000003,-0.81,0.01,-0.007198066916316748,0.012995360419154167,0.17774033546447754,1.0197956562042236,0.0,0.0,1.273107886314392,0.0,0.0,0.0,0.0
1682105467.90472388,13307699,2,0.4,-0.81,0.01,-0.007632764521986246,0.015536366030573845,0.1830740123987198,0.7922912240028381,0.0,0.0,1.3717153072357178,0.0,0.0,0.0,0.0
1682105468.00476789,13407743,2,0.4,-0.81,0.01,-0.00717720715329051,0.016396712511777878,0.18828906118869781,0.6637646555900574,0.0,0.0,1.4564919471740723,0.0,0.0,0.0,0.0
1682105468.10477781,13507753,2,0.39,-0.81,0.01,-0.008727878332138062,0.017023345455527306,0.19054706394672394,0.5350528359413147,0.0,0.0,1.5210603475570679,0.0,0.0,0.0,0.0
1682105468.20476103,13607736,2,0.38,-0.81,0.01,-0.009283802472054958,0.015742462128400803,0.19070260226726532,0.3766462504863739,0.0,0.0,1.5700633525848389,0.0,0.0,0.0,0.0
1682105468.30476403,13707739,2,0.36,-0.8200000000000001,0.01,-0.009709765203297138,0.01407560147345066,0.18964675068855286,0.2843511402606964,0.0,0.0,1.6091352701187134,0.0,0.0,0.0,0.0
1682105468.40471601,13807691,2,0.36,-0.8300000000000001,0.02,-0.009865411557257175,0.012896653264760971,0.18759861588478088,0.22699928283691406,0.0,0.0,1.6405344009399414,0.0,0.0,0.0,0.0
1682105468.50472093,13907696,2,0.35000000000000003,-0.8300000000000001,0.02,-0.009917226620018482,0.010936942882835865,0.18621937930583954,0.21668608486652374,0.0,0.0,1.669893503189087,0.0,0.0,0.0,0.0
1682105468.60471392,14007689,2,0.33,-0.85,85.07000000000001,-0.009877335280179977,0.008148690685629845,0.18548619747161865,0.24846747517585754,0.0,0.0,1.6998379230499268,0.0,0.0,0.0,0.0
1682105468.70472288,14107698,2,0.32,-0.84,85.23,-0.008604091592133045,0.004839777015149593,0.18600110709667206,0.27216655015945435,0.0,0.0,1.7293111085891724,0.0,0.0,0.0,0.0
1682105468.80472803,14207703,2,0.32,-0.84,85.52,-0.008110272698104382,0.0025256662629544735,0.18624551594257355,0.2696283459663391,0.0,0.0,1.7570964097976685,0.0,0.0,0.0,0.0
1682105468.90480185,14307777,2,0.31,-0.84,85.91,-0.005892911925911903,-0.0003305385180283338,0.1882435381412506,0.27942365407943726,0.0,0.0,1.7863785028457642,0.0,0.0,0.0,0.0
1682105469.00478482,14407760,2,0.3,-0.84,86.33,-0.005594849120825529,-0.003603158285841346,0.19180457293987274,0.3198966979980469,0.0,0.0,1.8191626071929932,0.0,0.0,0.0,0.0
1682105469.10480094,14507776,2,0.3,-0.8300000000000001,86.71000000000001,-0.003955653868615627,-0.00641133077442646,0.19550150632858276,0.3409007787704468,0.0,0.0,1.8523082733154297,0.0,0.0,-0.01,0.0
1682105469.20474100,14607716,2,0.29,-0.8300000000000001,87.02,-0.0034285669680684805,-0.007808212656527758,0.19668298959732056,0.30375006794929504,0.0,0.0,1.8809231519699097,0.0,0.0,-0.01,0.0
1682105469.30471301,14707688,2,0.29,-0.8300000000000001,87.24,-0.001455577788874507,-0.009255238808691502,0.19458438456058502,0.2289399951696396,0.0,0.0,1.9036275148391724,0.0,0.0,-0.01,0.0
1682105469.40471601,14807691,2,0.28,-0.8300000000000001,87.39,-2.6009976863861084e-05,-0.010244420729577541,0.19080054759979248,0.13861633837223053,0.0,0.0,1.9183346033096313,0.0,0.0,-0.02,0.0
1682105469.50472188,14907697,2,0.28,-0.8300000000000001,87.5,0.000962281774263829,-0.011018472723662853,0.18482385575771332,0.07536839693784714,0.0,0.0,1.9295563697814941,0.0,0.0,-0.01,0.0
1682105469.60472393,15007699,2,0.28,-0.8200000000000001,87.58,0.0016309035709127784,-0.011768561787903309,0.1792474240064621,0.08284839987754822,0.0,0.0,1.9418514966964722,0.0,0.0,-0.02,0.0
1682105469.70472288,15107698,2,0.28,-0.8200000000000001,87.63,0.0018607627134770155,-0.012969305738806725,0.1736440807580948,0.0930059403181076,0.0,0.0,1.9526866674423218,0.0,0.0,-0.02,0.0
1682105469.80480695,15207782,2,0.27,-0.8200000000000001,87.67,0.003136429702863097,-0.014116635546088219,0.16792510449886322,0.07829076796770096,0.0,0.0,1.9610399007797241,0.0,0.0,-0.03,0.0
1682105469.90478086,15307756,2,0.27,-0.8200000000000001,87.73,0.0034129656851291656,-0.01427303534001112,0.16342444717884064,0.0818915069103241,0.0,0.0,1.9710509777069092,0.0,0.0,-0.03,0.0
1682105470.00479603,15407771,2,0.27,-0.8200000000000001,87.77,0.0038141070399433374,-0.014345983974635601,0.15811105072498322,0.08199961483478546,0.0,0.0,1.9789035320281982,0.0,0.0,-0.02,0.0
1682105470.10474801,15507723,2,0.27,-0.8200000000000001,87.79,0.003381321905180812,-0.014866421930491924,0.1480105221271515,-0.0032661231234669685,0.0,0.0,1.977480173110962,0.0,0.0,-0.02,0.0
1682105470.20471096,15607686,2,0.27,-0.8300000000000001,87.82000000000001,0.004078396130353212,-0.015456034801900387,0.13665388524532318,-0.07335913181304932,0.0,0.0,1.9726579189300537,0.0,0.0,-0.04,0.0
1682105470.30471396,15707689,2,0.27,-0.8300000000000001,87.86,0.0035344958305358887,-0.014361940324306488,0.13064731657505035,-0.013935303315520287,0.0,0.0,1.976230263710022,0.0,0.01,-0.05,0.0
1682105470.40471387,15807689,2,0.27,-0.84,87.9,0.004392059054225683,-0.01411229558289051,0.12530425190925598,0.05183722451329231,0.0,0.0,1.9812372922897339,0.0,0.01,-0.04,0.0
1682105470.50471091,15907686,2,0.27,-0.85,87.94,0.004754314199090004,-0.013393738307058811,0.12145186960697174,0.0872480645775795,0.0,0.0,1.9898285865783691,0.0,0.01,-0.04,0.0
1682105470.60472584,16007701,2,0.27,-0.85,87.97,0.004791843704879284,-0.013538538478314877,0.11692127585411072,0.08594361692667007,0.0,0.0,1.9958672523498535,0.0,0.01,-0.04,0.0
1682105470.70479894,16107774,2,0.27,-0.86,87.98,0.004878443665802479,-0.01341928169131279,0.10900259017944336,0.01987968198955059,0.0,0.0,1.9957646131515503,0.0,0.01,-0.03,0.0
1682105470.80477881,16207754,2,0.27,-0.86,87.98,0.005447892937809229,-0.012719719670712948,0.09916022419929504,-0.045571520924568176,0.0,0.0,1.9919427633285522,0.0,0.02,-0.04,0.0
1682105470.90476203,16307737,2,0.27,-0.86,87.98,0.005947662051767111,-0.010830543003976345,0.08834418654441833,-0.07848866283893585,0.0,0.0,1.9860491752624512,0.0,0.02,-0.04,0.0
1682105471.00474596,16407721,2,0.27,-0.88,87.99,0.007098583970218897,-0.00918277446180582,0.07881604135036469,-0.07384683936834335,0.0,0.0,1.9812448024749756,0.0,0.02,-0.05,0.0
1682105471.10471892,16507694,2,0.28,-0.88,88.0,0.00832658912986517,-0.008387967944145203,0.0703834667801857,-0.044597480446100235,0.0,0.0,1.9782836437225342,0.0,0.02,-0.04,0.0
1682105471.20472097,16607696,2,0.28,-0.88,88.01,0.008828910999000072,-0.006735599599778652,0.06043213605880737,-0.05796977877616882,0.0,0.0,1.9712377786636353,0.0,0.02,-0.05,0.0
1682105471.30472398,16707699,2,0.28,-0.9,88.02,0.008947322145104408,-0.005132236983627081,0.05304935574531555,-0.056510958820581436,0.0,0.0,1.967348337173462,0.0,0.02,-0.05,0.0
1682105471.40471101,16807686,2,0.28,-0.9,88.02,0.008234493434429169,-0.0036598448641598225,0.04723858833312988,-0.005835496820509434,0.0,0.0,1.9679901599884033,-0.01,0.03,-0.03,0.0
1682105471.50472999,16907705,2,0.29,-0.9,88.0,0.008463405072689056,-0.002667408436536789,0.042190369218587875,0.018555378541350365,0.0,0.0,1.968518614768982,-0.01,0.03,-0.03,0.0
1682105471.60480189,17007777,2,0.29,-0.91,87.98,0.008178272284567356,-0.001451130141504109,0.03567736968398094,-0.015810735523700714,0.0,0.0,1.9650213718414307,-0.01,0.03,-0.04,0.0
1682105471.70477796,17107753,2,0.29,-0.91,87.99,0.007164033595472574,-0.0005917883827351034,0.029092010110616684,-0.04847143962979317,0.0,0.0,1.9606564044952393,-0.01,0.03,-0.05,0.0
1682105471.80480003,17207775,2,0.3,-0.91,88.0,0.007005634717643261,-0.00024293969909194857,0.02182205207645893,-0.050804831087589264,0.0,0.0,1.9563226699829102,-0.01,0.03,-0.04,0.0
1682105471.90475082,17307726,2,0.3,-0.91,88.02,0.0067312344908714294,0.0016003318596631289,0.014239328913390636,-0.058025237172842026,0.0,0.0,1.9507029056549072,-0.01,0.03,-0.06,0.0
1682105472.00472403,17407699,2,0.31,-0.91,88.05,0.005439145024865866,0.0019298193510621786,0.005808813031762838,-0.07927984744310379,0.0,0.0,1.943065881729126,-0.01,0.03,-0.06,0.0
1682105472.10472584,17507701,2,0.31,-0.91,88.07000000000001,0.004580245818942785,0.002415100345388055,-0.0023933593183755875,-0.08007977157831192,0.0,0.0,1.9363765716552734,-0.01,0.03,-0.05,0.0
1682105472.20472193,17607697,2,0.32,-0.91,88.08,0.004538026638329029,0.0033069949131458998,-0.008117452263832092,-0.0408441461622715,0.0,0.0,1.933296799659729,-0.02,0.03,-0.05,0.0
1682105472.30472183,17707697,2,0.31,-0.92,88.10000000000001,0.003912646323442459,0.003880576230585575,-0.013526448979973793,-0.019381461665034294,0.0,0.0,1.9303439855575562,-0.02,0.03,-0.06,0.0
1682105472.40473485,17807710,2,0.32,-0.92,88.09,0.004157818853855133,0.004022125620394945,-0.015519962646067142,0.01650223508477211,0.0,0.0,1.9322036504745483,-0.02,0.03,-0.02,0.0
1682105472.50479484,17907770,2,0.32,-0.92,88.05,0.003294679569080472,0.004653144162148237,-0.014519008807837963,0.06855899095535278,0.0,0.0,1.9374644756317139,-0.02,0.03,-0.01,0.0
1682105472.60477495,18007750,2,0.32,-0.93,87.99,0.0020825329702347517,0.004834327381104231,-0.01544198952615261,0.06356355547904968,0.0,0.0,1.9412131309509277,-0.02,0.03,0.0,0.0
1682105472.70480084,18107776,2,0.32,-0.92,87.92,0.0015193579019978642,0.004331741016358137,-0.021462950855493546,-0.008298089727759361,0.0,0.0,1.9378633499145508,-0.02,0.03,0.01,0.0
1682105472.80473995,18207715,2,0.32,-0.92,87.86,0.0006168533582240343,0.00491934921592474,-0.027379386126995087,-0.061368677765131,0.0,0.0,1.9337427616119385,-0.02,0.03,0.01,0.0
1682105472.90471101,18307686,2,0.31,-0.93,87.81,-0.000329818605678156,0.006234218832105398,-0.030444646254181862,-0.021169569343328476,0.0,0.0,1.934306263923645,-0.02,0.03,0.01,0.0
1682105473.00471687,18407692,2,0.32,-0.92,87.79,-0.0004570772289298475,0.006118248216807842,-0.03326907008886337,0.002789462683722377,0.0,0.0,1.9336544275283813,-0.02,0.03,0.01,0.0
1682105473.10471487,18507690,2,0.32,-0.92,87.75,-0.0009468412026762962,0.005518123507499695,-0.038543567061424255,-0.038969989866018295,0.0,0.0,1.9285690784454346,-0.02,0.03,0.03,0.0
1682105473.20471787,18607693,2,0.32,-0.92,87.73,-0.0016125302063301206,0.0053694057278335094,-0.04223517328500748,-0.04509660229086876,0.0,0.0,1.9256751537322998,-0.02,0.03,0.03,0.0
1682105473.30472589,18707701,2,0.32,-0.92,87.72,-0.0025420403108000755,0.005521136336028576,-0.045665036886930466,-0.031397268176078796,0.0,0.0,1.9227272272109985,-0.02,0.03,0.01,0.0
1682105473.40479684,18807772,2,0.32,-0.92,87.74,-0.0033858735114336014,0.004521194379776716,-0.04644289240241051,-0.0016318559646606445,0.0,0.0,1.9234641790390015,-0.02,0.03,0.0,0.0
1682105473.50477982,18907755,2,0.32,-0.92,87.78,-0.0038521576207131147,0.004253237042576075,-0.049323320388793945,0.0015450307400897145,0.0,0.0,1.9219880104064941,-0.02,0.02,-0.02,0.0
1682105473.60475683,19007732,2,0.32,-0.92,87.85000000000001,-0.003797887358814478,0.0040404112078249454,-0.05142442137002945,-0.020563390105962753,0.0,0.0,1.9194780588150024,-0.02,0.02,-0.05,0.0
1682105473.70474291,19107718,2,0.32,-0.92,87.94,-0.003505028085783124,0.004079714883118868,-0.05073809251189232,0.013025798834860325,0.0,0.0,1.9221932888031006,-0.02,0.02,-0.05,0.0
1682105473.80471182,19207687,2,0.32,-0.91,88.02,-0.003933433443307877,0.005280530545860529,-0.049411531537771225,0.05354337394237518,0.0,0.0,1.926554799079895,-0.02,0.02,-0.04,0.0
1682105473.90471196,19307687,2,0.32,-0.91,88.07000000000001,-0.0036905878223478794,0.004573917482048273,-0.04775742068886757,0.06369864195585251,0.0,0.0,1.9314745664596558,-0.02,0.02,-0.04,0.0
1682105474.00471497,19407690,2,0.32,-0.91,88.11,-0.003522125305607915,0.004056519828736782,-0.046173520386219025,0.0646485909819603,0.0,0.0,1.9373141527175903,-0.02,0.02,-0.05,0.0
1682105474.10472393,19507699,2,0.33,-0.91,88.15,-0.002694617258384824,0.003464208450168371,-0.04603603482246399,0.07322697341442108,0.0,0.0,1.9441941976547241,-0.02,0.02,-0.08,0.0
1682105474.20472097,19607696,2,0.32,-0.91,88.2,-0.0024216154124587774,0.0027795820496976376,-0.044642142951488495,0.06910541653633118,0.0,0.0,1.9499428272247314,-0.02,0.02,-0.08,0.0
1682105474.30480480,19707780,2,0.32,-0.9,88.25,-0.0021809933241456747,0.0015762324910610914,-0.04461804777383804,0.04793005809187889,0.0,0.0,1.9541176557540894,-0.02,0.02,-0.09,0.0
1682105474.40478492,19807760,2,0.32,-0.9,88.32000000000001,-0.0016453579301014543,0.0008464524289593101,-0.04494381323456764,0.02218957059085369,0.0,0.0,1.9561560153961182,-0.02,0.02,-0.11,0.0
1682105474.50474286,19907718,2,0.32,-0.9,88.4,-0.0009017372503876686,0.0007146986899897456,-0.04834527149796486,-0.03524224832653999,0.0,0.0,1.9518986940383911,-0.02,0.02,-0.12,0.0
1682105474.60474396,20007719,2,0.32,-0.91,88.46000000000001,-0.00043178859050385654,0.0006249530124478042,-0.053800057619810104,-0.09047647565603256,0.0,0.0,1.9446139335632324,-0.02,0.02,-0.12,0.0
1682105474.70473194,20107707,2,0.31,-0.91,88.52,0.0003074484411627054,7.898086914792657e-05,-0.057189811021089554,-0.09164703637361526,0.0,0.0,1.93830144405365,-0.02,0.02,-0.13,0.0
1682105474.80471182,20207687,2,0.32,-0.91,88.58,0.00012848661572206765,-3.861558434437029e-05,-0.06208888441324234,-0.09359116852283478,0.0,0.0,1.9299439191818237,-0.02,0.02,-0.13,0.0
1682105474.90471101,20307686,2,0.32,-0.91,88.62,6.025021502864547e-05,-0.0004032862780150026,-0.06781481206417084,-0.12160015851259232,0.0,0.0,1.9185130596160889,-0.02,0.02,-0.14,0.0
1682105475.00472283,20407698,2,0.32,-0.91,88.66,0.00033516128314659,-0.000755733868572861,-0.07113099098205566,-0.09930036962032318,0.0,0.0,1.910677194595337,-0.02,0.02,-0.13,0.0
1682105475.10472989,20507705,2,0.32,-0.92,88.69,0.0002863250847440213,-0.0004994100308977067,-0.07229527086019516,-0.03057631477713585,0.0,0.0,1.9082484245300293,-0.02,0.02,-0.15,0.0
1682105475.20479703,20607772,2,0.32,-0.92,88.72,0.00012096002319594845,0.000371542148059234,-0.07298913598060608,-0.0023549715988337994,0.0,0.0,1.9061075448989868,-0.02,0.02,-0.14,0.0
1682105475.30477786,20707753,2,0.32,-0.92,88.74,0.00024643514188937843,0.0006608883268199861,-0.07410461455583572,-0.0009393526124767959,0.0,0.0,1.9047248363494873,-0.02,0.02,-0.14,0.0
1682105475.40480399,20807779,2,0.33,-0.92,88.76,0.0002829010190907866,0.000684478145558387,-0.07473734766244888,-0.013337330892682076,0.0,0.0,1.9019181728363037,-0.02,0.02,-0.14,0.0
1682105475.50475383,20907729,2,0.32,-0.92,88.77,-0.00038312526885420084,0.00026039883960038424,-0.07518654316663742,-0.03146163374185562,0.0,0.0,1.898498296737671,-0.02,0.02,-0.14,0.0
1682105475.60471988,21007695,2,0.32,-0.93,88.76,-0.0004000942863058299,7.781288877595216e-05,-0.07628718763589859,-0.0423881970345974,0.0,0.0,1.8941811323165894,-0.02,0.02,-0.12,0.0
1682105475.70471382,21107689,2,0.32,-0.93,88.74,-0.0007146499119699001,0.001736506586894393,-0.07670491933822632,-0.04459988325834274,0.0,0.0,1.890174150466919,-0.02,0.02,-0.11,0.0
1682105475.80471087,21207686,2,0.32,-0.93,88.71000000000001,-0.0008000893285498023,0.002050915500149131,-0.0754547193646431,0.0007476912578567863,0.0,0.0,1.891172170639038,-0.02,0.02,-0.11,0.0
1682105475.90471101,21307686,2,0.32,-0.93,88.69,-0.0010523117380216718,0.003039746778085828,-0.07337085902690887,0.05635741353034973,0.0,0.0,1.8958021402359009,-0.02,0.02,-0.11,0.0
1682105476.00474691,21407722,2,0.33,-0.93,88.68,-0.0014103802386671305,0.0027009607292711735,-0.07022050023078918,0.06788523495197296,0.0,0.0,1.900423288345337,-0.02,0.02,-0.11,0.0
1682105476.10479903,21507774,2,0.33,-0.92,88.68,-0.0009622707148082554,0.00417488906532526,-0.06910063326358795,0.04296926409006119,0.0,0.0,1.9030063152313232,-0.02,0.02,-0.12,0.0
1682105476.20477080,21607746,2,0.33,-0.93,88.71000000000001,-0.0010587990982457995,0.004199680872261524,-0.06779168546199799,0.021069273352622986,0.0,0.0,1.9047820568084717,-0.02,0.02,-0.12,0.0
1682105476.30480099,21707776,2,0.33,-0.93,88.74,-0.0013005811488255858,0.004792351275682449,-0.06651347875595093,0.02551250532269478,0.0,0.0,1.9076977968215942,-0.02,0.02,-0.13,0.0
1682105476.40474892,21807724,2,0.33,-0.92,88.77,-0.0023913714103400707,0.00520898774266243,-0.06513459980487823,0.02923017181456089,0.0,0.0,1.9105708599090576,-0.02,0.02,-0.13,0.0
1682105476.50472188,21907697,2,0.33,-0.92,88.81,-0.002967875450849533,0.00540870800614357,-0.06448759138584137,0.011357909068465233,0.0,0.0,1.9111870527267456,-0.02,0.02,-0.14,0.0
1682105476.60471392,22007689,2,0.32,-0.92,88.87,-0.0032613452058285475,0.0054743471555411816,-0.06420665979385376,-0.012449491769075394,0.0,0.0,1.9101754426956177,-0.02,0.02,-0.16,0.0
1682105476.70471692,22107692,2,0.32,-0.92,88.96000000000001,-0.004462095908820629,0.003946819808334112,-0.063032366335392,-0.005630364175885916,0.0,0.0,1.910715103149414,-0.02,0.02,-0.18,0.0
1682105476.80471087,22207686,2,0.33,-0.92,89.05,-0.005247042514383793,0.002683830913156271,-0.06386087089776993,-0.01207763608545065,0.0,0.0,1.9090913534164429,-0.02,0.02,-0.18,0.0
1682105476.90473390,22307709,2,0.32,-0.92,89.12,-0.0073203155770897865,0.0014387916307896376,-0.06485238671302795,-0.04332278296351433,0.0,0.0,1.9051698446273804,-0.02,0.02,-0.17,0.0
1682105477.00481486,22407790,2,0.33,-0.92,89.18,-0.008054455742239952,-3.6692032153951004e-05,-0.06604990363121033,-0.054556578397750854,0.0,0.0,1.9007359743118286,-0.02,0.02,-0.17,0.0
1682105477.10477281,22507748,2,0.32,-0.91,89.2,-0.009344633668661118,-0.001033688778989017,-0.06538260728120804,-0.03222791105508804,0.0,0.0,1.899176836013794,-0.02,0.02,-0.17,0.0
1682105477.20478582,22607761,2,0.32,-0.91,89.23,-0.009871602058410645,-0.001649279147386551,-0.06477560847997665,0.00777868926525116,0.0,0.0,1.8998920917510986,-0.02,0.02,-0.17,0.0
1682105477.30474687,22707722,2,0.32,-0.9,89.25,-0.00966354738920927,-0.0029829766135662794,-0.06328140944242477,0.02236122451722622,0.0,0.0,1.9010893106460571,-0.02,0.02,-0.18,0.0
1682105477.40471196,22807687,2,0.32,-0.9,89.26,-0.008886555209755898,-0.0041127498261630535,-0.06215847283601761,0.011371373198926449,0.0,0.0,1.9008467197418213,-0.02,0.02,-0.16,0.0
1682105477.50471091,22907686,2,0.32,-0.91,89.26,-0.009991826489567757,-0.005204078741371632,-0.06003749743103981,0.006702632177621126,0.0,0.0,1.9014177322387695,-0.02,0.02,-0.16,0.0
1682105477.60471392,23007689,2,0.32,-0.91,89.26,-0.010395868681371212,-0.006003743968904018,-0.057046450674533844,0.04763661324977875,0.0,0.0,1.9070117473602295,-0.02,0.02,-0.16,0.0
1682105477.70472789,23107703,2,0.32,-0.91,89.26,-0.010638108476996422,-0.00573338195681572,-0.05358412489295006,0.09322027862071991,0.0,0.0,1.9152075052261353,-0.02,0.02,-0.17,0.0
1682105477.80473995,23207715,2,0.32,-0.91,89.28,-0.010803068988025188,-0.0064566307701170444,-0.0513019859790802,0.07420381903648376,0.0,0.0,1.9197864532470703,-0.02,0.02,-0.17,0.0
1682105477.90479898,23307774,2,0.32,-0.91,89.3,-0.010382360778748989,-0.006965797394514084,-0.049919333308935165,0.05029842630028725,0.0,0.0,1.9247398376464844,-0.02,0.02,-0.17,0.0
1682105478.00477386,23407749,2,0.32,-0.91,89.33,-0.010043168440461159,-0.006875769235193729,-0.048527855426073074,0.04088485613465309,0.0,0.0,1.928497552871704,-0.02,0.02,-0.17,0.0
1682105478.10475993,23507735,2,0.32,-0.92,89.35000000000001,-0.010565009899437428,-0.007089728489518166,-0.049077313393354416,0.01048982422798872,0.0,0.0,1.929235577583313,-0.02,0.02,-0.17,0.0
1682105478.20473886,23607714,2,0.32,-0.92,89.36,-0.010629075579345226,-0.008460010401904583,-0.048780884593725204,-0.01371411420404911,0.0,0.0,1.9286545515060425,-0.02,0.02,-0.16,0.0
1682105478.30471492,23707690,2,0.32,-0.92,89.36,-0.010594228282570839,-0.008401122875511646,-0.049375005066394806,-0.04034886136651039,0.0,0.0,1.9249883890151978,-0.02,0.02,-0.15,0.0
1682105478.40472484,23807700,2,0.32,-0.92,89.33,-0.011442150920629501,-0.00861107837408781,-0.04899453744292259,-0.03171899914741516,0.0,0.0,1.9239016771316528,-0.02,0.02,-0.15,0.0
1682105478.50471091,23907686,2,0.32,-0.92,89.31,-0.011437773704528809,-0.008712737821042538,-0.04855123907327652,-0.010345138609409332,0.0,0.0,1.9230666160583496,-0.02,0.02,-0.14,0.0
1682105478.60471797,24007693,2,0.32,-0.93,89.28,-0.011255198158323765,-0.007928503677248955,-0.05037454888224602,-0.03293894603848457,0.0,0.0,1.9189834594726562,-0.02,0.02,-0.14,0.0
1682105478.70474100,24107716,2,0.32,-0.92,89.27,-0.010510917752981186,-0.0070576136931777,-0.052111439406871796,-0.0785420686006546,0.0,0.0,1.9110807180404663,-0.02,0.02,-0.14,0.0
1682105478.80480695,24207782,2,0.32,-0.92,89.26,-0.009713027626276016,-0.006716068368405104,-0.05490938201546669,-0.10633111745119095,0.0,0.0,1.9019453525543213,-0.01,0.02,-0.14,0.0
1682105478.90476990,24307745,2,0.32,-0.93,89.28,-0.00954638235270977,-0.006346287205815315,-0.05742704123258591,-0.10390465706586838,0.0,0.0,1.8932509422302246,-0.01,0.02,-0.15,0.0
1682105479.00479984,24407775,2,0.32,-0.93,89.31,-0.00836164876818657,-0.005132121965289116,-0.05902856960892677,-0.06596984714269638,0.0,0.0,1.8884001970291138,-0.01,0.02,-0.15,0.0
1682105479.10474300,24507718,2,0.32,-0.93,89.32000000000001,-0.007715790532529354,-0.004611273296177387,-0.06188090890645981,-0.07589897513389587,0.0,0.0,1.8789161443710327,-0.01,0.02,-0.14,0.0
1682105479.20471096,24607686,2,0.31,-0.9400000000000001,89.33,-0.007441997062414885,-0.00416938541457057,-0.06478225439786911,-0.10657500475645065,0.0,0.0,1.8687797784805298,-0.01,0.02,-0.14,0.0
1682105479.30471992,24707695,2,0.31,-0.9400000000000001,89.33,-0.006982419639825821,-0.003318224800750613,-0.06536637991666794,-0.07897771894931793,0.0,0.0,1.8624751567840576,-0.01,0.02,-0.14,0.0
1682105479.40470982,24807685,2,0.31,-0.9400000000000001,89.34,-0.006785362493246794,-0.0032522925175726414,-0.06433599442243576,-0.027695365250110626,0.0,0.0,1.8599978685379028,-0.01,0.02,-0.14,0.0
1682105479.50470996,24907685,2,0.3,-0.9400000000000001,89.35000000000001,-0.006516875699162483,-0.002497972222045064,-0.06124739721417427,0.05250299349427223,0.0,0.0,1.8655627965927124,-0.01,0.02,-0.14,0.0
1682105479.60474491,25007720,2,0.3,-0.9400000000000001,89.38,-0.006361500825732946,-0.0025372570380568504,-0.056028030812740326,0.13355021178722382,0.0,0.0,1.8766930103302002,-0.01,0.02,-0.15,0.0
1682105479.70481682,25107792,2,0.3,-0.9400000000000001,89.42,-0.006034489721059799,-0.002520562382414937,-0.051881663501262665,0.16605021059513092,0.0,0.0,1.8897504806518555,-0.01,0.02,-0.15,0.0
1682105479.80478001,25207755,2,0.31,-0.9400000000000001,89.44,-0.005495252553373575,-0.0022778408601880074,-0.04757651686668396,0.14918188750743866,0.0,0.0,1.900923728942871,-0.01,0.02,-0.15,0.0
1682105479.90478802,25307763,2,0.31,-0.9500000000000001,89.47,-0.005222241394221783,-0.0018353291088715196,-0.04498380422592163,0.09454154968261719,0.0,0.0,1.9079350233078003,-0.01,0.02,-0.16,0.0
1682105480.00480485,25407780,2,0.3,-0.9500000000000001,89.52,-0.004763623233884573,-0.001474124495871365,-0.04265880584716797,0.0610579177737236,0.0,0.0,1.9146344661712646,-0.01,0.02,-0.16,0.0
1682105480.10471487,25507690,2,0.29,-0.96,89.55,-0.005078066606074572,-0.0009640835341997445,-0.040808577090501785,0.04436270520091057,0.0,0.0,1.9192724227905273,-0.01,0.02,-0.15,0.0
1682105480.20471787,25607693,2,0.29,-0.96,89.54,-0.004532331600785255,0.0002477321831975132,-0.03938983380794525,0.006498128175735474,0.0,0.0,1.919887900352478,-0.01,0.02,-0.15,0.0
1682105480.30472493,25707700,2,0.27,-0.99,89.56,-0.00320844491943717,0.00045290979323908687,-0.03952856361865997,-0.018773486837744713,0.0,0.0,1.9196763038635254,-0.01,0.02,-0.15,0.0
1682105480.40472794,25807703,2,0.29,-0.97,89.56,-0.005076625384390354,-0.0046510701067745686,-0.038780294358730316,-0.014906936325132847,0.0,0.0,1.9197324514389038,-0.01,0.02,-0.15,0.0
1682105480.50473380,25907709,2,0.25,-0.98,89.56,-0.006073172204196453,0.005370567552745342,-0.039107415825128555,-0.030677514150738716,0.0,0.0,1.916555643081665,-0.01,0.02,-0.14,0.0
1682105480.60479784,26007773,2,0.28,-0.99,89.58,-0.005800559651106596,0.0006863939925096929,-0.0415768027305603,-0.04397421330213547,0.0,0.0,1.9136455059051514,-0.01,0.02,-0.15,0.0
1682105480.70478487,26107760,2,0.27,-0.97,89.59,0.00034974925802089274,0.0022636600770056248,-0.042095206677913666,-0.045336876064538956,0.0,0.0,1.9096667766571045,-0.01,0.02,-0.14,0.0
1682105480.80479693,26207772,2,0.27,-0.99,89.59,-0.004968825727701187,0.0037779128178954124,-0.04213206097483635,-0.03813008591532707,0.0,0.0,1.9067578315734863,-0.01,0.02,-0.14,0.0
1682105480.90474391,26307719,2,0.26,-0.98,89.59,-0.0009294745395891368,0.0018039587885141373,-0.041866689920425415,-0.002930445596575737,0.0,0.0,1.906974196434021,-0.01,0.02,-0.13,0.0
1682105481.00471783,26407693,2,0.26,-0.98,89.60000000000001,0.0003835186653304845,0.004505268298089504,-0.04225068911910057,0.027920830994844437,0.0,0.0,1.9091006517410278,-0.01,0.02,-0.13,0.0
1682105481.10471702,26507692,2,0.26,-0.98,89.55,0.0011018953518941998,0.00216677482239902,-0.04037438705563545,0.059801146388053894,0.0,0.0,1.9142343997955322,-0.01,0.02,-0.12,0.0
1682105481.20471883,26607694,2,0.26,-0.99,89.49,0.002310400363057852,0.008103090338408947,-0.03767190873622894,0.06695906817913055,0.0,0.0,1.9189093112945557,-0.01,0.02,-0.12,0.0
1682105481.30471396,26707689,2,0.25,-1.0,89.5,0.0022876758594065905,0.007712136954069138,-0.03741011023521423,0.03458630293607712,0.0,0.0,1.9211188554763794,-0.01,0.02,-0.12,0.0
1682105481.40473199,26807707,2,0.27,-0.99,89.44,0.005332462023943663,0.0050856019370257854,-0.0377342589199543,0.01289026066660881,0.0,0.0,1.922787070274353,-0.01,0.02,-0.11,0.0
1682105481.50481081,26907786,2,0.25,-1.0,89.44,0.007301169913262129,0.006634799297899008,-0.03601593151688576,0.02625315822660923,0.0,0.0,1.926212191581726,-0.01,0.02,-0.12,0.0
1682105481.60477901,27007754,2,0.24,-1.0,89.45,0.0028455194551497698,0.003863983554765582,-0.03641188517212868,0.03493313118815422,0.0,0.0,1.9293781518936157,-0.01,0.02,-0.12,0.0
1682105481.70479393,27107769,2,0.24,-1.0,89.43,0.0073055424727499485,0.011024963110685349,-0.034535445272922516,0.0438198447227478,0.0,0.0,1.933765172958374,-0.01,0.02,-0.12,0.0
1682105481.80474401,27207719,2,0.24,-1.02,89.49,0.00731379771605134,0.011476130224764347,-0.03146504983305931,0.05844726413488388,0.0,0.0,1.9389361143112183,-0.01,0.02,-0.12,0.0
1682105481.90471101,27307686,2,0.22,-1.02,89.5,0.009295932948589325,0.00804984476417303,-0.030546454712748528,0.054505765438079834,0.0,0.0,1.9439488649368286,-0.01,0.02,-0.11,0.0
1682105482.00471401,27407689,2,0.21,-1.02,89.43,0.007933449931442738,0.012667662464082241,-0.02838435210287571,0.054159168154001236,0.0,0.0,1.949008822441101,-0.01,0.02,-0.11,0.0
1682105482.10471487,27507690,2,0.21,-1.04,89.48,0.011103994213044643,0.011854339390993118,-0.027070825919508934,0.04341427981853485,0.0,0.0,1.9527491331100464,-0.01,0.02,-0.1,0.0
1682105482.20471096,27607686,2,0.19,-1.04,89.46000000000001,0.009736093692481518,0.009475883096456528,-0.025467680767178535,0.045018523931503296,0.0,0.0,1.957811713218689,-0.01,0.02,-0.11,0.0
1682105482.30472398,27707699,2,0.2,-1.03,89.44,0.013178683817386627,0.007990455254912376,-0.02526785619556904,0.05071132630109787,0.0,0.0,1.9624561071395874,-0.01,0.02,-0.1,0.0
1682105482.40478992,27807765,2,0.2,-1.02,89.44,0.011101458221673965,0.007771941367536783,-0.02432936057448387,0.02219311147928238,0.0,0.0,1.9638564586639404,-0.01,0.02,-0.1,0.0
1682105482.50477195,27907747,2,0.19,-1.04,89.4,0.01459670253098011,0.020145101472735405,-0.024068765342235565,0.0008234366541728377,0.0,0.0,1.9648528099060059,-0.01,0.02,-0.1,0.0
1682105482.60475183,28007727,2,0.19,-1.06,89.4,0.013555868528783321,0.005361276678740978,-0.02439182437956333,-0.003194955410435796,0.0,0.0,1.9650816917419434,-0.01,0.02,-0.1,0.0
1682105482.70474601,28107721,2,0.17,-1.04,89.39,0.014340734109282494,0.011944997124373913,-0.022791489958763123,-0.004008865915238857,0.0,0.0,1.9653373956680298,-0.01,0.02,-0.09,0.0
1682105482.80471087,28207686,2,0.17,-1.07,89.34,0.014802903868258,0.013421478681266308,-0.022585250437259674,0.017038650810718536,0.0,0.0,1.9678961038589478,-0.01,0.02,-0.09,0.0
1682105482.90472388,28307699,2,0.17,-1.08,89.35000000000001,0.017727777361869812,0.009041340090334415,-0.02212030440568924,0.025290362536907196,0.0,0.0,1.969584584236145,-0.01,0.02,-0.1,0.0
1682105483.00471783,28407693,2,0.17,-1.09,89.42,0.016433384269475937,0.011961321346461773,-0.021768273785710335,-0.005098103079944849,0.0,0.0,1.9682143926620483,-0.01,0.02,-0.1,0.0
1682105483.10471082,28507686,2,0.17,-1.1,89.44,0.018374009057879448,0.011148729361593723,-0.02203453704714775,-0.04128490760922432,0.0,0.0,1.964382529258728,-0.01,0.02,-0.1,0.0
1682105483.20472097,28607696,2,0.17,-1.11,89.42,0.01634252816438675,0.008670208975672722,-0.024124441668391228,-0.047195758670568466,0.0,0.0,1.9613978862762451,-0.01,0.02,-0.1,0.0
1682105483.30480385,28707779,2,0.15,-1.1,89.47,0.0238607507199049,0.0131243159994483,-0.025500554591417313,-0.04240039363503456,0.0,0.0,1.9575390815734863,-0.01,0.02,-0.1,0.0
1682105483.40477395,28807749,2,0.18,-1.1300000000000001,89.47,0.01577991433441639,0.015621344558894634,-0.025371773168444633,-0.03247470781207085,0.0,0.0,1.9553344249725342,-0.01,0.02,-0.1,0.0
1682105483.50480580,28907781,2,0.15,-1.1300000000000001,89.47,0.023703008890151978,0.005308408755809069,-0.02656138315796852,0.0030316393822431564,0.0,0.0,1.956082820892334,-0.01,0.02,-0.1,0.0
1682105483.60474586,29007721,2,0.18,-1.1,89.52,0.01662721484899521,0.009800021536648273,-0.025649655610322952,0.03163960576057434,0.0,0.0,1.9583700895309448,-0.01,0.02,-0.1,0.0
1682105483.70471287,29107688,2,0.16,-1.11,89.51,0.02633502706885338,0.008622405119240284,-0.025305137038230896,0.02581501565873623,0.0,0.0,1.9592269659042358,-0.01,0.02,-0.1,0.0
1682105483.80471396,29207689,2,0.19,-1.11,89.48,0.018697988241910934,0.007386446930468082,-0.02467080019414425,0.0019852116238325834,0.0,0.0,1.9587663412094116,-0.01,0.02,-0.09,0.0
1682105483.90471101,29307686,2,0.2,-1.09,89.51,0.023008104413747787,0.0034252258483320475,-0.025589419528841972,-0.026148730888962746,0.0,0.0,1.9558680057525635,-0.01,0.02,-0.09,0.0
1682105484.00472093,29407696,2,0.24,-1.03,89.52,0.017904045060276985,0.0008852646569721401,-0.02635374665260315,-0.04497276991605759,0.0,0.0,1.9523274898529053,-0.01,0.02,-0.09,0.0
1682105484.10472488,29507700,2,0.23,-1.0,89.45,0.02166396751999855,0.005164468195289373,-0.0249483622610569,-0.02922714501619339,0.0,0.0,1.950495719909668,-0.01,0.02,-0.09,0.0
1682105484.20480490,29607780,2,0.22,-1.01,89.39,0.017935549840331078,0.012470560148358345,-0.02385796047747135,-0.002107912441715598,0.0,0.0,1.9507055282592773,-0.01,0.02,-0.09,0.0
1682105484.30477095,29707746,2,0.24,-1.02,89.47,0.020478738471865654,0.005594981834292412,-0.02257845550775528,0.023883884772658348,0.0,0.0,1.9528160095214844,-0.01,0.02,-0.09,0.0
1682105484.40480494,29807780,2,0.24,-0.99,89.48,0.01743246428668499,0.0017792894504964352,-0.02122051827609539,0.03969007357954979,0.0,0.0,1.9558207988739014,-0.01,0.02,-0.09,0.0
1682105484.50474501,29907720,2,0.24,-1.0,89.43,0.020048249512910843,0.008594938553869724,-0.01909426599740982,0.043313514441251755,0.0,0.0,1.9591418504714966,-0.01,0.02,-0.08,0.0
1682105484.60470295,30007678,2,0.24,-1.0,89.47,0.019047429785132408,0.005129377823323011,-0.018405728042125702,0.04134298115968704,0.0,0.0,1.9625911712646484,-0.01,0.02,-0.09,0.0
1682105484.70471597,30107691,2,0.25,-0.99,89.5,0.02114296704530716,0.008440601639449596,-0.01668504625558853,0.04513739049434662,0.0,0.0,1.9668123722076416,-0.01,0.02,-0.09,0.0
1682105484.80470991,30207685,2,0.24,-1.0,89.47,0.020892789587378502,0.009322643280029297,-0.015951357781887054,0.04630559682846069,0.0,0.0,1.9708982706069946,-0.01,0.02,-0.1,0.0
1682105484.90470695,30307682,2,0.25,-1.0,89.55,0.02073361538350582,0.005681527778506279,-0.015310646034777164,0.03641905635595322,0.0,0.0,1.9741252660751343,-0.01,0.02,-0.1,0.0
1682105485.00472689,30407702,2,0.24,-1.0,89.62,0.02094401605427265,0.008639383129775524,-0.01476836297661066,0.022234799340367317,0.0,0.0,1.9761772155761719,-0.01,0.02,-0.1,0.0
1682105485.10475302,30507728,2,0.25,-1.0,89.62,0.020220912992954254,0.007777248974889517,-0.014171135611832142,0.010531667619943619,0.0,0.0,1.9775562286376953,-0.01,0.02,-0.1,0.0
1682105485.20476389,30607739,2,0.23,-1.01,89.68,0.02062692865729332,0.01054437831044197,-0.014621391892433167,0.01204765122383833,0.0,0.0,1.979528784751892,-0.01,0.02,-0.11,0.0
1682105485.30474901,30707724,2,0.25,-1.0,89.73,0.020408619195222855,0.009309950284659863,-0.012566398829221725,0.02476203627884388,0.0,0.0,1.982181191444397,-0.01,0.02,-0.1,0.0
1682105485.40475082,30807726,2,0.23,-1.01,89.68,0.0205637626349926,0.00672107981517911,-0.010995889082551003,0.0269073024392128,0.0,0.0,1.9844754934310913,-0.01,0.02,-0.1,0.0
1682105485.50470281,30907678,2,0.25,-1.0,89.68,0.01868443191051483,0.010274872183799744,-0.011461121030151844,0.0006600043852813542,0.0,0.0,1.9838465452194214,-0.02,0.02,-0.1,0.0
1682105485.60471201,31007687,2,0.23,-1.0,89.76,0.019135642796754837,0.011124279350042343,-0.011596151627600193,-0.028234882280230522,0.0,0.0,1.9816443920135498,-0.02,0.02,-0.1,0.0
1682105485.70471191,31107687,2,0.24,-1.0,89.75,0.019079728052020073,0.009673529304564,-0.012070225551724434,-0.036604493856430054,0.0,0.0,1.9789761304855347,-0.02,0.02,-0.1,0.0
1682105485.80471396,31207689,2,0.24,-1.01,89.73,0.019749177619814873,0.009777712635695934,-0.011234964244067669,-0.018209263682365417,0.0,0.0,1.9785377979278564,-0.02,0.02,-0.1,0.0
1682105485.90471196,31307687,2,0.24,-1.01,89.77,0.018116915598511696,0.010480188764631748,-0.009933860041201115,0.012144124135375023,0.0,0.0,1.9797834157943726,-0.02,0.02,-0.1,0.0
1682105486.00478983,31407765,2,0.25,-1.01,89.79,0.019764237105846405,0.008257030509412289,-0.009083944372832775,0.02214994467794895,0.0,0.0,1.9812759160995483,-0.02,0.02,-0.11,0.0
1682105486.10476494,31507740,2,0.23,-1.01,89.79,0.017010323703289032,0.010526308789849281,-0.008447722531855106,0.01581144891679287,0.0,0.0,1.9820408821105957,-0.02,0.02,-0.11,0.0
1682105486.20471096,31607686,2,0.26,-1.01,89.82000000000001,0.019928231835365295,0.010084276087582111,-0.008461919613182545,0.0025584958493709564,0.0,0.0,1.9820170402526855,-0.02,0.02,-0.11,0.0
1682105486.30473995,31707715,2,0.23,-1.01,89.86,0.013733658008277416,0.012656317092478275,-0.0071397097781300545,0.011603089049458504,0.0,0.0,1.9837769269943237,-0.02,0.02,-0.1,0.0
1682105486.40471101,31807686,2,0.25,-1.01,89.9,0.018542872741818428,0.009230532683432102,-0.006542683579027653,0.03298170492053032,0.0,0.0,1.986899495124817,-0.02,0.02,-0.1,0.0
1682105486.50470781,31907683,2,0.23,-1.0,89.85000000000001,0.014122147113084793,0.008637325838208199,-0.005405134987086058,0.03858858346939087,0.0,0.0,1.9900381565093994,-0.02,0.02,-0.1,0.0
1682105486.60471201,32007687,2,0.26,-1.0,89.84,0.017126090824604034,0.01045040413737297,-0.004916946869343519,0.02905086800456047,0.0,0.0,1.9922140836715698,-0.02,0.02,-0.11,0.0
1682105486.70470595,32107681,2,0.23,-1.0,89.91,0.01500028744339943,0.00879066251218319,-0.0036775802727788687,0.02204800955951214,0.0,0.0,1.9944466352462769,-0.02,0.02,-0.1,0.0
1682105486.80471396,32207689,2,0.25,-1.0,89.86,0.017735177651047707,0.008407716639339924,-0.0019835480488836765,0.031812723726034164,0.0,0.0,1.9978642463684082,-0.02,0.02,-0.1,0.0
1682105486.90475988,32307735,2,0.23,-1.0,89.84,0.016195515170693398,0.010800877586007118,0.0009086075006052852,0.03972356766462326,0.0,0.0,2.0013859272003174,-0.02,0.02,-0.1,0.0
1682105487.00477099,32407746,2,0.24,-0.99,89.92,0.015378225594758987,0.011179548688232899,0.0022179335355758667,0.03398941829800606,0.0,0.0,2.0044023990631104,-0.02,0.02,-0.1,0.0
1682105487.10478687,32507762,2,0.24,-1.0,89.89,0.018008394166827202,0.01143556833267212,0.003303125500679016,0.011201150715351105,0.0,0.0,2.0048534870147705,-0.02,0.02,-0.1,0.0
1682105487.20472884,32607704,2,0.24,-1.0,89.84,0.015767907723784447,0.01030481792986393,0.002921096747741103,-0.02008885145187378,0.0,0.0,2.0032873153686523,-0.02,0.02,-0.09,0.0
1682105487.30470181,32707677,2,0.24,-0.99,89.88,0.018641158938407898,0.011324364691972733,0.0028173192404210567,-0.010357861407101154,0.0,0.0,2.0042359828948975,-0.02,0.02,-0.09,0.0
1682105487.40469790,32807673,2,0.25,-0.99,89.83,0.01622639410197735,0.009091540239751339,0.002811465645208955,0.012680569663643837,0.0,0.0,2.005504846572876,-0.02,0.02,-0.09,0.0
1682105487.50470090,32907676,2,0.25,-0.99,89.76,0.01957707665860653,0.010428625158965588,0.002375744516029954,0.016189774498343468,0.0,0.0,2.0070526599884033,-0.02,0.02,-0.09,0.0
1682105487.60470200,33007677,2,0.24,-0.98,89.79,0.016644123941659927,0.01052134484052658,0.003569674212485552,0.0034340552520006895,0.0,0.0,2.006540536880493,-0.02,0.02,-0.09,0.0
1682105487.70471501,33107690,2,0.25,-0.96,89.74,0.01960773766040802,0.0075129372999072075,0.004463403485715389,0.004616895224899054,0.0,0.0,2.007678508758545,-0.02,0.02,-0.08,0.0
1682105487.80474401,33207719,2,0.24,-0.97,89.68,0.01845293864607811,0.01128589827567339,0.0047998749651014805,0.011752431280910969,0.0,0.0,2.0086238384246826,-0.02,0.02,-0.08,0.0
1682105487.90475988,33307735,2,0.27,-0.96,89.71000000000001,0.01728963665664196,0.004281552508473396,0.00429517263546586,0.0005002270336262882,0.0,0.0,2.0083272457122803,-0.02,0.02,-0.08,0.0
1682105488.00477600,33407751,2,0.26,-0.9500000000000001,89.7,0.017496101558208466,0.007842998951673508,0.004411127883940935,-0.006377318408340216,0.0,0.0,2.0079660415649414,-0.02,0.02,-0.08,0.0
1682105488.10474586,33507721,2,0.27,-0.96,89.64,0.01621425151824951,0.005765757989138365,0.004220391158014536,-0.015009614638984203,0.0,0.0,2.0064752101898193,-0.02,0.02,-0.08,0.0
1682105488.20469999,33607675,2,0.27,-0.9500000000000001,89.68,0.018261460587382317,0.0029675879050046206,0.004819218069314957,-0.01697903499007225,0.0,0.0,2.0053505897521973,-0.02,0.02,-0.08,0.0
1682105488.30470181,33707677,2,0.27,-0.9500000000000001,89.67,0.016368307173252106,0.005122377537190914,0.005997264292091131,-0.007947717793285847,0.0,0.0,2.0048913955688477,-0.02,0.02,-0.08,0.0
1682105488.40472293,33807698,2,0.27,-0.9500000000000001,89.65,0.01611217111349106,0.0008019963861443102,0.006316153798252344,-0.016854576766490936,0.0,0.0,2.0027685165405273,-0.02,0.02,-0.09,0.0
1682105488.50469995,33907675,2,0.27,-0.9400000000000001,89.74,0.014346492476761341,0.00287045375443995,0.0053750621154904366,-0.046049922704696655,0.0,0.0,1.9980762004852295,-0.02,0.02,-0.09,0.0
1682105488.60471797,34007693,2,0.27,-0.9500000000000001,89.81,0.016242390498518944,0.0022149125579744577,0.005148897413164377,-0.061970315873622894,0.0,0.0,1.9928350448608398,-0.02,0.02,-0.1,0.0
1682105488.70479202,34107767,2,0.26,-0.9500000000000001,89.84,0.013576946221292019,-0.002567468909546733,0.004385969135910273,-0.04954598471522331,0.0,0.0,1.9891999959945679,-0.02,0.02,-0.09,0.0
1682105488.80476880,34207744,2,0.27,-0.9500000000000001,89.94,0.014642413705587387,6.758278323104605e-05,0.00463345879688859,-0.01451161503791809,0.0,0.0,1.988542079925537,-0.02,0.02,-0.11,0.0
1682105488.90472603,34307701,2,0.26,-0.9500000000000001,90.04,0.013591717928647995,-0.003994632046669722,0.005374306812882423,0.01823117397725582,0.0,0.0,1.9899152517318726,-0.02,0.02,-0.11,0.0
1682105489.00473499,34407710,2,0.26,-0.9400000000000001,90.10000000000001,0.013509009033441544,-0.004874137695878744,0.006451479159295559,0.03139832615852356,0.0,0.0,1.991899847984314,-0.02,0.02,-0.12,0.0
1682105489.10469985,34507675,2,0.26,-0.9400000000000001,90.21000000000001,0.01279865950345993,-0.0026131148915737867,0.008009882643818855,0.04025302082300186,0.0,0.0,1.9951547384262085,-0.02,0.02,-0.12,0.0
1682105489.20470881,34607684,2,0.26,-0.9400000000000001,90.31,0.012015302665531635,-0.005583308171480894,0.00983935222029686,0.04539492726325989,0.0,0.0,1.9988559484481812,-0.02,0.02,-0.12,0.0
1682105489.30471182,34707687,2,0.25,-0.9400000000000001,90.34,0.012315193191170692,-0.004975734744220972,0.011194520629942417,0.04262059926986694,0.0,0.0,2.002387046813965,-0.02,0.02,-0.12,0.0
1682105489.40471482,34807690,2,0.25,-0.9400000000000001,90.4,0.010415924713015556,-0.005011215806007385,0.013223378919064999,0.05197548121213913,0.0,0.0,2.007683277130127,-0.02,0.02,-0.12,0.0
1682105489.50471902,34907694,2,0.25,-0.93,90.45,0.01212269812822342,-0.007952254265546799,0.013640095479786396,0.05036061629652977,0.0,0.0,2.0115342140197754,-0.02,0.02,-0.12,0.0
1682105489.60476398,35007739,2,0.25,-0.93,90.42,0.010655319318175316,-0.006266598589718342,0.013985815457999706,0.029433749616146088,0.0,0.0,2.01409912109375,-0.02,0.02,-0.12,0.0
1682105489.70477295,35107748,2,0.25,-0.93,90.44,0.012278714217245579,-0.007586509454995394,0.013135251589119434,-0.003932339139282703,0.0,0.0,2.013784408569336,-0.02,0.02,-0.12,0.0
1682105489.80471492,35207690,2,0.25,-0.93,90.49,0.010538284666836262,-0.007409700658172369,0.013081024400889874,-0.024657944217324257,0.0,0.0,2.0124804973602295,-0.02,0.02,-0.13,0.0
1682105489.90473199,35307707,2,0.25,-0.9400000000000001,90.5,0.01119234412908554,-0.007883535698056221,0.01353463064879179,-0.028769688680768013,0.0,0.0,2.0105481147766113,-0.02,0.02,-0.13,0.0
1682105490.00470495,35407680,2,0.25,-0.9400000000000001,90.53,0.009605992585420609,-0.00896651204675436,0.013037865981459618,-0.031867995858192444,0.0,0.0,2.008194923400879,-0.02,0.02,-0.13,0.0
1682105490.10471201,35507687,2,0.25,-0.9400000000000001,90.59,0.010235663503408432,-0.009406769648194313,0.013228008523583412,-0.008949918672442436,0.0,0.0,2.0083017349243164,-0.02,0.02,-0.13,0.0
1682105490.20471096,35607686,2,0.25,-0.9400000000000001,90.59,0.009195605292916298,-0.010600577108561993,0.01361110433936119,0.020319389179348946,0.0,0.0,2.010120153427124,-0.02,0.02,-0.13,0.0
1682105490.30470300,35707678,2,0.25,-0.9400000000000001,90.62,0.010072085075080395,-0.01024242490530014,0.014773777686059475,0.03041696920990944,0.0,0.0,2.012346029281616,-0.02,0.02,-0.13,0.0
1682105490.40473199,35807707,2,0.25,-0.9400000000000001,90.68,0.009702940471470356,-0.009478287771344185,0.01517028734087944,0.026760483160614967,0.0,0.0,2.0142765045166016,-0.02,0.02,-0.13,0.0
1682105490.50474191,35907717,2,0.25,-0.9400000000000001,90.7,0.010593822225928307,-0.011003158986568451,0.015136010944843292,0.023966899141669273,0.0,0.0,2.0164501667022705,-0.02,0.02,-0.14,0.0
1682105490.60476780,36007743,2,0.25,-0.9400000000000001,90.72,0.010600014589726925,-0.0099907536059618,0.014630039222538471,0.01018811110407114,0.0,0.0,2.016986131668091,-0.02,0.02,-0.14,0.0
1682105490.70479584,36107771,2,0.26,-0.9400000000000001,90.77,0.010538334026932716,-0.010122206062078476,0.013799947686493397,-0.015925822779536247,0.0,0.0,2.015542984008789,-0.02,0.02,-0.14,0.0
1682105490.80474186,36207717,2,0.25,-0.9400000000000001,90.8,0.010332505218684673,-0.010159875266253948,0.014285472221672535,-0.006231212057173252,0.0,0.0,2.01613712310791,-0.02,0.02,-0.14,0.0
1682105490.90470481,36307680,2,0.25,-0.93,90.79,0.009611685760319233,-0.01099392119795084,0.014665995724499226,-0.0030864181462675333,0.0,0.0,2.01529598236084,-0.02,0.02,-0.13,0.0
1682105491.00470686,36407682,2,0.25,-0.93,90.8,0.008269468322396278,-0.011707932688295841,0.014645433984696865,-0.031124629080295563,0.0,0.0,2.0122058391571045,-0.02,0.02,-0.14,0.0
1682105491.10469985,36507675,2,0.25,-0.93,90.84,0.009183978661894798,-0.013396797701716423,0.014551089145243168,-0.04973215609788895,0.0,0.0,2.0079848766326904,-0.02,0.02,-0.14,0.0
1682105491.20470095,36607676,2,0.25,-0.93,90.86,0.008704139851033688,-0.01521124318242073,0.01486925408244133,-0.037602562457323074,0.0,0.0,2.0056138038635254,-0.02,0.02,-0.14,0.0
1682105491.30473089,36707706,2,0.26,-0.93,90.88,0.008854294195771217,-0.014876946806907654,0.016813449561595917,-0.008176869712769985,0.0,0.0,2.0050032138824463,-0.02,0.02,-0.14,0.0
1682105491.40480590,36807781,2,0.26,-0.9400000000000001,90.9,0.008504095487296581,-0.015817813575267792,0.017459815368056297,-0.015923243016004562,0.0,0.0,2.002171039581299,-0.02,0.02,-0.13,0.0
1682105491.50477290,36907748,2,0.26,-0.93,90.88,0.0077264029532670975,-0.017489798367023468,0.01679990068078041,-0.0471891313791275,0.0,0.0,1.9974374771118164,-0.02,0.02,-0.13,0.0
1682105491.60474992,37007725,2,0.26,-0.9400000000000001,90.82000000000001,0.006830090656876564,-0.017068974673748016,0.016177160665392876,-0.05154987424612045,0.0,0.0,1.993137001991272,-0.02,0.02,-0.12,0.0
1682105491.70473385,37107709,2,0.26,-0.9400000000000001,90.76,0.006860408466309309,-0.019739586859941483,0.015900153666734695,-0.044468577951192856,0.0,0.0,1.989173412322998,-0.02,0.02,-0.11,0.0
1682105491.80469990,37207675,2,0.26,-0.9400000000000001,90.69,0.007203371729701757,-0.019772345200181007,0.016409315168857574,-0.04113515466451645,0.0,0.0,1.9851821660995483,-0.02,0.02,-0.11,0.0
1682105491.90470600,37307681,2,0.26,-0.9400000000000001,90.61,0.006786631420254707,-0.020131077617406845,0.015476826578378677,-0.034212373197078705,0.0,0.0,1.9820765256881714,-0.02,0.02,-0.11,0.0
1682105492.00471282,37407688,2,0.26,-0.9400000000000001,90.55,0.007467872463166714,-0.020400242879986763,0.015364901162683964,-0.027354978024959564,0.0,0.0,1.9791665077209473,-0.02,0.02,-0.1,0.0
1682105492.10471392,37507689,2,0.26,-0.9400000000000001,90.46000000000001,0.00692127225920558,-0.019871613010764122,0.015337331220507622,-0.017944471910595894,0.0,0.0,1.977494478225708,-0.02,0.02,-0.09,0.0
1682105492.20472288,37607698,2,0.26,-0.9400000000000001,90.37,0.00810198299586773,-0.02133890800178051,0.015744969248771667,0.00012924347538501024,0.0,0.0,1.9775652885437012,-0.02,0.02,-0.09,0.0
1682105492.30480480,37707780,2,0.26,-0.9400000000000001,90.29,0.007141335401684046,-0.021068373695015907,0.01557647529989481,-0.006066917907446623,0.0,0.0,1.9759165048599243,-0.02,0.02,-0.08,0.0
1682105492.40476584,37807741,2,0.26,-0.9400000000000001,90.19,0.007608624175190926,-0.020965175703167915,0.01620868220925331,-0.017086349427700043,0.0,0.0,1.9742133617401123,-0.02,0.02,-0.08,0.0
1682105492.50478697,37907762,2,0.26,-0.9400000000000001,90.09,0.008351481519639492,-0.021844621747732162,0.015431172214448452,-0.014875780791044235,0.0,0.0,1.9728875160217285,-0.02,0.02,-0.07,0.0
1682105492.60473299,38007708,2,0.26,-0.9400000000000001,90.03,0.008648253045976162,-0.02081800438463688,0.01596543751657009,0.007271334994584322,0.0,0.0,1.974051594734192,-0.02,0.02,-0.07,0.0
1682105492.70470500,38107680,2,0.26,-0.9400000000000001,89.96000000000001,0.009201984852552414,-0.022045103833079338,0.017266731709241867,0.02564738132059574,0.0,0.0,1.9758113622665405,-0.02,0.02,-0.07,0.0
1682105492.80470991,38207685,2,0.26,-0.93,89.88,0.008775128982961178,-0.022720061242580414,0.017914334312081337,0.014907884411513805,0.0,0.0,1.9763875007629395,-0.02,0.02,-0.06,0.0
1682105492.90471196,38307687,2,0.26,-0.93,89.82000000000001,0.009546060115098953,-0.02303887903690338,0.018533488735556602,0.018251191824674606,0.0,0.0,1.9784260988235474,-0.02,0.02,-0.06,0.0
1682105493.00471282,38407688,2,0.25,-0.93,89.76,0.009985918179154396,-0.024057192727923393,0.019385164603590965,0.02489137463271618,0.0,0.0,1.980431318283081,-0.02,0.02,-0.05,0.0
1682105493.10471296,38507688,2,0.26,-0.93,89.68,0.009835094213485718,-0.024237927049398422,0.02125631645321846,0.030384542420506477,0.0,0.0,1.983407735824585,-0.02,0.02,-0.05,0.0
1682105493.20474291,38607718,2,0.26,-0.92,89.63,0.00973452441394329,-0.024388357996940613,0.02154134027659893,0.04024877771735191,0.0,0.0,1.9871546030044556,-0.02,0.02,-0.04,0.0
1682105493.30476689,38707742,2,0.26,-0.92,89.57000000000001,0.009596889838576317,-0.026303643360733986,0.022318413481116295,0.031832966953516006,0.0,0.0,1.9896141290664673,-0.02,0.02,-0.04,0.0
1682105493.40471387,38807689,2,0.25,-0.92,89.5,0.010112333111464977,-0.025707395747303963,0.023184465244412422,-0.002089116722345352,0.0,0.0,1.9888430833816528,-0.02,0.02,-0.04,0.0
1682105493.50473785,38907713,2,0.25,-0.93,89.44,0.011262545362114906,-0.02622007392346859,0.02243197150528431,-0.030306339263916016,0.0,0.0,1.986843228340149,-0.02,0.02,-0.03,0.0
1682105493.60470796,39007683,2,0.25,-0.93,89.39,0.011916263028979301,-0.025024136528372765,0.02110682800412178,-0.028589025139808655,0.0,0.0,1.9853301048278809,-0.02,0.02,-0.03,0.0
1682105493.70471597,39107691,2,0.26,-0.93,89.31,0.01182244997471571,-0.025033123791217804,0.020462360233068466,-0.009833097457885742,0.0,0.0,1.9852491617202759,-0.02,0.02,-0.03,0.0
1682105493.80471492,39207690,2,0.26,-0.93,89.26,0.012263286858797073,-0.024631088599562645,0.02069137617945671,0.0026445803232491016,0.0,0.0,1.9853324890136719,-0.02,0.02,-0.02,0.0
1682105493.90470290,39307678,2,0.26,-0.93,89.22,0.012069109827280045,-0.02429049089550972,0.021219898015260696,0.020868059247732162,0.0,0.0,1.9876189231872559,-0.02,0.02,-0.02,0.0
1682105494.00471497,39407690,2,0.26,-0.93,89.16,0.01237567700445652,-0.02406681515276432,0.021836398169398308,0.0488201342523098,0.0,0.0,1.9919506311416626,-0.02,0.02,-0.02,0.0
1682105494.10475993,39507735,2,0.26,-0.93,89.12,0.012021433562040329,-0.02369648776948452,0.02193952351808548,0.06225428357720375,0.0,0.0,1.9972479343414307,-0.02,0.02,-0.01,0.0
1682105494.20476198,39607737,2,0.26,-0.93,89.08,0.011880171485245228,-0.022775012999773026,0.023122526705265045,0.04677601158618927,0.0,0.0,2.0003485679626465,-0.02,0.02,-0.01,0.0
1682105494.30472398,39707699,2,0.25,-0.93,89.03,0.01271903421729803,-0.0223745945841074,0.023054225370287895,0.01688472367823124,0.0,0.0,2.001831293106079,-0.02,0.02,-0.01,0.0
1682105494.40473700,39807712,2,0.25,-0.93,88.98,0.013034376315772533,-0.021770857274532318,0.02287745662033558,0.0012254135217517614,0.0,0.0,2.0023372173309326,-0.02,0.02,-0.01,0.0
1682105494.50469899,39907674,2,0.25,-0.9400000000000001,88.94,0.012905627489089966,-0.020985785871744156,0.02224852703511715,0.00503513403236866,0.0,0.0,2.004044532775879,-0.02,0.02,-0.01,0.0
1682105494.60469890,40007674,2,0.25,-0.93,88.89,0.013501710258424282,-0.021024001762270927,0.022792238742113113,0.03176717460155487,0.0,0.0,2.007716655731201,-0.02,0.02,0.0,0.0
1682105494.70470691,40107682,2,0.25,-0.92,88.85000000000001,0.013917024247348309,-0.02129369229078293,0.02282033860683441,0.03828871250152588,0.0,0.0,2.0108625888824463,-0.02,0.02,0.0,0.0
1682105494.80470085,40207676,2,0.25,-0.93,88.82000000000001,0.015243005938827991,-0.021389180794358253,0.02277507074177265,0.034196969121694565,0.0,0.0,2.0139639377593994,-0.02,0.02,0.0,0.0
1682105494.90471196,40307687,2,0.24,-0.91,88.77,0.01676497980952263,-0.020805273205041885,0.021770639345049858,0.012803787365555763,0.0,0.0,2.014591932296753,-0.02,0.02,0.0,0.0
1682105495.00475693,40407732,2,0.25,-0.91,88.74,0.017085658386349678,-0.02042561210691929,0.02126670628786087,-0.007005990948528051,0.0,0.0,2.014397144317627,-0.02,0.02,0.0,0.0
1682105495.10476494,40507740,2,0.25,-0.91,88.71000000000001,0.01750895008444786,-0.02016141079366207,0.021338285878300667,-0.01684768870472908,0.0,0.0,2.0131585597991943,-0.02,0.02,0.0,0.0
1682105495.20478988,40607765,2,0.25,-0.91,88.67,0.01710871234536171,-0.019916363060474396,0.02021600306034088,-0.039685700088739395,0.0,0.0,2.009401798248291,-0.02,0.02,0.0,0.0
1682105495.30473280,40707708,2,0.25,-0.91,88.64,0.01752873882651329,-0.019628940150141716,0.01871609129011631,-0.04214838147163391,0.0,0.0,2.006762742996216,-0.02,0.02,0.0,0.0
1682105495.40470290,40807678,2,0.25,-0.92,88.62,0.017691589891910553,-0.01929578371345997,0.018396297469735146,-0.023340856656432152,0.0,0.0,2.005171537399292,-0.02,0.02,0.0,0.0
1682105495.50470686,40907682,2,0.25,-0.92,88.58,0.018294813111424446,-0.01907510682940483,0.017634732648730278,-0.018943103030323982,0.0,0.0,2.0030996799468994,-0.02,0.02,0.0,0.0
1682105495.60470080,41007676,2,0.25,-0.92,88.52,0.01789126731455326,-0.01843971386551857,0.017866551876068115,-0.00255711586214602,0.0,0.0,2.003361701965332,-0.02,0.02,0.01,0.0
1682105495.70470190,41107677,2,0.25,-0.92,88.48,0.01843789964914322,-0.018659254536032677,0.018457967787981033,0.006246236152946949,0.0,0.0,2.003180742263794,-0.02,0.02,0.01,0.0
1682105495.80471587,41207691,2,0.25,-0.92,88.42,0.017710864543914795,-0.01977035216987133,0.01866859756410122,-0.0012627837713807821,0.0,0.0,2.0026230812072754,-0.02,0.02,0.01,0.0
1682105495.90474200,41307717,2,0.24,-0.93,88.36,0.01798805221915245,-0.01944035291671753,0.01878417655825615,-0.009697693400084972,0.0,0.0,2.0014431476593018,-0.02,0.02,0.02,0.0
1682105496.00476193,41407737,2,0.24,-0.93,88.31,0.01872602477669716,-0.019620487466454506,0.018816925585269928,-0.021344272419810295,0.0,0.0,1.9992797374725342,-0.02,0.02,0.02,0.0
1682105496.10477901,41507754,2,0.24,-0.93,88.25,0.018937518820166588,-0.019727682694792747,0.018419964239001274,-0.03533908724784851,0.0,0.0,1.995958924293518,-0.02,0.02,0.02,0.0
1682105496.20473385,41607709,2,0.24,-0.93,88.19,0.019145524129271507,-0.019941026344895363,0.016816671937704086,-0.041639264672994614,0.0,0.0,1.9925622940063477,-0.02,0.02,0.02,0.0
1682105496.30470991,41707685,2,0.24,-0.9400000000000001,88.15,0.01827065274119377,-0.020307298749685287,0.01747565157711506,-0.021906033158302307,0.0,0.0,1.9913407564163208,-0.02,0.02,0.03,0.0
1682105496.40471387,41807689,2,0.24,-0.9400000000000001,88.10000000000001,0.017476152628660202,-0.02048531174659729,0.0173107348382473,0.0030098098795861006,0.0,0.0,1.9916455745697021,-0.02,0.02,0.03,0.0
1682105496.50470400,41907679,2,0.24,-0.9500000000000001,88.04,0.01658773608505726,-0.020657800137996674,0.01887117326259613,-0.0007542590028606355,0.0,0.0,1.9903428554534912,-0.02,0.02,0.03,0.0
1682105496.60469985,42007675,2,0.23,-0.9400000000000001,88.0,0.015917005017399788,-0.021635299548506737,0.018729884177446365,-0.008663407526910305,0.0,0.0,1.9895637035369873,-0.02,0.02,0.03,0.0
1682105496.70471597,42107691,2,0.23,-0.9500000000000001,87.95,0.015692956745624542,-0.022121144458651543,0.019606713205575943,-0.012152099050581455,0.0,0.0,1.9881178140640259,-0.02,0.02,0.04,0.0
1682105496.80474281,42207718,2,0.22,-0.9500000000000001,87.9,0.0166388638317585,-0.0222899429500103,0.019587578251957893,-0.028804518282413483,0.0,0.0,1.9850430488586426,-0.02,0.02,0.04,0.0
1682105496.90476394,42307739,2,0.22,-0.9500000000000001,87.85000000000001,0.016077660024166107,-0.022139189764857292,0.0191796887665987,-0.040651001036167145,0.0,0.0,1.9815154075622559,-0.02,0.02,0.04,0.0
1682105497.00474691,42407722,2,0.21,-0.9500000000000001,87.8,0.01573283039033413,-0.022559193894267082,0.02042316272854805,-0.02842075750231743,0.0,0.0,1.9795780181884766,-0.02,0.02,0.04,0.0
1682105497.10473895,42507714,2,0.21,-0.9500000000000001,87.77,0.01609758287668228,-0.02150493860244751,0.0204748697578907,-0.0034852162934839725,0.0,0.0,1.9796350002288818,-0.02,0.02,0.04,0.0
1682105497.20470500,42607680,2,0.2,-0.9500000000000001,87.75,0.017313804477453232,-0.02108181267976761,0.021098727360367775,0.01314348354935646,0.0,0.0,1.9804272651672363,-0.02,0.02,0.04,0.0
1682105497.30470395,42707679,2,0.2,-0.9500000000000001,87.72,0.01818108558654785,-0.02157336100935936,0.021401628851890564,0.011136414483189583,0.0,0.0,1.9807229042053223,-0.02,0.02,0.04,0.0
1682105497.40470290,42807678,2,0.2,-0.9500000000000001,87.69,0.019771751016378403,-0.020613083615899086,0.021494800224900246,-0.0025605002883821726,0.0,0.0,1.9799528121948242,-0.02,0.02,0.05,0.0
1682105497.50469899,42907674,2,0.2,-0.9400000000000001,87.65,0.020488126203417778,-0.019914481788873672,0.02202746272087097,0.012685172259807587,0.0,0.0,1.9820988178253174,-0.02,0.02,0.05,0.0
1682105497.60470986,43007685,2,0.2,-0.9500000000000001,87.61,0.02109399624168873,-0.019919369369745255,0.02350427582859993,0.04688373580574989,0.0,0.0,1.9866290092468262,-0.02,0.02,0.05,0.0
1682105497.70474386,43107719,2,0.2,-0.9400000000000001,87.56,0.022365586832165718,-0.01986946351826191,0.024132095277309418,0.042685847729444504,0.0,0.0,1.9892393350601196,-0.02,0.02,0.05,0.0
1682105497.80476689,43207742,2,0.2,-0.9500000000000001,87.52,0.023937780410051346,-0.019208719953894615,0.02400125376880169,0.024695664644241333,0.0,0.0,1.9913862943649292,-0.02,0.02,0.05,0.0
1682105497.90475297,43307728,2,0.2,-0.9400000000000001,87.49,0.02494565024971962,-0.018973710015416145,0.024169782176613808,0.015048089437186718,0.0,0.0,1.9928667545318604,-0.02,0.02,0.05,0.0
1682105498.00473380,43407709,2,0.19,-0.9400000000000001,87.45,0.026612790301442146,-0.017826223745942116,0.02374492958188057,0.025748346000909805,0.0,0.0,1.996283769607544,-0.02,0.02,0.05,0.0
1682105498.10470390,43507679,2,0.19,-0.9400000000000001,87.42,0.02698899246752262,-0.018090486526489258,0.023771017789840698,0.051675524562597275,0.0,0.0,2.001582384109497,-0.02,0.02,0.06,0.0
1682105498.20470381,43607679,2,0.19,-0.9400000000000001,87.39,0.02798292599618435,-0.01848711632192135,0.024607019498944283,0.05400227755308151,0.0,0.0,2.005885601043701,-0.02,0.02,0.06,0.0
1682105498.30470300,43707678,2,0.2,-0.9400000000000001,87.35000000000001,0.028421970084309578,-0.01821843907237053,0.0247757900506258,0.02542056329548359,0.0,0.0,2.0074667930603027,-0.02,0.02,0.06,0.0
1682105498.40470695,43807682,2,0.2,-0.93,87.32000000000001,0.029519928619265556,-0.01861480623483658,0.024871574714779854,0.0001619081012904644,0.0,0.0,2.0078883171081543,-0.02,0.02,0.06,0.0
1682105498.50471783,43907693,2,0.2,-0.93,87.3,0.029617102816700935,-0.019014468416571617,0.026244957000017166,0.006354978773742914,0.0,0.0,2.0096497535705566,-0.02,0.02,0.06,0.0
1682105498.60474086,44007716,2,0.19,-0.93,87.29,0.02914849855005741,-0.019025078043341637,0.027178116142749786,0.02078171819448471,0.0,0.0,2.011991262435913,-0.02,0.02,0.06,0.0
1682105498.70476985,44107745,2,0.19,-0.93,87.27,0.029255155473947525,-0.019422782585024834,0.028335299342870712,0.03493259847164154,0.0,0.0,2.0156102180480957,-0.02,0.02,0.06,0.0
1682105498.80471182,44207687,2,0.19,-0.93,87.24,0.02891286090016365,-0.01888512633740902,0.0294980239123106,0.03408820927143097,0.0,0.0,2.0182337760925293,-0.02,0.02,0.06,0.0
1682105498.90473104,44307706,2,0.19,-0.93,87.2,0.029604481533169746,-0.01918230950832367,0.028953613713383675,0.011914430186152458,0.0,0.0,2.0190083980560303,-0.02,0.02,0.07,0.0
1682105499.00470281,44407678,2,0.19,-0.9400000000000001,87.17,0.03087361715734005,-0.019311755895614624,0.028243940323591232,-0.012340865097939968,0.0,0.0,2.01796817779541,-0.02,0.02,0.07,0.0
