timestamp,TimeUS,DesRoll,Roll,DesPitch,Pitch,DesYaw,Yaw,ErrRP,ErrYaw,AEKF
60.41600700,60416007,0.0,0.5,0.0,-0.81,359.53000000000003,359.54,0.0,0.01,0
60.51562800,60515628,0.0,0.5,0.0,-0.81,359.55,359.56,0.0,0.02,0
60.61564500,60615645,0.0,0.5,0.0,-0.81,359.54,359.55,0.0,0.01,0
60.71563400,60715634,0.0,0.5,0.0,-0.81,359.54,359.55,0.0,0.01,0
60.81564300,60815643,0.0,0.5,0.0,-0.81,359.55,359.56,0.0,0.01,0
60.91564500,60915645,0.0,0.5,0.0,-0.81,359.52,359.53000000000003,0.0,0.02,0
61.01560300,61015603,0.0,0.51,0.0,-0.81,359.52,359.53000000000003,0.0,0.01,0
61.11557200,61115572,0.0,0.5,0.0,-0.81,359.53000000000003,359.54,0.0,0.01,0
61.21560200,61215602,0.0,0.51,0.0,-0.81,359.52,359.53000000000003,0.0,0.01,0
61.31558600,61315586,0.0,0.51,0.0,-0.81,359.52,359.53000000000003,0.0,0.01,0
61.41587700,61415877,0.0,0.51,0.0,-0.81,359.51,359.52,0.0,0.01,0
61.51564100,61515641,0.0,0.5,0.0,-0.81,359.51,359.52,0.0,0.01,0
61.61557400,61615574,0.0,0.5,0.0,-0.81,359.52,359.53000000000003,0.0,0.0,0
61.71558900,61715589,0.0,0.5,0.0,-0.81,359.51,359.52,0.0,0.0,0
61.81563900,61815639,0.0,0.5,0.0,-0.81,359.52,359.53000000000003,0.0,0.0,0
61.91563600,61915636,0.0,0.5,0.0,-0.81,359.52,359.53000000000003,0.0,0.0,0
62.01561400,62015614,0.0,0.5,0.0,-0.81,359.52,359.53000000000003,0.0,0.0,0
62.11562600,62115626,0.0,0.5,0.0,-0.81,359.52,359.53000000000003,0.0,0.0,0
62.21573700,62215737,0.0,0.5,0.0,-0.81,359.52,359.53000000000003,0.0,0.0,0
62.31562500,62315625,0.0,0.5,0.0,-0.81,359.53000000000003,359.54,0.0,0.0,0
62.41586100,62415861,0.0,0.5,0.0,-0.81,359.53000000000003,359.54,0.0,0.0,0
62.51562800,62515628,0.0,0.5,0.0,-0.81,359.52,359.53000000000003,0.0,0.0,0
62.61566400,62615664,0.0,0.5,0.0,-0.81,359.52,359.53000000000003,0.0,0.0,0
62.71557300,62715573,0.0,0.5,0.0,-0.81,359.51,359.52,0.0,0.0,0
62.81561000,62815610,0.0,0.5,0.0,-0.8,359.52,359.53000000000003,0.0,0.0,0
62.91561800,62915618,0.0,0.5,0.0,-0.8,359.5,359.51,0.0,0.01,0
63.01563400,63015634,0.0,0.5,0.0,-0.8,359.49,359.5,0.0,0.01,0
63.11562100,63115621,0.0,0.5,0.0,-0.81,359.48,359.49,0.0,0.01,0
63.21556900,63215569,0.0,0.5,0.0,-0.8,359.49,359.5,0.0,0.01,0
63.31559900,63315599,0.0,0.49,0.0,-0.8,359.48,359.49,0.0,0.01,0
63.41591500,63415915,0.0,0.49,0.0,-0.8,359.5,359.51,0.0,0.01,0
63.51561700,63515617,0.0,0.49,0.0,-0.8,359.49,359.5,0.0,0.01,0
63.61573700,63615737,0.0,0.49,0.0,-0.8,359.49,359.5,0.0,0.01,0
63.71565100,63715651,0.0,0.49,0.0,-0.8,359.48,359.49,0.0,0.01,0
63.81562600,63815626,0.0,0.49,0.0,-0.8,359.49,359.5,0.0,0.01,0
63.91561800,63915618,0.0,0.49,0.0,-0.8,359.48,359.49,0.0,0.01,0
64.01561900,64015619,0.0,0.49,0.0,-0.79,359.48,359.49,0.0,0.01,0
64.11566900,64115669,0.0,0.49,0.0,-0.79,359.5,359.51,0.0,0.01,0
64.21556900,64215569,0.0,0.49,0.0,-0.79,359.5,359.51,0.0,0.01,0
64.31559500,64315595,0.0,0.49,0.0,-0.79,359.5,359.51,0.0,0.01,0
64.41584600,64415846,0.0,0.49,0.0,-0.79,359.49,359.5,0.0,0.01,0
64.51560400,64515604,0.0,0.49,0.0,-0.79,359.49,359.5,0.0,0.01,0
64.61561300,64615613,0.0,0.49,0.0,-0.79,359.49,359.5,0.0,0.0,0
64.71561700,64715617,0.0,0.49,0.0,-0.79,359.47,359.48,0.0,0.01,0
64.81560900,64815609,0.0,0.49,0.0,-0.79,359.48,359.49,0.0,0.01,0
64.91561100,64915611,0.0,0.49,0.0,-0.79,359.48,359.49,0.0,0.01,0
65.01562500,65015625,0.0,0.49,0.0,-0.79,359.46,359.47,0.0,0.01,0
65.11564300,65115643,0.0,0.49,0.0,-0.79,359.46,359.47,0.0,0.01,0
65.21558800,65215588,0.0,0.49,0.0,-0.79,359.44,359.45,0.0,0.01,0
65.31561500,65315615,0.0,0.49,0.0,-0.79,359.43,359.44,0.0,0.01,0
65.41594600,65415946,0.0,0.49,0.0,-0.79,359.45,359.46,0.0,0.02,0
65.51564100,65515641,0.0,0.49,0.0,-0.79,359.45,359.46,0.0,0.01,0
65.61561600,65615616,0.0,0.49,0.0,-0.79,359.46,359.47,0.0,0.01,0
65.71564000,65715640,0.0,0.49,0.0,-0.79,359.45,359.46,0.0,0.01,0
65.81560300,65815603,0.0,0.49,0.0,-0.79,359.45,359.46,0.0,0.01,0
65.91558800,65915588,0.0,0.49,0.0,-0.79,359.45,359.46,0.0,0.01,0
66.01559800,66015598,0.0,0.49,0.0,-0.79,359.47,359.48,0.0,0.01,0
66.11561000,66115610,0.0,0.48,0.0,-0.79,359.48,359.49,0.0,0.01,0
66.21563800,66215638,0.0,0.49,0.0,-0.79,359.47,359.48,0.0,0.01,0
66.31559700,66315597,0.0,0.48,0.0,-0.79,359.48,359.49,0.0,0.01,0
66.41588500,66415885,0.0,0.48,0.0,-0.79,359.47,359.48,0.0,0.01,0
66.51559700,66515597,0.0,0.48,0.0,-0.8,359.48,359.49,0.0,0.01,0
66.61564900,66615649,0.0,0.48,0.0,-0.8,359.48,359.49,0.0,0.01,0
66.71570600,66715706,0.0,0.48,0.0,-0.79,359.5,359.51,0.0,0.01,0
66.81563100,66815631,0.0,0.49,0.0,-0.79,359.51,359.52,0.0,0.01,0
66.91562800,66915628,0.0,0.48,0.0,-0.79,359.52,359.53000000000003,0.0,0.01,0
67.01570700,67015707,0.0,0.48,0.0,-0.79,359.52,359.53000000000003,0.0,0.01,0
67.11561900,67115619,0.0,0.48,0.0,-0.79,359.52,359.53000000000003,0.0,0.01,0
67.21562600,67215626,0.0,0.48,0.0,-0.79,359.52,359.53000000000003,0.0,0.01,0
67.31565100,67315651,0.0,0.48,0.0,-0.79,359.52,359.53000000000003,0.0,0.0,0
67.41584500,67415845,0.0,0.48,0.0,-0.78,359.52,359.53000000000003,0.0,0.0,0
67.51556800,67515568,0.0,0.48,0.0,-0.78,359.52,359.53000000000003,0.0,0.0,0
67.61564900,67615649,0.0,0.48,0.0,-0.78,359.52,359.53000000000003,0.0,0.0,0
67.71558400,67715584,0.0,0.48,0.0,-0.78,359.54,359.55,0.0,0.01,0
67.81560300,67815603,0.0,0.48,0.0,-0.78,359.56,359.57,0.0,0.01,0
67.91559800,67915598,0.0,0.48,0.0,-0.78,359.55,359.56,0.0,0.01,0
68.01561200,68015612,0.0,0.48,0.0,-0.78,359.56,359.57,0.0,0.01,0
68.11562200,68115622,0.0,0.48,0.0,-0.78,359.56,359.57,0.0,0.01,0
68.21561800,68215618,0.0,0.48,0.0,-0.78,359.56,359.57,0.0,0.01,0
68.31562400,68315624,0.0,0.48,0.0,-0.78,359.56,359.57,0.0,0.01,0
68.41595100,68415951,0.0,0.48,0.0,-0.79,359.56,359.57,0.0,0.0,0
68.51568200,68515682,0.0,0.48,0.0,-0.79,359.55,359.56,0.0,0.01,0
68.61563500,68615635,0.0,0.48,0.0,-0.79,359.55,359.56,0.0,0.0,0
68.71563100,68715631,0.0,0.48,0.0,-0.79,359.55,359.56,0.0,0.0,0
68.81560900,68815609,0.0,0.48,0.0,-0.79,359.54,359.55,0.0,0.0,0
68.91563300,68915633,0.0,0.49,0.0,-0.79,359.52,359.53000000000003,0.0,0.01,0
69.01558600,69015586,0.0,0.49,0.0,-0.79,359.5,359.51,0.0,0.01,0
69.11557600,69115576,0.0,0.49,0.0,-0.79,359.49,359.5,0.0,0.01,0
69.21562300,69215623,0.0,0.49,0.0,-0.79,359.49,359.5,0.0,0.01,0
69.31562200,69315622,0.0,0.49,0.0,-0.79,359.51,359.52,0.0,0.01,0
69.41592300,69415923,0.0,0.49,0.0,-0.79,359.52,359.53000000000003,0.0,0.01,0
69.51560700,69515607,0.0,0.49,0.0,-0.79,359.51,359.52,0.0,0.01,0
69.61560900,69615609,0.0,0.49,0.0,-0.79,359.5,359.51,0.0,0.01,0
69.71561400,69715614,0.0,0.48,0.0,-0.79,359.51,359.52,0.0,0.01,0
69.81562000,69815620,0.0,0.48,0.0,-0.79,359.53000000000003,359.54,0.0,0.01,0
69.91567400,69915674,0.0,0.48,0.0,-0.8,359.54,359.55,0.0,0.01,0
70.01562300,70015623,0.0,0.48,0.0,-0.8,359.55,359.56,0.0,0.01,0
70.11562100,70115621,0.0,0.48,0.0,-0.8,359.54,359.55,0.0,0.01,0
70.21560200,70215602,0.0,0.48,0.0,-0.8,359.52,359.53000000000003,0.0,0.01,0
70.31562400,70315624,0.0,0.48,0.0,-0.8,359.52,359.53000000000003,0.0,0.01,0
72.51559500,72515595,0.0,0.49,0.0,-0.81,359.5,359.51,0.0,0.01,0
72.61559100,72615591,0.0,0.49,0.0,-0.81,359.49,359.5,0.0,0.01,0
72.71561100,72715611,0.0,0.49,0.0,-0.81,359.51,359.52,0.0,0.01,0
72.81563600,72815636,0.0,0.48,0.0,-0.81,359.51,359.52,0.0,0.01,0
72.91563100,72915631,0.0,0.49,0.0,-0.8200000000000001,359.52,359.53000000000003,0.0,0.01,0
73.01564100,73015641,0.0,0.49,0.0,-0.81,359.52,359.53000000000003,0.0,0.01,0
73.11563000,73115630,0.0,0.49,0.0,-0.81,359.5,359.51,0.0,0.01,0
73.21565200,73215652,0.0,0.49,0.0,-0.8,359.5,359.51,0.0,0.01,0
73.31561200,73315612,0.0,0.49,0.0,-0.8300000000000001,359.52,359.53000000000003,0.0,0.01,0
73.41590400,73415904,0.0,0.49,0.0,-0.8200000000000001,359.52,359.53000000000003,0.0,0.01,0
73.51567700,73515677,0.0,0.49,0.0,-0.8200000000000001,359.51,359.52,0.0,0.0,0
73.61559100,73615591,0.0,0.49,0.0,-0.8200000000000001,359.52,359.53000000000003,0.0,0.0,0
73.71558900,73715589,0.0,0.49,0.0,-0.81,359.52,359.53000000000003,0.0,0.0,0
73.81560600,73815606,0.0,0.49,0.0,-0.8200000000000001,359.53000000000003,359.54,0.0,0.0,0
73.91561600,73915616,0.0,0.49,0.0,-0.8200000000000001,359.52,359.53000000000003,0.0,0.01,0
74.01566100,74015661,0.0,0.48,0.0,-0.8200000000000001,359.51,359.52,0.0,0.01,0
74.11561300,74115613,0.0,0.49,0.0,-0.8200000000000001,359.51,359.52,0.0,0.01,0
74.21559100,74215591,0.0,0.49,0.0,-0.8200000000000001,359.52,359.53000000000003,0.0,0.01,0
74.31562700,74315627,0.0,0.49,0.0,-0.8300000000000001,359.53000000000003,359.54,0.0,0.01,0
74.41595200,74415952,0.0,0.49,0.0,-0.8300000000000001,359.52,359.53000000000003,0.0,0.01,0
74.51561100,74515611,0.0,0.49,0.0,-0.8300000000000001,359.53000000000003,359.54,0.0,0.01,0
74.61561500,74615615,0.0,0.49,0.0,-0.84,359.52,359.53000000000003,0.0,0.01,0
74.71565800,74715658,0.0,0.49,0.0,-0.84,359.51,359.52,0.0,0.01,0
74.81561400,74815614,0.0,0.49,0.0,-0.87,359.53000000000003,359.54,0.0,0.01,0
74.91560700,74915607,0.0,0.47000000000000003,0.0,-0.8,359.5,359.51,0.0,0.01,0
75.01560600,75015606,0.0,0.48,0.0,-0.81,359.49,359.5,0.0,0.01,0
75.11557100,75115571,0.0,0.48,0.0,-0.8300000000000001,359.48,359.49,0.0,0.01,0
75.21557100,75215571,0.0,0.49,0.0,-0.8300000000000001,359.48,359.49,0.0,0.01,0
75.31558100,75315581,0.0,0.49,0.0,-0.8300000000000001,359.48,359.49,0.0,0.01,0
75.41586800,75415868,0.0,0.49,0.0,-0.84,359.48,359.49,0.0,0.01,0
75.51561200,75515612,0.0,0.49,0.0,-0.84,359.47,359.48,0.0,0.01,0
75.61558900,75615589,0.0,0.49,0.0,-0.8300000000000001,359.48,359.49,0.0,0.01,0
75.71566400,75715664,0.0,0.48,0.0,-0.84,359.47,359.48,0.0,0.01,0
75.81559100,75815591,0.0,0.49,0.0,-0.8300000000000001,359.48,359.49,0.0,0.01,0
75.91562000,75915620,0.0,0.48,0.0,-0.84,359.47,359.48,0.0,0.01,0
76.01563700,76015637,0.0,0.48,0.0,-0.84,359.48,359.49,0.0,0.01,0
76.11560700,76115607,0.0,0.49,0.0,-0.8300000000000001,359.5,359.51,0.0,0.01,0
76.21562600,76215626,0.0,0.49,0.0,-0.8300000000000001,359.5,359.51,0.0,0.01,0
76.31569000,76315690,0.0,0.49,0.0,-0.8300000000000001,359.5,359.51,0.0,0.01,0
76.41588600,76415886,0.0,0.49,0.0,-0.8300000000000001,359.51,359.52,0.0,0.01,0
76.51562800,76515628,0.0,0.49,0.0,-0.84,359.52,359.53000000000003,0.0,0.01,0
76.61563100,76615631,0.0,0.49,0.0,-0.8300000000000001,359.52,359.53000000000003,0.0,0.01,0
76.71563200,76715632,0.0,0.49,0.0,-0.84,359.53000000000003,359.54,0.0,0.01,0
76.81557700,76815577,0.0,0.49,0.0,-0.8300000000000001,359.53000000000003,359.54,0.0,0.01,0
76.91561300,76915613,0.0,0.49,0.0,-0.8300000000000001,359.52,359.53000000000003,0.0,0.01,0
77.01561800,77015618,0.0,0.49,0.0,-0.84,359.55,359.56,0.0,0.01,0
77.11561500,77115615,0.0,0.49,0.0,-0.8300000000000001,359.55,359.56,0.0,0.01,0
77.21561300,77215613,0.0,0.49,0.0,-0.8300000000000001,359.54,359.55,0.0,0.01,0
77.31559100,77315591,0.0,0.49,0.0,-0.8300000000000001,359.55,359.56,0.0,0.01,0
77.41591800,77415918,0.0,0.49,0.0,-0.8300000000000001,359.53000000000003,359.54,0.0,0.02,0
77.51563800,77515638,0.0,0.49,0.0,-0.8200000000000001,359.53000000000003,359.54,0.0,0.01,0
77.61566000,77615660,0.0,0.49,0.0,-0.8300000000000001,359.53000000000003,359.54,0.0,0.01,0
77.71559000,77715590,0.0,0.49,0.0,-0.8200000000000001,359.54,359.55,0.0,0.01,0
77.81565000,77815650,0.0,0.49,0.0,-0.8200000000000001,359.55,359.56,0.0,0.01,0
77.91562900,77915629,0.0,0.49,0.0,-0.8200000000000001,359.54,359.55,0.0,0.01,0
78.01561900,78015619,0.0,0.49,0.0,-0.8200000000000001,359.55,359.56,0.0,0.01,0
78.11560900,78115609,0.0,0.49,0.0,-0.8200000000000001,359.55,359.56,0.0,0.01,0
78.21560700,78215607,0.0,0.49,0.0,-0.8300000000000001,359.56,359.57,0.0,0.01,0
78.31561300,78315613,0.0,0.49,0.0,-0.8300000000000001,359.55,359.56,0.0,0.01,0
78.41587800,78415878,0.0,0.49,0.0,-0.8300000000000001,359.54,359.55,0.0,0.01,0
78.51557900,78515579,0.0,0.49,0.0,-0.84,359.53000000000003,359.54,0.0,0.01,0
78.61566100,78615661,0.0,0.49,0.0,-0.8300000000000001,359.54,359.55,0.0,0.01,0
78.71557400,78715574,0.0,0.49,0.0,-0.84,359.56,359.57,0.0,0.01,0
78.81559400,78815594,0.0,0.49,0.0,-0.8300000000000001,359.55,359.56,0.0,0.01,0
78.91561500,78915615,0.0,0.49,0.0,-0.8300000000000001,359.55,359.56,0.0,0.01,0
79.01562000,79015620,0.0,0.48,0.0,-0.8300000000000001,359.55,359.56,0.0,0.01,0
79.11560400,79115604,0.0,0.49,0.0,-0.8300000000000001,359.57,359.58,0.0,0.01,0
79.21566200,79215662,0.0,0.49,0.0,-0.8300000000000001,359.58,359.59000000000003,0.0,0.01,0
79.31564700,79315647,0.0,0.48,0.0,-0.8300000000000001,359.58,359.59000000000003,0.0,0.01,0
79.41592700,79415927,0.0,0.48,0.0,-0.8300000000000001,359.6,359.61,0.0,0.01,0
79.51569400,79515694,0.0,0.48,0.0,-0.8300000000000001,359.61,359.62,0.0,0.01,0
79.61564700,79615647,0.0,0.47000000000000003,0.0,-0.8300000000000001,359.61,359.62,0.0,0.01,0
79.71559400,79715594,0.0,0.47000000000000003,0.0,-0.84,359.6,359.61,0.0,0.01,0
79.81568000,79815680,0.0,0.47000000000000003,0.0,-0.8300000000000001,359.59000000000003,359.6,0.0,0.01,0
79.91559300,79915593,0.0,0.47000000000000003,0.0,-0.84,359.59000000000003,359.6,0.0,0.01,0
80.01557600,80015576,0.0,0.47000000000000003,0.0,-0.84,359.59000000000003,359.6,0.0,0.0,0
80.11560600,80115606,0.0,0.46,0.0,-0.84,359.61,359.62,0.0,0.01,0
80.21564300,80215643,0.0,0.45,0.0,-0.84,359.63,359.64,0.0,0.01,0
80.31558600,80315586,0.0,0.45,0.0,-0.84,359.64,359.65000000000003,0.0,0.01,0
80.41594000,80415940,0.0,0.46,0.0,-0.8300000000000001,359.64,359.65000000000003,0.0,0.01,0
80.51561200,80515612,0.0,0.48,0.0,-0.84,359.64,359.65000000000003,0.0,0.01,0
80.61566400,80615664,0.0,0.48,0.0,-0.8300000000000001,359.64,359.65000000000003,0.0,0.01,0
80.71560500,80715605,0.0,0.47000000000000003,0.0,-0.8300000000000001,359.65000000000003,359.66,0.0,0.01,0
80.81562900,80815629,0.0,0.47000000000000003,0.0,-0.8200000000000001,359.64,359.65000000000003,0.0,0.01,0
80.91562400,80915624,0.0,0.46,0.0,-0.8300000000000001,359.65000000000003,359.66,0.0,0.01,0
81.01562400,81015624,0.0,0.47000000000000003,0.0,-0.8300000000000001,359.65000000000003,359.65000000000003,0.0,0.01,0
81.11562100,81115621,0.0,0.46,0.0,-0.8300000000000001,359.65000000000003,359.66,0.0,0.0,0
81.21565800,81215658,0.0,0.47000000000000003,0.0,-0.8200000000000001,359.66,359.67,0.0,0.01,0
81.31564000,81315640,0.0,0.46,0.0,-0.8200000000000001,359.67,359.68,0.0,0.01,0
81.41583600,81415836,0.0,0.47000000000000003,0.0,-0.8200000000000001,359.67,359.67,0.0,0.0,0
81.51562900,81515629,0.0,0.46,0.0,-0.8200000000000001,359.68,359.69,0.0,0.01,0
81.61557400,81615574,0.0,0.47000000000000003,0.0,-0.8200000000000001,359.68,359.69,0.0,0.01,0
81.71560700,81715607,0.0,0.46,0.0,-0.8200000000000001,359.67,359.68,0.0,0.01,0
81.81559200,81815592,0.0,0.46,0.0,-0.81,359.67,359.68,0.0,0.01,0
81.91560200,81915602,0.0,0.45,0.0,-0.8200000000000001,359.68,359.69,0.0,0.01,0
82.01559600,82015596,0.0,0.46,0.0,-0.81,359.68,359.69,0.0,0.01,0
82.11564800,82115648,0.0,0.44,0.0,-0.8200000000000001,359.69,359.7,0.0,0.01,0
82.21564700,82215647,0.0,0.45,0.0,-0.81,359.68,359.69,0.0,0.01,0
82.31559200,82315592,0.0,0.44,0.0,-0.81,359.7,359.71,0.0,0.01,0
82.41593500,82415935,0.0,0.44,0.0,-0.81,359.71,359.72,0.0,0.01,0
82.51581000,82515810,0.0,0.44,0.0,-0.81,359.7,359.71,0.0,0.01,0
82.61563200,82615632,0.0,0.44,0.0,-0.81,359.71,359.72,0.0,0.01,0
82.71560100,82715601,0.0,0.44,0.0,-0.81,359.73,359.74,0.0,0.01,0
82.81562400,82815624,0.0,0.45,0.0,-0.81,359.72,359.73,0.0,0.01,0
82.91561900,82915619,0.0,0.45,0.0,-0.8300000000000001,359.75,359.76,0.0,0.01,0
83.01566800,83015668,0.0,0.44,0.0,-0.81,359.74,359.75,0.0,0.01,0
83.11558000,83115580,0.0,0.44,0.0,-0.8200000000000001,359.74,359.75,0.0,0.01,0
83.21562200,83215622,0.0,0.44,0.0,-0.8200000000000001,359.75,359.76,0.0,0.01,0
83.31561500,83315615,0.0,0.43,0.0,-0.8200000000000001,359.73,359.74,0.0,0.01,0
83.41590100,83415901,0.0,0.44,0.0,-0.8,359.73,359.74,0.0,0.01,0
83.51559600,83515596,0.0,0.43,0.0,-0.8,359.73,359.74,0.0,0.01,0
83.61560200,83615602,0.0,0.43,0.0,-0.8,359.73,359.74,0.0,0.01,0
83.71564600,83715646,0.0,0.43,0.0,-0.79,359.73,359.74,0.0,0.0,0
83.81569900,83815699,0.0,0.43,0.0,-0.79,359.73,359.74,0.0,0.0,0
83.91561300,83915613,0.0,0.42,0.0,-0.79,359.72,359.73,0.0,0.01,0
84.01564100,84015641,0.0,0.43,0.0,-0.81,359.72,359.73,0.0,0.01,0
84.11564600,84115646,0.0,0.42,0.0,-0.81,359.72,359.73,0.0,0.01,0
84.21561700,84215617,0.0,0.42,0.0,-0.8,359.7,359.71,0.0,0.01,0
84.31563300,84315633,0.0,0.42,0.0,-0.8,359.69,359.7,0.0,0.01,0
84.41593000,84415930,0.0,0.42,0.0,-0.8,359.7,359.71,0.0,0.01,0
84.51557200,84515572,0.0,0.42,0.0,-0.8,359.7,359.71,0.0,0.01,0
84.61559100,84615591,0.0,0.42,0.0,-0.79,359.69,359.7,0.0,0.01,0
84.71558600,84715586,0.0,0.42,0.0,-0.8,359.7,359.71,0.0,0.01,0
84.81560700,84815607,0.0,0.41000000000000003,0.0,-0.8,359.67,359.68,0.0,0.02,0
84.91559200,84915592,0.0,0.41000000000000003,0.0,-0.8,359.66,359.67,0.0,0.01,0
85.01560100,85015601,0.0,0.42,0.0,-0.79,359.66,359.67,0.0,0.01,0
85.11559700,85115597,0.0,0.42,0.0,-0.8,359.65000000000003,359.66,0.0,0.02,0
85.21558800,85215588,0.0,0.42,0.0,-0.79,359.65000000000003,359.66,0.0,0.01,0
85.31561100,85315611,0.0,0.42,0.0,-0.8,359.66,359.67,0.0,0.01,0
85.41608000,85416080,0.0,0.41000000000000003,0.0,-0.8,359.67,359.68,0.0,0.01,0
85.51560200,85515602,0.0,0.42,0.0,-0.79,359.67,359.68,0.0,0.01,0
85.61563500,85615635,0.0,0.42,0.0,-0.79,359.65000000000003,359.66,0.0,0.01,0
85.71566400,85715664,0.0,0.42,0.0,-0.78,359.65000000000003,359.66,0.0,0.01,0
85.81562900,85815629,0.0,0.42,0.0,-0.79,359.66,359.67,0.0,0.01,0
85.91562800,85915628,0.0,0.42,0.0,-0.78,359.64,359.65000000000003,0.0,0.01,0
86.01568500,86015685,0.0,0.42,0.0,-0.78,359.62,359.63,0.0,0.02,0
86.11556100,86115561,0.0,0.43,0.0,-0.79,359.62,359.63,0.0,0.01,0
86.21558700,86215587,0.0,0.43,0.0,-0.79,359.65000000000003,359.66,0.0,0.02,0
86.31558900,86315589,0.0,0.44,0.0,-0.78,359.64,359.65000000000003,0.0,0.01,0
86.41588000,86415880,0.0,0.44,0.0,-0.8,359.65000000000003,359.66,0.0,0.01,0
86.51566100,86515661,0.0,0.46,0.0,-0.79,359.64,359.65000000000003,0.0,0.01,0
86.61562200,86615622,0.0,0.46,0.0,-0.81,359.63,359.64,0.0,0.01,0
86.71560000,86715600,0.0,0.46,0.0,-0.81,359.64,359.65000000000003,0.0,0.02,0
86.81562200,86815622,0.0,0.47000000000000003,0.0,-0.81,359.63,359.64,0.0,0.02,0
86.91561100,86915611,0.0,0.48,0.0,-0.81,359.63,359.64,0.0,0.01,0
87.01561800,87015618,0.0,0.47000000000000003,0.0,-0.8,359.62,359.63,0.0,0.01,0
87.11563800,87115638,0.0,0.47000000000000003,0.0,-0.79,359.62,359.63,0.0,0.01,0
87.21564800,87215648,0.0,0.47000000000000003,0.0,-0.8,359.62,359.63,0.0,0.01,0
87.31564000,87315640,0.0,0.47000000000000003,0.0,-0.8,359.61,359.62,0.0,0.01,0
87.41602100,87416021,0.0,0.47000000000000003,0.0,-0.8,359.63,359.64,0.0,0.01,0
100.51584600,100515846,0.0,0.47000000000000003,0.0,-0.8,359.82,359.83,0.0,0.01,0
100.61561500,100615615,0.0,0.47000000000000003,0.0,-0.8,359.82,359.83,0.0,0.01,0
100.71560100,100715601,0.0,0.47000000000000003,0.0,-0.8,359.83,359.84000000000003,0.0,0.01,0
100.81561800,100815618,0.0,0.47000000000000003,0.0,-0.8,359.84000000000003,359.85,0.0,0.01,0
100.91564900,100915649,0.0,0.47000000000000003,0.0,-0.8,359.84000000000003,359.85,0.0,0.01,0
101.01561900,101015619,0.0,0.47000000000000003,0.0,-0.8,359.83,359.84000000000003,0.0,0.01,0
101.11562900,101115629,0.0,0.47000000000000003,0.0,-0.8,359.83,359.84000000000003,0.0,0.01,0
101.21562100,101215621,0.0,0.47000000000000003,0.0,-0.8,359.84000000000003,359.85,0.0,0.01,0
101.31567800,101315678,0.0,0.47000000000000003,0.0,-0.8,359.84000000000003,359.85,0.0,0.01,0
101.41598000,101415980,0.0,0.47000000000000003,0.0,-0.8,359.85,359.86,0.0,0.01,0
101.51566500,101515665,0.0,0.47000000000000003,0.0,-0.8,359.84000000000003,359.85,0.0,0.01,0
101.61563900,101615639,0.0,0.47000000000000003,0.0,-0.8,359.83,359.84000000000003,0.0,0.01,0
101.71557900,101715579,0.0,0.47000000000000003,0.0,-0.8,359.82,359.83,0.0,0.01,0
101.81561100,101815611,0.0,0.48,0.0,-0.8,359.81,359.82,0.0,0.01,0
101.91560700,101915607,0.0,0.47000000000000003,0.0,-0.8,359.82,359.83,0.0,0.01,0
102.01561300,102015613,0.0,0.47000000000000003,0.0,-0.8,359.82,359.83,0.0,0.01,0
102.11562600,102115626,0.0,0.47000000000000003,0.0,-0.8,359.83,359.84000000000003,0.0,0.01,0
102.21557700,102215577,0.0,0.48,0.0,-0.8,359.82,359.83,0.0,0.01,0
102.31559000,102315590,0.0,0.48,0.0,-0.8,359.83,359.84000000000003,0.0,0.01,0
102.41592800,102415928,0.0,0.48,0.0,-0.8,359.84000000000003,359.85,0.0,0.01,0
102.51564700,102515647,0.0,0.48,0.0,-0.79,359.83,359.84000000000003,0.0,0.01,0
121.61563400,121615634,0.0,0.47000000000000003,0.0,-0.88,359.84000000000003,359.85,0.0,0.01,0
121.71563100,121715631,0.0,0.47000000000000003,0.0,-0.88,359.83,359.84000000000003,0.0,0.01,0
121.81563400,121815634,0.0,0.45,0.0,-0.88,359.82,359.83,0.0,0.01,0
121.91563300,121915633,0.0,0.44,0.0,-0.88,359.82,359.83,0.0,0.01,0
122.01556800,122015568,0.0,0.43,0.0,-0.88,359.83,359.84000000000003,0.0,0.01,0
122.11558300,122115583,0.0,0.39,0.0,-0.87,359.83,359.84000000000003,0.0,0.01,0
122.21559800,122215598,0.0,0.38,0.0,-0.87,359.82,359.83,0.0,0.01,0
122.31562200,122315622,0.0,0.38,0.0,-0.88,359.83,359.84000000000003,0.0,0.0,0
122.41596300,122415963,0.0,0.37,0.0,-0.89,359.82,359.83,0.0,0.01,0
122.51557400,122515574,0.0,0.36,0.0,-0.9,359.81,359.82,0.0,0.01,0
122.61560400,122615604,0.0,0.36,0.0,-0.9,359.81,359.82,0.0,0.01,0
122.71563400,122715634,0.0,0.36,0.0,-0.9,359.8,359.81,0.0,0.0,0
122.81562200,122815622,0.0,0.4,0.0,-0.86,359.78000000000003,359.79,0.0,0.0,0
122.91561200,122915612,0.0,0.45,0.0,-0.89,359.79,359.8,0.0,0.0,0
123.01563400,123015634,0.0,0.45,0.0,-0.88,359.78000000000003,359.79,0.0,0.01,0
123.11562100,123115621,0.0,0.44,0.0,-0.9,359.75,359.76,0.0,0.01,0
123.21567600,123215676,0.0,0.43,0.0,-0.91,359.73,359.74,0.0,0.01,0
123.31561500,123315615,0.0,0.4,0.0,-0.89,359.73,359.74,0.0,0.01,0
123.41600400,123416004,0.0,0.34,0.0,-0.87,359.72,359.73,0.0,0.01,0
123.51561100,123515611,0.0,0.36,0.0,-0.86,359.71,359.72,0.0,0.01,0
123.61557400,123615574,0.0,0.45,0.0,-0.88,359.75,359.76,0.0,0.01,0
123.71557300,123715573,0.0,0.47000000000000003,0.0,-0.89,359.75,359.76,0.0,0.01,0
123.81562700,123815627,0.0,0.47000000000000003,0.0,-0.88,359.75,359.76,0.0,0.01,0
123.91561700,123915617,0.0,0.48,0.0,-0.88,359.76,359.77,0.0,0.01,0
124.01556100,124015561,0.0,0.48,0.0,-0.88,359.76,359.77,0.0,0.01,0
124.11559700,124115597,0.0,0.48,0.0,-0.87,359.75,359.76,0.0,0.01,0
124.21559700,124215597,0.0,0.48,0.0,-0.88,359.74,359.75,0.0,0.01,0
124.31563300,124315633,0.0,0.48,0.0,-0.87,359.74,359.75,0.0,0.0,0
124.41590600,124415906,0.0,0.48,0.0,-0.87,359.73,359.74,0.0,0.01,0
124.51562300,124515623,0.0,0.48,0.0,-0.87,359.73,359.74,0.0,0.01,0
124.61561500,124615615,0.0,0.48,0.0,-0.87,359.73,359.74,0.0,0.01,0
124.71561800,124715618,0.0,0.48,0.0,-0.88,359.72,359.73,0.0,0.01,0
124.81566200,124815662,0.0,0.48,0.0,-0.88,359.71,359.72,0.0,0.01,0
124.91562500,124915625,0.0,0.48,0.0,-0.87,359.7,359.71,0.0,0.01,0
125.01563900,125015639,0.0,0.48,0.0,-0.88,359.71,359.72,0.0,0.01,0
125.11562300,125115623,0.0,0.48,0.0,-0.87,359.7,359.71,0.0,0.01,0
125.21560900,125215609,0.0,0.48,0.0,-0.87,359.7,359.71,0.0,0.01,0
125.31557200,125315572,0.0,0.48,0.0,-0.88,359.7,359.71,0.0,0.01,0
125.41587100,125415871,0.0,0.49,0.0,-0.88,359.69,359.7,0.0,0.0,0
125.51559100,125515591,0.0,0.49,0.0,-0.88,359.71,359.72,0.0,0.01,0
125.61560900,125615609,0.0,0.49,0.0,-0.88,359.71,359.72,0.0,0.01,0
125.71559500,125715595,0.0,0.49,0.0,-0.88,359.72,359.73,0.0,0.01,0
125.81560100,125815601,0.0,0.49,0.0,-0.88,359.71,359.72,0.0,0.01,0
125.91560500,125915605,0.0,0.49,0.0,-0.88,359.71,359.72,0.0,0.0,0
126.01561700,126015617,0.0,0.49,0.0,-0.89,359.7,359.71,0.0,0.01,0
126.11563500,126115635,0.0,0.49,0.0,-0.89,359.71,359.72,0.0,0.01,0
126.21562800,126215628,0.0,0.49,0.0,-0.89,359.71,359.72,0.0,0.01,0
126.31566100,126315661,0.0,0.49,0.0,-0.89,359.69,359.7,0.0,0.01,0
126.41584100,126415841,0.0,0.49,0.0,-0.89,359.67,359.68,0.0,0.01,0
126.51561100,126515611,0.0,0.5,0.0,-0.89,359.65000000000003,359.66,0.0,0.02,0
126.61575800,126615758,0.0,0.5,0.0,-0.88,359.65000000000003,359.66,0.0,0.01,0
126.71556300,126715563,0.0,0.5,0.0,-0.88,359.67,359.68,0.0,0.02,0
126.81557300,126815573,0.0,0.5,0.0,-0.9,359.65000000000003,359.66,0.0,0.02,0
126.91560300,126915603,0.0,0.51,0.0,-0.89,359.64,359.65000000000003,0.0,0.01,0
127.01558400,127015584,0.0,0.51,0.0,-0.89,359.64,359.65000000000003,0.0,0.01,0
127.11559700,127115597,0.0,0.51,0.0,-0.89,359.63,359.64,0.0,0.01,0
127.21559600,127215596,0.0,0.51,0.0,-0.9,359.63,359.64,0.0,0.01,0
127.31560900,127315609,0.0,0.51,0.0,-0.89,359.64,359.65000000000003,0.0,0.01,0
127.41593900,127415939,0.0,0.51,0.0,-0.89,359.61,359.62,0.0,0.01,0
127.51561200,127515612,0.0,0.51,0.0,-0.9,359.62,359.63,0.0,0.01,0
127.61562600,127615626,0.0,0.51,0.0,-0.9,359.61,359.62,0.0,0.01,0
127.71563000,127715630,0.0,0.52,0.0,-0.9,359.6,359.61,0.0,0.01,0
127.81565100,127815651,0.0,0.53,0.0,-0.91,359.59000000000003,359.6,0.0,0.01,0
127.91563100,127915631,0.0,0.53,0.0,-0.91,359.59000000000003,359.6,0.0,0.01,0
128.01560600,128015606,0.0,0.51,0.0,-0.92,359.61,359.62,0.0,0.01,0
128.11564400,128115644,0.0,0.5,0.0,-0.91,359.61,359.62,0.0,0.01,0
128.21557600,128215576,0.0,0.5,0.0,-0.91,359.63,359.64,0.0,0.01,0
128.31559300,128315593,0.0,0.51,0.0,-0.91,359.61,359.62,0.0,0.01,0
128.41583200,128415832,0.0,0.5,0.0,-0.92,359.61,359.62,0.0,0.01,0
128.51561100,128515611,0.0,0.51,0.0,-0.9,359.6,359.61,0.0,0.01,0
128.61561300,128615613,0.0,0.5,0.0,-0.91,359.62,359.63,0.0,0.01,0
128.71560800,128715608,0.0,0.5,0.0,-0.92,359.62,359.63,0.0,0.01,0
128.81558500,128815585,0.0,0.5,0.0,-0.92,359.63,359.64,0.0,0.01,0
128.91559600,128915596,0.0,0.46,0.0,-0.9,359.6,359.61,0.0,0.01,0
129.01561800,129015618,0.0,0.45,0.0,-0.9,359.59000000000003,359.6,0.0,0.01,0
129.11562300,129115623,0.0,0.44,0.0,-0.9,359.6,359.61,0.0,0.01,0
129.21562500,129215625,0.0,0.41000000000000003,0.0,-0.9,359.59000000000003,359.6,0.0,0.01,0
129.31563500,129315635,0.0,0.42,0.0,-0.9,359.6,359.61,0.0,0.01,0
129.41593400,129415934,0.0,0.42,0.0,-0.9,359.6,359.61,0.0,0.01,0
129.51561400,129515614,0.0,0.41000000000000003,0.0,-0.88,359.58,359.59000000000003,0.0,0.01,0
129.61564400,129615644,0.0,0.41000000000000003,0.0,-0.9,359.57,359.58,0.0,0.01,0
129.71560900,129715609,0.0,0.45,0.0,-0.9,359.57,359.58,0.0,0.01,0
129.81558300,129815583,0.0,0.5,0.0,-0.87,359.56,359.57,0.0,0.01,0
129.91558200,129915582,0.0,0.51,0.0,-0.93,359.57,359.58,0.0,0.01,0
130.01561500,130015615,0.0,0.51,0.0,-0.91,359.56,359.57,0.0,0.01,0
130.11560600,130115606,0.0,0.52,0.0,-0.9,359.56,359.57,0.0,0.01,0
130.21558200,130215582,0.0,0.53,0.0,-0.9,359.54,359.55,0.0,0.01,0
130.31557600,130315576,0.0,0.53,0.0,-0.9,359.53000000000003,359.54,0.0,0.01,0
130.41588200,130415882,0.0,0.53,0.0,-0.9,359.53000000000003,359.54,0.0,0.01,0
130.51562200,130515622,0.0,0.51,0.0,-0.91,359.52,359.53000000000003,0.0,0.01,0
130.61566700,130615667,0.0,0.5,0.0,-0.9,359.51,359.52,0.0,0.01,0
130.71561100,130715611,0.0,0.49,0.0,-0.9,359.52,359.53000000000003,0.0,0.01,0
130.81568000,130815680,0.0,0.48,0.0,-0.9,359.52,359.53000000000003,0.0,0.01,0
130.91565300,130915653,0.0,0.5,0.0,-0.9,359.52,359.53000000000003,0.0,0.01,0
131.01562200,131015622,0.0,0.5,0.0,-0.89,359.54,359.55,0.0,0.01,0
131.11561700,131115617,0.0,0.51,0.0,-0.9,359.54,359.55,0.0,0.01,0
131.21560400,131215604,0.0,0.5,0.0,-0.89,359.56,359.57,0.0,0.01,0
131.31567200,131315672,0.0,0.51,0.0,-0.9,359.57,359.58,0.0,0.01,0
131.41582500,131415825,0.0,0.51,0.0,-0.89,359.58,359.59000000000003,0.0,0.01,0
131.51559000,131515590,0.0,0.51,0.0,-0.89,359.57,359.58,0.0,0.01,0
131.61563300,131615633,0.0,0.51,0.0,-0.89,359.57,359.58,0.0,0.01,0
131.71562000,131715620,0.0,0.51,0.0,-0.88,359.55,359.56,0.0,0.01,0
131.81558900,131815589,0.0,0.51,0.0,-0.89,359.53000000000003,359.54,0.0,0.02,0
131.91562000,131915620,0.0,0.51,0.0,-0.89,359.53000000000003,359.54,0.0,0.01,0
132.01559700,132015597,0.0,0.51,0.0,-0.89,359.51,359.52,0.0,0.01,0
132.11560500,132115605,0.0,0.51,0.0,-0.89,359.49,359.5,0.0,0.01,0
132.21560900,132215609,0.0,0.51,0.0,-0.89,359.48,359.49,0.0,0.01,0
132.31563900,132315639,0.0,0.51,0.0,-0.88,359.48,359.49,0.0,0.01,0
132.41600700,132416007,0.0,0.51,0.0,-0.89,359.46,359.47,0.0,0.01,0
132.51561300,132515613,0.0,0.51,0.0,-0.89,359.46,359.47,0.0,0.01,0
132.61562000,132615620,0.0,0.51,0.0,-0.89,359.47,359.48,0.0,0.01,0
132.71560400,132715604,0.0,0.5,0.0,-0.89,359.45,359.46,0.0,0.01,0
132.81561400,132815614,0.0,0.51,0.0,-0.89,359.43,359.44,0.0,0.02,0
132.91559500,132915595,0.0,0.51,0.0,-0.89,359.43,359.44,0.0,0.01,0
133.01558400,133015584,0.0,0.51,0.0,-0.9,359.44,359.45,0.0,0.01,0
133.11558600,133115586,0.0,0.5,0.0,-0.88,359.45,359.46,0.0,0.02,0
133.21561800,133215618,0.0,0.5,0.0,-0.9,359.45,359.46,0.0,0.01,0
133.31561900,133315619,0.0,0.49,0.0,-0.89,359.44,359.45,0.0,0.01,0
133.41587200,133415872,0.0,0.49,0.0,-0.9,359.45,359.46,0.0,0.01,0
133.51564200,133515642,0.0,0.49,0.0,-0.91,359.44,359.45,0.0,0.01,0
133.61561900,133615619,0.0,0.49,0.0,-0.91,359.45,359.46,0.0,0.01,0
133.71562500,133715625,0.0,0.46,0.0,-0.91,359.44,359.45,0.0,0.01,0
133.81560400,133815604,0.0,0.45,0.0,-0.9,359.41,359.42,0.0,0.01,0
133.91558900,133915589,0.0,0.46,0.0,-0.9,359.42,359.43,0.0,0.01,0
134.01566900,134015669,0.0,0.47000000000000003,0.0,-0.89,359.43,359.44,0.0,0.01,0
134.11560200,134115602,0.0,0.5,0.0,-0.91,359.44,359.45,0.0,0.01,0
134.21563100,134215631,0.0,0.51,0.0,-0.92,359.43,359.44,0.0,0.0,0
134.31560800,134315608,0.0,0.51,0.0,-0.91,359.43,359.44,0.0,0.0,0
134.41583800,134415838,0.0,0.51,0.0,-0.91,359.42,359.43,0.0,0.01,0
134.51558400,134515584,0.0,0.5,0.0,-0.91,359.43,359.44,0.0,0.01,0
134.61558300,134615583,0.0,0.5,0.0,-0.9,359.42,359.43,0.0,0.01,0
134.71562900,134715629,0.0,0.5,0.0,-0.9,359.43,359.44,0.0,0.01,0
134.81564400,134815644,0.0,0.5,0.0,-0.91,359.45,359.46,0.0,0.01,0
134.91557500,134915575,0.0,0.49,0.0,-0.91,359.43,359.44,0.0,0.01,0
135.01558900,135015589,0.0,0.48,0.0,-0.91,359.44,359.45,0.0,0.01,0
135.11559600,135115596,0.0,0.46,0.0,-0.89,359.44,359.45,0.0,0.01,0
135.21565700,135215657,0.0,0.45,0.0,-0.89,359.43,359.44,0.0,0.01,0
135.31562900,135315629,0.0,0.44,0.0,-0.88,359.42,359.43,0.0,0.01,0
135.41591500,135415915,0.0,0.43,0.0,-0.89,359.42,359.43,0.0,0.01,0
135.51559800,135515598,0.0,0.45,0.0,-0.89,359.43,359.44,0.0,0.01,0
135.61561500,135615615,0.0,0.43,0.0,-0.89,359.41,359.42,0.0,0.02,0
135.71560600,135715606,0.0,0.43,0.0,-0.9,359.40000000000003,359.41,0.0,0.02,0
135.81562700,135815627,0.0,0.46,0.0,-0.87,359.36,359.37,0.0,0.01,0
135.91563500,135915635,0.0,0.52,0.0,-0.87,359.36,359.37,0.0,0.01,0
136.01559300,136015593,0.0,0.53,0.0,-0.93,359.38,359.39,0.0,0.01,0
136.11560000,136115600,0.0,0.52,0.0,-0.91,359.36,359.37,0.0,0.01,0
136.21558100,136215581,0.0,0.52,0.0,-0.92,359.37,359.38,0.0,0.01,0
136.31561200,136315612,0.0,0.52,0.0,-0.91,359.37,359.38,0.0,0.01,0
136.41589500,136415895,0.0,0.52,0.0,-0.9,359.35,359.36,0.0,0.01,0
136.51559900,136515599,0.0,0.52,0.0,-0.91,359.35,359.36,0.0,0.0,0
145.31561000,145315610,0.0,0.51,0.0,-0.93,359.93,359.94,0.0,0.01,0
145.41598800,145415988,0.0,0.51,0.0,-0.93,359.94,359.95,0.0,0.02,0
145.51560400,145515604,0.0,0.52,0.0,-0.93,359.96,359.97,0.0,0.02,0
145.61561700,145615617,0.0,0.52,0.0,-0.93,359.98,359.99,0.0,0.02,0
145.71561200,145715612,0.0,0.52,0.0,-0.93,0.0,0.0,0.0,0.02,0
145.81564400,145815644,0.0,0.52,0.0,-0.91,0.05,0.05,0.0,0.02,0
145.91560000,145915600,0.0,0.52,0.0,-0.93,0.07,0.07,0.0,0.02,0
146.01557400,146015574,0.0,0.49,0.0,-0.92,0.07,0.07,0.0,0.02,0
146.11566500,146115665,0.0,0.51,0.0,-0.93,0.06,0.06,0.0,0.01,0
146.21562300,146215623,0.0,0.5,0.0,-0.93,0.07,0.07,0.0,0.01,0
146.31564800,146315648,0.0,0.51,0.0,-0.93,0.07,0.07,0.0,0.01,0
146.41592000,146415920,0.0,0.52,0.0,-0.91,0.1,0.1,0.0,0.01,0
146.51563300,146515633,0.0,0.5,0.0,-0.92,0.09,0.09,0.0,0.01,0
146.61561300,146615613,0.0,0.51,0.0,-0.92,0.08,0.08,0.0,0.01,0
146.71561200,146715612,0.0,0.52,0.0,-0.9,0.1,0.1,0.0,0.01,0
146.81562300,146815623,0.0,0.52,0.0,-0.92,0.12,0.12,0.0,0.01,0
146.91561400,146915614,0.0,0.52,0.0,-0.9,0.13,0.13,0.0,0.01,0
147.01558900,147015589,0.0,0.52,0.0,-0.9,0.13,0.13,0.0,0.01,0
147.11561100,147115611,0.0,0.52,0.0,-0.91,0.14,0.14,0.0,0.01,0
147.21558100,147215581,0.0,0.52,0.0,-0.9,0.14,0.14,0.0,0.01,0
147.31561400,147315614,0.0,0.52,0.0,-0.91,0.14,0.14,0.0,0.01,0
147.41589200,147415892,0.0,0.52,0.0,-0.91,0.13,0.13,0.0,0.01,0
147.51557900,147515579,0.0,0.52,0.0,-0.91,0.13,0.13,0.0,0.0,0
147.61560800,147615608,0.0,0.52,0.0,-0.91,0.15,0.15,0.0,0.01,0
147.71566100,147715661,0.0,0.52,0.0,-0.91,0.14,0.14,0.0,0.01,0
147.81563100,147815631,0.0,0.52,0.0,-0.9,0.16,0.16,0.0,0.02,0
147.91561400,147915614,0.0,0.52,0.0,-0.91,0.16,0.16,0.0,0.01,0
148.01561900,148015619,0.0,0.52,0.0,-0.91,0.15,0.15,0.0,0.01,0
148.11562900,148115629,0.0,0.55,0.0,-0.92,0.17,0.17,0.0,0.01,0
148.21563100,148215631,0.0,0.55,0.0,-0.92,0.17,0.17,0.0,0.01,0
148.31561600,148315616,0.0,0.56,0.0,-0.93,0.15,0.15,0.0,0.01,0
148.41590100,148415901,0.0,0.48,0.0,-0.89,0.22,0.22,0.0,0.01,0
148.51556100,148515561,0.0,0.58,0.0,-0.96,0.08,0.08,0.0,0.01,0
148.61557300,148615573,0.0,0.56,0.0,-0.93,0.0,0.0,0.0,0.01,0
148.71558500,148715585,0.0,0.55,0.0,-0.9400000000000001,0.04,0.04,0.0,0.01,0
148.81560500,148815605,0.0,0.56,0.0,-0.9400000000000001,0.02,0.02,0.0,0.01,0
148.91561500,148915615,0.0,0.55,0.0,-0.9500000000000001,0.04,0.04,0.0,0.0,0
149.01569300,149015693,0.0,0.54,0.0,-0.93,0.07,0.07,0.0,0.01,0
149.11556200,149115562,0.0,0.54,0.0,-0.92,0.09,0.09,0.0,0.0,0
149.21560000,149215600,0.0,0.51,0.0,-0.9,0.08,0.08,0.0,0.01,0
149.31563600,149315636,0.0,0.5700000000000001,0.0,-0.9400000000000001,0.02,0.02,0.0,0.01,0
149.41596100,149415961,0.0,0.5700000000000001,0.0,-0.9500000000000001,359.92,359.93,0.0,0.01,0
149.51562200,149515622,0.0,0.55,0.0,-0.9500000000000001,359.91,359.92,0.0,0.01,0
149.61562200,149615622,0.0,0.5700000000000001,0.0,-0.97,359.92,359.93,0.0,0.01,0
149.71581400,149715814,0.0,0.6,0.0,-0.97,359.94,359.95,0.0,0.01,0
149.81564500,149815645,0.0,0.58,0.0,-0.93,359.93,359.94,0.0,0.01,0
149.91562300,149915623,0.0,0.56,0.0,-0.91,359.97,359.98,0.0,0.01,0
150.01556400,150015564,0.0,0.58,0.0,-0.9400000000000001,359.94,359.95,0.0,0.01,0
150.11558300,150115583,0.0,0.54,0.0,-0.9,359.99,0.0,0.0,0.01,0
150.21560100,150215601,0.0,0.53,0.0,-0.9,359.95,359.96,0.0,0.01,0
150.31560700,150315607,0.0,0.56,0.0,-0.92,359.89,359.90000000000003,0.0,0.01,0
150.41591000,150415910,0.0,0.55,0.0,-0.9400000000000001,359.90000000000003,359.91,0.0,0.01,0
150.51561000,150515610,0.0,0.55,0.0,-0.9400000000000001,359.92,359.93,0.0,0.01,0
150.61560300,150615603,0.0,0.55,0.0,-0.93,359.94,359.95,0.0,0.01,0
150.71558200,150715582,0.0,0.56,0.0,-0.92,359.92,359.93,0.0,0.01,0
150.81560300,150815603,0.0,0.56,0.0,-0.93,359.92,359.93,0.0,0.01,0
150.91568100,150915681,0.0,0.54,0.0,-0.91,359.83,359.84000000000003,0.0,0.01,0
151.01561200,151015612,0.0,0.53,0.0,-0.87,359.73,359.74,0.0,0.01,0
151.11561200,151115612,0.0,0.54,0.0,-0.8300000000000001,359.56,359.57,0.0,0.01,0
151.21566500,151215665,0.0,0.55,0.0,-0.77,359.33,359.34000000000003,0.0,0.0,0
151.31567200,151315672,0.0,0.54,0.0,-0.8,359.34000000000003,359.35,0.0,0.01,0
151.41588400,151415884,0.0,0.58,0.0,-0.84,359.40000000000003,359.41,0.0,0.01,0
151.51562000,151515620,0.0,0.56,0.0,-0.8300000000000001,359.41,359.42,0.0,0.01,0
151.61568000,151615680,0.0,0.55,0.0,-0.84,359.40000000000003,359.41,0.0,0.01,0
151.71557200,151715572,0.0,0.52,0.0,-0.8300000000000001,359.40000000000003,359.41,0.0,0.01,0
151.81558900,151815589,0.0,0.53,0.0,-0.85,359.40000000000003,359.41,0.0,0.01,0
151.91563600,151915636,0.0,0.54,0.0,-0.86,359.38,359.39,0.0,0.01,0
152.01562700,152015627,0.0,0.53,0.0,-0.85,359.37,359.38,0.0,0.01,0
152.11560500,152115605,0.0,0.51,0.0,-0.86,359.39,359.40000000000003,0.0,0.02,0
152.21567400,152215674,0.0,0.51,0.0,-0.85,359.40000000000003,359.41,0.0,0.02,0
152.31561100,152315611,0.0,0.52,0.0,-0.86,359.42,359.43,0.0,0.02,0
152.41590700,152415907,0.0,0.52,0.0,-0.85,359.42,359.43,0.0,0.02,0
152.51560900,152515609,0.0,0.52,0.0,-0.8200000000000001,359.39,359.40000000000003,0.0,0.01,0
152.61562200,152615622,0.0,0.54,0.0,-0.84,359.38,359.39,0.0,0.01,0
152.71559700,152715597,0.0,0.55,0.0,-0.85,359.33,359.34000000000003,0.0,0.01,0
152.81567600,152815676,0.0,0.5700000000000001,0.0,-0.86,359.33,359.34000000000003,0.0,0.01,0
152.91562600,152915626,0.0,0.56,0.0,-0.85,359.34000000000003,359.35,0.0,0.01,0
153.01565300,153015653,0.0,0.54,0.0,-0.81,359.34000000000003,359.35,0.0,0.01,0
153.11557500,153115575,0.0,0.47000000000000003,0.0,-0.74,359.3,359.31,0.0,0.01,0
153.21558700,153215587,0.0,0.35000000000000003,0.0,-0.76,359.27,359.28000000000003,0.0,0.01,0
153.31559000,153315590,0.0,0.32,0.0,-0.87,359.45,359.46,0.0,0.01,0
153.41583900,153415839,0.0,0.45,0.0,-0.8200000000000001,359.55,359.56,0.0,0.0,0
153.51562300,153515623,0.0,0.36,0.0,-0.8300000000000001,359.41,359.42,0.0,0.0,0
153.61556900,153615569,0.0,0.25,0.0,-0.79,359.42,359.43,0.0,0.0,0
153.71560500,153715605,0.0,0.2,0.0,-0.8300000000000001,359.53000000000003,359.54,0.0,0.01,0
153.81559900,153815599,0.0,0.5,0.0,-0.85,359.46,359.47,0.0,0.01,0
153.91561500,153915615,0.0,0.56,0.0,-0.89,359.42,359.43,0.0,0.01,0
154.01562000,154015620,0.0,0.59,0.0,-0.86,359.43,359.44,0.0,0.01,0
154.11562700,154115627,0.0,0.55,0.0,-0.87,359.44,359.45,0.0,0.01,0
154.21565500,154215655,0.0,0.53,0.0,-0.86,359.47,359.48,0.0,0.02,0
154.31561600,154315616,0.0,0.53,0.0,-0.85,359.46,359.47,0.0,0.01,0
154.41593900,154415939,0.0,0.53,0.0,-0.85,359.47,359.48,0.0,0.01,0
154.51562000,154515620,0.0,0.53,0.0,-0.85,359.47,359.48,0.0,0.01,0
154.61561200,154615612,0.0,0.54,0.0,-0.85,359.47,359.48,0.0,0.01,0
154.71566000,154715660,0.0,0.53,0.0,-0.85,359.46,359.47,0.0,0.01,0
154.81560200,154815602,0.0,0.53,0.0,-0.85,359.45,359.46,0.0,0.01,0
154.91558700,154915587,0.0,0.53,0.0,-0.85,359.45,359.46,0.0,0.01,0
155.01560100,155015601,0.0,0.53,0.0,-0.85,359.45,359.46,0.0,0.01,0
155.11563200,155115632,0.0,0.53,0.0,-0.85,359.45,359.46,0.0,0.0,0
155.21565600,155215656,0.0,0.53,0.0,-0.85,359.45,359.46,0.0,0.0,0
155.31560000,155315600,0.0,0.53,0.0,-0.85,359.46,359.47,0.0,0.0,0
155.41587100,155415871,0.0,0.53,0.0,-0.85,359.46,359.47,0.0,0.0,0
155.51562700,155515627,0.0,0.53,0.0,-0.85,359.45,359.46,0.0,0.01,0
155.61560800,155615608,0.0,0.53,0.0,-0.85,359.46,359.47,0.0,0.01,0
155.71562600,155715626,0.0,0.53,0.0,-0.85,359.46,359.47,0.0,0.01,0
155.81564900,155815649,0.0,0.53,0.0,-0.85,359.47,359.48,0.0,0.01,0
155.91561000,155915610,0.0,0.53,0.0,-0.85,359.47,359.48,0.0,0.01,0
156.01562200,156015622,0.0,0.53,0.0,-0.85,359.47,359.48,0.0,0.0,0
156.11563100,156115631,0.0,0.53,0.0,-0.85,359.49,359.5,0.0,0.01,0
156.21562100,156215621,0.0,0.53,0.0,-0.84,359.49,359.5,0.0,0.01,0
156.31563400,156315634,0.0,0.53,0.0,-0.84,359.5,359.51,0.0,0.01,0
156.41582500,156415825,0.0,0.53,0.0,-0.84,359.52,359.53000000000003,0.0,0.01,0
156.51560200,156515602,0.0,0.53,0.0,-0.84,359.51,359.52,0.0,0.01,0
156.61561000,156615610,0.0,0.53,0.0,-0.84,359.5,359.51,0.0,0.01,0
156.71560000,156715600,0.0,0.53,0.0,-0.84,359.51,359.52,0.0,0.01,0
156.81557400,156815574,0.0,0.53,0.0,-0.84,359.49,359.5,0.0,0.01,0
156.91560800,156915608,0.0,0.53,0.0,-0.84,359.49,359.5,0.0,0.01,0
157.01560700,157015607,0.0,0.53,0.0,-0.84,359.49,359.5,0.0,0.01,0
157.11561700,157115617,0.0,0.53,0.0,-0.84,359.5,359.51,0.0,0.01,0
157.21562000,157215620,0.0,0.53,0.0,-0.84,359.49,359.5,0.0,0.01,0
157.31561800,157315618,0.0,0.53,0.0,-0.84,359.49,359.5,0.0,0.0,0
157.41593100,157415931,0.0,0.52,0.0,-0.84,359.48,359.49,0.0,0.01,0
157.51560400,157515604,0.0,0.53,0.0,-0.84,359.46,359.47,0.0,0.01,0
157.61563400,157615634,0.0,0.53,0.0,-0.84,359.49,359.5,0.0,0.01,0
157.71565100,157715651,0.0,0.52,0.0,-0.84,359.49,359.5,0.0,0.01,0
157.81560100,157815601,0.0,0.53,0.0,-0.84,359.51,359.52,0.0,0.01,0
157.91558400,157915584,0.0,0.53,0.0,-0.84,359.51,359.52,0.0,0.01,0
158.01559200,158015592,0.0,0.53,0.0,-0.84,359.5,359.51,0.0,0.01,0
158.11560400,158115604,0.0,0.53,0.0,-0.84,359.49,359.5,0.0,0.01,0
158.21563700,158215637,0.0,0.53,0.0,-0.84,359.49,359.5,0.0,0.01,0
158.31564800,158315648,0.0,0.53,0.0,-0.84,359.49,359.5,0.0,0.01,0
158.41585300,158415853,0.0,0.53,0.0,-0.84,359.48,359.49,0.0,0.01,0
158.51561800,158515618,0.0,0.53,0.0,-0.84,359.47,359.48,0.0,0.01,0
158.61560400,158615604,0.0,0.53,0.0,-0.84,359.46,359.47,0.0,0.01,0
158.71562900,158715629,0.0,0.53,0.0,-0.84,359.47,359.48,0.0,0.01,0
158.81562200,158815622,0.0,0.53,0.0,-0.84,359.46,359.47,0.0,0.01,0
158.91560900,158915609,0.0,0.53,0.0,-0.84,359.46,359.47,0.0,0.01,0
159.01562100,159015621,0.0,0.53,0.0,-0.84,359.46,359.47,0.0,0.0,0
159.11564000,159115640,0.0,0.53,0.0,-0.84,359.44,359.45,0.0,0.01,0
159.21564700,159215647,0.0,0.53,0.0,-0.84,359.44,359.45,0.0,0.01,0
159.31558400,159315584,0.0,0.53,0.0,-0.84,359.41,359.42,0.0,0.01,0
159.41597400,159415974,0.0,0.53,0.0,-0.84,359.42,359.43,0.0,0.01,0
159.51558400,159515584,0.0,0.53,0.0,-0.84,359.43,359.44,0.0,0.01,0
159.61562600,159615626,0.0,0.52,0.0,-0.84,359.43,359.44,0.0,0.01,0
159.71560600,159715606,0.0,0.52,0.0,-0.84,359.41,359.42,0.0,0.01,0
159.81561700,159815617,0.0,0.52,0.0,-0.84,359.42,359.43,0.0,0.01,0
159.91559400,159915594,0.0,0.52,0.0,-0.84,359.43,359.44,0.0,0.01,0
160.01561000,160015610,0.0,0.52,0.0,-0.84,359.42,359.43,0.0,0.01,0
160.11559500,160115595,0.0,0.51,0.0,-0.84,359.43,359.44,0.0,0.01,0
160.21576100,160215761,0.0,0.51,0.0,-0.84,359.43,359.44,0.0,0.0,0
