timestamp,TimeUS,DesRoll,Roll,DesPitch,Pitch,DesYaw,Yaw,ErrRP,ErrYaw,AEKF
8.97135200,8971352,0.0,0.05,0.0,0.1,359.99,0.0,1.0,1.0,0
9.07099400,9070994,0.0,0.05,0.0,0.1,135.57,135.57,1.0,0.8,0
9.17106200,9171062,0.0,0.05,0.0,0.1,135.74,135.74,0.8,0.64,0
9.27101900,9271019,0.0,0.05,0.0,0.1,135.89000000000001,135.89000000000001,0.8,0.52,0
9.37107300,9371073,0.0,0.04,0.0,0.1,136.04,136.04,0.64,0.42,0
9.47105100,9471051,0.0,0.04,0.0,0.09,136.19,136.19,0.64,0.34,0
9.57109400,9571094,0.0,0.03,0.0,0.08,136.35,136.35,0.51,0.28,0
9.67116700,9671167,0.0,0.03,0.0,0.08,136.5,136.5,0.51,0.23,0
9.77122800,9771228,0.0,0.03,0.0,0.07,136.61,136.61,0.4,0.19,0
9.87109500,9871095,0.0,0.03,0.0,0.07,136.81,136.81,0.4,0.16,0
9.97108300,9971083,0.0,0.03,0.0,0.06,136.9,136.9,0.32,0.13,0
10.07105500,10071055,0.0,0.03,0.0,0.06,136.95000000000002,136.95000000000002,0.32,0.1,0
10.17110700,10171107,0.0,0.02,0.0,0.07,137.12,137.12,0.26,0.09,0
10.27118600,10271186,0.0,0.02,0.0,0.07,137.24,137.24,0.26,0.07,0
10.37117200,10371172,0.0,0.02,0.0,0.07,137.26,137.26,0.21,0.06,0
10.47122800,10471228,0.0,0.02,0.0,0.06,137.31,137.31,0.21,0.05,0
10.57125900,10571259,0.0,0.02,0.0,0.06,137.45000000000002,137.45000000000002,0.16,0.04,0
10.67128500,10671285,0.0,0.02,0.0,0.07,137.54,137.54,0.16,0.04,0
10.77117000,10771170,0.0,0.02,0.0,0.06,137.62,137.62,0.13,0.03,0
10.87112000,10871120,0.0,0.01,0.0,0.06,137.70000000000002,137.70000000000002,0.13,0.03,0
10.97137000,10971370,-0.48,-0.8300000000000001,0.04,0.13,359.99,0.0,0.1,0.02,3
11.07141900,11071419,-0.24,-0.8300000000000001,0.02,0.13,359.99,0.0,0.1,0.02,3
11.17155200,11171552,-0.12,-0.84,0.01,0.14,359.99,0.0,0.08,0.01,3
11.27149900,11271499,-0.06,-0.8300000000000001,0.0,0.14,359.99,0.0,0.08,0.01,3
11.37126700,11371267,-0.03,-0.8300000000000001,0.0,0.14,359.98,359.99,0.06,0.01,3
11.47134600,11471346,-0.01,-0.8300000000000001,0.0,0.14,359.99,0.0,0.06,0.01,3
11.57131700,11571317,0.0,-0.8300000000000001,0.0,0.15,359.98,359.99,0.05,0.01,3
11.67118700,11671187,0.0,-0.8300000000000001,0.0,0.14,359.98,359.99,0.05,0.06,3
11.77120300,11771203,0.0,-0.8300000000000001,0.0,0.14,359.97,359.98,0.04,0.09,3
11.87115400,11871154,0.0,-0.8200000000000001,0.0,0.14,359.97,359.98,0.04,0.08,3
11.97117200,11971172,0.0,-0.81,0.0,0.13,359.97,359.98,0.03,0.08,3
12.07124700,12071247,0.0,-0.79,0.0,0.12,359.97,359.98,0.03,0.07,3
12.17122600,12171226,0.0,-0.77,0.0,0.11,359.97,359.98,0.02,0.06,3
12.27124900,12271249,0.0,-0.75,0.0,0.1,359.97,359.98,0.02,0.05,3
12.37152100,12371521,0.0,-0.72,0.0,0.09,359.96,359.97,0.02,0.05,3
12.47132100,12471321,0.03,-0.67,0.0,0.07,138.86,138.86,0.02,0.05,3
12.57120800,12571208,0.01,-0.68,0.0,0.07,138.86,138.86,0.01,0.04,3
12.67120600,12671206,0.01,-0.68,0.0,0.07,138.87,138.87,0.01,0.04,3
12.77113400,12771134,0.0,-0.6900000000000001,0.0,0.07,138.86,138.86,0.01,0.03,3
12.87122200,12871222,0.0,-0.68,0.0,0.06,138.86,138.86,0.01,0.03,3
12.97124200,12971242,0.0,-0.68,0.0,0.06,138.85,138.85,0.01,0.03,3
13.07123000,13071230,0.0,-0.68,0.0,0.06,138.85,138.85,0.01,0.03,3
13.17127000,13171270,0.0,-0.68,0.0,0.07,138.86,138.86,0.0,0.02,3
13.27152000,13271520,0.0,-0.67,0.0,0.06,138.85,138.85,0.0,0.02,3
13.37153500,13371535,0.0,-0.67,0.0,0.07,138.83,138.83,0.0,0.02,3
13.47153900,13471539,0.0,-0.67,0.0,0.05,138.8,138.8,0.0,0.01,3
13.57119700,13571197,0.0,-0.66,0.0,0.05,138.75,138.75,0.0,0.02,3
13.67113200,13671132,0.0,-0.66,0.0,0.04,138.70000000000002,138.70000000000002,0.0,0.01,3
13.77118900,13771189,0.0,-0.65,0.0,0.05,138.65,138.65,0.0,0.01,3
13.87127800,13871278,0.0,-0.64,0.0,0.05,138.6,138.6,0.0,0.01,3
13.97127100,13971271,0.0,-0.63,0.0,0.04,138.57,138.57,0.0,0.01,3
14.07127100,14071271,0.0,-0.61,0.0,0.04,138.55,138.55,0.0,0.01,3
14.17133700,14171337,0.0,-0.6,0.0,0.04,138.54,138.54,0.0,0.01,3
14.27129300,14271293,0.0,-0.58,0.0,0.04,138.54,138.54,0.0,0.01,3
14.37153600,14371536,0.0,-0.5700000000000001,0.0,0.04,138.54,138.54,0.0,0.05,3
14.47122700,14471227,0.0,-0.55,0.0,0.04,138.42000000000002,138.42000000000002,0.0,0.1,3
14.57117900,14571179,0.0,-0.53,0.0,0.04,138.06,138.06,0.0,0.14,3
14.67120800,14671208,0.0,-0.52,0.0,0.03,137.45000000000002,137.45000000000002,0.0,0.16,3
14.77124500,14771245,0.0,-0.51,0.0,0.04,136.68,136.68,0.0,0.17,3
14.87124600,14871246,0.0,-0.49,0.0,0.05,135.79,135.79,0.0,0.14,3
14.97126700,14971267,0.0,-0.48,0.0,0.06,134.94,134.94,0.0,0.14,3
15.07133900,15071339,0.0,-0.47000000000000003,0.0,0.06,134.31,134.31,0.0,0.13,3
15.17132400,15171324,0.0,-0.46,0.0,0.07,133.94,133.94,0.0,0.12,3
15.27153800,15271538,0.0,-0.46,0.0,0.07,133.81,133.81,0.0,0.12,3
15.37119900,15371199,0.0,-0.45,0.0,0.07,133.85,133.85,0.0,0.11,3
15.47113500,15471135,0.0,-0.44,0.0,0.08,134.0,134.0,0.0,0.1,3
15.57119100,15571191,0.0,-0.44,0.0,0.08,134.21,134.21,0.0,0.09,3
15.67124400,15671244,0.0,-0.44,0.0,0.08,134.41,134.41,0.0,0.09,3
15.77122800,15771228,0.0,-0.44,0.0,0.09,134.61,134.61,0.0,0.08,3
15.87151100,15871511,0.0,-0.44,0.0,0.1,134.8,134.8,0.0,0.08,3
15.97150200,15971502,0.0,-0.43,0.0,0.09,134.97,134.97,0.0,0.07,3
16.07141500,16071415,0.0,-0.43,0.0,0.1,135.14000000000001,135.14000000000001,0.0,0.06,3
16.17128700,16171287,0.0,-0.43,0.0,0.1,135.29,135.29,0.0,0.06,3
16.27148200,16271482,0.0,-0.43,0.0,0.1,135.44,135.44,0.0,0.05,3
16.37140400,16371404,0.0,-0.43,0.0,0.1,135.58,135.58,0.0,0.05,3
16.47143300,16471433,0.0,-0.43,0.0,0.1,135.71,135.71,0.0,0.04,3
16.57149200,16571492,0.0,-0.43,0.0,0.09,135.83,135.83,0.0,0.04,3
16.67170800,16671708,0.0,-0.43,0.0,0.09,135.95,135.95,0.0,0.04,3
16.77144700,16771447,0.0,-0.43,0.0,0.09,136.09,136.09,0.0,0.04,3
16.87152500,16871525,0.0,-0.43,0.0,0.09,136.22,136.22,0.0,0.03,3
16.97151800,16971518,0.0,-0.44,0.0,0.09,136.35,136.35,0.0,0.03,3
17.07151300,17071513,0.0,-0.44,0.0,0.09,136.47,136.47,0.0,0.02,3
17.17151800,17171518,0.0,-0.44,0.0,0.09,136.58,136.58,0.0,0.02,3
17.27138200,17271382,0.0,-0.44,0.0,0.09,136.68,136.68,0.0,0.01,3
17.37143900,17371439,0.0,-0.44,0.0,0.09,136.76,136.76,0.0,0.01,3
17.47146300,17471463,0.0,-0.45,0.0,0.09,136.83,136.83,0.0,0.01,3
17.57141400,17571414,0.0,-0.45,0.0,0.09,136.9,136.9,0.0,0.02,3
17.67144600,17671446,0.0,-0.45,0.0,0.09,136.99,136.99,0.0,0.02,3
17.77148500,17771485,0.0,-0.45,0.0,0.09,137.08,137.08,0.0,0.01,3
17.87152400,17871524,0.0,-0.45,0.0,0.09,137.19,137.19,0.0,0.01,3
17.97170400,17971704,0.0,-0.45,0.0,0.09,137.3,137.3,0.0,0.01,3
18.07153300,18071533,0.0,-0.45,0.0,0.09,137.4,137.4,0.0,0.01,3
18.17112700,18171127,0.0,-0.45,0.0,0.09,137.5,137.5,0.0,0.01,3
18.27117700,18271177,0.0,-0.45,0.0,0.09,137.59,137.59,0.0,0.01,3
18.37123200,18371232,0.0,-0.45,0.0,0.09,137.68,137.68,0.0,0.0,3
18.47122200,18471222,0.0,-0.45,0.0,0.09,137.75,137.75,0.0,0.0,3
18.57126100,18571261,0.0,-0.45,0.0,0.08,137.82,137.82,0.0,0.0,3
18.67151800,18671518,0.0,-0.45,0.0,0.09,137.87,137.87,0.0,0.0,3
18.77155400,18771554,0.0,-0.45,0.0,0.09,137.93,137.93,0.0,0.0,3
18.87157700,18871577,0.0,-0.45,0.0,0.09,137.98,137.98,0.0,0.0,3
18.97120700,18971207,0.0,-0.45,0.0,0.09,138.03,138.03,0.0,0.0,3
19.07114400,19071144,0.0,-0.44,0.0,0.09,138.09,138.09,0.0,0.0,3
19.17118000,19171180,0.0,-0.44,0.0,0.09,138.16,138.16,0.0,0.0,3
19.27126000,19271260,0.0,-0.44,0.0,0.09,138.22,138.22,0.0,0.0,3
19.37123700,19371237,0.0,-0.44,0.0,0.09,138.29,138.29,0.0,0.0,3
19.47125800,19471258,0.0,-0.44,0.0,0.09,138.35,138.35,0.0,0.0,3
19.57134100,19571341,0.0,-0.44,0.0,0.09,138.42000000000002,138.42000000000002,0.0,0.0,3
19.67136300,19671363,0.0,-0.44,0.0,0.09,138.47,138.47,0.0,0.0,3
19.77123900,19771239,0.0,-0.44,0.0,0.09,138.52,138.52,0.0,0.0,3
19.87129800,19871298,0.0,-0.44,0.0,0.09,138.57,138.57,0.0,0.0,3
19.97111500,19971115,0.0,-0.44,0.0,0.09,138.61,138.61,0.0,0.0,3
20.07119400,20071194,0.0,-0.44,0.0,0.09,138.64000000000001,138.64000000000001,0.0,0.0,3
20.17124200,20171242,0.0,-0.44,0.0,0.08,138.68,138.68,0.0,0.0,3
20.27127600,20271276,0.0,-0.44,0.0,0.09,138.71,138.71,0.0,0.0,3
20.37127300,20371273,0.0,-0.44,0.0,0.09,138.75,138.75,0.0,0.0,3
20.47152400,20471524,0.0,-0.44,0.0,0.09,138.77,138.77,0.0,0.0,3
20.57154800,20571548,0.0,-0.44,0.0,0.08,138.79,138.79,0.0,0.0,3
20.67155100,20671551,0.0,-0.44,0.0,0.08,138.82,138.82,0.0,0.0,3
20.77123900,20771239,0.0,-0.45,0.0,0.08,138.84,138.84,0.0,0.0,3
20.87114400,20871144,0.0,-0.45,0.0,0.08,138.87,138.87,0.0,0.0,3
20.97116800,20971168,0.0,-0.45,0.0,0.08,138.89000000000001,138.89000000000001,0.0,0.0,3
21.07125300,21071253,0.0,-0.45,0.0,0.09,138.91,138.91,0.0,0.0,3
21.17124500,21171245,0.0,-0.45,0.0,0.08,138.94,138.94,0.0,0.0,3
21.27126800,21271268,0.0,-0.45,0.0,0.08,138.97,138.97,0.0,0.0,3
21.37135300,21371353,0.0,-0.45,0.0,0.08,138.99,138.99,0.0,0.0,3
21.47132000,21471320,0.0,-0.45,0.0,0.08,139.0,139.0,0.0,0.0,3
21.57121600,21571216,0.0,-0.46,0.0,0.08,139.01,139.01,0.0,0.0,3
21.67129400,21671294,0.0,-0.46,0.0,0.07,139.02,139.02,0.0,0.01,3
21.77112900,21771129,0.0,-0.46,0.0,0.07,139.03,139.03,0.0,0.0,3
21.87122900,21871229,0.0,-0.47000000000000003,0.0,0.08,139.04,139.04,0.0,0.0,3
21.97124900,21971249,0.0,-0.47000000000000003,0.0,0.08,139.04,139.04,0.0,0.0,3
22.07123500,22071235,0.0,-0.47000000000000003,0.0,0.07,139.04,139.04,0.0,0.0,3
22.17128300,22171283,0.0,-0.46,0.0,0.07,139.03,139.03,0.0,0.0,3
22.27151400,22271514,0.0,-0.46,0.0,0.07,139.03,139.03,0.0,0.0,3
22.37156300,22371563,0.0,-0.47000000000000003,0.0,0.07,139.03,139.03,0.0,0.0,3
22.47149600,22471496,0.0,-0.47000000000000003,0.0,0.07,139.04,139.04,0.0,0.0,3
22.57150700,22571507,0.0,-0.47000000000000003,0.0,0.07,139.05,139.05,0.0,0.0,3
22.67138200,22671382,0.0,-0.48,0.0,0.08,139.07,139.07,0.0,0.0,3
22.77144500,22771445,0.0,-0.47000000000000003,0.0,0.06,139.08,139.08,0.0,0.0,3
22.87185100,22871851,0.0,-0.48,0.0,0.07,139.1,139.1,0.0,0.0,3
22.97150200,22971502,0.0,-0.48,0.0,0.07,139.11,139.11,0.0,0.0,3
23.07125700,23071257,0.0,-0.48,0.0,0.06,139.12,139.12,0.0,0.0,3
23.17134700,23171347,0.0,-0.48,0.0,0.06,139.12,139.12,0.0,0.0,3
23.27154700,23271547,0.0,-0.48,0.0,0.06,139.13,139.13,0.0,0.0,3
23.37153000,23371530,0.0,-0.48,0.0,0.06,139.14000000000001,139.14000000000001,0.0,0.0,3
23.47154000,23471540,0.0,-0.48,0.0,0.06,139.16,139.16,0.0,0.0,3
23.57138700,23571387,0.0,-0.48,0.0,0.05,139.18,139.18,0.0,0.01,3
23.67147200,23671472,0.0,-0.48,0.0,0.06,139.18,139.18,0.0,0.0,3
23.77152200,23771522,0.0,-0.49,0.0,0.05,139.18,139.18,0.0,0.0,3
23.87150900,23871509,0.0,-0.49,0.0,0.05,139.18,139.18,0.0,0.0,3
23.97148600,23971486,0.0,-0.49,0.0,0.06,139.19,139.19,0.0,0.0,3
24.07151900,24071519,0.0,-0.49,0.0,0.05,139.19,139.19,0.0,0.0,3
24.17153500,24171535,0.0,-0.49,0.0,0.06,139.20000000000002,139.20000000000002,0.0,0.0,3
24.27150600,24271506,0.0,-0.48,0.0,0.06,139.20000000000002,139.20000000000002,0.0,0.0,3
24.37120500,24371205,0.0,-0.49,0.0,0.05,139.19,139.19,0.0,0.0,3
24.47115200,24471152,0.0,-0.48,0.0,0.05,139.19,139.19,0.0,0.0,3
24.57119800,24571198,0.0,-0.48,0.0,0.04,139.18,139.18,0.0,0.0,3
24.67126500,24671265,0.0,-0.48,0.0,0.04,139.16,139.16,0.0,0.0,3
24.77123100,24771231,0.0,-0.48,0.0,0.04,139.15,139.15,0.0,0.0,3
24.87128900,24871289,0.0,-0.48,0.0,0.04,139.14000000000001,139.14000000000001,0.0,0.0,3
24.97134500,24971345,0.0,-0.48,0.0,0.03,139.14000000000001,139.14000000000001,0.0,0.0,3
25.07130900,25071309,0.0,-0.48,0.0,0.03,139.14000000000001,139.14000000000001,0.0,0.01,3
25.17123100,25171231,0.0,-0.48,0.0,0.03,139.14000000000001,139.14000000000001,0.0,0.01,3
25.27119800,25271198,0.0,-0.48,0.0,0.02,139.13,139.13,0.0,0.01,3
25.37111600,25371116,0.0,-0.47000000000000003,0.0,0.03,139.12,139.12,0.0,0.0,3
25.47118600,25471186,0.0,-0.47000000000000003,0.0,0.02,139.11,139.11,0.0,0.0,3
25.57125800,25571258,0.0,-0.47000000000000003,0.0,0.02,139.11,139.11,0.0,0.0,3
25.67121200,25671212,0.0,-0.48,0.0,0.01,139.1,139.1,0.0,0.0,3
25.77125100,25771251,0.0,-0.47000000000000003,0.0,0.02,139.1,139.1,0.0,0.0,3
25.87153500,25871535,0.0,-0.47000000000000003,0.0,0.02,139.09,139.09,0.0,0.0,3
25.97152900,25971529,0.0,-0.48,0.0,0.02,139.08,139.08,0.0,0.0,3
26.07152800,26071528,0.0,-0.47000000000000003,0.0,0.01,139.08,139.08,0.0,0.0,3
26.17120400,26171204,0.0,-0.47000000000000003,0.0,0.01,139.08,139.08,0.0,0.0,3
26.27114200,26271142,0.0,-0.47000000000000003,0.0,0.01,139.08,139.08,0.0,0.0,3
26.37120300,26371203,0.0,-0.47000000000000003,0.0,0.01,139.09,139.09,0.0,0.0,3
26.47124600,26471246,0.0,-0.47000000000000003,0.0,0.01,139.1,139.1,0.0,0.0,3
26.57128000,26571280,0.0,-0.47000000000000003,0.0,0.01,139.1,139.1,0.0,0.0,3
26.67125600,26671256,0.0,-0.47000000000000003,0.0,0.01,139.11,139.11,0.0,0.0,3
26.77133900,26771339,0.0,-0.47000000000000003,0.0,0.01,139.12,139.12,0.0,0.0,3
26.87138000,26871380,0.0,-0.47000000000000003,0.0,0.01,139.12,139.12,0.0,0.0,3
26.97123500,26971235,0.0,-0.47000000000000003,0.0,0.0,139.13,139.13,0.0,0.0,3
27.07119700,27071197,0.0,-0.46,0.0,0.0,139.13,139.13,0.0,0.0,3
27.17138400,27171384,0.0,-0.47000000000000003,0.0,0.0,139.13,139.13,0.0,0.0,3
27.27146200,27271462,0.0,-0.47000000000000003,0.0,0.0,139.12,139.12,0.0,0.0,3
27.37124100,27371241,0.0,-0.47000000000000003,0.0,0.0,139.11,139.11,0.0,0.0,3
27.47123100,27471231,0.0,-0.47000000000000003,0.0,0.0,139.1,139.1,0.0,0.0,3
27.57125600,27571256,0.0,-0.46,0.0,0.0,139.1,139.1,0.0,0.0,3
27.67127900,27671279,0.0,-0.46,0.0,0.0,139.1,139.1,0.0,0.0,3
27.77131500,27771315,0.0,-0.47000000000000003,0.0,0.0,139.11,139.11,0.0,0.0,3
27.87155700,27871557,0.0,-0.46,0.0,0.0,139.11,139.11,0.0,0.0,3
27.97120400,27971204,0.0,-0.46,0.0,0.0,139.12,139.12,0.0,0.0,3
28.07114000,28071140,0.0,-0.46,0.0,0.0,139.12,139.12,0.0,0.0,3
28.17118800,28171188,0.0,-0.46,0.0,0.0,139.13,139.13,0.0,0.0,3
28.27126300,28271263,0.0,-0.46,0.0,0.0,139.14000000000001,139.14000000000001,0.0,0.0,3
28.37122900,28371229,0.0,-0.46,0.0,0.0,139.15,139.15,0.0,0.0,3
28.47126000,28471260,0.0,-0.46,0.0,0.0,139.16,139.16,0.0,0.0,3
28.57133900,28571339,0.0,-0.46,0.0,0.0,139.17000000000002,139.17000000000002,0.0,0.0,3
28.67143500,28671435,0.0,-0.46,0.0,0.0,139.17000000000002,139.17000000000002,0.0,0.0,3
28.77151400,28771514,0.0,-0.46,0.0,0.0,139.17000000000002,139.17000000000002,0.0,0.0,3
28.87155800,28871558,0.0,-0.45,0.0,0.0,139.17000000000002,139.17000000000002,0.0,0.0,3
28.97139900,28971399,0.0,-0.45,0.0,0.0,139.17000000000002,139.17000000000002,0.0,0.0,3
29.07146300,29071463,0.0,-0.45,0.0,0.0,139.16,139.16,0.0,0.0,3
29.17123200,29171232,0.0,-0.45,0.0,0.0,139.14000000000001,139.14000000000001,0.0,0.0,3
29.27121800,29271218,0.0,-0.45,0.0,0.0,139.13,139.13,0.0,0.0,3
29.37125700,29371257,0.0,-0.44,0.0,0.0,139.12,139.12,0.0,0.01,3
29.47133800,29471338,0.0,-0.44,0.0,0.0,139.11,139.11,0.0,0.0,3
29.57131800,29571318,0.0,-0.44,0.0,0.0,139.1,139.1,0.0,0.0,3
29.67120200,29671202,0.0,-0.44,0.0,0.0,139.09,139.09,0.0,0.0,3
29.77120700,29771207,0.0,-0.44,0.0,0.0,139.09,139.09,0.0,0.0,3
29.87144200,29871442,0.0,-0.43,0.0,0.0,139.08,139.08,0.0,0.0,3
29.97146900,29971469,0.0,-0.43,0.0,0.0,139.08,139.08,0.0,0.0,3
30.07124700,30071247,0.0,-0.43,0.0,0.0,139.08,139.08,0.0,0.0,3
30.17122200,30171222,0.0,-0.43,0.0,0.0,139.08,139.08,0.0,0.0,3
30.27123300,30271233,0.0,-0.43,0.0,0.0,139.08,139.08,0.0,0.0,3
30.37128400,30371284,0.0,-0.42,0.0,0.0,139.08,139.08,0.0,0.0,3
30.47130200,30471302,0.0,-0.42,0.0,0.0,139.08,139.08,0.0,0.0,3
30.57152300,30571523,0.0,-0.41000000000000003,0.0,0.0,139.09,139.09,0.0,0.0,3
30.67148800,30671488,0.0,-0.41000000000000003,0.0,0.0,139.09,139.09,0.0,0.0,3
30.77140500,30771405,0.0,-0.41000000000000003,0.0,0.01,139.1,139.1,0.0,0.0,3
30.87146100,30871461,0.0,-0.41000000000000003,0.0,0.01,139.11,139.11,0.0,0.0,3
30.97142900,30971429,0.0,-0.41000000000000003,0.0,0.02,139.11,139.11,0.0,0.0,3
31.07140100,31071401,0.0,-0.4,0.0,0.02,139.12,139.12,0.0,0.0,3
31.17142700,31171427,0.0,-0.4,0.0,0.02,139.11,139.11,0.0,0.0,3
31.27146200,31271462,0.0,-0.4,0.0,0.02,139.11,139.11,0.0,0.0,3
31.37150700,31371507,0.0,-0.4,0.0,0.02,139.1,139.1,0.0,0.0,3
31.47147800,31471478,0.0,-0.4,0.0,0.02,139.1,139.1,0.0,0.0,3
31.57148800,31571488,0.0,-0.4,0.0,0.02,139.11,139.11,0.0,0.0,3
31.67132100,31671321,0.0,-0.4,0.0,0.02,139.11,139.11,0.0,0.0,3
31.77135400,31771354,0.0,-0.39,0.0,0.02,139.11,139.11,0.0,0.0,3
31.87180500,31871805,0.0,-0.39,0.0,0.02,139.11,139.11,0.0,0.0,3
31.97143800,31971438,0.0,-0.39,0.0,0.02,139.11,139.11,0.0,0.0,3
32.07147600,32071476,0.0,-0.39,0.0,0.01,139.11,139.11,0.0,0.0,3
32.17149800,32171498,0.0,-0.4,0.0,0.01,139.12,139.12,0.0,0.0,3
32.27129600,32271296,0.0,-0.39,0.0,0.01,139.13,139.13,0.0,0.0,3
32.37118500,32371185,0.0,-0.39,0.0,0.02,139.13,139.13,0.0,0.0,3
32.47119900,32471199,0.0,-0.39,0.0,0.01,139.13,139.13,0.0,0.0,3
32.57110800,32571108,0.0,-0.39,0.0,0.01,139.12,139.12,0.0,0.0,3
32.67116800,32671168,0.0,-0.39,0.0,0.01,139.11,139.11,0.0,0.0,3
32.77122900,32771229,0.0,-0.39,0.0,0.01,139.11,139.11,0.0,0.0,3
32.87155100,32871551,0.0,-0.39,0.0,0.02,139.11,139.11,0.0,0.0,3
32.97146300,32971463,0.0,-0.39,0.0,0.02,139.1,139.1,0.0,0.0,3
33.07149500,33071495,0.0,-0.38,0.0,0.01,139.1,139.1,0.0,0.0,3
33.17152200,33171522,0.0,-0.38,0.0,0.01,139.09,139.09,0.0,0.0,3
33.27150500,33271505,0.0,-0.38,0.0,0.01,139.1,139.1,0.0,0.0,3
33.37154000,33371540,0.0,-0.38,0.0,0.01,139.09,139.09,0.0,0.0,3
33.47140700,33471407,0.0,-0.38,0.0,0.01,139.1,139.1,0.0,0.0,3
33.57145900,33571459,0.0,-0.39,0.0,0.01,139.1,139.1,0.0,0.0,3
33.67123100,33671231,0.0,-0.39,0.0,0.01,139.09,139.09,0.0,0.0,3
33.77121100,33771211,0.0,-0.39,0.0,0.01,139.09,139.09,0.0,0.0,3
33.87127500,33871275,0.0,-0.39,0.0,0.01,139.08,139.08,0.0,0.0,3
33.97127500,33971275,0.0,-0.39,0.0,0.01,139.07,139.07,0.0,0.0,3
34.07129800,34071298,0.0,-0.39,0.0,0.01,139.06,139.06,0.0,0.0,3
34.17150200,34171502,0.0,-0.39,0.0,0.0,139.05,139.05,0.0,0.0,3
34.27112100,34271121,0.0,-0.39,0.0,0.0,139.04,139.04,0.0,0.0,3
34.37111200,34371112,0.0,-0.39,0.0,0.0,139.04,139.04,0.0,0.0,3
34.47115200,34471152,0.0,-0.39,0.0,0.0,139.03,139.03,0.0,0.0,3
34.57122100,34571221,0.0,-0.39,0.0,0.0,139.03,139.03,0.0,0.0,3
34.67125600,34671256,0.0,-0.39,0.0,0.0,139.03,139.03,0.0,0.0,3
34.77124500,34771245,0.0,-0.39,0.0,0.0,139.03,139.03,0.0,0.0,3
34.87134800,34871348,0.0,-0.39,0.0,0.0,139.02,139.02,0.0,0.0,3
34.97137200,34971372,0.0,-0.39,0.0,-0.01,139.02,139.02,0.0,0.0,3
35.07126800,35071268,0.0,-0.38,0.0,-0.01,139.01,139.01,0.0,0.01,3
35.17119600,35171196,0.0,-0.38,0.0,-0.01,139.01,139.01,0.0,0.0,3
35.27111900,35271119,0.0,-0.38,0.0,-0.01,139.0,139.0,0.0,0.0,3
35.37118100,35371181,0.0,-0.37,0.0,0.0,139.0,139.0,0.0,0.0,3
35.47125000,35471250,0.0,-0.37,0.0,0.0,138.99,138.99,0.0,0.0,3
35.57120700,35571207,0.0,-0.37,0.0,0.0,138.99,138.99,0.0,0.0,3
35.67124800,35671248,0.0,-0.37,0.0,0.0,138.98,138.98,0.0,0.0,3
35.77127400,35771274,0.0,-0.37,0.0,-0.01,138.98,138.98,0.0,0.0,3
35.87137400,35871374,0.0,-0.37,0.0,-0.01,138.99,138.99,0.0,0.0,3
35.97151000,35971510,0.0,-0.36,0.0,-0.01,138.99,138.99,0.0,0.0,3
36.07121200,36071212,0.0,-0.36,0.0,-0.01,138.99,138.99,0.0,0.0,3
36.17111400,36171114,0.0,-0.36,0.0,-0.01,138.99,138.99,0.0,0.0,3
36.27116100,36271161,0.0,-0.36,0.0,-0.01,138.99,138.99,0.0,0.01,3
36.37123500,36371235,0.0,-0.36,0.0,-0.01,138.98,138.98,0.0,0.01,3
36.47120400,36471204,0.0,-0.36,0.0,-0.01,138.97,138.97,0.0,0.0,3
36.57125300,36571253,0.0,-0.36,0.0,-0.01,138.96,138.96,0.0,0.0,3
36.67150500,36671505,0.0,-0.36,0.0,-0.01,138.95000000000002,138.95000000000002,0.0,0.0,3
36.77131100,36771311,0.0,-0.36,0.0,-0.01,138.94,138.94,0.0,0.0,3
36.87123000,36871230,0.0,-0.36,0.0,-0.01,138.93,138.93,0.0,0.0,3
36.97119700,36971197,0.0,-0.36,0.0,-0.01,138.93,138.93,0.0,0.0,3
37.07111300,37071113,0.0,-0.35000000000000003,0.0,-0.01,138.93,138.93,0.0,0.0,3
37.17117300,37171173,0.0,-0.35000000000000003,0.0,-0.01,138.92000000000002,138.92000000000002,0.0,0.0,3
37.27151700,37271517,0.0,-0.35000000000000003,0.0,-0.01,138.91,138.91,0.0,0.0,3
37.37121100,37371211,0.0,-0.35000000000000003,0.0,-0.01,138.91,138.91,0.0,0.0,3
37.47124700,37471247,0.0,-0.34,0.0,-0.01,138.9,138.9,0.0,0.0,3
37.57128100,37571281,0.0,-0.34,0.0,-0.01,138.9,138.9,0.0,0.0,3
37.67130000,37671300,0.0,-0.34,0.0,-0.01,138.9,138.9,0.0,0.0,3
37.77119300,37771193,0.0,-0.34,0.0,-0.01,138.9,138.9,0.0,0.0,3
37.87155400,37871554,0.0,-0.34,0.0,0.0,138.9,138.9,0.0,0.0,3
37.97139700,37971397,0.0,-0.34,0.0,0.0,138.9,138.9,0.0,0.0,3
38.07142200,38071422,0.0,-0.34,0.0,0.0,138.91,138.91,0.0,0.0,3
38.17147100,38171471,0.0,-0.34,0.0,0.0,138.91,138.91,0.0,0.0,3
38.27140700,38271407,0.0,-0.34,0.0,0.0,138.91,138.91,0.0,0.0,3
38.37145700,38371457,0.0,-0.33,0.0,0.0,138.91,138.91,0.0,0.0,3
38.47165300,38471653,0.0,-0.33,0.0,0.0,138.91,138.91,0.0,0.0,3
38.57129400,38571294,0.0,-0.33,0.0,-0.01,138.91,138.91,0.0,0.0,3
38.67119500,38671195,0.0,-0.33,0.0,-0.01,138.92000000000002,138.92000000000002,0.0,0.0,3
38.77153700,38771537,0.0,-0.33,0.0,-0.01,138.92000000000002,138.92000000000002,0.0,0.0,3
38.87140100,38871401,0.0,-0.33,0.0,-0.01,138.92000000000002,138.92000000000002,0.0,0.0,3
38.97145800,38971458,0.0,-0.32,0.0,0.0,138.92000000000002,138.92000000000002,0.0,0.0,3
39.07179900,39071799,0.0,-0.32,0.0,0.0,138.92000000000002,138.92000000000002,0.0,0.0,3
39.17152100,39171521,0.0,-0.33,0.0,0.0,138.92000000000002,138.92000000000002,0.0,0.0,3
39.27124500,39271245,0.0,-0.32,0.0,0.0,138.92000000000002,138.92000000000002,0.0,0.0,3
39.37127700,39371277,0.0,-0.32,0.0,0.0,138.92000000000002,138.92000000000002,0.0,0.0,3
39.47129700,39471297,0.0,-0.32,0.0,0.0,138.91,138.91,0.0,0.0,3
39.57118600,39571186,0.0,-0.32,0.0,0.0,138.9,138.9,0.0,0.0,3
39.67118700,39671187,0.0,-0.32,0.0,0.0,138.89000000000001,138.89000000000001,0.0,0.0,3
39.77140500,39771405,0.0,-0.32,0.0,0.0,138.89000000000001,138.89000000000001,0.0,0.0,3
39.87120200,39871202,0.0,-0.32,0.0,0.0,138.88,138.88,0.0,0.0,3
39.97123000,39971230,0.0,-0.32,0.0,0.0,138.88,138.88,0.0,0.0,3
40.07121100,40071211,0.0,-0.31,0.0,0.0,138.87,138.87,0.0,0.0,3
40.17125100,40171251,0.0,-0.31,0.0,0.0,138.87,138.87,0.0,0.0,3
40.27128000,40271280,0.0,-0.32,0.0,0.0,138.86,138.86,0.0,0.0,3
40.37129500,40371295,0.0,-0.32,0.0,0.0,138.86,138.86,0.0,0.0,3
40.47149800,40471498,0.0,-0.31,0.0,0.0,138.85,138.85,0.0,0.0,3
40.57152100,40571521,0.0,-0.31,0.0,0.0,138.84,138.84,0.0,0.01,3
40.67137900,40671379,0.0,-0.31,0.0,0.0,138.84,138.84,0.0,0.01,3
40.77144900,40771449,0.0,-0.3,0.0,0.0,138.83,138.83,0.0,0.01,3
40.87124700,40871247,0.0,-0.3,0.0,0.0,138.83,138.83,0.0,0.0,3
40.97120700,40971207,0.0,-0.31,0.0,0.0,138.82,138.82,0.0,0.0,3
41.07123800,41071238,0.0,-0.31,0.0,0.0,138.82,138.82,0.0,0.0,3
41.17128500,41171285,0.0,-0.3,0.0,0.0,138.81,138.81,0.0,0.0,3
41.27140000,41271400,0.0,-0.3,0.0,0.0,138.81,138.81,0.0,0.0,3
41.37152800,41371528,0.0,-0.3,0.0,0.0,138.81,138.81,0.0,0.01,3
41.47109800,41471098,0.0,-0.3,0.0,0.0,138.81,138.81,0.0,0.01,3
41.57105700,41571057,0.0,-0.3,0.0,0.0,138.81,138.81,0.0,0.0,3
41.67116900,41671169,0.0,-0.3,0.0,0.0,138.8,138.8,0.0,0.0,3
41.77124300,41771243,0.0,-0.3,0.0,0.0,138.8,138.8,0.0,0.01,3
41.87123100,41871231,0.0,-0.3,0.0,0.0,138.79,138.79,0.0,0.01,3
41.97146500,41971465,0.0,-0.3,0.0,0.0,138.78,138.78,0.0,0.0,3
42.07157700,42071577,0.0,-0.3,0.0,0.0,138.78,138.78,0.0,0.0,3
42.17129100,42171291,0.0,-0.3,0.0,0.0,138.78,138.78,0.0,0.0,3
42.27117800,42271178,0.0,-0.29,0.0,0.0,138.78,138.78,0.0,0.0,3
42.37119800,42371198,0.0,-0.29,0.0,0.0,138.77,138.77,0.0,0.0,3
42.47110800,42471108,0.0,-0.29,0.0,0.0,138.77,138.77,0.0,0.0,3
42.57117900,42571179,0.0,-0.29,0.0,0.0,138.76,138.76,0.0,0.0,3
42.67120800,42671208,0.0,-0.29,0.0,0.0,138.76,138.76,0.0,0.0,3
42.77120200,42771202,0.0,-0.29,0.0,0.0,138.76,138.76,0.0,0.0,3
42.87126400,42871264,0.0,-0.29,0.0,0.0,138.76,138.76,0.0,0.0,3
42.97150200,42971502,0.0,-0.29,0.0,0.0,138.75,138.75,0.0,0.0,3
43.07152800,43071528,0.0,-0.29,0.0,0.0,138.75,138.75,0.0,0.0,3
43.17151900,43171519,0.0,-0.29,0.0,0.0,138.74,138.74,0.0,0.01,3
43.27119800,43271198,0.0,-0.28,0.0,0.0,138.73,138.73,0.0,0.0,3
43.37111700,43371117,0.0,-0.27,0.0,0.0,138.73,138.73,0.0,0.0,3
43.47116500,43471165,0.0,-0.27,0.0,0.0,138.72,138.72,0.0,0.0,3
43.57123900,43571239,0.0,-0.27,0.0,0.0,138.71,138.71,0.0,0.0,3
43.67120700,43671207,0.0,-0.27,0.0,0.0,138.71,138.71,0.0,0.0,3
43.77124500,43771245,0.0,-0.27,0.0,0.0,138.71,138.71,0.0,0.0,3
43.87135000,43871350,0.0,-0.27,0.0,0.0,138.71,138.71,0.0,0.0,3
43.97130600,43971306,0.0,-0.27,0.0,0.0,138.71,138.71,0.0,0.0,3
44.07119900,44071199,0.0,-0.26,0.0,0.0,138.70000000000002,138.70000000000002,0.0,0.0,3
44.17119100,44171191,0.0,-0.26,0.0,0.0,138.70000000000002,138.70000000000002,0.0,0.0,3
44.27139200,44271392,0.0,-0.26,0.0,0.0,138.69,138.69,0.0,0.0,3
44.37143600,44371436,0.0,-0.26,0.0,0.0,138.69,138.69,0.0,0.0,3
44.47124100,44471241,0.0,-0.26,0.0,0.0,138.69,138.69,0.0,0.0,3
44.57120800,44571208,0.0,-0.26,0.0,0.0,138.69,138.69,0.0,0.0,3
44.67124900,44671249,0.0,-0.26,0.0,0.0,138.68,138.68,0.0,0.0,3
44.77128900,44771289,0.0,-0.26,0.0,0.0,138.68,138.68,0.0,0.0,3
44.87138300,44871383,0.0,-0.26,0.0,0.0,138.68,138.68,0.0,0.0,3
44.97150500,44971505,0.0,-0.26,0.0,0.0,138.68,138.68,0.0,0.0,3
45.07152500,45071525,0.0,-0.26,0.0,0.0,138.68,138.68,0.0,0.01,3
45.17143200,45171432,0.0,-0.25,0.0,0.0,138.67000000000002,138.67000000000002,0.0,0.0,3
45.27145600,45271456,0.0,-0.25,0.0,0.0,138.67000000000002,138.67000000000002,0.0,0.0,3
45.37121800,45371218,0.0,-0.25,0.0,0.0,138.66,138.66,0.0,0.0,3
45.47127700,45471277,0.0,-0.25,0.0,0.0,138.66,138.66,0.0,0.0,3
45.57126100,45571261,0.0,-0.24,0.0,0.0,138.66,138.66,0.0,0.0,3
45.67134500,45671345,0.0,-0.24,0.0,0.0,138.66,138.66,0.0,0.0,3
45.77129200,45771292,0.0,-0.24,0.0,0.0,138.66,138.66,0.0,0.0,3
45.87131000,45871310,0.0,-0.24,0.0,0.0,138.66,138.66,0.0,0.0,3
45.97120300,45971203,0.0,-0.24,0.14,0.0,138.66,138.66,0.0,0.0,3
46.07139300,46071393,0.0,-0.24,0.07,0.0,138.66,138.66,0.0,0.0,3
46.17118000,46171180,0.0,-0.24,0.03,0.0,138.65,138.65,0.0,0.0,3
46.27124900,46271249,0.0,-0.24,0.01,0.0,138.65,138.65,0.0,0.0,3
46.37122100,46371221,0.0,-0.23,0.0,0.0,138.64000000000001,138.64000000000001,0.0,0.0,3
46.47125400,46471254,0.0,-0.24,0.0,0.0,138.64000000000001,138.64000000000001,0.0,0.0,3
46.57133800,46571338,0.0,-0.24,0.0,0.0,138.64000000000001,138.64000000000001,0.0,0.0,3
46.67130200,46671302,0.0,-0.24,0.0,0.01,138.64000000000001,138.64000000000001,0.0,0.0,3
46.77153800,46771538,0.0,-0.24,0.0,0.01,138.65,138.65,0.0,0.0,3
46.87155600,46871556,0.0,-0.24,0.0,0.01,138.65,138.65,0.0,0.0,3
46.97139100,46971391,0.0,-0.24,0.0,0.01,138.65,138.65,0.0,0.0,3
47.07145400,47071454,0.0,-0.24,0.0,0.01,138.65,138.65,0.0,0.01,3
47.17123300,47171233,0.0,-0.24,0.0,0.01,138.64000000000001,138.64000000000001,0.0,0.0,3
47.27120700,47271207,0.0,-0.24,0.0,0.01,138.63,138.63,0.0,0.0,3
47.37124900,47371249,0.0,-0.24,0.0,0.02,138.63,138.63,0.0,0.0,3
47.47128900,47471289,0.0,-0.24,0.0,0.02,138.62,138.62,0.0,0.0,3
47.57142100,47571421,0.0,-0.24,0.0,0.02,138.62,138.62,0.0,0.0,3
47.67119900,47671199,0.0,-0.24,0.0,0.02,138.62,138.62,0.0,0.0,3
47.77148100,47771481,0.0,-0.24,0.0,0.02,138.62,138.62,0.0,0.0,3
47.87143000,47871430,0.0,-0.24,0.0,0.02,138.62,138.62,0.0,0.0,3
47.97143800,47971438,0.0,-0.24,0.0,0.02,138.62,138.62,0.0,0.0,3
48.07176600,48071766,0.0,-0.24,0.0,0.02,138.62,138.62,0.0,0.01,3
48.17143200,48171432,0.0,-0.23,0.0,0.02,138.62,138.62,0.0,0.01,3
48.27167900,48271679,0.0,-0.23,0.0,0.02,138.62,138.62,0.0,0.01,3
48.37168900,48371689,0.0,-0.23,0.0,0.01,138.61,138.61,0.0,0.01,3
48.47152000,48471520,0.0,-0.23,0.0,0.01,138.61,138.61,0.0,0.01,3
48.57152700,48571527,0.0,-0.23,0.0,0.0,138.6,138.6,0.0,0.0,3
48.67156000,48671560,0.0,-0.22,0.0,0.0,138.6,138.6,0.0,0.0,3
48.77141100,48771411,0.0,-0.22,0.0,0.01,138.59,138.59,0.0,0.0,3
48.87147900,48871479,0.0,-0.22,0.0,0.01,138.59,138.59,0.0,0.0,3
48.97154100,48971541,0.0,-0.22,0.0,0.01,138.59,138.59,0.0,0.0,3
49.07143300,49071433,0.0,-0.22,0.0,0.0,138.59,138.59,0.0,0.0,3
49.17148900,49171489,0.0,-0.22,0.0,0.0,138.59,138.59,0.0,0.01,3
49.27151100,49271511,0.0,-0.21,0.0,0.0,138.59,138.59,0.0,0.0,3
49.37131300,49371313,0.0,-0.21,0.0,0.0,138.58,138.58,0.0,0.0,3
49.47119700,49471197,0.0,-0.21,0.0,0.0,138.57,138.57,0.0,0.0,3
49.57120400,49571204,0.0,-0.21,0.0,0.0,138.56,138.56,0.0,0.01,3
49.67113400,49671134,0.0,-0.2,0.0,0.0,138.56,138.56,0.0,0.01,3
49.77117700,49771177,0.0,-0.2,0.0,0.0,138.55,138.55,0.0,0.01,3
49.87127100,49871271,0.0,-0.2,0.0,0.0,138.54,138.54,0.0,0.0,3
49.97122500,49971225,0.0,-0.2,0.0,0.0,138.53,138.53,0.0,0.0,3
50.07124800,50071248,0.0,-0.2,0.0,0.0,138.53,138.53,0.0,0.0,3
50.17127400,50171274,0.0,-0.2,0.0,0.0,138.52,138.52,0.0,0.0,3
50.27129500,50271295,0.0,-0.2,0.0,0.0,138.52,138.52,0.0,0.0,3
50.37119500,50371195,0.0,-0.2,0.0,0.0,138.52,138.52,0.0,0.0,3
50.47120000,50471200,0.0,-0.2,0.0,0.0,138.52,138.52,0.0,0.0,3
50.57116200,50571162,0.0,-0.19,0.0,0.0,138.51,138.51,0.0,0.0,3
50.67119500,50671195,0.0,-0.19,0.0,0.0,138.51,138.51,0.0,0.0,3
50.77124400,50771244,0.0,-0.19,0.0,0.0,138.5,138.5,0.0,0.01,3
50.87125000,50871250,0.0,-0.19,0.0,0.0,138.5,138.5,0.0,0.0,3
50.97126900,50971269,0.0,-0.19,0.0,0.0,138.49,138.49,0.0,0.0,3
51.07134500,51071345,0.0,-0.19,0.0,0.0,138.48,138.48,0.0,0.01,3
51.17132200,51171322,0.0,-0.19,0.0,0.0,138.48,138.48,0.0,0.0,3
51.27151800,51271518,0.0,-0.19,0.0,0.0,138.48,138.48,0.0,0.0,3
51.37151400,51371514,0.0,-0.19,0.0,0.0,138.47,138.47,0.0,0.0,3
51.47110400,51471104,0.0,-0.18,0.0,0.0,138.47,138.47,0.0,0.0,3
51.57118600,51571186,0.0,-0.18,0.0,0.0,138.47,138.47,0.0,0.0,3
51.67124600,51671246,0.0,-0.18,0.0,0.0,138.46,138.46,0.0,0.0,3
51.77128200,51771282,0.0,-0.18,0.0,0.0,138.46,138.46,0.0,0.0,3
51.87134000,51871340,0.0,-0.18,0.0,-0.01,138.46,138.46,0.0,0.0,3
51.97150900,51971509,0.0,-0.18,0.0,-0.01,138.46,138.46,0.0,0.0,3
52.07129100,52071291,0.0,-0.18,0.0,-0.01,138.46,138.46,0.0,0.0,3
52.17120800,52171208,0.0,-0.18,0.0,-0.01,138.45000000000002,138.45000000000002,0.0,0.0,3
52.27150500,52271505,0.0,-0.18,0.0,-0.02,138.45000000000002,138.45000000000002,0.0,0.0,3
52.37138500,52371385,0.0,-0.17,0.0,-0.02,138.44,138.44,0.0,0.0,3
52.47142900,52471429,0.0,-0.18,0.0,-0.02,138.44,138.44,0.0,0.0,3
52.57151100,52571511,0.0,-0.17,0.0,-0.02,138.43,138.43,0.0,0.0,3
52.67143200,52671432,0.0,-0.17,0.0,-0.02,138.42000000000002,138.42000000000002,0.0,0.0,3
52.77145100,52771451,0.0,-0.17,0.0,-0.02,138.42000000000002,138.42000000000002,0.0,0.0,3
52.87151300,52871513,0.0,-0.18,0.0,-0.02,138.42000000000002,138.42000000000002,0.0,0.0,3
52.97150400,52971504,0.0,-0.17,0.0,-0.02,138.41,138.41,0.0,0.0,3
53.07164200,53071642,0.0,-0.17,0.0,-0.01,138.41,138.41,0.0,0.0,3
53.17120400,53171204,0.0,-0.17,0.0,-0.01,138.4,138.4,0.0,0.0,3
53.27111600,53271116,0.0,-0.17,0.0,-0.01,138.4,138.4,0.0,0.0,3
53.37115400,53371154,0.0,-0.17,0.0,-0.01,138.4,138.4,0.0,0.0,3
53.47123900,53471239,0.0,-0.17,0.0,-0.01,138.39000000000001,138.39000000000001,0.0,0.0,3
53.57124200,53571242,0.0,-0.17,0.0,-0.01,138.39000000000001,138.39000000000001,0.0,0.0,3
53.67125800,53671258,0.0,-0.17,0.0,-0.01,138.39000000000001,138.39000000000001,0.0,0.0,3
53.77133900,53771339,0.0,-0.17,0.0,-0.01,138.39000000000001,138.39000000000001,0.0,0.0,3
53.87145800,53871458,0.0,-0.17,0.0,-0.01,138.38,138.38,0.0,0.0,3
53.97121900,53971219,0.0,-0.17,0.0,-0.01,138.38,138.38,0.0,0.0,3
54.07119100,54071191,0.0,-0.17,0.0,-0.01,138.37,138.37,0.0,0.0,3
54.17112600,54171126,0.0,-0.17,0.0,-0.01,138.37,138.37,0.0,0.0,3
54.27145600,54271456,0.0,-0.17,0.0,-0.02,138.37,138.37,0.0,0.0,3
54.37123600,54371236,0.0,-0.16,0.0,-0.01,138.37,138.37,0.0,0.0,3
54.47122600,54471226,0.0,-0.16,0.0,-0.01,138.37,138.37,0.0,0.0,3
54.57126500,54571265,0.0,-0.16,0.0,-0.02,138.36,138.36,0.0,0.0,3
54.67134600,54671346,0.0,-0.16,0.0,-0.01,138.36,138.36,0.0,0.0,3
54.77131400,54771314,0.0,-0.15,0.0,-0.02,138.36,138.36,0.0,0.0,3
54.87129500,54871295,0.0,-0.15,0.0,-0.02,138.36,138.36,0.0,0.0,3
54.97119900,54971199,0.0,-0.16,0.0,-0.02,138.35,138.35,0.0,0.0,3
55.07138800,55071388,0.0,-0.16,0.0,-0.01,138.35,138.35,0.0,0.0,3
55.17145200,55171452,0.0,-0.15,0.0,-0.01,138.35,138.35,0.0,0.0,3
55.27125000,55271250,0.0,-0.15,0.0,0.0,138.35,138.35,0.0,0.0,3
55.37122100,55371221,0.0,-0.15,0.0,0.0,138.35,138.35,0.0,0.0,3
55.47126000,55471260,0.0,-0.16,0.0,0.0,138.35,138.35,0.0,0.0,3
55.57135500,55571355,0.0,-0.15,0.0,0.0,138.36,138.36,0.0,0.0,3
55.67130200,55671302,0.0,-0.15,0.0,0.0,138.36,138.36,0.0,0.0,3
55.77176400,55771764,0.0,-0.15,0.0,0.0,138.36,138.36,0.0,0.0,3
55.87160300,55871603,0.0,-0.15,0.0,0.0,138.36,138.36,0.0,0.0,3
55.97146000,55971460,0.0,-0.15,0.0,0.0,138.36,138.36,0.0,0.0,3
56.07145400,56071454,0.0,-0.15,0.0,0.01,138.36,138.36,0.0,0.0,3
56.17123000,56171230,0.0,-0.15,0.0,0.01,138.36,138.36,0.0,0.0,3
56.27120100,56271201,0.0,-0.15,0.0,0.01,138.35,138.35,0.0,0.01,3
56.37125500,56371255,0.0,-0.15,0.0,0.01,138.34,138.34,0.0,0.01,3
56.47132700,56471327,0.0,-0.15,0.0,0.01,138.33,138.33,0.0,0.01,3
56.57131200,56571312,0.0,-0.15,0.0,0.01,138.32,138.32,0.0,0.0,3
56.67130500,56671305,0.0,-0.15,0.0,0.02,138.31,138.31,0.0,0.0,3
56.77119900,56771199,0.0,-0.15,0.0,0.02,138.31,138.31,0.0,0.0,3
56.87143000,56871430,0.0,-0.15,0.0,0.02,138.3,138.3,0.0,0.0,3
56.97146100,56971461,0.0,-0.15,0.0,0.02,138.3,138.3,0.0,0.0,3
57.07153700,57071537,0.0,-0.15,0.0,0.02,138.3,138.3,0.0,0.0,3
57.17144100,57171441,0.0,-0.15,0.0,0.02,138.29,138.29,0.0,0.0,3
57.27147000,57271470,0.0,-0.15,0.0,0.02,138.29,138.29,0.0,0.01,3
57.37149300,57371493,0.0,-0.15,0.0,0.02,138.29,138.29,0.0,0.0,3
57.47152200,57471522,0.0,-0.15,0.0,0.02,138.28,138.28,0.0,0.0,3
57.57153200,57571532,0.0,-0.15,0.0,0.02,138.28,138.28,0.0,0.0,3
57.67151800,57671518,0.0,-0.15,0.0,0.02,138.27,138.27,0.0,0.0,3
57.77175900,57771759,0.0,-0.15,0.0,0.02,138.27,138.27,0.0,0.0,3
57.87149000,57871490,0.0,-0.15,0.0,0.02,138.27,138.27,0.0,0.0,3
57.97124100,57971241,0.0,-0.15,0.0,0.02,138.27,138.27,0.0,0.0,3
58.07127100,58071271,0.0,-0.15,0.0,0.01,138.27,138.27,0.0,0.0,3
58.17125300,58171253,0.0,-0.15,0.0,0.01,138.26,138.26,0.0,0.0,3
58.27128000,58271280,0.0,-0.15,0.0,0.01,138.26,138.26,0.0,0.0,3
58.37131700,58371317,0.0,-0.15,0.0,0.01,138.25,138.25,0.0,0.0,3
58.47128800,58471288,0.0,-0.15,0.0,0.01,138.24,138.24,0.0,0.0,3
58.57119700,58571197,0.0,-0.15,0.0,0.01,138.24,138.24,0.0,0.0,3
58.67140200,58671402,0.0,-0.15,0.0,0.01,138.23,138.23,0.0,0.0,3
58.77145100,58771451,0.0,-0.15,0.0,0.0,138.23,138.23,0.0,0.0,3
58.87125500,58871255,0.0,-0.15,0.0,0.0,138.23,138.23,0.0,0.0,3
58.97120600,58971206,0.0,-0.15,0.0,0.0,138.23,138.23,0.0,0.0,3
59.07123900,59071239,0.0,-0.16,0.0,0.0,138.23,138.23,0.0,0.0,3
59.17128800,59171288,0.0,-0.16,0.0,0.0,138.23,138.23,0.0,0.0,3
59.27131600,59271316,0.0,-0.16,0.0,0.01,138.23,138.23,0.0,0.0,3
59.37119100,59371191,0.0,-0.16,0.0,0.01,138.23,138.23,0.0,0.0,3
59.47119800,59471198,0.0,-0.16,0.0,0.0,138.23,138.23,0.0,0.0,3
59.57140400,59571404,0.0,-0.16,0.0,0.0,138.23,138.23,0.0,0.0,3
59.67144400,59671444,0.0,-0.16,0.0,0.01,138.23,138.23,0.0,0.0,3
59.77124800,59771248,0.0,-0.16,0.0,0.01,138.23,138.23,0.0,0.0,3
59.87124700,59871247,0.0,-0.16,0.0,0.01,138.23,138.23,0.0,0.0,3
59.97124700,59971247,0.0,-0.16,0.0,0.0,138.23,138.23,0.0,0.0,3
60.07127900,60071279,0.0,-0.16,0.0,0.0,138.23,138.23,0.0,0.0,3
60.17136100,60171361,0.0,-0.16,0.0,0.0,138.22,138.22,0.0,0.0,3
60.27152800,60271528,0.0,-0.16,0.0,0.0,138.22,138.22,0.0,0.0,3
60.37153100,60371531,0.0,-0.16,0.0,0.01,138.22,138.22,0.0,0.0,3
60.47138700,60471387,0.0,-0.16,0.0,0.01,138.22,138.22,0.0,0.0,3
60.57145000,60571450,0.0,-0.16,0.0,0.01,138.22,138.22,0.0,0.01,3
60.67123400,60671234,0.0,-0.16,0.0,0.01,138.22,138.22,0.0,0.01,3
60.77121400,60771214,0.0,-0.16,0.0,0.01,138.23,138.23,0.0,0.01,3
60.87127000,60871270,0.0,-0.17,0.0,0.01,138.23,138.23,0.0,0.01,3
60.97127800,60971278,0.0,-0.17,0.0,0.01,138.23,138.23,0.0,0.01,3
61.07130900,61071309,0.0,-0.17,0.0,0.0,138.24,138.24,0.0,0.0,3
61.17154400,61171544,0.0,-0.17,0.0,0.01,138.24,138.24,0.0,0.0,3
61.27110600,61271106,0.0,-0.17,0.0,0.0,138.24,138.24,0.0,0.0,3
61.37112900,61371129,0.0,-0.17,0.0,0.0,138.24,138.24,0.0,0.0,3
61.47118300,61471183,0.0,-0.17,0.0,0.01,138.24,138.24,0.0,0.0,3
61.57124000,61571240,0.0,-0.18,0.0,0.0,138.24,138.24,0.0,0.0,3
61.67120500,61671205,0.0,-0.18,0.0,0.01,138.24,138.24,0.0,0.01,3
61.77147000,61771470,0.0,-0.18,0.0,0.01,138.23,138.23,0.0,0.0,3
61.87152900,61871529,0.0,-0.18,0.0,0.01,138.22,138.22,0.0,0.0,3
61.97129300,61971293,0.0,-0.19,0.0,0.01,138.21,138.21,0.0,0.0,3
62.07118900,62071189,0.0,-0.19,0.0,0.01,138.20000000000002,138.20000000000002,0.0,0.0,3
62.17110400,62171104,0.0,-0.19,0.0,0.0,138.20000000000002,138.20000000000002,0.0,0.0,3
62.27113900,62271139,0.0,-0.19,0.0,0.0,138.19,138.19,0.0,0.0,3
62.37118200,62371182,0.0,-0.19,0.0,0.0,138.19,138.19,0.0,0.0,3
62.47125600,62471256,0.0,-0.19,0.0,0.0,138.18,138.18,0.0,0.0,3
62.57141900,62571419,0.0,-0.19,0.0,0.0,138.18,138.18,0.0,0.0,3
62.67145600,62671456,0.0,-0.18,0.0,0.0,138.18,138.18,0.0,0.0,3
62.77148200,62771482,0.0,-0.18,0.0,0.0,138.17000000000002,138.17000000000002,0.0,0.0,3
62.87152400,62871524,0.0,-0.19,0.0,0.0,138.17000000000002,138.17000000000002,0.0,0.0,3
62.97166200,62971662,0.0,-0.2,0.0,0.0,138.17000000000002,138.17000000000002,0.0,0.0,3
63.07120300,63071203,0.0,-0.2,0.0,0.0,138.17000000000002,138.18,0.0,0.0,3
63.17110900,63171109,0.0,-0.2,0.0,0.0,138.18,138.18,0.0,0.0,3
63.27117300,63271173,0.0,-0.2,0.0,0.0,138.18,138.18,0.0,0.0,3
63.37124300,63371243,0.0,-0.19,0.0,0.0,138.18,138.18,0.0,0.0,3
63.47122800,63471228,0.0,-0.19,0.0,0.0,138.19,138.19,0.0,0.0,3
63.57126800,63571268,0.0,-0.19,0.0,0.0,138.19,138.19,0.0,0.0,3
63.67154100,63671541,0.0,-0.19,0.0,0.0,138.19,138.19,0.0,0.0,3
63.77132400,63771324,0.0,-0.19,0.0,0.01,138.19,138.19,0.0,0.0,3
63.87130600,63871306,0.0,-0.19,0.0,0.01,138.19,138.19,0.0,0.0,3
63.97119200,63971192,0.0,-0.19,0.0,0.01,138.19,138.19,0.0,0.0,3
64.07111700,64071117,0.0,-0.19,0.0,0.01,138.18,138.18,0.0,0.0,3
64.17120500,64171205,0.0,-0.19,0.0,0.01,138.18,138.18,0.0,0.0,3
64.27153700,64271537,0.0,-0.19,0.0,0.01,138.18,138.18,0.0,0.0,3
64.37153500,64371535,0.0,-0.19,0.0,0.01,138.19,138.19,0.0,0.0,3
64.47125900,64471259,0.0,-0.19,0.0,0.02,138.19,138.19,0.0,0.0,3
64.57129000,64571290,0.0,-0.19,0.0,0.02,138.19,138.19,0.0,0.0,3
64.67131800,64671318,0.0,-0.19,0.0,0.02,138.20000000000002,138.20000000000002,0.0,0.0,3
64.77136300,64771363,0.0,-0.19,0.0,0.01,138.20000000000002,138.20000000000002,0.0,0.0,3
64.87129700,64871297,0.0,-0.19,0.0,0.01,138.20000000000002,138.20000000000002,0.0,0.0,3
64.97111100,64971111,0.0,-0.19,0.0,0.01,138.20000000000002,138.20000000000002,0.0,0.0,3
65.07117300,65071173,0.0,-0.19,0.0,0.02,138.20000000000002,138.20000000000002,0.0,0.0,3
65.17124400,65171244,0.0,-0.19,0.0,0.02,138.20000000000002,138.20000000000002,0.0,0.0,3
65.27148500,65271485,0.0,-0.19,0.0,0.02,138.20000000000002,138.20000000000002,0.0,0.0,3
65.37148600,65371486,0.0,-0.19,0.0,0.02,138.20000000000002,138.20000000000002,0.0,0.0,3
65.47153100,65471531,0.0,-0.19,0.0,0.02,138.20000000000002,138.20000000000002,0.0,0.0,3
65.57153100,65571531,0.0,-0.18,0.0,0.02,138.20000000000002,138.20000000000002,0.0,0.0,3
65.67150800,65671508,0.0,-0.18,0.0,0.02,138.20000000000002,138.20000000000002,0.0,0.0,3
65.77155100,65771551,0.0,-0.18,0.0,0.02,138.20000000000002,138.20000000000002,0.0,0.0,3
65.87154600,65871546,0.0,-0.18,0.0,0.02,138.20000000000002,138.20000000000002,0.0,0.0,3
65.97143900,65971439,0.0,-0.18,0.0,0.03,138.20000000000002,138.20000000000002,0.0,0.0,3
66.07179600,66071796,0.0,-0.18,0.0,0.03,138.20000000000002,138.20000000000002,0.0,0.0,3
66.17145600,66171456,0.0,-0.18,0.0,0.03,138.20000000000002,138.20000000000002,0.0,0.0,3
66.27148600,66271486,0.0,-0.18,0.0,0.03,138.19,138.19,0.0,0.0,3
66.37150400,66371504,0.0,-0.17,0.0,0.03,138.19,138.19,0.0,0.0,3
66.47141900,66471419,0.0,-0.17,0.0,0.03,138.18,138.18,0.0,0.0,3
66.57119100,66571191,0.0,-0.17,0.0,0.03,138.18,138.18,0.0,0.0,3
66.67119300,66671193,0.0,-0.17,0.0,0.03,138.18,138.18,0.0,0.0,3
66.77112300,66771123,0.0,-0.17,0.0,0.03,138.18,138.18,0.0,0.0,3
66.87119400,66871194,0.0,-0.17,0.0,0.04,138.18,138.18,0.0,0.0,3
66.97150600,66971506,0.0,-0.17,0.0,0.04,138.17000000000002,138.17000000000002,0.0,0.0,3
67.07144100,67071441,0.0,-0.17,0.0,0.04,138.17000000000002,138.17000000000002,0.0,0.0,3
67.17124500,67171245,0.0,-0.17,0.0,0.04,138.17000000000002,138.17000000000002,0.0,0.0,3
67.27128500,67271285,0.0,-0.17,0.0,0.04,138.17000000000002,138.17000000000002,0.0,0.0,3
67.37129400,67371294,0.0,-0.16,0.0,0.04,138.17000000000002,138.17000000000002,0.0,0.0,3
67.47127600,67471276,0.0,-0.16,0.0,0.04,138.17000000000002,138.17000000000002,0.0,0.0,3
67.57151100,67571511,0.0,-0.16,0.0,0.05,138.17000000000002,138.17000000000002,0.0,0.0,3
67.67138600,67671386,0.0,-0.16,0.0,0.05,138.16,138.16,0.0,0.0,3
67.77145400,67771454,0.0,-0.16,0.0,0.05,138.17000000000002,138.17000000000002,0.0,0.0,3
67.87128000,67871280,0.0,-0.16,0.0,0.05,138.16,138.16,0.0,0.0,3
67.97121200,67971212,0.0,-0.15,0.0,0.05,138.16,138.16,0.0,0.0,3
68.07125500,68071255,0.0,-0.15,0.0,0.06,138.16,138.16,0.0,0.0,3
68.17128100,68171281,0.0,-0.15,0.0,0.05,138.15,138.15,0.0,0.0,3
68.27131700,68271317,0.0,-0.15,0.0,0.05,138.15,138.15,0.0,0.0,3
68.37150900,68371509,0.0,-0.15,0.0,0.06,138.14000000000001,138.14000000000001,0.0,0.0,3
68.47119800,68471198,0.0,-0.14,0.0,0.06,138.14000000000001,138.14000000000001,0.0,0.0,3
68.57112200,68571122,0.0,-0.14,0.0,0.06,138.14000000000001,138.14000000000001,0.0,0.0,3
68.67117200,68671172,0.0,-0.14,0.0,0.06,138.14000000000001,138.14000000000001,0.0,0.0,3
68.77124900,68771249,0.0,-0.14,0.0,0.06,138.13,138.13,0.0,0.0,3
68.87123900,68871239,0.0,-0.14,0.0,0.06,138.13,138.13,0.0,0.0,3
68.97124800,68971248,0.0,-0.14,0.0,0.06,138.13,138.13,0.0,0.0,3
69.07128200,69071282,0.0,-0.14,0.0,0.06,138.12,138.12,0.0,0.0,3
69.17129000,69171290,0.0,-0.14,0.0,0.07,138.13,138.13,0.0,0.0,3
69.27153400,69271534,0.0,-0.14,0.0,0.07,138.12,138.12,0.0,0.0,3
69.37149700,69371497,0.0,-0.14,0.0,0.07,138.12,138.12,0.0,0.0,3
69.47141700,69471417,0.0,-0.14,0.0,0.07,138.11,138.11,0.0,0.0,3
69.57141300,69571413,0.0,-0.14,0.0,0.07,138.11,138.11,0.0,0.0,3
69.67142100,69671421,0.0,-0.14,0.0,0.08,138.11,138.11,0.0,0.0,3
69.77140400,69771404,0.0,-0.15,0.0,0.08,138.1,138.1,0.0,0.0,3
69.87145900,69871459,0.0,-0.15,0.0,0.08,138.1,138.1,0.0,0.0,3
69.97149400,69971494,0.0,-0.14,0.0,0.08,138.09,138.09,0.0,0.0,3
70.07129000,70071290,0.0,-0.14,0.0,0.08,138.08,138.08,0.0,0.0,3
70.17118900,70171189,0.0,-0.14,0.0,0.08,138.07,138.07,0.0,0.0,3
70.27119300,70271193,0.0,-0.14,0.0,0.08,138.07,138.07,0.0,0.0,3
70.37112900,70371129,0.0,-0.14,0.0,0.08,138.07,138.07,0.0,0.0,3
70.47118200,70471182,0.0,-0.14,0.0,0.08,138.07,138.07,0.0,0.0,3
70.57155100,70571551,0.0,-0.14,0.0,0.09,138.06,138.06,0.0,0.0,3
70.67127800,70671278,0.0,-0.14,0.0,0.08,138.06,138.06,0.0,0.0,3
70.77125700,70771257,0.0,-0.14,0.0,0.08,138.06,138.06,0.0,0.0,3
70.87136400,70871364,0.0,-0.14,0.0,0.08,138.06,138.06,0.0,0.0,3
70.97131300,70971313,0.0,-0.14,0.0,0.08,138.06,138.06,0.0,0.0,3
71.07119900,71071199,0.0,-0.14,0.0,0.08,138.06,138.06,0.0,0.0,3
71.17119000,71171190,0.0,-0.14,0.0,0.08,138.06,138.06,0.0,0.0,3
71.27112000,71271120,0.0,-0.14,0.0,0.09,138.06,138.06,0.0,0.0,3
71.37118300,71371183,0.0,-0.14,0.0,0.09,138.06,138.06,0.0,0.0,3
71.47154200,71471542,0.0,-0.14,0.0,0.08,138.05,138.05,0.0,0.0,3
71.57147800,71571478,0.0,-0.14,0.0,0.09,138.05,138.05,0.0,0.0,3
71.67125100,71671251,0.0,-0.14,0.0,0.09,138.05,138.05,0.0,0.0,3
71.77134800,71771348,0.0,-0.14,0.0,0.09,138.05,138.05,0.0,0.0,3
71.87133000,71871330,0.0,-0.14,0.0,0.09,138.05,138.05,0.0,0.0,3
71.97121400,71971214,0.0,-0.14,0.0,0.09,138.05,138.05,0.0,0.0,3
72.07119900,72071199,0.0,-0.14,0.0,0.09,138.06,138.06,0.0,0.0,3
72.17141900,72171419,0.0,-0.14,0.0,0.09,138.06,138.06,0.0,0.0,3
72.27146200,72271462,0.0,-0.14,0.0,0.1,138.06,138.06,0.0,0.0,3
72.37146300,72371463,0.0,-0.14,0.0,0.1,138.05,138.05,0.0,0.0,3
72.47141400,72471414,0.0,-0.14,0.0,0.09,138.05,138.05,0.0,0.0,3
72.57144700,72571447,0.0,-0.14,0.0,0.09,138.05,138.05,0.0,0.0,3
72.67148900,72671489,0.0,-0.14,0.0,0.09,138.05,138.05,0.0,0.0,3
72.77159900,72771599,0.0,-0.14,0.0,0.09,138.05,138.05,0.0,0.0,3
72.87169000,72871690,0.0,-0.14,0.0,0.09,138.05,138.05,0.0,0.0,3
72.97120300,72971203,0.0,-0.14,0.0,0.09,138.04,138.04,0.0,0.0,3
73.07112800,73071128,0.0,-0.14,0.0,0.09,138.05,138.05,0.0,0.0,3
73.17115700,73171157,0.0,-0.14,0.0,0.09,138.05,138.05,0.0,0.0,3
73.27126800,73271268,0.0,-0.15,0.0,0.09,138.05,138.05,0.0,0.0,3
73.37122800,73371228,0.0,-0.15,0.0,0.09,138.05,138.05,0.0,0.0,3
73.47128800,73471288,0.0,-0.15,0.0,0.1,138.05,138.05,0.0,0.0,3
73.57135200,73571352,0.0,-0.15,0.0,0.1,138.06,138.06,0.0,0.0,3
73.67132500,73671325,0.0,-0.15,0.0,0.1,138.06,138.06,0.0,0.0,3
73.77127700,73771277,0.0,-0.15,0.0,0.1,138.06,138.06,0.0,0.0,3
73.87123700,73871237,0.0,-0.15,0.0,0.1,138.06,138.06,0.0,0.01,3
73.97143100,73971431,0.0,-0.16,0.0,0.09,138.06,138.06,0.0,0.0,3
74.07145000,74071450,0.0,-0.16,0.0,0.09,138.06,138.06,0.0,0.0,3
74.17153400,74171534,0.0,-0.16,0.0,0.09,138.07,138.07,0.0,0.0,3
74.27144000,74271440,0.0,-0.16,0.0,0.09,138.07,138.07,0.0,0.0,3
74.37147600,74371476,0.0,-0.16,0.0,0.09,138.07,138.07,0.0,0.0,3
74.47168300,74471683,0.0,-0.16,0.0,0.08,138.07,138.07,0.0,0.0,3
74.57154400,74571544,0.0,-0.16,0.0,0.08,138.07,138.07,0.0,0.0,3
74.67154000,74671540,0.0,-0.16,0.0,0.09,138.06,138.06,0.0,0.0,3
74.77154300,74771543,0.0,-0.16,0.0,0.09,138.06,138.06,0.0,0.0,3
74.87161400,74871614,0.0,-0.16,0.0,0.09,138.06,138.06,0.0,0.0,3
74.97145400,74971454,0.0,-0.17,0.0,0.09,138.06,138.06,0.0,0.0,3
75.07152300,75071523,0.0,-0.17,0.0,0.09,138.05,138.05,0.0,0.0,3
75.17142900,75171429,0.0,-0.17,0.0,0.09,138.05,138.05,0.0,0.0,3
75.27145100,75271451,0.0,-0.17,0.0,0.09,138.05,138.05,0.0,0.0,3
75.37147500,75371475,0.0,-0.17,0.0,0.08,138.05,138.05,0.0,0.0,3
75.47150000,75471500,0.0,-0.17,0.0,0.08,138.05,138.05,0.0,0.0,3
75.57147500,75571475,0.0,-0.17,0.0,0.08,138.04,138.04,0.0,0.0,3
75.67148000,75671480,0.0,-0.17,0.0,0.08,138.04,138.04,0.0,0.0,3
75.77136700,75771367,0.0,-0.17,0.0,0.08,138.03,138.03,0.0,0.0,3
75.87149100,75871491,0.0,-0.17,0.0,0.07,138.03,138.03,0.0,0.0,3
75.97125700,75971257,0.0,-0.17,0.0,0.08,138.03,138.03,0.0,0.0,3
76.07122200,76071222,0.0,-0.17,0.0,0.08,138.02,138.02,0.0,0.0,3
76.17125000,76171250,0.0,-0.17,0.0,0.08,138.02,138.02,0.0,0.0,3
76.27128800,76271288,0.0,-0.17,0.0,0.08,138.02,138.02,0.0,0.0,3
76.37128500,76371285,0.0,-0.17,0.0,0.07,138.02,138.02,0.0,0.0,3
76.47120100,76471201,0.0,-0.17,0.0,0.07,138.01,138.01,0.0,0.0,3
76.57119900,76571199,0.0,-0.17,0.0,0.07,138.01,138.01,0.0,0.0,3
76.67111800,76671118,0.0,-0.17,0.0,0.07,138.01,138.01,0.0,0.0,3
76.77115900,76771159,0.0,-0.17,0.0,0.07,138.0,138.0,0.0,0.0,3
76.87125800,76871258,0.0,-0.17,0.0,0.07,138.0,138.0,0.0,0.0,3
76.97126300,76971263,0.0,-0.17,0.0,0.07,137.99,137.99,0.0,0.0,3
77.07123600,77071236,0.0,-0.17,0.0,0.07,137.99,137.99,0.0,0.0,3
77.17150200,77171502,0.0,-0.17,0.0,0.07,137.99,137.99,0.0,0.0,3
77.27131800,77271318,0.0,-0.17,0.0,0.07,137.98,137.98,0.0,0.0,3
77.37120500,77371205,0.0,-0.17,0.0,0.07,137.98,137.98,0.0,0.0,3
77.47120300,77471203,0.0,-0.17,0.0,0.07,137.98,137.98,0.0,0.0,3
77.57111300,77571113,0.0,-0.17,0.0,0.08,137.97,137.97,0.0,0.0,3
77.67117600,77671176,0.0,-0.18,0.0,0.07,137.97,137.97,0.0,0.0,3
77.77123100,77771231,0.0,-0.18,0.0,0.07,137.97,137.97,0.0,0.0,3
77.87125200,77871252,0.0,-0.18,0.0,0.07,137.97,137.97,0.0,0.0,3
77.97124200,77971242,0.0,-0.17,0.0,0.07,137.96,137.96,0.0,0.0,3
78.07150600,78071506,0.0,-0.17,0.0,0.07,137.96,137.96,0.0,0.0,3
78.17130400,78171304,0.0,-0.17,0.0,0.07,137.96,137.96,0.0,0.0,3
78.27136600,78271366,0.0,-0.17,0.0,0.06,137.95000000000002,137.95000000000002,0.0,0.0,3
78.37119700,78371197,0.0,-0.17,0.0,0.06,137.95000000000002,137.95000000000002,0.0,0.0,3
78.47113500,78471135,0.0,-0.16,0.0,0.06,137.94,137.94,0.0,0.0,3
78.57147600,78571476,0.0,-0.16,0.0,0.06,137.94,137.94,0.0,0.0,3
78.67147500,78671475,0.0,-0.16,0.0,0.06,137.94,137.94,0.0,0.0,3
78.77143500,78771435,0.0,-0.16,0.0,0.06,137.94,137.94,0.0,0.0,3
78.87148700,78871487,0.0,-0.16,0.0,0.06,137.93,137.93,0.0,0.0,3
78.97149000,78971490,0.0,-0.16,0.0,0.06,137.93,137.93,0.0,0.0,3
79.07155100,79071551,0.0,-0.16,0.0,0.06,137.92000000000002,137.92000000000002,0.0,0.0,3
79.17150300,79171503,0.0,-0.16,0.0,0.06,137.92000000000002,137.92000000000002,0.0,0.0,3
79.27150600,79271506,0.0,-0.16,0.0,0.06,137.92000000000002,137.92000000000002,0.0,0.0,3
79.37166900,79371669,0.0,-0.15,0.0,0.06,137.91,137.91,0.0,0.0,3
79.47143600,79471436,0.0,-0.15,0.0,0.06,137.91,137.91,0.0,0.0,3
79.57124500,79571245,0.0,-0.15,0.0,0.06,137.9,137.9,0.0,0.0,3
79.67123100,79671231,0.0,-0.15,0.0,0.06,137.9,137.9,0.0,0.0,3
79.77126900,79771269,0.0,-0.15,0.0,0.06,137.89000000000001,137.89000000000001,0.0,0.0,3
79.87138400,79871384,0.0,-0.15,0.0,0.05,137.88,137.88,0.0,0.0,3
79.97137100,79971371,0.0,-0.15,0.0,0.05,137.88,137.88,0.0,0.0,3
80.07153300,80071533,0.0,-0.15,0.0,0.05,137.88,137.88,0.0,0.0,3
80.17153800,80171538,0.0,-0.15,0.0,0.05,137.88,137.88,0.0,0.0,3
80.27111800,80271118,0.0,-0.14,0.0,0.05,137.88,137.88,0.0,0.0,3
80.37117800,80371178,0.0,-0.14,0.0,0.05,137.88,137.88,0.0,0.0,3
80.47123600,80471236,0.0,-0.14,0.0,0.05,137.87,137.87,0.0,0.0,3
80.57121000,80571210,0.0,-0.13,0.0,0.05,137.86,137.86,0.0,0.0,3
80.67125800,80671258,0.0,-0.13,0.0,0.05,137.86,137.86,0.0,0.01,3
80.77151600,80771516,0.0,-0.13,0.0,0.05,137.85,137.85,0.0,0.0,3
80.87138600,80871386,0.0,-0.13,0.0,0.06,137.85,137.85,0.0,0.0,3
80.97120000,80971200,0.0,-0.13,0.0,0.06,137.84,137.84,0.0,0.0,3
81.07120200,81071202,0.0,-0.13,0.0,0.06,137.84,137.84,0.0,0.0,3
81.17115100,81171151,0.0,-0.13,0.0,0.06,137.84,137.84,0.0,0.0,3
81.27118600,81271186,0.0,-0.12,0.0,0.06,137.84,137.84,0.0,0.0,3
81.37154800,81371548,0.0,-0.12,0.0,0.07,137.84,137.84,0.0,0.0,3
81.47146900,81471469,0.0,-0.12,0.0,0.07,137.84,137.84,0.0,0.0,3
81.57125300,81571253,0.0,-0.12,0.0,0.07,137.84,137.84,0.0,0.0,3
81.67128400,81671284,0.0,-0.12,0.0,0.07,137.84,137.84,0.0,0.0,3
81.77130300,81771303,0.0,-0.13,0.0,0.07,137.84,137.84,0.0,0.0,3
81.87130200,81871302,0.0,-0.13,0.0,0.07,137.84,137.84,0.0,0.0,3
81.97120200,81971202,0.0,-0.13,0.0,0.08,137.84,137.84,0.0,0.0,3
82.07138800,82071388,0.0,-0.13,0.0,0.08,137.84,137.84,0.0,0.0,3
82.17141000,82171410,0.0,-0.13,0.0,0.08,137.84,137.84,0.0,0.0,3
82.27124400,82271244,0.0,-0.13,0.0,0.08,137.84,137.84,0.0,0.0,3
82.37120800,82371208,0.0,-0.12,0.0,0.08,137.84,137.84,0.0,0.0,3
82.47125600,82471256,0.0,-0.13,0.0,0.08,137.84,137.84,0.0,0.0,3
82.57134200,82571342,0.0,-0.13,0.0,0.09,137.84,137.84,0.0,0.0,3
82.67131400,82671314,0.0,-0.13,0.0,0.09,137.84,137.84,0.0,0.0,3
82.77151500,82771515,0.0,-0.13,0.0,0.09,137.84,137.84,0.0,0.0,3
82.87180300,82871803,0.0,-0.13,0.0,0.09,137.84,137.84,0.0,0.0,3
82.97137500,82971375,0.0,-0.13,0.0,0.09,137.83,137.83,0.0,0.0,3
83.07144800,83071448,0.0,-0.13,0.0,0.09,137.84,137.84,0.0,0.0,3
83.17148100,83171481,0.0,-0.13,0.0,0.1,137.84,137.84,0.0,0.0,3
83.27153600,83271536,0.0,-0.13,0.0,0.1,137.84,137.84,0.0,0.0,3
83.37146700,83371467,0.0,-0.13,0.0,0.1,137.83,137.83,0.0,0.0,3
83.47168800,83471688,0.0,-0.13,0.0,0.1,137.83,137.83,0.0,0.0,3
83.57152800,83571528,0.0,-0.14,0.0,0.09,137.83,137.83,0.0,0.0,3
83.67120400,83671204,0.0,-0.14,0.0,0.1,137.83,137.83,0.0,0.0,3
83.77120700,83771207,0.0,-0.14,0.0,0.09,137.82,137.82,0.0,0.0,3
83.87115500,83871155,0.0,-0.14,0.0,0.09,137.82,137.82,0.0,0.0,3
83.97117500,83971175,0.0,-0.14,0.0,0.09,137.81,137.81,0.0,0.0,3
84.07154600,84071546,0.0,-0.14,0.0,0.09,137.8,137.8,0.0,0.0,3
84.17148000,84171480,0.0,-0.13,0.0,0.1,137.8,137.8,0.0,0.0,3
84.27126300,84271263,0.0,-0.13,0.0,0.09,137.8,137.8,0.0,0.0,3
84.37134600,84371346,0.0,-0.13,0.0,0.1,137.81,137.81,0.0,0.0,3
84.47129600,84471296,0.0,-0.13,0.0,0.1,137.8,137.8,0.0,0.0,3
84.57119400,84571194,0.0,-0.13,0.0,0.1,137.8,137.8,0.0,0.0,3
84.67119400,84671194,0.0,-0.13,0.0,0.1,137.8,137.8,0.0,0.0,3
84.77145100,84771451,0.0,-0.13,0.0,0.1,137.8,137.8,0.0,0.0,3
84.87149200,84871492,0.0,-0.13,0.0,0.1,137.79,137.79,0.0,0.0,3
84.97126500,84971265,0.0,-0.12,0.0,0.1,137.8,137.8,0.0,0.0,3
85.07123500,85071235,0.0,-0.12,0.0,0.1,137.79,137.79,0.0,0.0,3
85.17126500,85171265,0.0,-0.13,0.0,0.1,137.79,137.79,0.0,0.0,3
85.27135800,85271358,0.0,-0.13,0.0,0.1,137.79,137.79,0.0,0.0,3
85.37141900,85371419,0.0,-0.13,0.0,0.1,137.79,137.79,0.0,0.0,3
85.47154900,85471549,0.0,-0.12,0.0,0.1,137.79,137.79,0.0,0.0,3
85.57152600,85571526,0.0,-0.12,0.0,0.1,137.79,137.79,0.0,0.0,3
85.67105900,85671059,0.0,-0.12,0.0,0.11,137.79,137.79,0.0,0.0,3
85.77117700,85771177,0.0,-0.13,0.0,0.11,137.79,137.79,0.0,0.0,3
85.87125400,85871254,0.0,-0.13,0.0,0.11,137.79,137.79,0.0,0.0,3
85.97121200,85971212,0.0,-0.13,0.0,0.11,137.79,137.79,0.0,0.0,3
86.07124900,86071249,0.0,-0.13,0.0,0.11,137.79,137.79,0.0,0.0,3
86.17150800,86171508,0.0,-0.13,0.0,0.11,137.79,137.79,0.0,0.0,3
86.27155300,86271553,0.0,-0.13,0.0,0.12,137.79,137.79,0.0,0.0,3
86.37154800,86371548,0.0,-0.13,0.0,0.11,137.79,137.79,0.0,0.0,3
86.47110600,86471106,0.0,-0.13,0.0,0.12,137.79,137.79,0.0,0.0,3
86.57112700,86571127,0.0,-0.13,0.0,0.12,137.79,137.79,0.0,0.0,3
86.67118500,86671185,0.0,-0.13,0.0,0.12,137.79,137.79,0.0,0.0,3
86.77124200,86771242,0.0,-0.14,0.0,0.12,137.78,137.78,0.0,0.0,3
86.87123900,86871239,0.0,-0.14,0.0,0.13,137.78,137.78,0.0,0.0,3
86.97124500,86971245,0.0,-0.14,0.0,0.13,137.78,137.78,0.0,0.0,3
87.07128400,87071284,0.0,-0.14,0.0,0.13,137.78,137.78,0.0,0.0,3
87.17130500,87171305,0.0,-0.14,0.0,0.14,137.78,137.78,0.0,0.0,3
87.27123500,87271235,0.0,-0.13,0.0,0.14,137.77,137.77,0.0,0.0,3
87.37110900,87371109,0.0,-0.14,0.0,0.14,137.77,137.77,0.0,0.0,3
87.47143000,87471430,0.0,-0.14,0.0,0.13,137.77,137.77,0.0,0.0,3
87.57141300,87571413,0.0,-0.14,0.0,0.14,137.76,137.76,0.0,0.0,3
87.67143600,87671436,0.0,-0.14,0.0,0.14,137.76,137.76,0.0,0.0,3
87.77140900,87771409,0.0,-0.14,0.0,0.13,137.77,137.77,0.0,0.0,3
87.87147200,87871472,0.0,-0.14,0.0,0.14,137.77,137.77,0.0,0.0,3
87.97164500,87971645,0.0,-0.14,0.0,0.14,137.77,137.77,0.0,0.0,3
88.07129800,88071298,0.0,-0.14,0.0,0.13,137.77,137.77,0.0,0.0,3
88.17120200,88171202,0.0,-0.14,0.0,0.13,137.76,137.76,0.0,0.0,3
88.27119900,88271199,0.0,-0.14,0.0,0.13,137.76,137.76,0.0,0.0,3
88.37112100,88371121,0.0,-0.14,0.0,0.13,137.76,137.76,0.0,0.0,3
88.47118900,88471189,0.0,-0.14,0.0,0.13,137.76,137.76,0.0,0.0,3
88.57123600,88571236,0.0,-0.14,0.0,0.13,137.76,137.76,0.0,0.0,3
88.67145400,88671454,0.0,-0.14,0.0,0.13,137.76,137.76,0.0,0.0,3
88.77151700,88771517,0.0,-0.14,0.0,0.13,137.76,137.76,0.0,0.0,3
88.87154000,88871540,0.0,-0.15,0.0,0.13,137.76,137.76,0.0,0.0,3
88.97153500,88971535,0.0,-0.15,0.0,0.13,137.76,137.76,0.0,0.0,3
89.07151900,89071519,0.0,-0.15,0.0,0.13,137.75,137.75,0.0,0.0,3
89.17156300,89171563,0.0,-0.15,0.0,0.13,137.75,137.75,0.0,0.0,3
89.27143600,89271436,0.0,-0.15,0.0,0.13,137.75,137.75,0.0,0.0,3
89.37145900,89371459,0.0,-0.15,0.0,0.13,137.75,137.75,0.0,0.0,3
89.47125200,89471252,0.0,-0.15,0.0,0.13,137.75,137.75,0.0,0.0,3
89.57128000,89571280,0.0,-0.15,0.0,0.13,137.74,137.74,0.0,0.0,3
89.67124700,89671247,0.0,-0.15,0.0,0.14,137.74,137.74,0.0,0.0,3
89.77128500,89771285,0.0,-0.15,0.0,0.14,137.73,137.73,0.0,0.0,3
89.87136600,89871366,0.0,-0.15,0.0,0.14,137.73,137.73,0.0,0.0,3
89.97121600,89971216,0.0,-0.15,0.0,0.14,137.72,137.72,0.0,0.0,3
90.07119900,90071199,0.0,-0.15,0.0,0.14,137.72,137.72,0.0,0.0,3
90.17139600,90171396,0.0,-0.15,0.0,0.14,137.72,137.72,0.0,0.0,3
90.27120000,90271200,0.0,-0.15,0.0,0.14,137.72,137.72,0.0,0.0,3
90.37123900,90371239,0.0,-0.15,0.0,0.14,137.72,137.72,0.0,0.0,3
90.47123100,90471231,0.0,-0.15,0.0,0.14,137.71,137.71,0.0,0.0,3
90.57126600,90571266,0.0,-0.15,0.0,0.13,137.71,137.71,0.0,0.0,3
90.67134200,90671342,0.0,-0.15,0.0,0.13,137.71,137.71,0.0,0.0,3
90.77132000,90771320,0.0,-0.15,0.0,0.13,137.71,137.71,0.0,0.0,3
90.87155300,90871553,0.0,-0.14,0.0,0.13,137.71,137.71,0.0,0.0,3
90.97119700,90971197,0.0,-0.14,0.0,0.13,137.70000000000002,137.70000000000002,0.0,0.0,3
91.07112800,91071128,0.0,-0.14,0.0,0.14,137.70000000000002,137.70000000000002,0.0,0.0,3
91.17118100,91171181,0.0,-0.15,0.0,0.14,137.69,137.69,0.0,0.0,3
91.27124900,91271249,0.0,-0.14,0.0,0.14,137.69,137.69,0.0,0.0,3
91.37122800,91371228,0.0,-0.14,0.0,0.14,137.69,137.69,0.0,0.0,3
91.47125900,91471259,0.0,-0.14,0.0,0.14,137.68,137.68,0.0,0.0,3
91.57129800,91571298,0.0,-0.14,0.0,0.14,137.68,137.68,0.0,0.0,3
91.67158700,91671587,0.0,-0.14,0.0,0.15,137.68,137.68,0.0,0.0,3
91.77151100,91771511,0.0,-0.14,0.0,0.15,137.68,137.68,0.0,0.0,3
91.87152100,91871521,0.0,-0.14,0.0,0.15,137.69,137.69,0.0,0.0,3
91.97133400,91971334,0.0,-0.14,0.0,0.15,137.69,137.69,0.0,0.0,3
92.07143700,92071437,0.0,-0.14,0.0,0.15,137.69,137.69,0.0,0.0,3
92.17178600,92171786,0.0,-0.14,0.0,0.15,137.69,137.69,0.0,0.0,3
92.27122000,92271220,0.0,-0.14,0.0,0.15,137.69,137.69,0.0,0.0,3
92.37125100,92371251,0.0,-0.13,0.0,0.14,137.68,137.68,0.0,0.0,3
92.47133500,92471335,0.0,-0.13,0.0,0.14,137.68,137.68,0.0,0.0,3
92.57131500,92571315,0.0,-0.13,0.0,0.14,137.68,137.68,0.0,0.0,3
92.67120700,92671207,0.0,-0.13,0.0,0.14,137.67000000000002,137.67000000000002,0.0,0.0,3
92.77152800,92771528,0.0,-0.13,0.0,0.14,137.67000000000002,137.67000000000002,0.0,0.0,3
92.87175500,92871755,0.0,-0.13,0.0,0.14,137.67000000000002,137.67000000000002,0.0,0.0,3
92.97145700,92971457,0.0,-0.12,0.0,0.14,137.67000000000002,137.67000000000002,0.0,0.0,3
93.07123600,93071236,0.0,-0.12,0.0,0.14,137.66,137.66,0.0,0.0,3
93.17121100,93171211,0.0,-0.12,0.0,0.15,137.66,137.66,0.0,0.0,3
93.27126400,93271264,0.0,-0.12,0.0,0.15,137.66,137.66,0.0,0.0,3
93.37128400,93371284,0.0,-0.12,0.0,0.15,137.66,137.66,0.0,0.0,3
93.47130300,93471303,0.0,-0.12,0.0,0.15,137.65,137.65,0.0,0.0,3
93.57121500,93571215,0.0,-0.11,0.0,0.15,137.65,137.65,0.0,0.0,3
93.67119800,93671198,0.0,-0.11,0.0,0.15,137.64000000000001,137.64000000000001,0.0,0.0,3
93.77112700,93771127,0.0,-0.11,0.0,0.15,137.64000000000001,137.64000000000001,0.0,0.0,3
93.87120100,93871201,0.0,-0.11,0.0,0.15,137.64000000000001,137.64000000000001,0.0,0.0,3
93.97152800,93971528,0.0,-0.11,0.0,0.14,137.64000000000001,137.64000000000001,0.0,0.0,3
94.07145500,94071455,0.0,-0.11,0.0,0.14,137.63,137.63,0.0,0.0,3
94.17124600,94171246,0.0,-0.11,0.0,0.14,137.63,137.63,0.0,0.0,3
94.27134300,94271343,0.0,-0.1,0.0,0.14,137.63,137.63,0.0,0.0,3
94.37129800,94371298,0.0,-0.1,0.0,0.14,137.63,137.63,0.0,0.0,3
94.47120000,94471200,0.0,-0.1,0.0,0.14,137.63,137.63,0.0,0.0,3
94.57119600,94571196,0.0,-0.1,0.0,0.14,137.63,137.63,0.0,0.0,3
94.67139300,94671393,0.0,-0.09,0.0,0.14,137.62,137.62,0.0,0.0,3
94.77147200,94771472,0.0,-0.1,0.0,0.14,137.62,137.62,0.0,0.0,3
94.87127700,94871277,0.0,-0.1,0.0,0.14,137.62,137.62,0.0,0.0,3
94.97123800,94971238,0.0,-0.1,0.0,0.14,137.62,137.62,0.0,0.0,3
95.07152800,95071528,0.0,-0.1,0.0,0.14,137.61,137.61,0.0,0.0,3
95.17133100,95171331,0.0,-0.1,0.0,0.14,137.6,137.6,0.0,0.0,3
95.27131600,95271316,0.0,-0.1,0.0,0.14,137.6,137.6,0.0,0.0,3
95.37150100,95371501,0.0,-0.1,0.0,0.14,137.59,137.59,0.0,0.0,3
95.47120200,95471202,0.0,-0.1,0.0,0.14,137.59,137.59,0.0,0.0,3
95.57113500,95571135,0.0,-0.1,0.0,0.15,137.59,137.59,0.0,0.0,3
95.67118800,95671188,0.0,-0.1,0.0,0.15,137.58,137.58,0.0,0.0,3
95.77126300,95771263,0.0,-0.1,0.0,0.15,137.58,137.58,0.0,0.0,3
95.87136000,95871360,0.0,-0.1,0.0,0.15,137.58,137.58,0.0,0.0,3
95.97126200,95971262,0.0,-0.1,0.0,0.15,137.57,137.57,0.0,0.0,3
96.07158300,96071583,0.0,-0.1,0.0,0.15,137.57,137.57,0.0,0.0,3
96.17132600,96171326,0.0,-0.1,0.0,0.15,137.57,137.57,0.0,0.0,3
96.27153100,96271531,0.0,-0.1,0.0,0.15,137.57,137.57,0.0,0.0,3
96.37120400,96371204,0.0,-0.1,0.0,0.16,137.57,137.57,0.0,0.0,3
96.47110500,96471105,0.0,-0.1,0.0,0.16,137.57,137.57,0.0,0.0,3
96.57118600,96571186,0.0,-0.1,0.0,0.15,137.57,137.57,0.0,0.0,3
96.67122000,96671220,0.0,-0.1,0.0,0.15,137.56,137.56,0.0,0.0,3
96.77121800,96771218,0.0,-0.11,0.0,0.15,137.56,137.56,0.0,0.0,3
96.87134900,96871349,0.0,-0.11,0.0,0.15,137.56,137.56,0.0,0.0,3
96.97150400,96971504,0.0,-0.11,0.0,0.16,137.56,137.56,0.0,0.0,3
97.07137600,97071376,0.0,-0.11,0.0,0.16,137.55,137.55,0.0,0.0,3
97.17120500,97171205,0.0,-0.11,0.0,0.16,137.55,137.55,0.0,0.0,3
97.27151600,97271516,0.0,-0.11,0.0,0.16,137.55,137.55,0.0,0.0,3
97.37136600,97371366,0.0,-0.11,0.0,0.16,137.55,137.55,0.0,0.0,3
97.47143700,97471437,0.0,-0.11,0.0,0.16,137.54,137.54,0.0,0.0,3
97.57144700,97571447,0.0,-0.11,0.0,0.15,137.54,137.54,0.0,0.0,3
97.67140600,97671406,0.0,-0.11,0.0,0.15,137.54,137.54,0.0,0.0,3
97.77146000,97771460,0.0,-0.11,0.0,0.15,137.53,137.53,0.0,0.0,3
