timestamp,TimeUS,C,Q1,Q2,Q3,Q4
9.97068600,9970686,2,1.0,0.0,0.0,0.0
10.07071100,10070711,2,1.0,0.0,0.0,0.0
10.17076600,10170766,2,1.0,0.0,0.0,0.0
10.27077300,10270773,2,1.0,0.0,0.0,0.0
10.37078200,10370782,2,1.0,0.0,0.0,0.0
10.47077800,10470778,2,1.0,0.0,0.0,0.0
10.57071400,10570714,2,1.0,0.0,0.0,0.0
10.67068800,10670688,2,1.0,0.0,0.0,0.0
10.77068900,10770689,2,1.0,0.0,0.0,0.0
10.87069100,10870691,2,1.0,0.0,0.0,0.0
10.97068600,10970686,2,0.9999723434448242,-0.0016516438918188214,0.00725359283387661,2.782466253847815e-05
11.07076000,11070760,2,0.9999716877937317,-0.0016554392641410232,0.0073375883512198925,2.399817094556056e-05
11.17076300,11170763,2,0.9999711513519287,-0.0016528920968994498,0.007415346335619688,5.455094651551917e-05
11.27077200,11270772,2,0.9999707937240601,-0.001600729301571846,0.00747319683432579,6.30635186098516e-05
11.37076200,11370762,2,0.9999706745147705,-0.001623806543648243,0.0074833533726632595,0.00010095749166794121
11.47071100,11470711,2,0.9999707341194153,-0.0016072845319285989,0.007474297657608986,0.0001563645200803876
11.57068100,11570681,2,0.9999706149101257,-0.001602695556357503,0.007493316661566496,0.0001697529514785856
11.67068800,11670688,2,0.9999710321426392,-0.0015817222883924842,0.007446536794304848,0.00015743238327559084
11.77069000,11770690,2,0.9999713897705078,-0.0014924233546480536,0.007417141459882259,0.0001086764968931675
11.87069000,11870690,2,0.9999717473983765,-0.001440283958800137,0.007374178618192673,0.0001409470132784918
11.97074400,11970744,2,0.9999724626541138,-0.0012996795121580362,0.007307213731110096,0.00020151105127297342
12.07076600,12070766,2,0.9999731779098511,-0.0011157352710142732,0.007238066289573908,0.00019826748757623136
12.17077300,12170773,2,0.999974250793457,-0.0009718562941998243,0.007105449680238962,0.00021032955555710942
12.27076300,12270763,2,0.9999754428863525,-0.0007646647281944752,0.006961270701140165,0.00021312685566954315
12.37072000,12370720,2,0.9999764561653137,-0.0005371940787881613,0.006834641098976135,0.0002831884485203773
12.47068100,12470681,2,0.3570035398006439,-0.005797300022095442,0.0024016504175961018,0.9340819716453552
12.57067800,12570678,2,0.3569899797439575,-0.005913801025599241,0.0022259445395320654,0.9340868592262268
12.67069500,12670695,2,0.3569756746292114,-0.006083371117711067,0.0021609957329928875,0.9340913891792297
12.77070200,12770702,2,0.3570587635040283,-0.006256376393139362,0.0021648842375725508,0.9340584874153137
12.87077100,12870771,2,0.35711511969566345,-0.006292726378887892,0.002100002020597458,0.9340368509292603
12.97076500,12970765,2,0.35713064670562744,-0.0063264076597988605,0.002055479446426034,0.9340307712554932
13.07078200,13070782,2,0.35704588890075684,-0.006408227141946554,0.002096847165375948,0.9340625405311584
13.17076600,13170766,2,0.3569861948490143,-0.006646233610808849,0.00210596714168787,0.9340836405754089
13.27071800,13270718,2,0.3570481538772583,-0.006509608589112759,0.002043650485575199,0.9340610504150391
13.37068400,13370684,2,0.3571847677230835,-0.006648212671279907,0.0020053612533956766,0.9340079426765442
13.47069000,13470690,2,0.35731402039527893,-0.006571899633854628,0.0019586393609642982,0.9339591264724731
13.57068300,13570683,2,0.357741117477417,-0.006665971130132675,0.0019464179640635848,0.9337949752807617
13.67070000,13670700,2,0.35818204283714294,-0.006562615744769573,0.0019427130464464426,0.9336267113685608
13.77075600,13770756,2,0.3585970997810364,-0.0065298499539494514,0.001931481179781258,0.9334675669670105
13.87077600,13870776,2,0.3589463233947754,-0.006422143895179033,0.0018927984638139606,0.9333341717720032
13.97076900,13970769,2,0.35918065905570984,-0.0063531771302223206,0.0019448621897026896,0.9332444071769714
14.07075000,14070750,2,0.35931649804115295,-0.006249320227652788,0.0019736129324883223,0.9331927299499512
14.17072200,14170722,2,0.35935306549072266,-0.006071982905268669,0.002059256425127387,0.9331796765327454
14.27067800,14270678,2,0.3593175709247589,-0.005946123972535133,0.0021115464624017477,0.9331940412521362
14.37069100,14370691,2,0.3592185974121094,-0.005712584126740694,0.0021581961773335934,0.9332334995269775
14.47068200,14470682,2,0.36015406250953674,-0.005598924122750759,0.0022312861401587725,0.9328733682632446
14.57074000,14570740,2,0.36303386092185974,-0.005436842795461416,0.002324421890079975,0.9317572116851807
14.67076200,14670762,2,0.36786022782325745,-0.005271489266306162,0.002459482755511999,0.929862916469574
14.77075500,14770755,2,0.3740987181663513,-0.005093055311590433,0.0025899317115545273,0.9273712635040283
14.87078100,14870781,2,0.3811416029930115,-0.004913494922220707,0.0027265141252428293,0.9244995713233948
14.97077600,14970776,2,0.38786110281944275,-0.0048080990090966225,0.0028243770357221365,0.9217009544372559
15.07070800,15070708,2,0.39295247197151184,-0.0046668220311403275,0.002898817416280508,0.9195423722267151
15.17068200,15170682,2,0.39592742919921875,-0.004548854660242796,0.0029647445771843195,0.9182657599449158
15.27068100,15270681,2,0.3970259428024292,-0.0044829039834439754,0.003061495255678892,0.9177913069725037
15.37067800,15370678,2,0.3966832458972931,-0.004455601330846548,0.003040360752493143,0.9179397225379944
15.47071300,15470713,2,0.3954741656780243,-0.00441443407908082,0.0030991132371127605,0.918461263179779
15.57076000,15570760,2,0.3938274383544922,-0.004442084114998579,0.0031059233006089926,0.9191684126853943
15.67076500,15670765,2,0.39214828610420227,-0.004405994433909655,0.003126784460619092,0.9198861718177795
15.77077000,15770770,2,0.39052000641822815,-0.004462943412363529,0.0031929686665534973,0.9205780625343323
15.87076700,15870767,2,0.3890122175216675,-0.0044590686447918415,0.0032185749150812626,0.9212161898612976
15.97071400,15970714,2,0.3876422941684723,-0.004465293139219284,0.003212668700143695,0.9217934608459473
16.07067800,16070678,2,0.3862985372543335,-0.004501896910369396,0.0032195954117923975,0.9223572015762329
16.17068500,16170685,2,0.38497331738471985,-0.0044930302537977695,0.003205136628821492,0.9229112267494202
16.27067800,16270678,2,0.3837834596633911,-0.004472875501960516,0.0031677556689828634,0.9234068393707275
16.37073300,16370733,2,0.3826223313808441,-0.004511179402470589,0.0031441431492567062,0.9238884449005127
16.47074800,16470748,2,0.3815362751483917,-0.0045377351343631744,0.003129176562651992,0.9243374466896057
16.57076200,16570762,2,0.3804778456687927,-0.0045496211387217045,0.0030970959924161434,0.924773633480072
16.67077300,16670773,2,0.3794478476047516,-0.004581280052661896,0.003102309303358197,0.9251965880393982
16.77075900,16770759,2,0.37841635942459106,-0.004591851960867643,0.003111462574452162,0.9256188869476318
16.87071000,16870710,2,0.3772973120212555,-0.004586251452565193,0.0030955709517002106,0.9260756373405457
16.97068200,16970682,2,0.3762909770011902,-0.004540323745459318,0.0030908535700291395,0.9264852404594421
17.07067800,17070678,2,0.37534719705581665,-0.004584928508847952,0.003062767907977104,0.9268679022789001
17.17068100,17170681,2,0.3744230568408966,-0.0046501150354743,0.0030260328203439713,0.9272413849830627
17.27069900,17270699,2,0.3735937178134918,-0.0046233488246798515,0.0030345520935952663,0.927575945854187
17.37075500,17370755,2,0.37289902567863464,-0.004620952066034079,0.0030106978956609964,0.9278555512428284
17.47076400,17470764,2,0.3722919821739197,-0.004603294655680656,0.002996319904923439,0.9280993938446045
17.57078400,17570784,2,0.37173956632614136,-0.004623868502676487,0.0030216414015740156,0.9283206462860107
17.67075900,17670759,2,0.3710681200027466,-0.0046611083671450615,0.0030202257912606,0.9285890460014343
17.77071000,17770710,2,0.37024956941604614,-0.004661218263208866,0.002995569258928299,0.928915798664093
17.87068500,17870685,2,0.3693709373474121,-0.004652931820601225,0.0029677441343665123,0.9292656779289246
17.97068900,17970689,2,0.36848869919776917,-0.004669420886784792,0.0029802361968904734,0.9296157360076904
18.07067800,18070678,2,0.36765962839126587,-0.004700778517872095,0.0029418289195746183,0.9299439191818237
18.17069200,18170692,2,0.3669087588787079,-0.004745743703097105,0.002902580425143242,0.930240273475647
18.27075100,18270751,2,0.36611974239349365,-0.0047792354598641396,0.002865558722987771,0.9305510520935059
18.37076400,18370764,2,0.36537104845046997,-0.0048478939570486546,0.002847070572897792,0.9308449625968933
18.47077700,18470777,2,0.3647274672985077,-0.004899547901004553,0.002792621962726116,0.9310972094535828
18.57075800,18570758,2,0.3641737103462219,-0.004957995377480984,0.0028277221135795116,0.9313135743141174
18.67070800,18670708,2,0.36367785930633545,-0.004935882054269314,0.002847150433808565,0.9315073490142822
18.77068900,18770689,2,0.36325493454933167,-0.004954569973051548,0.0028302797582000494,0.9316723346710205
18.87068100,18870681,2,0.362817645072937,-0.004921543877571821,0.0028124451637268066,0.9318429231643677
18.97068900,18970689,2,0.36237698793411255,-0.004985538311302662,0.0027628799434751272,0.9320141673088074
19.07070400,19070704,2,0.3619351089000702,-0.0049659800715744495,0.0026997460518032312,0.9321861267089844
19.17075400,19170754,2,0.3614310622215271,-0.00502131087705493,0.0027183745987713337,0.9323813319206238
19.27076700,19270767,2,0.36086705327033997,-0.005052743013948202,0.0027243285439908504,0.9325996041297913
19.37077500,19370775,2,0.36032798886299133,-0.005124321673065424,0.0027969719376415014,0.9328073859214783
19.47076100,19470761,2,0.35979488492012024,-0.0051312800496816635,0.0027626510709524155,0.9330132007598877
19.57072000,19570720,2,0.3592549264431,-0.005107584875077009,0.002716492861509323,0.9332215189933777
19.67067900,19670679,2,0.3587579131126404,-0.005095540080219507,0.002681571990251541,0.9334129095077515
19.77068000,19770680,2,0.35832035541534424,-0.005079329013824463,0.002664384199306369,0.9335810542106628
19.87068400,19870684,2,0.3579663336277008,-0.0050994702614843845,0.0026710787788033485,0.9337167739868164
19.97068200,19970682,2,0.3576076626777649,-0.0051412926986813545,0.0027083740569651127,0.933853805065155
20.07075300,20070753,2,0.35731828212738037,-0.005095215048640966,0.002685701008886099,0.9339649081230164
20.17075700,20170757,2,0.35704225301742554,-0.0051560415886342525,0.0026854448951780796,0.9340701699256897
20.27076800,20270768,2,0.35676467418670654,-0.005153244361281395,0.0026723905466496944,0.9341762661933899
20.37076100,20370761,2,0.35648447275161743,-0.005137898027896881,0.0026325166691094637,0.934283435344696
20.47071100,20470711,2,0.35624757409095764,-0.0051328642293810844,0.0026210113428533077,0.9343738555908203
20.57067800,20570678,2,0.35605159401893616,-0.005060896743088961,0.0026522998232394457,0.9344488382339478
20.67067900,20670679,2,0.35584643483161926,-0.005091493483632803,0.0026414887979626656,0.9345268607139587
20.77068300,20770683,2,0.3556302487850189,-0.005046340636909008,0.00260930135846138,0.9346094727516174
20.87069900,20870699,2,0.35540562868118286,-0.005101113114506006,0.0026134864892810583,0.9346945881843567
20.97074300,20970743,2,0.3552004396915436,-0.005132882855832577,0.0026049658190459013,0.9347724318504333
21.07076100,21070761,2,0.35502108931541443,-0.005072514060884714,0.002574993297457695,0.934840977191925
21.17078100,21170781,2,0.35481810569763184,-0.005083320662379265,0.002589219016954303,0.9349179267883301
21.27076300,21270763,2,0.35456013679504395,-0.005098848603665829,0.0026083108969032764,0.9350156784057617
21.37070800,21370708,2,0.3544435501098633,-0.005108683370053768,0.0025841258466243744,0.9350599050521851
21.47068200,21470682,2,0.3543115258216858,-0.005157420411705971,0.002684262814000249,0.9351093769073486
21.57068000,21570680,2,0.354215532541275,-0.005137832835316658,0.002707217587158084,0.9351457953453064
21.67067900,21670679,2,0.3541479706764221,-0.005102445371448994,0.0026571250054985285,0.9351717233657837
21.77069800,21770698,2,0.3540404140949249,-0.00509236054494977,0.002660393016412854,0.9352124929428101
21.87076500,21870765,2,0.35399505496025085,-0.005137746687978506,0.002647607121616602,0.9352294206619263
21.97076700,21970767,2,0.3539693355560303,-0.005145111586898565,0.002675906755030155,0.9352390766143799
22.07077400,22070774,2,0.35398462414741516,-0.005173775367438793,0.0026725404895842075,0.9352331161499023
22.17077100,22170771,2,0.3540220856666565,-0.005195979494601488,0.0027160595636814833,0.9352186918258667
22.27071200,22270712,2,0.35404953360557556,-0.005104555282741785,0.002675965428352356,0.9352089166641235
22.37067900,22370679,2,0.35400983691215515,-0.005101492628455162,0.002692490816116333,0.9352239370346069
22.47068100,22470681,2,0.3539700210094452,-0.005107924807816744,0.0027308224234730005,0.9352388381958008
22.57068100,22570681,2,0.3538930416107178,-0.005028219893574715,0.002767676953226328,0.9352682828903198
22.67069700,22670697,2,0.3537611961364746,-0.005152469035238028,0.0027332769241183996,0.9353175759315491
22.77076600,22770766,2,0.35364529490470886,-0.004984372295439243,0.0027526221238076687,0.9353622794151306
22.87076300,22870763,2,0.3534940183162689,-0.0050442893989384174,0.002760303672403097,0.9354190826416016
22.97078400,22970784,2,0.3533933460712433,-0.005082043819129467,0.0027484705206006765,0.9354569911956787
23.07075900,23070759,2,0.35331863164901733,-0.005132604390382767,0.002796674147248268,0.935484766960144
23.17071000,23170710,2,0.35327473282814026,-0.0052285585552453995,0.002810524310916662,0.9355008006095886
23.27073000,23270730,2,0.3532368838787079,-0.005181650165468454,0.002829799195751548,0.935515284538269
23.37068300,23370683,2,0.3531002402305603,-0.005250075366348028,0.0028807262424379587,0.9355663061141968
23.47069100,23470691,2,0.35295170545578003,-0.005304924678057432,0.0028876694850623608,0.9356220364570618
23.57069400,23570694,2,0.35288530588150024,-0.00525654898956418,0.00287311221472919,0.9356474280357361
23.67076800,23670768,2,0.3528658151626587,-0.005294963251799345,0.0028746428433805704,0.9356545209884644
23.77076400,23770764,2,0.3528663218021393,-0.00525640556588769,0.0028401080053299665,0.9356546998023987
23.87077500,23870775,2,0.3528929352760315,-0.005244961008429527,0.00274748750962317,0.9356449842453003
23.97076000,23970760,2,0.352823406457901,-0.005321388598531485,0.0027555630076676607,0.9356707334518433
24.07071600,24070716,2,0.35279592871665955,-0.005313806235790253,0.00271734525449574,0.9356812238693237
24.17070800,24170708,2,0.35278621315956116,-0.005351563449949026,0.0026894882321357727,0.9356848001480103
24.27068800,24270688,2,0.3528115153312683,-0.005361310206353664,0.0027517506387084723,0.9356750249862671
24.37068500,24370685,2,0.35284724831581116,-0.005247142631560564,0.002731222426518798,0.9356622695922852
24.47069900,24470699,2,0.35297685861587524,-0.005302014295011759,0.002751502674072981,0.9356129765510559
24.57076100,24570761,2,0.35310983657836914,-0.005324820056557655,0.0027153610717505217,0.935562789440155
24.67076400,24670764,2,0.353257417678833,-0.005392806604504585,0.0027451866772025824,0.9355065822601318
24.77078200,24770782,2,0.35337626934051514,-0.005433504469692707,0.0027551583480089903,0.9354614615440369
24.87076100,24870761,2,0.35346609354019165,-0.0053964341059327126,0.0027496791444718838,0.935427725315094
24.97071900,24970719,2,0.3534644842147827,-0.005421783309429884,0.00274653360247612,0.9354282021522522
25.07068500,25070685,2,0.353456974029541,-0.005438720341771841,0.0027690872084349394,0.9354308843612671
25.17069400,25170694,2,0.35351791977882385,-0.005470613017678261,0.0027725547552108765,0.9354076385498047
25.27069200,25270692,2,0.35358917713165283,-0.00550498953089118,0.002815690590068698,0.9353803992271423
25.37068200,25370682,2,0.35365909337997437,-0.00551669392734766,0.002800815738737583,0.9353539347648621
25.47076500,25470765,2,0.3537296950817108,-0.005539397709071636,0.002767520258203149,0.9353271722793579
25.57076100,25570761,2,0.35384228825569153,-0.005537853576242924,0.0027566207572817802,0.9352846741676331
25.67076700,25670767,2,0.35391896963119507,-0.005538505036383867,0.002763372380286455,0.9352555871009827
25.77075100,25770751,2,0.3539585471153259,-0.0055896746926009655,0.002765136770904064,0.9352403283119202
25.87071700,25870717,2,0.35399720072746277,-0.005584872327744961,0.0027799485251307487,0.9352256655693054
25.97067800,25970678,2,0.35408341884613037,-0.005618866998702288,0.00272515881806612,0.9351930022239685
26.07068600,26070686,2,0.35410982370376587,-0.005633574444800615,0.002739527728408575,0.9351828694343567
26.17068900,26170689,2,0.35411831736564636,-0.005635807756334543,0.002746415790170431,0.935179591178894
26.27070100,26270701,2,0.35409051179885864,-0.005685028620064259,0.0026992512866854668,0.935189962387085
26.37076400,26370764,2,0.35407179594039917,-0.005689055658876896,0.0026637378614395857,0.9351971745491028
26.47076800,26470768,2,0.3540157079696655,-0.005756912752985954,0.0026504911947995424,0.9352179765701294
26.57078100,26570781,2,0.35399651527404785,-0.005760320462286472,0.0026915159542113543,0.9352251291275024
26.67075200,26670752,2,0.3539539873600006,-0.0057693892158567905,0.002731339307501912,0.9352410435676575
26.77071000,26770710,2,0.3538675308227539,-0.005757097154855728,0.0027768330182880163,0.9352737069129944
26.87068200,26870682,2,0.35389381647109985,-0.005727984942495823,0.002764526754617691,0.935263991355896
26.97067900,26970679,2,0.35385027527809143,-0.00570761039853096,0.0027383961714804173,0.9352806806564331
27.07067800,27070678,2,0.3538832664489746,-0.005728153977543116,0.0027977516874670982,0.9352678656578064
27.17068800,27170688,2,0.35384947061538696,-0.005748593248426914,0.0028168554417788982,0.9352805018424988
27.27075100,27270751,2,0.35385239124298096,-0.00576051976531744,0.0028308620676398277,0.9352792501449585
27.37076100,27370761,2,0.3538826107978821,-0.0057271248660981655,0.0028205057606101036,0.9352680444717407
27.47077400,27470774,2,0.35397350788116455,-0.0057306750677526,0.00285879778675735,0.9352335333824158
27.57076300,27570763,2,0.35399961471557617,-0.0056629907339811325,0.0028857861179858446,0.9352239966392517
27.67070900,27670709,2,0.35401251912117004,-0.00558435870334506,0.002836847910657525,0.9352197051048279
27.77068800,27770688,2,0.35397619009017944,-0.005638182628899813,0.0028246932197362185,0.9352331757545471
27.87068500,27870685,2,0.3538919687271118,-0.005662042181938887,0.0028169064316898584,0.9352649450302124
27.97067900,27970679,2,0.35387441515922546,-0.005647658370435238,0.002794652245938778,0.9352717399597168
28.07071900,28070719,2,0.3538382947444916,-0.005579784978181124,0.002780651906505227,0.9352858662605286
28.17076000,28170760,2,0.3537415862083435,-0.005575318355113268,0.002797525841742754,0.9353224039077759
28.27076400,28270764,2,0.35364431142807007,-0.005570098292082548,0.0028261977713555098,0.9353591203689575
28.37078100,28370781,2,0.3535982072353363,-0.005549161694943905,0.0028086218517273664,0.9353767037391663
28.47076400,28470764,2,0.35354670882225037,-0.005525636021047831,0.0028423164039850235,0.9353962540626526
28.57070900,28570709,2,0.3534521162509918,-0.005540837999433279,0.0028799008578062057,0.9354317784309387
28.67067700,28670677,2,0.35339275002479553,-0.005582957994192839,0.0028426742646843195,0.9354540705680847
28.77068600,28770686,2,0.35333365201950073,-0.005561641417443752,0.0028552250005304813,0.9354764819145203
28.87068200,28870682,2,0.35333532094955444,-0.005547857843339443,0.002879858948290348,0.9354758262634277
28.97069500,28970695,2,0.3533637523651123,-0.005568675696849823,0.002882503904402256,0.9354649782180786
29.07075100,29070751,2,0.3534260094165802,-0.005564831662923098,0.002830283483490348,0.9354416728019714
29.17076400,29170764,2,0.3535013198852539,-0.005495897494256496,0.002831430407240987,0.9354135990142822
29.27077100,29270771,2,0.35365086793899536,-0.0054809595458209515,0.0028555039316415787,0.9353570938110352
29.37075800,29370758,2,0.3537794351577759,-0.005534039810299873,0.002893423894420266,0.935308039188385
29.47071100,29470711,2,0.35388821363449097,-0.005555259063839912,0.002882307395339012,0.9352667927742004
29.57068400,29570684,2,0.3539881110191345,-0.0055258371867239475,0.00283412984572351,0.9352293014526367
29.67067800,29670678,2,0.354075163602829,-0.005494371056556702,0.0028373156674206257,0.9351965188980103
29.77068700,29770687,2,0.3541005253791809,-0.005471085198223591,0.002773338695988059,0.9351872205734253
29.87070500,29870705,2,0.3541223108768463,-0.005488250404596329,0.0027884230948984623,0.9351788759231567
29.97075600,29970756,2,0.3541194796562195,-0.0054523274302482605,0.0027820169925689697,0.935180127620697
30.07075300,30070753,2,0.35411888360977173,-0.005455241072922945,0.0027771187014877796,0.9351803660392761
30.17076700,30170767,2,0.3541393578052521,-0.005441844463348389,0.002791387028992176,0.9351726770401001
30.27074800,30270748,2,0.35418713092803955,-0.005391289480030537,0.0027896659448742867,0.9351548552513123
30.37070600,30370706,2,0.35417085886001587,-0.00534740649163723,0.002786659635603428,0.935161292552948
30.47067000,30470670,2,0.354133665561676,-0.0053429570980370045,0.0027428967878222466,0.9351755380630493
30.57066800,30570668,2,0.35408881306648254,-0.0052934931591153145,0.002721605123952031,0.935192883014679
30.67066700,30670667,2,0.3540531098842621,-0.005304582417011261,0.0027381321415305138,0.9352062940597534
30.77068000,30770680,2,0.35394012928009033,-0.005262728780508041,0.0027853422798216343,0.9352491497993469
30.87072700,30870727,2,0.35386237502098083,-0.005350879393517971,0.002757539041340351,0.9352781176567078
30.97075700,30970757,2,0.3538254201412201,-0.005279793869704008,0.0027416525408625603,0.9352925419807434
31.07076100,31070761,2,0.3537788391113281,-0.005257980898022652,0.002763074589893222,0.9353102445602417
31.17074800,31170748,2,0.353793203830719,-0.005241913255304098,0.002777361311018467,0.9353048801422119
31.27069900,31270699,2,0.3538241386413574,-0.005229670088738203,0.002749577397480607,0.9352933168411255
31.37066600,31370666,2,0.35383695363998413,-0.005189450923353434,0.002722523408010602,0.9352887868881226
31.47066900,31470669,2,0.35384321212768555,-0.005180781707167625,0.002727351849898696,0.9352864027023315
31.57066900,31570669,2,0.3537961542606354,-0.0051913452334702015,0.0026603734586387873,0.9353043437004089
31.67066600,31670666,2,0.35379528999328613,-0.005196642596274614,0.0026619024574756622,0.9353046417236328
31.77073800,31770738,2,0.3537676930427551,-0.005197534337639809,0.00264377286657691,0.9353151321411133
31.87075500,31870755,2,0.35376307368278503,-0.0052266535349190235,0.002621214836835861,0.935316801071167
31.97077200,31970772,2,0.35373571515083313,-0.00518822530284524,0.002653375966474414,0.9353272318840027
32.07075700,32070757,2,0.3537316620349884,-0.005220786202698946,0.0026406659744679928,0.9353286623954773
32.17070300,32170703,2,0.35364389419555664,-0.0052309799939394,0.0026340314652770758,0.9353618025779724
32.27066600,32270666,2,0.3535706400871277,-0.005267466884106398,0.002620584098622203,0.9353893399238586
32.37067100,32370671,2,0.35355284810066223,-0.005281634163111448,0.0026208292692899704,0.9353959560394287
32.47067000,32470670,2,0.35359877347946167,-0.005318797659128904,0.0026358591858297586,0.93537837266922
32.57067400,32570674,2,0.353630393743515,-0.0053095887415111065,0.0025343825109302998,0.9353667497634888
32.67074400,32670744,2,0.3537040948867798,-0.0053395554423332214,0.0025201712269335985,0.9353387355804443
32.77075000,32770750,2,0.35373857617378235,-0.005351891275495291,0.0024990004021674395,0.9353256821632385
32.87076100,32870761,2,0.35376623272895813,-0.005342280957847834,0.0024514675606042147,0.9353153705596924
32.97075200,32970752,2,0.35380297899246216,-0.005373775959014893,0.0024267269764095545,0.9353013634681702
33.07070500,33070705,2,0.35381001234054565,-0.005408306140452623,0.0024431212805211544,0.935298502445221
33.17067900,33170679,2,0.3537885546684265,-0.005429946817457676,0.0024080523289740086,0.9353065490722656
33.27067900,33270679,2,0.35378775000572205,-0.005420817993581295,0.002408767817541957,0.9353069067001343
33.37067700,33370677,2,0.3538258671760559,-0.005467846058309078,0.0023774998262524605,0.9352923035621643
33.47070100,33470701,2,0.35379064083099365,-0.005503918044269085,0.0023022438399493694,0.9353055953979492
33.57075100,33570751,2,0.35375118255615234,-0.005481164902448654,0.0023096916265785694,0.9353206753730774
33.67075200,33670752,2,0.35380101203918457,-0.005478809587657452,0.0023158956319093704,0.9353017807006836
33.77076700,33770767,2,0.3538583815097809,-0.005523345898836851,0.002260322216898203,0.9352799654006958
33.87075600,33870756,2,0.35389769077301025,-0.005575244780629873,0.002230513608083129,0.9352648854255676
33.97070500,33970705,2,0.35397544503211975,-0.005609836429357529,0.0021992246620357037,0.935235321521759
34.07068400,34070684,2,0.35396960377693176,-0.0055933985859155655,0.0021884602028876543,0.9352376461029053
34.17068300,34170683,2,0.35401472449302673,-0.005621296353638172,0.0021620742045342922,0.93522047996521
34.27066700,34270667,2,0.354034423828125,-0.005699362605810165,0.0021327806171029806,0.9352126121520996
34.37067600,34370676,2,0.35400640964508057,-0.0056542460806667805,0.0021247530821710825,0.9352234601974487
34.47072900,34470729,2,0.35400062799453735,-0.005614636465907097,0.0021391066256910563,0.9352259039878845
34.57075400,34570754,2,0.35399848222732544,-0.005625658202916384,0.0020394958555698395,0.9352268576622009
34.67082400,34670824,2,0.35406407713890076,-0.00564342737197876,0.00201958860270679,0.9352019429206848
34.77074600,34770746,2,0.354054719209671,-0.00558687886223197,0.002001294633373618,0.93520587682724
34.87069800,34870698,2,0.35401859879493713,-0.005543913692235947,0.0019664722494781017,0.9352198839187622
34.97066600,34970666,2,0.35402390360832214,-0.005507921800017357,0.002019037725403905,0.9352179765701294
35.07066700,35070667,2,0.35402125120162964,-0.005484224297106266,0.0020236335694789886,0.9352191090583801
35.17067000,35170670,2,0.35406655073165894,-0.005495977587997913,0.0019664375577121973,0.9352020025253296
35.27067500,35270675,2,0.3541473150253296,-0.005456987302750349,0.001973086968064308,0.9351716637611389
35.37073400,35370734,2,0.35420870780944824,-0.005444443318992853,0.0019222290720790625,0.9351485967636108
35.47075200,35470752,2,0.3542671203613281,-0.005437357816845179,0.001962261274456978,0.9351264238357544
35.57076400,35570764,2,0.354316383600235,-0.005429272074252367,0.0018845510203391314,0.935107946395874
35.67074900,35670749,2,0.35435107350349426,-0.005416422616690397,0.0019054798176512122,0.9350948333740234
35.77069800,35770698,2,0.3543570339679718,-0.005425895098596811,0.0018802819540724158,0.935092568397522
35.87067300,35870673,2,0.3543640375137329,-0.00535223912447691,0.001887865480966866,0.9350903034210205
35.97066600,35970666,2,0.35434120893478394,-0.005308184772729874,0.0018826470477506518,0.9350992441177368
36.07068500,36070685,2,0.35431408882141113,-0.005223010666668415,0.0017920545069500804,0.9351101517677307
36.17069200,36170692,2,0.3543151021003723,-0.0051528639160096645,0.0017773308791220188,0.9351102113723755
36.27073600,36270736,2,0.35438600182533264,-0.005203642882406712,0.0017528608441352844,0.9350830912590027
36.37075700,36370757,2,0.35444870591163635,-0.005229578353464603,0.001723022316582501,0.9350592494010925
36.47076100,36470761,2,0.3545520603656769,-0.005202654283493757,0.001786996959708631,0.9350200891494751
36.57076000,36570760,2,0.3546571731567383,-0.005184344481676817,0.001779790734872222,0.9349803328514099
36.67069900,36670699,2,0.3547315299510956,-0.005166863556951284,0.0017464787233620882,0.9349523186683655
36.77066900,36770669,2,0.35483044385910034,-0.005114779341965914,0.0017277768347412348,0.9349150657653809
36.87066900,36870669,2,0.3548888862133026,-0.00512433797121048,0.001689129858277738,0.9348928928375244
36.97067800,36970678,2,0.3549248278141022,-0.005157237872481346,0.0016523656668141484,0.9348791241645813
37.07066800,37070668,2,0.3549541234970093,-0.00518166646361351,0.0016229478642344475,0.9348679780960083
37.17074400,37170744,2,0.35500991344451904,-0.005197185557335615,0.0015672886511310935,0.9348467588424683
37.27075600,37270756,2,0.35502806305885315,-0.005176303442567587,0.0015673855086788535,0.9348400235176086
37.37076100,37370761,2,0.35505786538124084,-0.005200570449233055,0.0016120444051921368,0.9348284602165222
37.47074700,37470747,2,0.3550269901752472,-0.0052132150158286095,0.0015521887689828873,0.934840202331543
37.57070200,37570702,2,0.3550305962562561,-0.005188939161598682,0.0015095643466338515,0.9348390698432922
37.67067100,37670671,2,0.3550707697868347,-0.005117602646350861,0.001491906470619142,0.9348242282867432
37.77066900,37770669,2,0.3550645112991333,-0.00510959979146719,0.0015360857360064983,0.9348265528678894
37.87067300,37870673,2,0.3549867272377014,-0.005103560630232096,0.0015473422827199101,0.934856116771698
37.97073400,37970734,2,0.3549760580062866,-0.0051033697091042995,0.0015042952727526426,0.9348602294921875
38.07074200,38070742,2,0.35492053627967834,-0.005104433745145798,0.001486691297031939,0.934881329536438
38.17075300,38170753,2,0.3548547029495239,-0.005102721508592367,0.0014801661018282175,0.9349063634872437
38.27076600,38270766,2,0.35477712750434875,-0.005096753127872944,0.0015086368657648563,0.9349358081817627
38.37076800,38370768,2,0.35476386547088623,-0.005079967901110649,0.0015234609600156546,0.9349408745765686
38.47069800,38470698,2,0.35477888584136963,-0.0050590368919074535,0.0015083524631336331,0.9349353313446045
38.57066700,38570667,2,0.35473453998565674,-0.005048627499490976,0.0015242527006193995,0.9349521994590759
38.67067100,38670671,2,0.3547115623950958,-0.005068983882665634,0.0015040156431496143,0.9349608421325684
38.77067700,38770677,2,0.3546872138977051,-0.005103305913507938,0.0014726819936186075,0.934969961643219
38.87067500,38870675,2,0.3547113835811615,-0.005065074656158686,0.0014972876524552703,0.9349609017372131
38.97075600,38970756,2,0.3546452820301056,-0.005045486614108086,0.0014888428850099444,0.9349861145019531
39.07074900,39070749,2,0.3546385169029236,-0.005058688577264547,0.0015746733406558633,0.9349884986877441
39.17075800,39170758,2,0.35463401675224304,-0.005033643450587988,0.0015439180424436927,0.9349903464317322
39.27075900,39270759,2,0.3546443283557892,-0.005006612744182348,0.0015788539312779903,0.9349865317344666
39.37070600,39370706,2,0.354638934135437,-0.005018997937440872,0.0015696174232289195,0.9349885582923889
39.47067700,39470677,2,0.3546867370605469,-0.00503908796235919,0.0015893894014880061,0.9349702596664429
39.57068400,39570684,2,0.35471388697624207,-0.005063558463007212,0.0015502201858907938,0.934959888458252
39.67068000,39670680,2,0.3547615110874176,-0.005051401909440756,0.00159443577285856,0.934941828250885
39.77070800,39770708,2,0.3548499047756195,-0.00503400806337595,0.0015553859993815422,0.9349084496498108
39.87072600,39870726,2,0.35488009452819824,-0.0050230734050273895,0.0015440445858985186,0.9348970651626587
39.97075600,39970756,2,0.3549228608608246,-0.0049974084831774235,0.0015266122063621879,0.9348809719085693
40.07077300,40070773,2,0.35496267676353455,-0.004962008446455002,0.0015382742276415229,0.9348660111427307
40.17076000,40170760,2,0.35497063398361206,-0.004976578056812286,0.0015636575408279896,0.9348629117012024
40.27070600,40270706,2,0.3550030589103699,-0.004989293869584799,0.0015796421794220805,0.9348505139350891
40.37067500,40370675,2,0.3550468981266022,-0.0050345128402113914,0.0015773321501910686,0.9348335862159729
40.47068000,40470680,2,0.35509955883026123,-0.0050237602554261684,0.0015785199357196689,0.9348136782646179
40.57067800,40570678,2,0.3551473319530487,-0.005036425776779652,0.001580911921337247,0.9347954392433167
40.67068400,40670684,2,0.3551793098449707,-0.005046249367296696,0.0015520754968747497,0.9347832798957825
40.77074400,40770744,2,0.3552134931087494,-0.005067705176770687,0.001551013090647757,0.9347701668739319
40.87074300,40870743,2,0.35528016090393066,-0.0051010786555707455,0.001550141954794526,0.934744656085968
40.97076700,40970767,2,0.35532140731811523,-0.0050580925308167934,0.0015627335524186492,0.9347292184829712
41.07074500,41070745,2,0.3553465008735657,-0.005043739452958107,0.001559005118906498,0.9347197413444519
41.17070400,41170704,2,0.3553431034088135,-0.005072990898042917,0.0015912937233224511,0.9347208142280579
41.27067200,41270672,2,0.35533425211906433,-0.005083972588181496,0.001588107319548726,0.9347241520881653
41.37066600,41370666,2,0.3553168475627899,-0.005131438374519348,0.0016243113204836845,0.9347304105758667
41.47066900,41470669,2,0.35534438490867615,-0.005116195417940617,0.0016983625246211886,0.9347199201583862
41.57067400,41570674,2,0.35535579919815063,-0.0051321773789823055,0.001624750904738903,0.9347156286239624
41.67072000,41670720,2,0.3553684651851654,-0.005151618737727404,0.0016187340952455997,0.934710681438446
41.77075000,41770750,2,0.35542792081832886,-0.005125861614942551,0.0016560519579797983,0.934688150882721
41.87076700,41870767,2,0.3554534912109375,-0.005146494135260582,0.0016320577124133706,0.9346783757209778
41.97075000,41970750,2,0.3555038869380951,-0.005134677514433861,0.0016568552237004042,0.9346592426300049
42.07069700,42070697,2,0.3555467128753662,-0.0051293144933879375,0.0016707509057596326,0.9346429705619812
42.17067000,42170670,2,0.35556653141975403,-0.005141737405210733,0.0016163171967491508,0.9346354603767395
42.27066900,42270669,2,0.3554981052875519,-0.005158246960490942,0.0015875103417783976,0.9346614480018616
42.37066700,42370667,2,0.35551097989082336,-0.005146653391420841,0.0016023567877709866,0.93465656042099
42.47068300,42470683,2,0.35550692677497864,-0.005159465130418539,0.0016023898497223854,0.9346580505371094
42.57074200,42570742,2,0.35552653670310974,-0.005159660708159208,0.0015955076087266207,0.9346505999565125
42.67074400,42670744,2,0.3555629849433899,-0.005148319993168116,0.0015770476311445236,0.9346368312835693
42.77075700,42770757,2,0.35558345913887024,-0.005157898645848036,0.001541875652037561,0.9346290230751038
42.87074700,42870747,2,0.3556102216243744,-0.005187337286770344,0.0015528424410149455,0.9346186518669128
42.97070600,42970706,2,0.3556359112262726,-0.005180659703910351,0.0015540624735876918,0.9346089363098145
43.07066700,43070667,2,0.3556414842605591,-0.005245978012681007,0.0015561248874291778,0.9346064329147339
43.17066900,43170669,2,0.3556719720363617,-0.005250226240605116,0.0016008048551157117,0.9345947504043579
43.27067400,43270674,2,0.35569310188293457,-0.005268181674182415,0.0016289461636915803,0.9345865249633789
43.37066700,43370667,2,0.35571324825286865,-0.005315270274877548,0.0016678139800205827,0.934578537940979
43.47073700,43470737,2,0.35566943883895874,-0.005326326936483383,0.0016528309788554907,0.9345951676368713
43.57075900,43570759,2,0.35570237040519714,-0.005362269934266806,0.0016953235026448965,0.9345823526382446
43.67076100,43670761,2,0.3557194471359253,-0.005416583735495806,0.001702719833701849,0.9345755577087402
43.77075200,43770752,2,0.35573408007621765,-0.0053759547881782055,0.001698134932667017,0.9345701932907104
43.87070200,43870702,2,0.35575902462005615,-0.005379148293286562,0.00164320960175246,0.9345607757568359
43.97066600,43970666,2,0.35573112964630127,-0.005367460194975138,0.0016281683929264545,0.9345715045928955
44.07066800,44070668,2,0.3557398319244385,-0.005385053809732199,0.001591671840287745,0.9345681667327881
44.17067000,44170670,2,0.3557967245578766,-0.005421692505478859,0.0015870906645432115,0.9345462918281555
44.27068700,44270687,2,0.35592949390411377,-0.005427784752100706,0.0015730770537629724,0.934495747089386
44.37073600,44370736,2,0.3559711277484894,-0.005428154952824116,0.0016198735684156418,0.9344797730445862
44.47075900,44470759,2,0.3559626638889313,-0.005489580798894167,0.0016300530405715108,0.9344826340675354
44.57076200,44570762,2,0.35596251487731934,-0.005476369522511959,0.0016926283715292811,0.9344826340675354
44.67075800,44670758,2,0.35593900084495544,-0.005457659717649221,0.001756913959980011,0.9344916343688965
44.77069600,44770696,2,0.3559392988681793,-0.0054282271303236485,0.0017636694246903062,0.9344916343688965
44.87068000,44870680,2,0.35593026876449585,-0.005432683043181896,0.001733814482577145,0.9344950914382935
44.97067100,44970671,2,0.3559277057647705,-0.005455676466226578,0.0017084155697375536,0.9344959855079651
45.07066600,45070666,2,0.3559839427471161,-0.0054743350483477116,0.0016811385285109282,0.934474527835846
45.17070000,45170700,2,0.35600951313972473,-0.005494978278875351,0.001686002011410892,0.9344646334648132
45.27074300,45270743,2,0.3560420274734497,-0.005431183613836765,0.0017016467172652483,0.9344525933265686
45.37074800,45370748,2,0.35610726475715637,-0.0054414160549640656,0.0016929741250351071,0.9344276785850525
45.47077000,45470770,2,0.35614731907844543,-0.005465534515678883,0.0017008250579237938,0.9344123005867004
45.57076600,45570766,2,0.356138676404953,-0.005460327956825495,0.0016925875097513199,0.9344156384468079
45.67070600,45670706,2,0.3561164438724518,-0.005506203975528479,0.001686162780970335,0.9344238638877869
45.77066600,45770666,2,0.3561401963233948,-0.0054957009851932526,0.0016971823060885072,0.934414803981781
45.87067600,45870676,2,0.3561306297779083,-0.005538616329431534,0.0016531565925106406,0.9344183206558228
45.97066800,45970668,2,0.35612815618515015,-0.005578646901994944,0.0017062749247998,0.9344189167022705
46.07068700,46070687,2,0.3561711609363556,-0.00561151560395956,0.0017161783762276173,0.9344022870063782
46.17075100,46170751,2,0.35617855191230774,-0.005581979174166918,0.0017511681653559208,0.9343996047973633
46.27075400,46270754,2,0.35620200634002686,-0.005613943561911583,0.0017734356224536896,0.9343904256820679
46.37077100,46370771,2,0.35623207688331604,-0.005603712052106857,0.001758310361765325,0.9343790411949158
46.47076000,46470760,2,0.3562028110027313,-0.005531825590878725,0.00173397664912045,0.934390664100647
46.57070300,46570703,2,0.3561626672744751,-0.005532686598598957,0.0017171131912618876,0.934406042098999
46.67066600,46670666,2,0.35614675283432007,-0.005539701785892248,0.001691916142590344,0.9344120621681213
46.77066800,46770668,2,0.3561391830444336,-0.005528852343559265,0.0016711754724383354,0.9344150424003601
46.87067300,46870673,2,0.3561917543411255,-0.005539525765925646,0.001678489614278078,0.9343949556350708
46.97068400,46970684,2,0.35616379976272583,-0.005545295309275389,0.0016496186144649982,0.9344056248664856
47.07073400,47070734,2,0.3561885952949524,-0.00558047741651535,0.0016731901559978724,0.9343959093093872
47.17075200,47170752,2,0.3562091588973999,-0.005618441849946976,0.0016573024913668633,0.9343878626823425
47.27076400,47270764,2,0.35624364018440247,-0.005625438876450062,0.0016760706203058362,0.9343746900558472
47.37074500,47370745,2,0.35627347230911255,-0.005628291051834822,0.0017160035204142332,0.9343631863594055
47.47070100,47470701,2,0.3562542498111725,-0.005671683233231306,0.0016882243799045682,0.9343703389167786
47.57067800,47570678,2,0.356290340423584,-0.005701315123587847,0.0016862632473930717,0.9343563914299011
47.67066600,47670666,2,0.3562488257884979,-0.005677215754985809,0.0016610334860160947,0.9343724250793457
47.77066700,47770667,2,0.35626280307769775,-0.00572441890835762,0.0016087305266410112,0.9343668818473816
47.87073100,47870731,2,0.3562471866607666,-0.005734531208872795,0.0015946918865665793,0.9343727827072144
47.97074900,47970749,2,0.3562817871570587,-0.005769751500338316,0.0015813173959031701,0.9343594312667847
48.07074700,48070747,2,0.3562876880168915,-0.005771654658019543,0.0015631034038960934,0.9343571662902832
48.17077100,48170771,2,0.3562769889831543,-0.005700522568076849,0.001556547824293375,0.9343616962432861
48.27074900,48270749,2,0.3562611937522888,-0.005761577747762203,0.0015676403418183327,0.9343673586845398
48.37070700,48370707,2,0.35628727078437805,-0.005706735886633396,0.0015386338345706463,0.934357762336731
48.47066900,48470669,2,0.3563621938228607,-0.005738493055105209,0.0015475315740332007,0.9343289732933044
48.57066900,48570669,2,0.35639867186546326,-0.005785714834928513,0.0014882823452353477,0.9343148469924927
48.67066600,48670666,2,0.35640257596969604,-0.00574012566357851,0.001436700695194304,0.9343137741088867
48.77069400,48770694,2,0.3564341366291046,-0.005732317920774221,0.0013849310344085097,0.9343018531799316
48.87075300,48870753,2,0.3564278483390808,-0.005765167064964771,0.0013575529446825385,0.9343040585517883
48.97076200,48970762,2,0.3564000129699707,-0.005784063134342432,0.0013307895278558135,0.9343146085739136
49.07075600,49070756,2,0.3563978970050812,-0.005821065045893192,0.0013032351853325963,0.9343152642250061
49.17074300,49170743,2,0.35636040568351746,-0.005829034373164177,0.001227560336701572,0.9343295693397522
49.27071300,49270713,2,0.3563961386680603,-0.005793571472167969,0.0011994328815490007,0.9343162178993225
49.37066600,49370666,2,0.35640227794647217,-0.005737713072448969,0.0011819243663921952,0.9343142509460449
49.47067900,49470679,2,0.35644808411598206,-0.005701330956071615,0.0011946894228458405,0.9342969655990601
49.57068900,49570689,2,0.3564909100532532,-0.005708524025976658,0.001174489501863718,0.9342806339263916
49.67068700,49670687,2,0.356572687625885,-0.005679340101778507,0.0011314792791381478,0.9342496395111084
49.77074900,49770749,2,0.35661056637763977,-0.005673072300851345,0.0011354722082614899,0.9342352151870728
49.87076100,49870761,2,0.3566524088382721,-0.00570767791941762,0.001089978963136673,0.9342190623283386
49.97076000,49970760,2,0.35672393441200256,-0.0057371011935174465,0.0010566931450739503,0.9341916441917419
50.07075600,50070756,2,0.3567526638507843,-0.005745777394622564,0.0010623990092426538,0.9341806173324585
50.17070900,50170709,2,0.3567952811717987,-0.005754169076681137,0.0010338794672861695,0.93416428565979
50.27067500,50270675,2,0.3568030893802643,-0.0058002895675599575,0.0010254145599901676,0.9341610670089722
50.37067000,50370670,2,0.3568319082260132,-0.005810930393636227,0.0010414524003863335,0.934149980545044
50.47067100,50470671,2,0.3568283021450043,-0.005865618586540222,0.0010687343310564756,0.9341509342193604
50.57072000,50570720,2,0.35684120655059814,-0.005832281429320574,0.0010495781898498535,0.9341462850570679
50.67074000,50670740,2,0.3568510115146637,-0.005804192274808884,0.001066997298039496,0.9341426491737366
50.77074900,50770749,2,0.3568885326385498,-0.005817405879497528,0.001057290704920888,0.9341282844543457
50.87077700,50870777,2,0.3569563031196594,-0.005819834768772125,0.0010894682491198182,0.9341022968292236
50.97076900,50970769,2,0.35698428750038147,-0.005832216702401638,0.001113164471462369,0.9340915083885193
51.07069600,51070696,2,0.35701602697372437,-0.005904747638851404,0.0010900284396484494,0.9340789318084717
51.17067500,51170675,2,0.35701435804367065,-0.005857903975993395,0.001100899768061936,0.9340798854827881
51.27067100,51270671,2,0.35698938369750977,-0.005920906085520983,0.0011087775928899646,0.9340890049934387
51.37066700,51370667,2,0.3569919764995575,-0.005929242353886366,0.0011069929460063577,0.9340879917144775
51.47068600,51470686,2,0.3570001423358917,-0.005916721653193235,0.0010961726075038314,0.934084951877594
51.57075500,51570755,2,0.3569796681404114,-0.0059397341683506966,0.001064554089680314,0.93409264087677
51.67075100,51670751,2,0.3569880723953247,-0.005953118670731783,0.0010264075826853514,0.9340894222259521
51.77075800,51770758,2,0.3569880723953247,-0.0059821815229952335,0.0010387132642790675,0.9340892434120178
51.87075400,51870754,2,0.3569728434085846,-0.0060043358244001865,0.0010479830671101809,0.9340949058532715
51.97069600,51970696,2,0.35692867636680603,-0.005980142392218113,0.0010702746221795678,0.9341118931770325
52.07066600,52070666,2,0.35695797204971313,-0.005947914440184832,0.0010264322627335787,0.9341009259223938
52.17067300,52170673,2,0.35698163509368896,-0.005870759021490812,0.0009936767164617777,0.9340924024581909
52.27066600,52270666,2,0.3570116460323334,-0.005851351656019688,0.001035176101140678,0.9340810179710388
52.37069500,52370695,2,0.35706251859664917,-0.005873157177120447,0.0010295759420841932,0.9340614676475525
52.47073500,52470735,2,0.3570919334888458,-0.005864423234015703,0.0010012235725298524,0.9340503215789795
52.57075100,52570751,2,0.3571321964263916,-0.0059011997655034065,0.0010243855649605393,0.9340346455574036
52.67077000,52670770,2,0.3571339547634125,-0.005847196094691753,0.0010375038255006075,0.9340342879295349
52.77074700,52770747,2,0.3571687638759613,-0.005914708599448204,0.001052964013069868,0.9340205788612366
52.87069800,52870698,2,0.3572276830673218,-0.00587024912238121,0.0010344001930207014,0.9339982867240906
52.97066900,52970669,2,0.35726284980773926,-0.0058424086309969425,0.000992350047454238,0.9339851140975952
53.07066800,53070668,2,0.357305645942688,-0.005836151540279388,0.0010139963123947382,0.933968722820282
53.17067300,53170673,2,0.35728776454925537,-0.005837911274284124,0.0010421702172607183,0.9339755177497864
53.27069400,53270694,2,0.35729292035102844,-0.0058197868056595325,0.0010529126739129424,0.9339736700057983
53.37072300,53370723,2,0.35722285509109497,-0.005847067106515169,0.0010389293311163783,0.9340003132820129
53.47075200,53470752,2,0.35722923278808594,-0.00584664661437273,0.0009718149085529149,0.9339979290962219
53.57077500,53570775,2,0.3572143018245697,-0.0058322204276919365,0.0010223963763564825,0.9340037107467651
53.67074400,53670744,2,0.35725247859954834,-0.0058752926997840405,0.0010413307463750243,0.9339888095855713
53.77069600,53770696,2,0.35727035999298096,-0.005878681316971779,0.0010821908945217729,0.9339818954467773
53.87067300,53870673,2,0.3573068082332611,-0.005884265527129173,0.0010500311618670821,0.9339679479598999
53.97066800,53970668,2,0.3573002815246582,-0.005851021036505699,0.0010589675512164831,0.9339706301689148
54.07066700,54070667,2,0.35729745030403137,-0.005871838890016079,0.0010800367454066873,0.9339715838432312
54.17069400,54170694,2,0.3572785556316376,-0.005900773219764233,0.0010468910913914442,0.9339786767959595
54.27074300,54270743,2,0.3572569489479065,-0.005912155844271183,0.0010343603789806366,0.9339868426322937
54.37075300,54370753,2,0.3572673499584198,-0.005890571512281895,0.0010555278277024627,0.9339829683303833
54.47077300,54470773,2,0.357294499874115,-0.005923546385020018,0.0010849020909518003,0.9339723587036133
54.57074900,54570749,2,0.35731109976768494,-0.005882637575268745,0.001049693557433784,0.9339662790298462
54.67069800,54670698,2,0.3573301434516907,-0.005882658064365387,0.0010598312364891171,0.9339590072631836
54.77066600,54770666,2,0.35734206438064575,-0.005812105257064104,0.0010302863083779812,0.9339549541473389
54.87067000,54870670,2,0.35738056898117065,-0.005843230057507753,0.0009904097532853484,0.933940052986145
54.97067100,54970671,2,0.3574105501174927,-0.005850810091942549,0.0009755247738212347,0.9339285492897034
55.07068600,55070686,2,0.35740384459495544,-0.005845777224749327,0.0009593161521479487,0.9339311718940735
55.17074400,55170744,2,0.35739922523498535,-0.005858849734067917,0.000989739433862269,0.9339327812194824
55.27075800,55270758,2,0.3573625385761261,-0.005858265794813633,0.0009973380947485566,0.9339468479156494
55.37076800,55370768,2,0.35741183161735535,-0.005848026368767023,0.0009908390929922462,0.9339280724525452
55.47076500,55470765,2,0.3574044108390808,-0.00580904446542263,0.0010114727774634957,0.9339311122894287
55.57071100,55570711,2,0.35738879442214966,-0.005831537302583456,0.001010037143714726,0.9339369535446167
55.67066600,55670666,2,0.35737180709838867,-0.005798692349344492,0.0009873060043901205,0.9339436888694763
55.77068300,55770683,2,0.35737574100494385,-0.005771966651082039,0.0009757219231687486,0.9339423179626465
55.87067800,55870678,2,0.35742923617362976,-0.005722911562770605,0.0009461602312512696,0.9339222311973572
55.97068700,55970687,2,0.35742801427841187,-0.0056944540701806545,0.000915251555852592,0.9339228868484497
56.07073700,56070737,2,0.35746484994888306,-0.005628157872706652,0.000890890252776444,0.9339091777801514
56.17075000,56170750,2,0.35750362277030945,-0.005600166507065296,0.000871051917783916,0.9338945746421814
56.27075800,56270758,2,0.3575160503387451,-0.005591607186943293,0.0008109716000035405,0.9338899254798889
56.37074900,56370749,2,0.3575308620929718,-0.005544276442378759,0.0008292156271636486,0.9338845014572144
56.47069800,56470698,2,0.3575572073459625,-0.005527266301214695,0.0008608064381405711,0.9338744878768921
56.57067400,56570674,2,0.3576204776763916,-0.005589150823652744,0.000907384674064815,0.9338498711585999
56.67066600,56670666,2,0.35768601298332214,-0.005576224531978369,0.0008961670682765543,0.9338248372077942
56.77067000,56770670,2,0.3577444553375244,-0.005575445014983416,0.0009396692621521652,0.9338024258613586
56.87068800,56870688,2,0.35779768228530884,-0.005498352460563183,0.0009298831573687494,0.9337824583053589
56.97074900,56970749,2,0.3578137159347534,-0.005491947755217552,0.0009576904703862965,0.933776319026947
57.07074800,57070748,2,0.35786885023117065,-0.005500694736838341,0.0009570421534590423,0.9337551593780518
57.17076500,57170765,2,0.35791143774986267,-0.005466953851282597,0.000997740775346756,0.9337390065193176
57.27075800,57270758,2,0.3579561710357666,-0.005470732226967812,0.0010016890009865165,0.9337218403816223
57.37070300,57370703,2,0.35797831416130066,-0.0054730321280658245,0.0010614220518618822,0.9337132573127747
57.47067000,57470670,2,0.35799574851989746,-0.005438742693513632,0.0010717902332544327,0.9337067604064941
57.57067400,57570674,2,0.35801616311073303,-0.005449939053505659,0.0010557315545156598,0.9336988925933838
57.67066600,57670666,2,0.3580731451511383,-0.0053926738910377026,0.0010273400694131851,0.9336773753166199
57.77072300,57770723,2,0.3581109941005707,-0.005355536006391048,0.0010754909599199891,0.9336630702018738
57.87074000,57870740,2,0.3581106662750244,-0.005383925978094339,0.0010931551223620772,0.933663010597229
57.97075200,57970752,2,0.35809653997421265,-0.005397407338023186,0.0011267183581367135,0.9336682558059692
58.07076500,58070765,2,0.35815420746803284,-0.005367600824683905,0.0011301300255581737,0.9336463212966919
58.17075500,58170755,2,0.35821065306663513,-0.005367066711187363,0.0010853493586182594,0.9336247444152832
58.27069900,58270699,2,0.3582666218280792,-0.005328601226210594,0.0010673943907022476,0.9336035251617432
58.37066700,58370667,2,0.35828328132629395,-0.00535416416823864,0.0010947020491585135,0.9335969090461731
58.47067300,58470673,2,0.35831016302108765,-0.0053389836102724075,0.0010874953586608171,0.9335867166519165
58.57067500,58570675,2,0.3583625853061676,-0.005370774772018194,0.001095883664675057,0.9335663914680481
58.67068800,58670688,2,0.3583713173866272,-0.005318149458616972,0.0010763275204226375,0.9335633516311646
58.77072300,58770723,2,0.35841646790504456,-0.00529317744076252,0.001086594769731164,0.9335461854934692
58.87075100,58870751,2,0.3584909737110138,-0.00523475231602788,0.0011092911008745432,0.9335178732872009
58.97076300,58970763,2,0.35849079489707947,-0.005182815250009298,0.0011109127663075924,0.9335182309150696
59.07074600,59070746,2,0.35851410031318665,-0.005137501284480095,0.0011475657811388373,0.9335094690322876
59.17070000,59170700,2,0.3584977686405182,-0.005094487220048904,0.0011726291850209236,0.9335159659385681
59.27067100,59270671,2,0.35845866799354553,-0.005051069427281618,0.00118395802564919,0.9335311651229858
59.37066600,59370666,2,0.3584806025028229,-0.00501843448728323,0.0012153424322605133,0.9335228800773621
59.47067000,59470670,2,0.35845983028411865,-0.004975153133273125,0.0012364746071398258,0.9335310459136963
59.57068800,59570688,2,0.35844916105270386,-0.004946570377796888,0.0012830430641770363,0.9335352778434753
59.67073400,59670734,2,0.35844117403030396,-0.00493698101490736,0.001302663586102426,0.9335383772850037
59.77075500,59770755,2,0.35844114422798157,-0.00492840725928545,0.001331500243395567,0.9335383772850037
59.87077200,59870772,2,0.3584473431110382,-0.004952988121658564,0.0013501874636858702,0.9335358142852783
59.97074900,59970749,2,0.3584640622138977,-0.004976804833859205,0.0013161372626200318,0.9335293173789978
60.07069900,60070699,2,0.35848701000213623,-0.004957349970936775,0.0012858157278969884,0.9335206747055054
60.17066900,60170669,2,0.358476847410202,-0.004962374921888113,0.0012643198715522885,0.9335245490074158
60.27066600,60270666,2,0.3584733009338379,-0.004944409243762493,0.001267232815735042,0.9335260391235352
60.37066800,60370668,2,0.3584928512573242,-0.004987725522369146,0.0012365930015221238,0.9335183501243591
60.47068000,60470680,2,0.35845690965652466,-0.00503855524584651,0.0012301754904910922,0.9335318803787231
60.57073700,60570737,2,0.3584771752357483,-0.005012555047869682,0.0012350822798907757,0.9335241913795471
60.67075400,60670754,2,0.3584403395652771,-0.004996126051992178,0.0012652295408770442,0.9335383772850037
60.77076300,60770763,2,0.35839036107063293,-0.004988796543329954,0.0013066640822216868,0.9335575699806213
60.87074700,60870747,2,0.358336478471756,-0.004987691529095173,0.0013042299542576075,0.9335782527923584
60.97069900,60970699,2,0.35828015208244324,-0.004951615817844868,0.001331521663814783,0.9336000680923462
61.07066700,61070667,2,0.35821083188056946,-0.004930501338094473,0.0013404682977125049,0.9336267113685608
61.17067100,61170671,2,0.3581990897655487,-0.004950813017785549,0.001363116200082004,0.9336311221122742
61.27067000,61270670,2,0.3582202196121216,-0.00496425898745656,0.0014123668661341071,0.9336228370666504
61.37069700,61370697,2,0.35825374722480774,-0.004957410041242838,0.0014156752731651068,0.9336100220680237
61.47075000,61470750,2,0.3582300841808319,-0.004971940070390701,0.0014507778687402606,0.93361896276474
61.57075600,61570756,2,0.3582930862903595,-0.0049577089957892895,0.0014867897843942046,0.933594822883606
61.67075700,61670757,2,0.3583378791809082,-0.004954167641699314,0.0015023913001641631,0.9335775971412659
61.77074500,61770745,2,0.3584171533584595,-0.004928120877593756,0.001542766229249537,0.9335472583770752
61.87070300,61870703,2,0.3585091233253479,-0.004959401674568653,0.0015991595573723316,0.9335116744041443
61.97066800,61970668,2,0.3585594892501831,-0.004980127327144146,0.0015912627568468451,0.9334922432899475
62.07067100,62070671,2,0.3586258888244629,-0.005013571586459875,0.0015726226847618818,0.9334666132926941
62.17066900,62170669,2,0.35864439606666565,-0.004994327202439308,0.0015908819623291492,0.9334595203399658
62.27069700,62270697,2,0.35869425535202026,-0.005029009655117989,0.0016468563117086887,0.933440089225769
62.37075200,62370752,2,0.35871195793151855,-0.005038437899202108,0.0016538560157641768,0.9334332346916199
62.47074500,62470745,2,0.3587256371974945,-0.0050362334586679935,0.0016057551838457584,0.9334281086921692
62.57076600,62570766,2,0.3587915301322937,-0.005053687375038862,0.001577987801283598,0.9334027171134949
62.67075800,62670758,2,0.3588171601295471,-0.005050285719335079,0.0015458721900358796,0.9333929419517517
62.77069800,62770698,2,0.35878634452819824,-0.005040787160396576,0.0015287812566384673,0.9334048628807068
62.87067700,62870677,2,0.35879695415496826,-0.00507770711556077,0.0014762699138373137,0.9334006309509277
62.97067000,62970670,2,0.35877707600593567,-0.00515847047790885,0.001484123058617115,0.9334078431129456
63.07066700,63070667,2,0.3588239550590515,-0.005168459843844175,0.0015189658151939511,0.9333897233009338
63.17067200,63170672,2,0.3588121235370636,-0.00522093428298831,0.0015580153558403254,0.9333938956260681
63.27075100,63270751,2,0.35880419611930847,-0.005174631718546152,0.0015181207563728094,0.9333972930908203
63.37075400,63370754,2,0.35876449942588806,-0.00516916997730732,0.0014798372285440564,0.9334126114845276
63.47076000,63470760,2,0.3587338924407959,-0.005174999590963125,0.001516680116765201,0.9334242939949036
63.57076900,63570769,2,0.35867971181869507,-0.005137240048497915,0.0014814198948442936,0.933445394039154
63.67070000,63670700,2,0.3586795926094055,-0.005158402491360903,0.0014819166390225291,0.9334453344345093
63.77066800,63770668,2,0.35868096351623535,-0.005141755100339651,0.0014732932904735208,0.9334449172019958
63.87067200,63870672,2,0.3587118983268738,-0.005150456912815571,0.0014344333903864026,0.9334329962730408
63.97067100,63970671,2,0.3587591052055359,-0.0051528592593967915,0.0014132686192169785,0.933414876461029
64.07068200,64070682,2,0.3587712049484253,-0.005048772785812616,0.0013845276553183794,0.9334108233451843
64.17076600,64170766,2,0.35882747173309326,-0.005035525653511286,0.0013759604189544916,0.9333893060684204
64.27075800,64270758,2,0.3588392436504364,-0.005038618575781584,0.0013763895258307457,0.9333847761154175
64.37076100,64370761,2,0.35881707072257996,-0.005106789991259575,0.0013980864314362407,0.9333928823471069
64.47074000,64470740,2,0.35877421498298645,-0.005075953900814056,0.001427804003469646,0.9334094524383545
64.57069800,64570698,2,0.358772337436676,-0.0050919996574521065,0.0014197068521752954,0.933410108089447
64.67067800,64670678,2,0.3587341010570526,-0.005081168841570616,0.0014634635299444199,0.9334248304367065
64.77066900,64770669,2,0.3587208092212677,-0.005080006550997496,0.00147496338468045,0.9334298968315125
64.87067600,64870676,2,0.3586660325527191,-0.005065132398158312,0.001415953622199595,0.9334511160850525
64.97067000,64970670,2,0.3586675524711609,-0.005102034192532301,0.001437891973182559,0.9334502816200256
65.07073900,65070739,2,0.35870450735092163,-0.005009212531149387,0.0014442078536376357,0.9334366321563721
65.17074400,65170744,2,0.3587433695793152,-0.0050161755643785,0.0014897186774760485,0.9334215521812439
65.27077200,65270772,2,0.3587174713611603,-0.0049638934433460236,0.0014839639188721776,0.9334318041801453
65.37075200,65370752,2,0.3587377667427063,-0.004928662907332182,0.0014678366715088487,0.9334242343902588
65.47071300,65470713,2,0.358767032623291,-0.004855353385210037,0.00147414137609303,0.9334133267402649
65.57068200,65570682,2,0.3587702810764313,-0.0048149400390684605,0.0014550506602972746,0.9334123134613037
65.67067700,65670677,2,0.3587474524974823,-0.004827363882213831,0.0014889504527673125,0.9334210157394409
65.77066800,65770668,2,0.3587562143802643,-0.004730862565338612,0.0014877557987347245,0.9334180951118469
65.87072200,65870722,2,0.3587871193885803,-0.004717670846730471,0.0015047418419271708,0.9334062933921814
65.97074900,65970749,2,0.35883012413978577,-0.004744281992316246,0.001466109766624868,0.9333896636962891
66.07075200,66070752,2,0.3588835895061493,-0.004687981680035591,0.0014261920005083084,0.9333694577217102
66.17076700,66170767,2,0.3589176535606384,-0.004706735257059336,0.0014611841179430485,0.9333562254905701
66.27075300,66270753,2,0.35891667008399963,-0.00466425996273756,0.0014532724162563682,0.9333568215370178
66.37070500,66370705,2,0.3589589297771454,-0.004659341182559729,0.0014653108082711697,0.9333405494689941
66.47067100,66470671,2,0.35900458693504333,-0.004635651595890522,0.0014707029331475496,0.9333231449127197
66.57066900,66570669,2,0.35897326469421387,-0.004649088717997074,0.001458982820622623,0.9333351254463196
66.67068500,66670685,2,0.35896748304367065,-0.0046505616046488285,0.0014480958925560117,0.9333373308181763
66.77068100,66770681,2,0.35902318358421326,-0.0046873800456523895,0.001444087247364223,0.9333157539367676
66.87074600,66870746,2,0.3590969741344452,-0.004704912658780813,0.0014643651666119695,0.9332872629165649
66.97075600,66970756,2,0.359075665473938,-0.004667048342525959,0.0014845833647996187,0.9332956075668335
67.07075700,67070757,2,0.359090656042099,-0.004605504218488932,0.0014865499688312411,0.9332901239395142
67.17074900,67170749,2,0.3590981662273407,-0.004566327668726444,0.0014883638359606266,0.9332874417304993
67.27071200,67270712,2,0.3591572344303131,-0.004547389689832926,0.0014720427570864558,0.9332648515701294
67.37066900,67370669,2,0.35917550325393677,-0.004533029161393642,0.001441005733795464,0.9332579374313354
67.47067600,67470676,2,0.35918134450912476,-0.004504191689193249,0.0014102660352364182,0.9332558512687683
