timestamp,TimeUS,C,Roll,Pitch,Yaw,VN,VE,VD,dPD,PN,PE,PD,GX,GY,GZ,OH
9.97068600,9970686,2,0.0,0.0,0.0,0.0,0.0,0.0,0.0,0.0,0.0,0.0,0.0,0.0,0.0,0.0
10.07071100,10070711,2,0.0,0.0,0.0,0.0,0.0,0.0,0.0,0.0,0.0,0.0,0.0,0.0,0.0,0.0
10.17076600,10170766,2,0.0,0.0,0.0,0.0,0.0,0.0,0.0,0.0,0.0,0.0,0.0,0.0,0.0,0.0
10.27077300,10270773,2,0.0,0.0,0.0,0.0,0.0,0.0,0.0,0.0,0.0,0.0,0.0,0.0,0.0,0.0
10.37078200,10370782,2,0.0,0.0,0.0,0.0,0.0,0.0,0.0,0.0,0.0,0.0,0.0,0.0,0.0,0.0
10.47077800,10470778,2,0.0,0.0,0.0,0.0,0.0,0.0,0.0,0.0,0.0,0.0,0.0,0.0,0.0,0.0
10.57071400,10570714,2,0.0,0.0,0.0,0.0,0.0,0.0,0.0,0.0,0.0,0.0,0.0,0.0,0.0,0.0
10.67068800,10670688,2,0.0,0.0,0.0,0.0,0.0,0.0,0.0,0.0,0.0,0.0,0.0,0.0,0.0,0.0
10.77068900,10770689,2,0.0,0.0,0.0,0.0,0.0,0.0,0.0,0.0,0.0,0.0,0.0,0.0,0.0,0.0
10.87069100,10870691,2,0.0,0.0,0.0,0.0,0.0,0.0,0.0,0.0,0.0,0.0,0.0,0.0,0.0,0.0
10.97068600,10970686,2,-0.18,0.8300000000000001,0.0,-0.004563513677567244,-0.004575033206492662,0.008766311220824718,-0.0022334952373057604,0.0,0.0,0.0002881633408833295,0.0,0.0,0.0,0.0
11.07076000,11070760,2,-0.18,0.84,0.0,-0.0059418766759335995,-0.009108513593673706,0.04515492916107178,0.021200433373451233,0.0,0.0,0.003340983996167779,0.0,0.0,0.0,0.0
11.17076300,11170763,2,-0.18,0.84,0.0,-0.010909012518823147,-0.014432309195399284,0.08635324984788895,1.8160126209259033,0.0,0.0,0.21563871204853058,0.0,0.0,0.0,0.0
11.27077200,11270772,2,-0.18,0.85,0.0,-0.01387082226574421,-0.01827329583466053,0.11588292568922043,2.6211090087890625,0.0,0.0,0.4286535084247589,0.0,0.0,0.0,0.0
11.37076200,11370762,2,-0.18,0.85,0.01,-0.019378654658794403,-0.023555506020784378,0.13445787131786346,2.1646130084991455,0.0,0.0,0.5953459739685059,0.0,0.0,0.0,0.0
11.47071100,11470711,2,-0.18,0.85,0.01,-0.02174271270632744,-0.02775914967060089,0.14465102553367615,1.5118757486343384,0.0,0.0,0.7289701700210571,0.0,0.0,0.0,0.0
11.57068100,11570681,2,-0.18,0.85,0.01,-0.024925099685788155,-0.03217160329222679,0.1533646434545517,1.094515085220337,0.0,0.0,0.840832531452179,0.0,0.0,0.0,0.0
11.67068800,11670688,2,-0.18,0.85,0.01,-0.030154189094901085,-0.03599313274025917,0.15760433673858643,0.8175105452537537,0.0,0.0,0.9316895604133606,0.0,0.0,0.0,0.0
11.77069000,11770690,2,-0.17,0.84,0.01,-0.03171095997095108,-0.039766572415828705,0.1597617119550705,0.6131791472434998,0.0,0.0,1.0045267343521118,0.0,0.0,0.0,0.0
11.87069000,11870690,2,-0.16,0.84,0.01,-0.03391652926802635,-0.04126230254769325,0.15939755737781525,0.4470071494579315,0.0,0.0,1.0606236457824707,0.0,0.0,0.0,0.0
11.97074400,11970744,2,-0.14,0.8300000000000001,0.02,-0.03560244292020798,-0.0424555279314518,0.1573541909456253,0.3259395360946655,0.0,0.0,1.1044756174087524,0.0,0.0,0.0,0.0
12.07076600,12070766,2,-0.12,0.8200000000000001,0.02,-0.035284917801618576,-0.041941333562135696,0.15581227838993073,0.27683332562446594,0.0,0.0,1.1421382427215576,0.0,0.0,0.0,0.0
12.17077300,12170773,2,-0.11,0.81,0.02,-0.034111302345991135,-0.040231119841337204,0.15324726700782776,0.2516058385372162,0.0,0.0,1.1744276285171509,0.0,0.0,0.0,0.0
12.27076300,12270763,2,-0.08,0.79,0.02,-0.033974114805459976,-0.0379101037979126,0.15224234759807587,0.2395538091659546,0.0,0.0,1.203872561454773,0.0,0.0,0.0,0.0
12.37072000,12370720,2,-0.06,0.78,0.03,-0.03164464980363846,-0.03353605046868324,0.15135672688484192,0.2525997757911682,0.0,0.0,1.2330816984176636,0.0,0.0,0.0,0.0
12.47068100,12470681,2,0.01,0.71,138.16,-0.027090758085250854,-0.028257781639695168,0.14936161041259766,0.24000415205955505,0.0,0.0,1.2585121393203735,0.0,0.0,0.0,0.0
12.57067800,12570678,2,0.0,0.72,138.16,-0.017947474494576454,-0.023525673896074295,0.1457756757736206,0.20076726377010345,0.0,0.0,1.280410885810852,0.0,0.0,0.0,0.0
12.67069500,12670695,2,-0.01,0.73,138.16,-0.009728601202368736,-0.01850893534719944,0.1437252163887024,0.18866416811943054,0.0,0.0,1.3014822006225586,0.0,0.0,0.0,0.0
12.77070200,12770702,2,-0.02,0.75,138.15,0.0008943428401835263,-0.016446009278297424,0.1390596628189087,0.16323581337928772,0.0,0.0,1.318739652633667,0.0,0.0,0.0,0.0
12.87077100,12870771,2,-0.03,0.75,138.15,0.003392826998606324,-0.012960904277861118,0.13331995904445648,0.1027349904179573,0.0,0.0,1.329902172088623,0.0,0.0,0.0,0.0
12.97076500,12970765,2,-0.03,0.76,138.15,0.015611093491315842,-0.010199841111898422,0.1276686191558838,0.07430706918239594,0.0,0.0,1.3401193618774414,0.0,0.0,0.0,0.0
13.07078200,13070782,2,-0.03,0.77,138.16,0.017711669206619263,-0.006784043740481138,0.12313961982727051,0.09589067846536636,0.0,0.0,1.3522231578826904,0.0,0.0,0.0,0.0
13.17076600,13170766,2,-0.04,0.79,138.16,0.031123993918299675,-0.0061338357627391815,0.11866586655378342,0.1101190373301506,0.0,0.0,1.3638261556625366,0.0,0.0,0.0,0.0
13.27071800,13270718,2,-0.04,0.78,138.16,0.025188494473695755,0.0010678587714210153,0.11293522268533707,0.08873986452817917,0.0,0.0,1.372555136680603,0.0,0.0,0.0,0.0
13.37068400,13370684,2,-0.05,0.79,138.14000000000001,0.03426668047904968,-0.00017491304606664926,0.10927063971757889,0.08920236676931381,0.0,0.0,1.3829894065856934,0.0,0.0,0.0,0.0
13.47069000,13470690,2,-0.05,0.78,138.12,0.03545833006501198,0.00030161370523273945,0.10387679934501648,0.08738922327756882,0.0,0.0,1.391286849975586,0.0,0.0,0.0,0.0
13.57068300,13570683,2,-0.06,0.79,138.07,0.03901155665516853,0.0006472141831181943,0.09809974581003189,0.07439691573381424,0.0,0.0,1.3997129201889038,0.0,0.0,0.01,0.0
13.67070000,13670700,2,-0.06,0.78,138.02,0.039965786039829254,0.0019970748107880354,0.09369679540395737,0.06979158520698547,0.0,0.0,1.406571865081787,0.0,0.0,0.0,0.0
13.77075600,13770756,2,-0.06,0.77,137.97,0.04098713770508766,0.002358995610848069,0.08581259101629257,0.029525592923164368,0.0,0.0,1.4094599485397339,0.0,0.01,0.01,0.0
13.87077600,13870776,2,-0.06,0.76,137.92000000000002,0.042272672057151794,0.0021495260298252106,0.07618626952171326,-0.032394714653491974,0.0,0.0,1.4065426588058472,0.0,0.01,0.01,0.0
13.97076900,13970769,2,-0.05,0.75,137.89000000000001,0.04047606140375137,0.004216210450977087,0.06865537166595459,-0.06237029284238815,0.0,0.0,1.4031490087509155,-0.01,0.02,0.01,0.0
14.07075000,14070750,2,-0.04,0.74,137.88,0.04034316912293434,0.004196556750684977,0.05902363359928131,-0.0695406049489975,0.0,0.0,1.39750075340271,-0.01,0.02,0.01,0.0
14.17072200,14170722,2,-0.02,0.73,137.87,0.036306463181972504,0.005753790028393269,0.04817594215273857,-0.0945798009634018,0.0,0.0,1.3895936012268066,-0.01,0.02,0.0,0.0
14.27067800,14270678,2,-0.01,0.72,137.88,0.03644978255033493,0.005135924089699984,0.039925601333379745,-0.06816212087869644,0.0,0.0,1.3853915929794312,-0.02,0.03,0.0,0.0
14.37069100,14370691,2,0.0,0.6900000000000001,137.89000000000001,0.031925931572914124,0.0070363315753638744,0.03313182666897774,-0.004661270417273045,0.0,0.0,1.385741949081421,-0.02,0.03,0.01,0.0
14.47068200,14470682,2,0.0,0.6900000000000001,137.77,0.03005286119878292,0.0071184453554451466,0.029089758172631264,0.042239949107170105,0.0,0.0,1.3888704776763916,-0.03,0.04,0.12,0.0
14.57074000,14570740,2,0.02,0.67,137.42000000000002,0.02572742849588394,0.007954862900078297,0.025218801572918892,0.0482458658516407,0.0,0.0,1.3914079666137695,-0.03,0.04,0.26,0.0
14.67076200,14670762,2,0.03,0.66,136.83,0.017850514501333237,0.009729144163429737,0.01993653178215027,0.01755083166062832,0.0,0.0,1.3915879726409912,-0.04,0.04,0.4,0.0
14.77075500,14770755,2,0.05,0.65,136.06,0.023073984310030937,0.007403344381600618,0.015325654298067093,0.014315010979771614,0.0,0.0,1.3937013149261475,-0.05,0.05,0.53,0.0
14.87078100,14870781,2,0.07,0.63,135.19,0.013491952791810036,0.009043468162417412,0.012950098142027855,0.049774155020713806,0.0,0.0,1.399073600769043,-0.05,0.05,0.67,0.0
14.97077600,14970776,2,0.08,0.63,134.35,0.013039586134254932,0.006802646908909082,0.013995627872645855,0.11185616254806519,0.0,0.0,1.4107187986373901,-0.06,0.05,0.6900000000000001,0.0
15.07070800,15070708,2,0.09,0.62,133.72,0.009240016341209412,0.00660200510174036,0.01606537587940693,0.15846934914588928,0.0,0.0,1.4238566160202026,-0.06,0.05,0.65,0.0
15.17068200,15170682,2,0.1,0.61,133.35,0.0035586925223469734,0.006582341156899929,0.01463985163718462,0.11271272599697113,0.0,0.0,1.4316022396087646,-0.06,0.05,0.6,0.0
15.27068100,15270681,2,0.11,0.61,133.21,0.00277910428121686,0.005088661331683397,0.010966617614030838,0.04098692536354065,0.0,0.0,1.4349029064178467,-0.06,0.05,0.56,0.0
15.37067800,15370678,2,0.11,0.6,133.25,-0.0018256151815876365,0.0050546349957585335,0.004447899293154478,-0.01994604989886284,0.0,0.0,1.433703064918518,-0.06,0.06,0.51,0.0
15.47071300,15470713,2,0.12,0.6,133.4,-0.005077045876532793,0.0037991683930158615,-0.0006211830768734217,-0.02195444144308567,0.0,0.0,1.434679388999939,-0.06,0.06,0.48,0.0
15.57076000,15570760,2,0.12,0.6,133.61,-0.005188704468309879,0.0021495239343494177,-0.0046052769757807255,-0.011131854727864265,0.0,0.0,1.4342315196990967,-0.06,0.06,0.44,0.0
15.67076500,15670765,2,0.13,0.6,133.82,-0.008763645775616169,0.002353666117414832,-0.009491289034485817,-0.03276549279689789,0.0,0.0,1.4311192035675049,-0.06,0.06,0.4,0.0
15.77077000,15770770,2,0.13,0.61,134.02,-0.010293492116034031,-0.00016056251479312778,-0.014741296879947186,-0.039182163774967194,0.0,0.0,1.4285414218902588,-0.06,0.05,0.36,0.0
15.87076700,15870767,2,0.14,0.61,134.21,-0.011536221951246262,-0.002067773137241602,-0.020647859200835228,-0.03515706956386566,0.0,0.0,1.425649642944336,-0.06,0.05,0.33,0.0
15.97071400,15970714,2,0.14,0.61,134.38,-0.01360043603926897,-0.001836219453252852,-0.02644910290837288,-0.04866015911102295,0.0,0.0,1.420721411705017,-0.06,0.05,0.28,0.0
16.07067800,16070678,2,0.14,0.61,134.55,-0.01354922540485859,-0.001706818351522088,-0.03064895048737526,-0.033449579030275345,0.0,0.0,1.4188636541366577,-0.06,0.05,0.24,0.0
16.17068500,16170685,2,0.14,0.61,134.71,-0.013419448398053646,-0.002299030078575015,-0.03543659299612045,-0.03231045603752136,0.0,0.0,1.4146435260772705,-0.05,0.05,0.21,0.0
16.27067800,16270678,2,0.13,0.61,134.86,-0.014466063119471073,-0.0016777594573795795,-0.041116561740636826,-0.0542023628950119,0.0,0.0,1.4092062711715698,-0.05,0.05,0.17,0.0
16.37073300,16370733,2,0.13,0.61,135.0,-0.013292212970554829,-0.002594622317701578,-0.04611749202013016,-0.06255640834569931,0.0,0.0,1.40337336063385,-0.05,0.05,0.14,0.0
16.47074800,16470748,2,0.13,0.61,135.14000000000001,-0.012471776455640793,-0.003016696311533451,-0.05045611038804054,-0.0650375485420227,0.0,0.0,1.39726722240448,-0.05,0.05,0.12,0.0
16.57076200,16570762,2,0.12,0.61,135.27,-0.012338380329310894,-0.0028801795560866594,-0.05688973143696785,-0.08033542335033417,0.0,0.0,1.38914954662323,-0.05,0.05,0.09,0.0
16.67077300,16670773,2,0.12,0.62,135.4,-0.010966163128614426,-0.0030478741973638535,-0.0649099200963974,-0.12274375557899475,0.0,0.0,1.3765090703964233,-0.04,0.05,0.05,0.0
16.77075900,16770759,2,0.13,0.62,135.52,-0.00988603662699461,-0.0030353697948157787,-0.0722389966249466,-0.14850041270256042,0.0,0.0,1.3633294105529785,-0.04,0.05,0.02,0.0
16.87071000,16870710,2,0.13,0.62,135.66,-0.009694794192910194,-0.0019783400930464268,-0.07947281002998352,-0.13117945194244385,0.0,0.0,1.3522008657455444,-0.04,0.05,0.0,0.0
16.97068200,16970682,2,0.13,0.61,135.79,-0.008201565593481064,-0.0017593551892787218,-0.08313998579978943,-0.07175793498754501,0.0,0.0,1.346819281578064,-0.04,0.05,-0.01,0.0
17.07067800,17070678,2,0.12,0.61,135.9,-0.007907514460384846,-0.0010489901760593057,-0.08568653464317322,-0.03169470280408859,0.0,0.0,1.3420079946517944,-0.04,0.05,-0.04,0.0
17.17068100,17170681,2,0.12,0.62,136.02,-0.007430403959006071,-0.00017385963292326778,-0.08928262442350388,-0.05382192134857178,0.0,0.0,1.3342396020889282,-0.04,0.05,-0.06,0.0
17.27069900,17270699,2,0.12,0.62,136.12,-0.006615371908992529,3.340846888022497e-05,-0.09239530563354492,-0.06009872630238533,0.0,0.0,1.3287274837493896,-0.04,0.05,-0.07,0.0
17.37075500,17370755,2,0.12,0.61,136.21,-0.006031625904142857,0.0002746098907664418,-0.09244334697723389,-0.01579035073518753,0.0,0.0,1.3277497291564941,-0.04,0.05,-0.08,0.0
17.47076400,17470764,2,0.12,0.61,136.28,-0.00568758649751544,-0.00018787066801451147,-0.0963887870311737,-0.04442181810736656,0.0,0.0,1.31973397731781,-0.04,0.05,-0.09,0.0
17.57078400,17570784,2,0.12,0.62,136.35,-0.004760914947837591,-0.0007554384064860642,-0.10005931556224823,-0.09455922991037369,0.0,0.0,1.310968279838562,-0.04,0.05,-0.11,0.0
17.67075900,17670759,2,0.12,0.62,136.43,-0.0035404022783041,-0.0012069595977663994,-0.10358721017837524,-0.08878188580274582,0.0,0.0,1.30342435836792,-0.03,0.05,-0.14,0.0
17.77071000,17770710,2,0.12,0.62,136.53,-0.0036606956273317337,-0.00125742400996387,-0.10480120033025742,-0.05391870439052582,0.0,0.0,1.2993032932281494,-0.03,0.05,-0.16,0.0
17.87068500,17870685,2,0.11,0.62,136.64000000000001,-0.003225866938009858,-0.0011843935353681445,-0.10625050216913223,-0.0342244952917099,0.0,0.0,1.2948493957519531,-0.03,0.05,-0.18,0.0
17.97068900,17970689,2,0.12,0.62,136.75,-0.003569236723706126,-0.0007579404627904296,-0.10678364336490631,-0.01963014155626297,0.0,0.0,1.2929569482803345,-0.03,0.05,-0.19,0.0
18.07067800,18070678,2,0.11,0.62,136.85,-0.004164817277342081,-0.0007284702151082456,-0.10693534463644028,-0.005480374675244093,0.0,0.0,1.290427803993225,-0.03,0.04,-0.2,0.0
18.17069200,18170692,2,0.1,0.62,136.94,-0.003451908938586712,-0.0004122394893784076,-0.10614953190088272,0.003176257014274597,0.0,0.0,1.290032148361206,-0.03,0.04,-0.22,0.0
18.27075100,18270751,2,0.1,0.62,137.04,-0.00330334878526628,-0.0001122838948504068,-0.10577385127544403,-0.016115158796310425,0.0,0.0,1.2869371175765991,-0.03,0.04,-0.23,0.0
18.37076400,18370764,2,0.1,0.63,137.13,-0.002812152961269021,-0.0011215134290978312,-0.10521044582128525,-0.02469954639673233,0.0,0.0,1.285038948059082,-0.03,0.04,-0.24,0.0
18.47077700,18470777,2,0.09,0.63,137.21,-0.002088851761072874,-0.001010252977721393,-0.10141632705926895,0.033511266112327576,0.0,0.0,1.2896448373794556,-0.03,0.04,-0.24,0.0
18.57075800,18570758,2,0.09,0.64,137.28,-0.0012837493559345603,-0.0014208315405994654,-0.09745331853628159,0.08675852417945862,0.0,0.0,1.2964789867401123,-0.03,0.04,-0.25,0.0
18.67070800,18670708,2,0.09,0.64,137.34,-0.0009570542606525123,-0.0014380038483068347,-0.0930866003036499,0.08705592900514603,0.0,0.0,1.302754282951355,-0.03,0.04,-0.25,0.0
18.77068900,18770689,2,0.09,0.64,137.39000000000001,-0.00038784442585892975,-0.0022514897864311934,-0.09154894948005676,0.040475014597177505,0.0,0.0,1.3045374155044556,-0.03,0.04,-0.26,0.0
18.87068100,18870681,2,0.09,0.64,137.45000000000002,-4.9710783059708774e-05,-0.002802968956530094,-0.09170632064342499,-0.002689898945391178,0.0,0.0,1.304850459098816,-0.03,0.04,-0.27,0.0
18.97068900,18970689,2,0.08,0.64,137.5,0.000655568961519748,-0.0020183734595775604,-0.08916527032852173,0.02299043908715248,0.0,0.0,1.3087931871414185,-0.03,0.04,-0.27,0.0
19.07070400,19070704,2,0.08,0.64,137.56,0.002196298912167549,-0.001713564503006637,-0.08551070094108582,0.06863871216773987,0.0,0.0,1.3155564069747925,-0.03,0.04,-0.28,0.0
19.17075400,19170754,2,0.08,0.64,137.62,0.0024426353629678488,-0.0014527334133163095,-0.08191502094268799,0.08304931223392487,0.0,0.0,1.3224467039108276,-0.03,0.04,-0.29,0.0
19.27076700,19270767,2,0.08,0.65,137.69,0.0027004906442016363,-0.0015009402995929122,-0.0788702443242073,0.060200802981853485,0.0,0.0,1.3269524574279785,-0.03,0.04,-0.3,0.0
19.37077500,19370775,2,0.08,0.66,137.75,0.003207371337339282,-0.0018873244989663363,-0.07731615751981735,0.03498898446559906,0.0,0.0,1.3304656744003296,-0.03,0.04,-0.3,0.0
19.47076100,19470761,2,0.08,0.66,137.82,0.003241564380005002,-0.0019772870000451803,-0.07593356817960739,0.010646354407072067,0.0,0.0,1.3313111066818237,-0.03,0.04,-0.3,0.0
19.57072000,19570720,2,0.08,0.65,137.89000000000001,0.0029982379637658596,-0.00253099063411355,-0.07690779864788055,-0.050476569682359695,0.0,0.0,1.326195478439331,-0.03,0.05,-0.31,0.0
19.67067900,19670679,2,0.07,0.65,137.95000000000002,0.0035053258761763573,-0.0028035722207278013,-0.07758412510156631,-0.08172694593667984,0.0,0.0,1.3205182552337646,-0.03,0.05,-0.31,0.0
19.77068000,19770680,2,0.07,0.65,138.0,0.004001982975751162,-0.0027610184624791145,-0.07914745062589645,-0.06586991995573044,0.0,0.0,1.3158845901489258,-0.03,0.05,-0.31,0.0
19.87068400,19870684,2,0.07,0.65,138.04,0.004548403434455395,-0.0035112362820655107,-0.0792999193072319,-0.05959940701723099,0.0,0.0,1.3103169202804565,-0.03,0.05,-0.31,0.0
19.97068200,19970682,2,0.07,0.66,138.09,0.005261627957224846,-0.004121748730540276,-0.08159812539815903,-0.08078725636005402,0.0,0.0,1.3022143840789795,-0.03,0.05,-0.31,0.0
20.07075300,20070753,2,0.07,0.65,138.12,0.005237183999270201,-0.003042197087779641,-0.0837903544306755,-0.09890486299991608,0.0,0.0,1.2932391166687012,-0.03,0.05,-0.31,0.0
20.17075700,20170757,2,0.07,0.66,138.16,0.006774460431188345,-0.003255648771300912,-0.08601858466863632,-0.08774350583553314,0.0,0.0,1.2858411073684692,-0.03,0.05,-0.32,0.0
20.27076800,20270768,2,0.07,0.66,138.19,0.0054780589416623116,-0.0028299116529524326,-0.08756375312805176,-0.05865166336297989,0.0,0.0,1.2805415391921997,-0.03,0.05,-0.31,0.0
20.37076100,20370761,2,0.07,0.65,138.23,0.007023213896900415,-0.002984794322401285,-0.08627820014953613,-0.028666552156209946,0.0,0.0,1.2772232294082642,-0.03,0.05,-0.31,0.0
20.47071100,20470711,2,0.07,0.65,138.25,0.007875991053879261,-0.0032203460577875376,-0.08489266037940979,0.0057195816189050674,0.0,0.0,1.2773385047912598,-0.03,0.05,-0.31,0.0
20.57067800,20570678,2,0.07,0.65,138.28,0.007363236974924803,-0.002449141815304756,-0.08407048881053925,0.00860360637307167,0.0,0.0,1.2757538557052612,-0.03,0.05,-0.31,0.0
20.67067900,20670679,2,0.07,0.65,138.3,0.0076319449581205845,-0.002852428937330842,-0.08386582881212234,-0.012724676169455051,0.0,0.0,1.2738844156265259,-0.03,0.05,-0.31,0.0
20.77068300,20770683,2,0.07,0.64,138.33,0.007117290981113911,-0.002893771044909954,-0.08152471482753754,0.003581986064091325,0.0,0.0,1.2743499279022217,-0.03,0.05,-0.31,0.0
20.87069900,20870699,2,0.07,0.65,138.36,0.006876224651932716,-0.0020118083339184523,-0.07943723350763321,0.031247196719050407,0.0,0.0,1.2771315574645996,-0.03,0.05,-0.31,0.0
20.97074300,20970743,2,0.07,0.65,138.38,0.00686715729534626,-0.0019995577167719603,-0.07718765735626221,0.04219262674450874,0.0,0.0,1.2799988985061646,-0.03,0.05,-0.31,0.0
21.07076100,21070761,2,0.06,0.64,138.41,0.006904370617121458,-0.002208893885836005,-0.0761609897017479,0.013038833625614643,0.0,0.0,1.279701828956604,-0.03,0.05,-0.31,0.0
21.17078100,21170781,2,0.07,0.64,138.43,0.007872488349676132,-0.002371659269556403,-0.0772530660033226,-0.04027789086103439,0.0,0.0,1.275282859802246,-0.03,0.05,-0.31,0.0
21.27076300,21270763,2,0.07,0.65,138.46,0.007639614399522543,-0.0024353894405066967,-0.07733792811632156,-0.07091181725263596,0.0,0.0,1.269517421722412,-0.03,0.05,-0.3,0.0
21.37070800,21370708,2,0.06,0.65,138.48,0.007311235647648573,-0.0021419317927211523,-0.07923640310764313,-0.0752706229686737,0.0,0.0,1.2634294033050537,-0.03,0.05,-0.3,0.0
21.47068200,21470682,2,0.07,0.66,138.49,0.007978158071637154,-0.0015474563697353005,-0.08051375299692154,-0.07779892534017563,0.0,0.0,1.2564953565597534,-0.03,0.05,-0.29,0.0
21.57068000,21570680,2,0.08,0.66,138.5,0.005076119676232338,-0.002536204643547535,-0.08153481781482697,-0.06573842465877533,0.0,0.0,1.2512151002883911,-0.03,0.05,-0.29,0.0
21.67067900,21670679,2,0.07,0.65,138.51,0.007826917804777622,-0.004322128836065531,-0.08050881326198578,-0.03498508036136627,0.0,0.0,1.2479417324066162,-0.03,0.05,-0.29,0.0
21.77069800,21770698,2,0.07,0.65,138.53,0.009202797897160053,-0.003955445718020201,-0.08064885437488556,-0.031102729961276054,0.0,0.0,1.2436676025390625,-0.03,0.05,-0.28,0.0
21.87076500,21870765,2,0.07,0.65,138.53,0.00482725678011775,-0.0020391775760799646,-0.08064144104719162,-0.058641452342271805,0.0,0.0,1.2368582487106323,-0.03,0.05,-0.28,0.0
21.97076700,21970767,2,0.07,0.65,138.53,0.011953572742640972,-0.0025226993020623922,-0.08165165781974792,-0.05991244316101074,0.0,0.0,1.2320499420166016,-0.03,0.05,-0.28,0.0
22.07077400,22070774,2,0.07,0.66,138.53,0.004776521120220423,0.0003786757297348231,-0.08300763368606567,-0.028370877727866173,0.0,0.0,1.2299572229385376,-0.03,0.05,-0.27,0.0
22.17077100,22170771,2,0.08,0.66,138.53,0.006766297854483128,0.0003791312628891319,-0.08349965512752533,-0.03632231801748276,0.0,0.0,1.2245714664459229,-0.03,0.05,-0.26,0.0
22.27071200,22270712,2,0.07,0.65,138.52,0.010070485062897205,-0.0009006006293930113,-0.08357366174459457,-0.049763310700654984,0.0,0.0,1.2199459075927734,-0.03,0.05,-0.27,0.0
22.37067900,22370679,2,0.08,0.65,138.53,0.006407387554645538,0.0003719401138368994,-0.08397884666919708,-0.04631565511226654,0.0,0.0,1.215309500694275,-0.03,0.05,-0.26,0.0
22.47068100,22470681,2,0.08,0.65,138.53,0.00924770813435316,0.0009584470535628498,-0.08453266322612762,-0.04396602883934975,0.0,0.0,1.2111281156539917,-0.03,0.05,-0.26,0.0
22.57068100,22570681,2,0.09,0.65,138.54,0.010272596031427383,0.0005316087626852095,-0.08222131431102753,-0.019813014194369316,0.0,0.0,1.2094908952713013,-0.03,0.05,-0.26,0.0
22.67069700,22670697,2,0.08,0.66,138.56,0.004984333645552397,0.004202962853014469,-0.08234503120183945,-0.009881208650767803,0.0,0.0,1.2075165510177612,-0.03,0.05,-0.26,0.0
22.77076600,22770766,2,0.09,0.64,138.57,0.014171609655022621,0.0011322376085445285,-0.08354383707046509,-0.041347865015268326,0.0,0.0,1.2020100355148315,-0.03,0.05,-0.26,0.0
22.87076300,22870763,2,0.09,0.65,138.59,0.003333951812237501,0.007200703490525484,-0.08350075781345367,-0.03966589644551277,0.0,0.0,1.1997404098510742,-0.03,0.05,-0.25,0.0
22.97078400,22970784,2,0.08,0.65,138.6,0.013064932078123093,0.0023520190734416246,-0.08334099501371384,-0.017581433057785034,0.0,0.0,1.1971180438995361,-0.03,0.05,-0.25,0.0
23.07075900,23070759,2,0.09,0.66,138.61,0.007974974811077118,0.0036905163433402777,-0.08285507559776306,-0.020255902782082558,0.0,0.0,1.1944594383239746,-0.03,0.05,-0.25,0.0
23.17071000,23170710,2,0.08,0.67,138.62,0.00749528594315052,0.002788777928799391,-0.08226524293422699,-0.009906220249831676,0.0,0.0,1.193618893623352,-0.03,0.05,-0.24,0.0
23.27073000,23270730,2,0.09,0.67,138.62,0.0092252716422081,0.002689947606995702,-0.08110121637582779,0.022472072392702103,0.0,0.0,1.1956408023834229,-0.03,0.05,-0.24,0.0
23.37068300,23370683,2,0.09,0.67,138.64000000000001,0.006661487277597189,0.0030399179086089134,-0.07860960066318512,0.03678726777434349,0.0,0.0,1.1978768110275269,-0.03,0.05,-0.24,0.0
23.47069100,23470691,2,0.09,0.68,138.66,0.008469621650874615,0.00034437503200024366,-0.076229028403759,0.032205838710069656,0.0,0.0,1.2000595331192017,-0.03,0.05,-0.24,0.0
23.57069400,23570694,2,0.09,0.67,138.67000000000002,0.007684241980314255,0.0006584016955457628,-0.07515764981508255,0.019680289551615715,0.0,0.0,1.2013417482376099,-0.03,0.05,-0.24,0.0
23.67076800,23670768,2,0.09,0.68,138.67000000000002,0.006938578095287085,0.000866345944814384,-0.07272157073020935,0.02365086041390896,0.0,0.0,1.2039427757263184,-0.03,0.05,-0.23,0.0
23.77076400,23770764,2,0.09,0.67,138.67000000000002,0.012648428790271282,-0.002704301616176963,-0.06906070560216904,0.05684275925159454,0.0,0.0,1.2102245092391968,-0.03,0.05,-0.23,0.0
23.87077500,23870775,2,0.08,0.67,138.67000000000002,0.007259656675159931,-0.0016135482583194971,-0.06625957041978836,0.08695254474878311,0.0,0.0,1.2177923917770386,-0.03,0.05,-0.23,0.0
23.97076000,23970760,2,0.08,0.68,138.67000000000002,0.008384435437619686,-0.001405295799486339,-0.06330472230911255,0.08757217228412628,0.0,0.0,1.2249494791030884,-0.03,0.05,-0.23,0.0
24.07071600,24070716,2,0.07,0.67,138.68,0.010713201947510242,-0.002584200818091631,-0.06062011793255806,0.06609225273132324,0.0,0.0,1.2301887273788452,-0.03,0.05,-0.22,0.0
24.17070800,24170708,2,0.07,0.68,138.68,0.00633133202791214,-0.00032124106655828655,-0.05935201421380043,0.018522674217820168,0.0,0.0,1.2313297986984253,-0.03,0.05,-0.22,0.0
24.27068800,24270688,2,0.07,0.68,138.68,0.010855273343622684,-0.0024925426114350557,-0.0577414371073246,-0.028857477009296417,0.0,0.0,1.2292133569717407,-0.03,0.05,-0.22,0.0
24.37068500,24370685,2,0.08,0.67,138.67000000000002,0.008492397144436836,-0.0017686586361378431,-0.05768692120909691,-0.04007925093173981,0.0,0.0,1.2272378206253052,-0.03,0.05,-0.21,0.0
24.47069900,24470699,2,0.08,0.67,138.66,0.008729543536901474,-0.0017367705004289746,-0.05735811963677406,-0.025405235588550568,0.0,0.0,1.2260231971740723,-0.03,0.05,-0.21,0.0
24.57076100,24570761,2,0.07,0.68,138.64000000000001,0.01102109719067812,-0.002902824664488435,-0.057356517761945724,-0.015885021537542343,0.0,0.0,1.2249035835266113,-0.03,0.05,-0.2,0.0
24.67076400,24670764,2,0.07,0.68,138.62,0.009483423084020615,-0.002514794934540987,-0.056533265858888626,-0.025959301739931107,0.0,0.0,1.2219682931900024,-0.03,0.05,-0.2,0.0
24.77078200,24770782,2,0.07,0.6900000000000001,138.61,0.010799859650433064,-0.0038849336560815573,-0.05734019726514816,-0.03980928286910057,0.0,0.0,1.2185074090957642,-0.03,0.05,-0.2,0.0
24.87076100,24870761,2,0.07,0.68,138.6,0.012112781405448914,-0.004220052622258663,-0.058485355228185654,-0.047304071485996246,0.0,0.0,1.2139816284179688,-0.03,0.05,-0.19,0.0
24.97071900,24970719,2,0.07,0.6900000000000001,138.6,0.012449135072529316,-0.0044219582341611385,-0.05968432128429413,-0.06636831909418106,0.0,0.0,1.2076162099838257,-0.03,0.05,-0.19,0.0
25.07068500,25070685,2,0.07,0.6900000000000001,138.6,0.013514361344277859,-0.004820915870368481,-0.06018130108714104,-0.054495640099048615,0.0,0.0,1.2035768032073975,-0.03,0.05,-0.19,0.0
25.17069400,25170694,2,0.07,0.6900000000000001,138.59,0.013962548226118088,-0.00470478693023324,-0.05922262370586395,-0.014406170696020126,0.0,0.0,1.202502727508545,-0.03,0.05,-0.18,0.0
25.27069200,25270692,2,0.07,0.7000000000000001,138.58,0.013200312852859497,-0.004872251767665148,-0.059310976415872574,0.007592623122036457,0.0,0.0,1.2023454904556274,-0.03,0.05,-0.18,0.0
25.37068200,25370682,2,0.07,0.7000000000000001,138.57,0.013755821622908115,-0.005527082365006208,-0.05835267901420593,0.015500393696129322,0.0,0.0,1.202901005744934,-0.03,0.05,-0.18,0.0
25.47076500,25470765,2,0.07,0.7000000000000001,138.56,0.014318651519715786,-0.006170500069856644,-0.05779403820633888,0.024948477745056152,0.0,0.0,1.2047866582870483,-0.03,0.05,-0.18,0.0
25.57076100,25570761,2,0.07,0.7000000000000001,138.55,0.013704788871109486,-0.006659025326371193,-0.05614188686013222,0.03934815153479576,0.0,0.0,1.2080984115600586,-0.03,0.05,-0.17,0.0
25.67076700,25670767,2,0.07,0.7000000000000001,138.54,0.01524119358509779,-0.006787281949073076,-0.05489952862262726,0.027602598071098328,0.0,0.0,1.2091419696807861,-0.03,0.05,-0.17,0.0
25.77075100,25770751,2,0.06,0.71,138.54,0.016111522912979126,-0.005938395857810974,-0.05516796186566353,-0.018728526309132576,0.0,0.0,1.2065473794937134,-0.03,0.05,-0.17,0.0
25.87071700,25870717,2,0.07,0.71,138.53,0.01702233776450157,-0.005728949327021837,-0.05381927639245987,-0.0360715277493,0.0,0.0,1.2042087316513062,-0.04,0.05,-0.17,0.0
25.97067800,25970678,2,0.06,0.71,138.52,0.018375836312770844,-0.00544685497879982,-0.05379491299390793,-0.03954927250742912,0.0,0.0,1.20063054561615,-0.04,0.05,-0.16,0.0
26.07068600,26070686,2,0.06,0.71,138.52,0.018254797905683517,-0.004949529655277729,-0.054515041410923004,-0.040373072028160095,0.0,0.0,1.1977161169052124,-0.04,0.05,-0.16,0.0
26.17068900,26170689,2,0.06,0.71,138.52,0.019729608669877052,-0.004645095206797123,-0.05311711132526398,-0.027706226333975792,0.0,0.0,1.1950407028198242,-0.04,0.05,-0.16,0.0
26.27070100,26270701,2,0.05,0.71,138.52,0.021383870393037796,-0.004778767004609108,-0.052244629710912704,-0.01561257429420948,0.0,0.0,1.1938143968582153,-0.04,0.05,-0.16,0.0
26.37076400,26370764,2,0.05,0.71,138.52,0.022560162469744682,-0.005171122029423714,-0.05201511085033417,-0.006319969426840544,0.0,0.0,1.1926360130310059,-0.04,0.05,-0.16,0.0
26.47076800,26470768,2,0.05,0.72,138.53,0.023058472201228142,-0.004393554758280516,-0.05230037495493889,-0.013814055360853672,0.0,0.0,1.1908504962921143,-0.04,0.05,-0.16,0.0
26.57078100,26570781,2,0.05,0.72,138.53,0.023786088451743126,-0.003939017653465271,-0.05272352322936058,-0.03328096866607666,0.0,0.0,1.186964750289917,-0.04,0.05,-0.16,0.0
26.67075200,26670752,2,0.05,0.72,138.54,0.025014331564307213,-0.0036460908595472574,-0.05274048075079918,-0.05752865970134735,0.0,0.0,1.1815537214279175,-0.04,0.05,-0.16,0.0
26.77071000,26770710,2,0.06,0.72,138.55,0.025356007739901543,-0.004170865751802921,-0.05287689343094826,-0.06299805641174316,0.0,0.0,1.1761441230773926,-0.04,0.05,-0.15,0.0
26.87068200,26870682,2,0.06,0.72,138.54,0.025606350973248482,-0.004316840786486864,-0.05321207642555237,-0.056074660271406174,0.0,0.0,1.1712509393692017,-0.04,0.05,-0.15,0.0
26.97067900,26970679,2,0.06,0.72,138.55,0.026276256889104843,-0.0044910963624715805,-0.053711794316768646,-0.03552800044417381,0.0,0.0,1.1682815551757812,-0.04,0.05,-0.15,0.0
27.07067800,27070678,2,0.06,0.72,138.54,0.026712629944086075,-0.004710014443844557,-0.053831782191991806,-0.018431318923830986,0.0,0.0,1.1660526990890503,-0.04,0.05,-0.15,0.0
27.17068800,27170688,2,0.06,0.73,138.55,0.02693404071033001,-0.00454059848561883,-0.05378435179591179,-0.04088132083415985,0.0,0.0,1.160519003868103,-0.04,0.05,-0.15,0.0
27.27075100,27270751,2,0.06,0.73,138.55,0.027934307232499123,-0.004597487859427929,-0.05310843139886856,-0.06104885786771774,0.0,0.0,1.154863715171814,-0.04,0.06,-0.14,0.0
27.37076100,27370761,2,0.07,0.72,138.54,0.0286770761013031,-0.005489815957844257,-0.05299283564090729,-0.05647454410791397,0.0,0.0,1.149904489517212,-0.04,0.06,-0.14,0.0
27.47077400,27470774,2,0.07,0.73,138.53,0.0290924571454525,-0.006466471590101719,-0.053412288427352905,-0.05723459646105766,0.0,0.0,1.1441899538040161,-0.04,0.06,-0.14,0.0
27.57076300,27570763,2,0.07,0.72,138.53,0.029437078163027763,-0.007039358373731375,-0.05289125442504883,-0.03993547707796097,0.0,0.0,1.1410208940505981,-0.04,0.06,-0.14,0.0
27.67070900,27670709,2,0.07,0.71,138.53,0.029699673876166344,-0.008565293624997139,-0.051922544836997986,-0.032184768468141556,0.0,0.0,1.1369290351867676,-0.04,0.06,-0.14,0.0
27.77068800,27770688,2,0.07,0.71,138.53,0.02840770035982132,-0.008882705122232437,-0.05285859853029251,-0.0534028597176075,0.0,0.0,1.1310255527496338,-0.04,0.06,-0.14,0.0
27.87068500,27870685,2,0.07,0.72,138.54,0.02802281454205513,-0.009270359762012959,-0.05249479040503502,-0.0679633766412735,0.0,0.0,1.1244797706604004,-0.04,0.06,-0.14,0.0
27.97067900,27970679,2,0.07,0.71,138.55,0.02745269425213337,-0.009834825061261654,-0.050530608743429184,-0.04885018616914749,0.0,0.0,1.120643138885498,-0.04,0.06,-0.14,0.0
28.07071900,28070719,2,0.07,0.71,138.55,0.02727235108613968,-0.010818026959896088,-0.05047611519694328,-0.025473790243268013,0.0,0.0,1.117910385131836,-0.04,0.06,-0.14,0.0
28.17076000,28170760,2,0.07,0.71,138.56,0.026870928704738617,-0.011583548039197922,-0.04884879291057587,-0.016781719401478767,0.0,0.0,1.1155508756637573,-0.04,0.06,-0.14,0.0
28.27076400,28270764,2,0.07,0.71,138.57,0.026566630229353905,-0.012815737165510654,-0.04869624972343445,-0.022097591310739517,0.0,0.0,1.1126705408096313,-0.04,0.06,-0.14,0.0
28.37078100,28370781,2,0.07,0.7000000000000001,138.58,0.026834236457943916,-0.01261118147522211,-0.04892916977405548,-0.03620368614792824,0.0,0.0,1.1086506843566895,-0.04,0.06,-0.14,0.0
28.47076400,28470764,2,0.08,0.7000000000000001,138.59,0.026572419330477715,-0.013436802662909031,-0.04800693690776825,-0.02673199772834778,0.0,0.0,1.1066720485687256,-0.04,0.06,-0.13,0.0
28.57070900,28570709,2,0.08,0.71,138.6,0.026240766048431396,-0.014713681302964687,-0.046413008123636246,-0.0059243193827569485,0.0,0.0,1.105893611907959,-0.04,0.06,-0.13,0.0
28.67067700,28670677,2,0.07,0.71,138.6,0.025657353922724724,-0.014801830984652042,-0.04497290775179863,-0.004326144233345985,0.0,0.0,1.1046457290649414,-0.04,0.06,-0.13,0.0
28.77068600,28770686,2,0.08,0.71,138.61,0.02560490369796753,-0.014599728398025036,-0.04375607892870903,-0.008302799426019192,0.0,0.0,1.1034572124481201,-0.04,0.06,-0.13,0.0
28.87068200,28870682,2,0.08,0.71,138.61,0.02536611445248127,-0.014981474727392197,-0.04287955164909363,-0.017157910391688347,0.0,0.0,1.1012921333312988,-0.04,0.06,-0.13,0.0
28.97069500,28970695,2,0.08,0.71,138.61,0.024813510477542877,-0.01626925729215145,-0.04104956239461899,-0.002654549665749073,0.0,0.0,1.1017311811447144,-0.04,0.06,-0.13,0.0
29.07075100,29070751,2,0.07,0.71,138.6,0.024236338213086128,-0.017247352749109268,-0.03895091637969017,0.019474724307656288,0.0,0.0,1.1032530069351196,-0.04,0.06,-0.12,0.0
29.17076400,29170764,2,0.08,0.7000000000000001,138.59,0.023404806852340698,-0.01803414337337017,-0.03642282634973526,0.025159290060400963,0.0,0.0,1.10496985912323,-0.04,0.06,-0.12,0.0
29.27077100,29270771,2,0.08,0.7000000000000001,138.57,0.02319316565990448,-0.019267402589321136,-0.034884918481111526,0.016486383974552155,0.0,0.0,1.1058398485183716,-0.04,0.06,-0.12,0.0
29.37075800,29370758,2,0.08,0.71,138.56,0.02300994098186493,-0.018861470744013786,-0.03340291604399681,0.007342219818383455,0.0,0.0,1.1064298152923584,-0.04,0.06,-0.12,0.0
29.47071100,29470711,2,0.08,0.71,138.54,0.02233802154660225,-0.019227610900998116,-0.031936127692461014,-0.0009493919787928462,0.0,0.0,1.1062045097351074,-0.04,0.06,-0.11,0.0
29.57068400,29570684,2,0.07,0.7000000000000001,138.53,0.02205473557114601,-0.01934593915939331,-0.030367549508810043,0.0058626714162528515,0.0,0.0,1.1074366569519043,-0.04,0.06,-0.11,0.0
29.67067800,29670678,2,0.08,0.7000000000000001,138.52,0.022003190591931343,-0.01980050466954708,-0.028522701933979988,0.03704827278852463,0.0,0.0,1.1116061210632324,-0.04,0.06,-0.11,0.0
29.77068700,29770687,2,0.07,0.6900000000000001,138.52,0.02190472185611725,-0.019542550668120384,-0.026089884340763092,0.05690136179327965,0.0,0.0,1.1163043975830078,-0.04,0.06,-0.11,0.0
29.87070500,29870705,2,0.07,0.7000000000000001,138.52,0.021191474050283432,-0.01887400820851326,-0.025380052626132965,0.044244274497032166,0.0,0.0,1.119443416595459,-0.04,0.06,-0.11,0.0
29.97075600,29970756,2,0.07,0.6900000000000001,138.52,0.02162241004407406,-0.017840474843978882,-0.024043884128332138,0.030028216540813446,0.0,0.0,1.1221847534179688,-0.04,0.06,-0.11,0.0
30.07075300,30070753,2,0.07,0.6900000000000001,138.52,0.020934177562594414,-0.017925160005688667,-0.02226177416741848,0.02677394263446331,0.0,0.0,1.1249417066574097,-0.04,0.06,-0.11,0.0
30.17076700,30170767,2,0.07,0.6900000000000001,138.51,0.020709745585918427,-0.017146851867437363,-0.01931474544107914,0.03606844320893288,0.0,0.0,1.128814935684204,-0.04,0.06,-0.11,0.0
30.27074800,30270748,2,0.08,0.6900000000000001,138.51,0.020894695073366165,-0.016656309366226196,-0.01759779453277588,0.04451766982674599,0.0,0.0,1.1330413818359375,-0.04,0.06,-0.11,0.0
30.37070600,30370706,2,0.08,0.68,138.51,0.01966351456940174,-0.01695403642952442,-0.014790726825594902,0.042987167835235596,0.0,0.0,1.1368062496185303,-0.04,0.06,-0.11,0.0
30.47067000,30470670,2,0.07,0.68,138.51,0.018789315596222878,-0.016240287572145462,-0.014277249574661255,0.02639647386968136,0.0,0.0,1.1390316486358643,-0.04,0.06,-0.11,0.0
30.57066800,30570668,2,0.07,0.67,138.52,0.01837005466222763,-0.015033313073217869,-0.013324311934411526,0.0067485664039850235,0.0,0.0,1.1398035287857056,-0.04,0.06,-0.11,0.0
30.67066700,30670667,2,0.07,0.67,138.52,0.01889493502676487,-0.013909364119172096,-0.011256212368607521,0.010527127422392368,0.0,0.0,1.1419793367385864,-0.04,0.06,-0.1,0.0
30.77068000,30770680,2,0.08,0.67,138.54,0.01881052926182747,-0.013672830536961555,-0.009058063849806786,0.02763023041188717,0.0,0.0,1.1449955701828003,-0.04,0.06,-0.1,0.0
30.87072700,30870727,2,0.07,0.68,138.55,0.018081024289131165,-0.013548237271606922,-0.007563168182969093,0.04296043887734413,0.0,0.0,1.149325966835022,-0.04,0.06,-0.1,0.0
30.97075700,30970757,2,0.07,0.67,138.55,0.017478851601481438,-0.012712511233985424,-0.006518730893731117,0.036054499447345734,0.0,0.0,1.1517844200134277,-0.04,0.06,-0.1,0.0
31.07076100,31070761,2,0.08,0.67,138.56,0.01732551120221615,-0.012149996124207973,-0.006279888562858105,0.007124778348952532,0.0,0.0,1.152039647102356,-0.04,0.06,-0.1,0.0
31.17074800,31170748,2,0.08,0.67,138.56,0.017211800441145897,-0.012324323877692223,-0.005683113355189562,-0.007979155518114567,0.0,0.0,1.1519262790679932,-0.04,0.06,-0.1,0.0
31.27069900,31270699,2,0.08,0.67,138.55,0.017764339223504066,-0.011924530379474163,-0.005007447674870491,-0.014388315379619598,0.0,0.0,1.1509286165237427,-0.04,0.06,-0.1,0.0
31.37066600,31370666,2,0.08,0.66,138.55,0.017188189551234245,-0.011092578992247581,-0.005548890680074692,-0.03535596653819084,0.0,0.0,1.1474205255508423,-0.04,0.06,-0.1,0.0
31.47066900,31470669,2,0.08,0.66,138.55,0.01660740189254284,-0.01096094585955143,-0.005355527624487877,-0.04187557473778725,0.0,0.0,1.1445093154907227,-0.04,0.06,-0.1,0.0
31.57066900,31570669,2,0.07,0.66,138.56,0.01579117402434349,-0.009954185225069523,-0.0044354721903800964,-0.024445103481411934,0.0,0.0,1.142954707145691,-0.04,0.06,-0.1,0.0
31.67066600,31670666,2,0.07,0.66,138.56,0.01521634217351675,-0.009813853539526463,-0.004122023470699787,-0.013007882982492447,0.0,0.0,1.1416101455688477,-0.04,0.06,-0.1,0.0
31.77073800,31770738,2,0.07,0.66,138.56,0.01509276032447815,-0.00948095042258501,-0.0053979624062776566,-0.019025342538952827,0.0,0.0,1.1393224000930786,-0.04,0.06,-0.1,0.0
31.87075500,31870755,2,0.06,0.66,138.56,0.015686843544244766,-0.008742162957787514,-0.005559236276894808,-0.02187500149011612,0.0,0.0,1.1373413801193237,-0.04,0.06,-0.1,0.0
31.97077200,31970772,2,0.07,0.66,138.56,0.015189851634204388,-0.008573326282203197,-0.005509650334715843,-0.02010476030409336,0.0,0.0,1.1354848146438599,-0.04,0.06,-0.09,0.0
32.07075700,32070757,2,0.07,0.66,138.56,0.014343636110424995,-0.009438186883926392,-0.005556804593652487,-0.02133483812212944,0.0,0.0,1.1333791017532349,-0.04,0.06,-0.1,0.0
32.17070300,32170703,2,0.07,0.66,138.57,0.013902071863412857,-0.009782252833247185,-0.005388913210481405,-0.01177411898970604,0.0,0.0,1.1324368715286255,-0.04,0.06,-0.1,0.0
32.27066600,32270666,2,0.06,0.67,138.58,0.013678019866347313,-0.010090372525155544,-0.005279728211462498,-0.009290548972785473,0.0,0.0,1.1310783624649048,-0.04,0.06,-0.09,0.0
32.37067100,32370671,2,0.06,0.67,138.59,0.013832093216478825,-0.010083073750138283,-0.0047741299495100975,-0.02417372167110443,0.0,0.0,1.1283555030822754,-0.04,0.06,-0.09,0.0
32.47067000,32470670,2,0.06,0.67,138.58,0.013617807067930698,-0.009245822206139565,-0.00558586698025465,-0.023185184225440025,0.0,0.0,1.1266683340072632,-0.04,0.06,-0.09,0.0
32.57067400,32570674,2,0.05,0.67,138.58,0.014624477364122868,-0.008103684522211552,-0.00543191097676754,-0.004884958267211914,0.0,0.0,1.1263221502304077,-0.04,0.06,-0.09,0.0
32.67074400,32670744,2,0.05,0.67,138.57,0.014827786944806576,-0.0065153976902365685,-0.005398037377744913,0.0032683841418474913,0.0,0.0,1.126225233078003,-0.04,0.06,-0.09,0.0
32.77075000,32770750,2,0.05,0.67,138.56,0.014797302894294262,-0.005145929753780365,-0.004997448995709419,0.007119214162230492,0.0,0.0,1.1266645193099976,-0.04,0.06,-0.09,0.0
32.87076100,32870761,2,0.04,0.67,138.56,0.014734636060893536,-0.003465918591246009,-0.004771169275045395,0.0031045405194163322,0.0,0.0,1.1263902187347412,-0.04,0.06,-0.09,0.0
32.97075200,32970752,2,0.04,0.67,138.55,0.014506636187434196,-0.002799903741106391,-0.00497205788269639,-0.020247358828783035,0.0,0.0,1.123957633972168,-0.04,0.06,-0.09,0.0
33.07070500,33070705,2,0.04,0.67,138.55,0.01546394918113947,-0.0022421246394515038,-0.004740345757454634,-0.03252384066581726,0.0,0.0,1.1213994026184082,-0.04,0.06,-0.09,0.0
33.17067900,33170679,2,0.03,0.67,138.56,0.015972090885043144,-0.0023322775959968567,-0.003935682121664286,-0.027711784467101097,0.0,0.0,1.1191322803497314,-0.04,0.06,-0.09,0.0
33.27067900,33270679,2,0.03,0.67,138.56,0.016204243525862694,-0.0016809849767014384,-0.0035197981633245945,-0.030171718448400497,0.0,0.0,1.1162503957748413,-0.04,0.06,-0.08,0.0
33.37067700,33370677,2,0.03,0.68,138.55,0.016924377530813217,-0.0020421750377863646,-0.002465161494910717,-0.02564600482583046,0.0,0.0,1.1141433715820312,-0.04,0.06,-0.08,0.0
33.47070100,33470701,2,0.02,0.68,138.56,0.017018349841237068,-0.002381283091381192,-0.002222344744950533,-0.004020220600068569,0.0,0.0,1.1140925884246826,-0.04,0.06,-0.08,0.0
33.57075100,33570751,2,0.02,0.68,138.56,0.018536459654569626,-0.0034124243538826704,-0.0009426024043932557,0.01187124289572239,0.0,0.0,1.114618182182312,-0.04,0.06,-0.08,0.0
33.67075200,33670752,2,0.02,0.68,138.55,0.019737329334020615,-0.004392017610371113,0.00070091342786327,0.003960204776376486,0.0,0.0,1.1140689849853516,-0.04,0.06,-0.08,0.0
33.77076700,33770767,2,0.01,0.68,138.55,0.02041010744869709,-0.004141092300415039,0.0023176216054707766,-0.00261180242523551,0.0,0.0,1.1137773990631104,-0.04,0.06,-0.08,0.0
33.87075600,33870756,2,0.01,0.68,138.54,0.02183169685304165,-0.005422692745923996,0.00358392670750618,-0.003501766361296177,0.0,0.0,1.1132867336273193,-0.04,0.06,-0.08,0.0
33.97070500,33970705,2,0.0,0.6900000000000001,138.53,0.022583384066820145,-0.006347774062305689,0.0047639599069952965,-0.010395674966275692,0.0,0.0,1.1122466325759888,-0.04,0.06,-0.08,0.0
34.07068400,34070684,2,0.0,0.68,138.53,0.023860108107328415,-0.0062749651260674,0.004961379338055849,-0.01548893190920353,0.0,0.0,1.1109602451324463,-0.04,0.06,-0.08,0.0
34.17068300,34170683,2,0.0,0.6900000000000001,138.53,0.02471114695072174,-0.006377680227160454,0.005644869990646839,-0.01734926737844944,0.0,0.0,1.1094638109207153,-0.04,0.06,-0.08,0.0
34.27066700,34270667,2,0.0,0.6900000000000001,138.53,0.026326129212975502,-0.006719193886965513,0.007232731208205223,-0.016635514795780182,0.0,0.0,1.1079754829406738,-0.04,0.06,-0.08,0.0
34.37067600,34370676,2,0.0,0.6900000000000001,138.53,0.02674955315887928,-0.006672339513897896,0.009092859923839569,-0.014338207431137562,0.0,0.0,1.1066609621047974,-0.04,0.06,-0.07,0.0
34.47072900,34470729,2,0.0,0.68,138.53,0.02758288010954857,-0.00716329924762249,0.010412326082587242,-0.02029244601726532,0.0,0.0,1.1044628620147705,-0.04,0.06,-0.07,0.0
34.57075400,34570754,2,0.0,0.68,138.53,0.027790492400527,-0.007377791218459606,0.01091721374541521,-0.025523316115140915,0.0,0.0,1.1022670269012451,-0.04,0.07,-0.07,0.0
34.67082400,34670824,2,-0.01,0.68,138.52,0.029001612216234207,-0.007222319487482309,0.011902514845132828,-0.022663934156298637,0.0,0.0,1.1001124382019043,-0.04,0.06,-0.07,0.0
34.77074600,34770746,2,-0.01,0.67,138.52,0.029541777446866035,-0.006769952364265919,0.01191403903067112,-0.02208905853331089,0.0,0.0,1.0981289148330688,-0.04,0.07,-0.07,0.0
34.87069800,34870698,2,-0.01,0.67,138.53,0.03025275468826294,-0.006106286775320768,0.011263018473982811,-0.017132028937339783,0.0,0.0,1.096685767173767,-0.04,0.07,-0.07,0.0
34.97066600,34970666,2,0.0,0.67,138.53,0.030307400971651077,-0.005276043433696032,0.01173483021557331,-0.01436968706548214,0.0,0.0,1.095084309577942,-0.04,0.07,-0.07,0.0
35.07066700,35070667,2,0.0,0.66,138.53,0.030834857374429703,-0.004555822350084782,0.012083443813025951,-0.023373020812869072,0.0,0.0,1.0924657583236694,-0.04,0.07,-0.07,0.0
35.17067000,35170670,2,-0.01,0.66,138.52,0.031304191797971725,-0.0026152203790843487,0.011826463975012302,-0.024122387170791626,0.0,0.0,1.090462327003479,-0.04,0.07,-0.07,0.0
35.27067500,35270675,2,-0.01,0.66,138.51,0.03153211995959282,-0.0009278350626118481,0.012029752135276794,-0.01367681473493576,0.0,0.0,1.089289665222168,-0.04,0.07,-0.07,0.0
35.37073400,35370734,2,-0.01,0.66,138.5,0.03174595907330513,-0.0002230601676274091,0.012376444414258003,-0.008284171111881733,0.0,0.0,1.0883266925811768,-0.04,0.07,-0.07,0.0
35.47075200,35470752,2,-0.01,0.66,138.5,0.031925417482852936,0.001183244981803,0.012325715273618698,-0.00015630008419975638,0.0,0.0,1.08833909034729,-0.04,0.07,-0.07,0.0
35.57076400,35570764,2,-0.01,0.65,138.49,0.03197173401713371,0.002015601145103574,0.013187408447265625,0.0027068208437412977,0.0,0.0,1.0881054401397705,-0.04,0.07,-0.07,0.0
35.67074900,35670749,2,-0.01,0.65,138.49,0.03215207904577255,0.002055832650512457,0.014109693467617035,-0.007941314950585365,0.0,0.0,1.0868167877197266,-0.04,0.07,-0.07,0.0
35.77069800,35770698,2,-0.01,0.65,138.49,0.03200838714838028,0.0023564076982438564,0.014711275696754456,-0.012223312631249428,0.0,0.0,1.0858783721923828,-0.04,0.07,-0.06,0.0
35.87067300,35870673,2,-0.01,0.65,138.49,0.03205668553709984,0.0029506427235901356,0.016462145373225212,-0.01376613974571228,0.0,0.0,1.0843958854675293,-0.04,0.07,-0.06,0.0
35.97066600,35970666,2,-0.01,0.64,138.49,0.03258306533098221,0.0037440122105181217,0.01672334596514702,-0.021296612918376923,0.0,0.0,1.0824053287506104,-0.04,0.07,-0.06,0.0
36.07068500,36070685,2,-0.02,0.63,138.49,0.03234071284532547,0.005050035659223795,0.017524877563118935,-0.010958991944789886,0.0,0.0,1.0820376873016357,-0.04,0.07,-0.06,0.0
36.17069200,36170692,2,-0.01,0.62,138.49,0.03265473619103432,0.006393237039446831,0.017850134521722794,0.008552761748433113,0.0,0.0,1.0830092430114746,-0.04,0.07,-0.06,0.0
36.27073600,36270736,2,-0.02,0.62,138.48,0.031279221177101135,0.007128729950636625,0.018649503588676453,0.0020476533100008965,0.0,0.0,1.0822008848190308,-0.04,0.07,-0.06,0.0
36.37075700,36370757,2,-0.02,0.63,138.47,0.031387440860271454,0.00817672349512577,0.019456999376416206,-0.000656699703540653,0.0,0.0,1.0824898481369019,-0.04,0.07,-0.06,0.0
36.47076100,36470761,2,-0.01,0.63,138.46,0.03069540113210678,0.009873994626104832,0.02122543565928936,0.01006776187568903,0.0,0.0,1.0834532976150513,-0.04,0.07,-0.06,0.0
36.57076000,36570760,2,-0.02,0.62,138.45000000000002,0.030191048979759216,0.01026719156652689,0.02177070826292038,0.019858110696077347,0.0,0.0,1.0854049921035767,-0.04,0.07,-0.06,0.0
36.67069900,36670699,2,-0.02,0.62,138.44,0.030379002913832664,0.012059050612151623,0.023317046463489532,0.025268342345952988,0.0,0.0,1.0873690843582153,-0.04,0.07,-0.06,0.0
36.77066900,36770669,2,-0.02,0.61,138.43,0.03033296763896942,0.012757069431245327,0.0246615968644619,0.01659224182367325,0.0,0.0,1.088414192199707,-0.04,0.07,-0.06,0.0
36.87066900,36870669,2,-0.02,0.61,138.42000000000002,0.030573438853025436,0.013260730542242527,0.025156591087579727,0.01164781954139471,0.0,0.0,1.0897761583328247,-0.04,0.07,-0.06,0.0
36.97067800,36970678,2,-0.03,0.61,138.42000000000002,0.031180674210190773,0.013315879739820957,0.025695176795125008,-0.012691651470959187,0.0,0.0,1.0878018140792847,-0.04,0.07,-0.06,0.0
37.07066800,37070668,2,-0.03,0.62,138.41,0.03127893805503845,0.013562308624386787,0.026458855718374252,-0.03007722645998001,0.0,0.0,1.085850715637207,-0.04,0.07,-0.06,0.0
37.17074400,37170744,2,-0.04,0.62,138.41,0.03141411393880844,0.013265654444694519,0.02655722014605999,-0.03092455118894577,0.0,0.0,1.0834325551986694,-0.04,0.07,-0.06,0.0
37.27075600,37270756,2,-0.04,0.61,138.4,0.03173190355300903,0.014228678308427334,0.026878518983721733,-0.02368910238146782,0.0,0.0,1.081898808479309,-0.04,0.07,-0.05,0.0
37.37076100,37370761,2,-0.03,0.62,138.4,0.03070179373025894,0.01470037829130888,0.027803096920251846,-0.0056379507295787334,0.0,0.0,1.0817583799362183,-0.04,0.07,-0.05,0.0
37.47074700,37470747,2,-0.04,0.62,138.4,0.030098769813776016,0.015582237392663956,0.029126513749361038,0.004404247738420963,0.0,0.0,1.0817949771881104,-0.04,0.07,-0.05,0.0
37.57070200,37570702,2,-0.04,0.61,138.4,0.029500920325517654,0.015733055770397186,0.03065309301018715,0.008083941414952278,0.0,0.0,1.0823010206222534,-0.04,0.07,-0.05,0.0
37.67067100,37670671,2,-0.04,0.6,138.4,0.02922115847468376,0.016451025381684303,0.03151607885956764,0.004304168745875359,0.0,0.0,1.082280158996582,-0.04,0.07,-0.05,0.0
37.77066900,37770669,2,-0.04,0.6,138.4,0.028634171932935715,0.016856933012604713,0.032394036650657654,-0.0011112976353615522,0.0,0.0,1.0821465253829956,-0.04,0.07,-0.05,0.0
37.87067300,37870673,2,-0.04,0.6,138.41,0.02896164171397686,0.017469720914959908,0.0331641286611557,-0.00049702258547768,0.0,0.0,1.0821075439453125,-0.04,0.07,-0.05,0.0
37.97073400,37970734,2,-0.04,0.6,138.41,0.029102357104420662,0.018155686557292938,0.03458377346396446,-0.0017810394056141376,0.0,0.0,1.0818610191345215,-0.04,0.07,-0.05,0.0
38.07074200,38070742,2,-0.04,0.6,138.42000000000002,0.02913268283009529,0.018995588645339012,0.03471360728144646,-0.011920527555048466,0.0,0.0,1.080513834953308,-0.04,0.07,-0.05,0.0
38.17075300,38170753,2,-0.04,0.6,138.43,0.02945101447403431,0.01965002715587616,0.035198312252759933,-0.008579478599131107,0.0,0.0,1.080399990081787,-0.04,0.07,-0.05,0.0
38.27076600,38270766,2,-0.04,0.6,138.43,0.02853717841207981,0.020340455695986748,0.03584253415465355,-0.0018757717916741967,0.0,0.0,1.0800600051879883,-0.04,0.07,-0.05,0.0
38.37076800,38370768,2,-0.04,0.6,138.44,0.027608152478933334,0.02074681594967842,0.03672674298286438,0.0059335362166166306,0.0,0.0,1.0809712409973145,-0.04,0.07,-0.05,0.0
38.47069800,38470698,2,-0.04,0.6,138.43,0.026926478371024132,0.020937668159604073,0.03777402266860008,0.02703021839261055,0.0,0.0,1.0838205814361572,-0.04,0.07,-0.05,0.0
38.57066700,38570667,2,-0.04,0.6,138.44,0.026621222496032715,0.02189207635819912,0.03850536793470383,0.03937160596251488,0.0,0.0,1.0871474742889404,-0.04,0.07,-0.05,0.0
38.67067100,38670671,2,-0.04,0.6,138.44,0.026648102328181267,0.022648289799690247,0.03941594809293747,0.028766904026269913,0.0,0.0,1.0891623497009277,-0.04,0.07,-0.05,0.0
38.77067700,38770677,2,-0.04,0.6,138.45000000000002,0.027240103110671043,0.023284101858735085,0.04037932679057121,0.010172314941883087,0.0,0.0,1.089994192123413,-0.04,0.07,-0.05,0.0
38.87067500,38870675,2,-0.04,0.6,138.44,0.02726288139820099,0.023561490699648857,0.04078017175197601,-0.004623078741133213,0.0,0.0,1.0898008346557617,-0.04,0.07,-0.05,0.0
38.97075600,38970756,2,-0.04,0.6,138.45000000000002,0.028347738087177277,0.023075636476278305,0.041598010808229446,-0.007792695891112089,0.0,0.0,1.089694857597351,-0.04,0.07,-0.05,0.0
39.07074900,39070749,2,-0.03,0.6,138.45000000000002,0.027619250118732452,0.022988473996520042,0.04200594127178192,0.011514365673065186,0.0,0.0,1.0915433168411255,-0.04,0.07,-0.05,0.0
39.17075800,39170758,2,-0.03,0.6,138.45000000000002,0.027542568743228912,0.023583047091960907,0.04254533722996712,0.02635558322072029,0.0,0.0,1.0938361883163452,-0.04,0.07,-0.05,0.0
39.27075900,39270759,2,-0.03,0.6,138.45000000000002,0.027454907074570656,0.023199189454317093,0.04322684183716774,0.014545537531375885,0.0,0.0,1.0946218967437744,-0.04,0.07,-0.05,0.0
39.37070600,39370706,2,-0.03,0.6,138.45000000000002,0.02710510790348053,0.0232702549546957,0.0442642979323864,0.017707988619804382,0.0,0.0,1.0969395637512207,-0.04,0.07,-0.05,0.0
39.47067700,39470677,2,-0.03,0.6,138.45000000000002,0.02673511952161789,0.023137163370847702,0.04590263590216637,0.041513510048389435,0.0,0.0,1.1010686159133911,-0.04,0.07,-0.05,0.0
39.57068400,39570684,2,-0.03,0.6,138.44,0.027310876175761223,0.023076415061950684,0.04735848680138588,0.049327265471220016,0.0,0.0,1.1052788496017456,-0.04,0.07,-0.05,0.0
39.67068000,39670680,2,-0.03,0.6,138.44,0.026995191350579262,0.02359980344772339,0.0479256771504879,0.04251673072576523,0.0,0.0,1.108946442604065,-0.04,0.07,-0.05,0.0
39.77070800,39770708,2,-0.03,0.6,138.43,0.026319412514567375,0.023883098736405373,0.04842159524559975,0.016496414318680763,0.0,0.0,1.1099042892456055,-0.04,0.07,-0.05,0.0
39.87072600,39870726,2,-0.03,0.6,138.42000000000002,0.025643570348620415,0.023076938465237617,0.048684559762477875,-0.002780164359137416,0.0,0.0,1.1105079650878906,-0.04,0.07,-0.05,0.0
39.97075600,39970756,2,-0.03,0.59,138.42000000000002,0.024682005867362022,0.023042386397719383,0.050346456468105316,0.008054706268012524,0.0,0.0,1.1121137142181396,-0.05,0.07,-0.05,0.0
40.07077300,40070773,2,-0.03,0.59,138.41,0.02356254681944847,0.02307996340095997,0.051208849996328354,0.00686423946171999,0.0,0.0,1.112592101097107,-0.05,0.07,-0.05,0.0
40.17076000,40170760,2,-0.03,0.59,138.41,0.023189423605799675,0.02237645722925663,0.05239083617925644,-0.005877787247300148,0.0,0.0,1.1122264862060547,-0.05,0.07,-0.05,0.0
40.27070600,40270706,2,-0.03,0.59,138.41,0.02285623736679554,0.02327396534383297,0.05390789359807968,-0.005750820506364107,0.0,0.0,1.1122303009033203,-0.05,0.07,-0.05,0.0
40.37067500,40370675,2,-0.03,0.6,138.4,0.02301049418747425,0.022794179618358612,0.05461173877120018,0.005944894161075354,0.0,0.0,1.1134417057037354,-0.05,0.07,-0.04,0.0
40.47068000,40470680,2,-0.03,0.6,138.4,0.02247733622789383,0.022275110706686974,0.05539586767554283,0.014883176423609257,0.0,0.0,1.1148014068603516,-0.05,0.07,-0.04,0.0
40.57067800,40570678,2,-0.03,0.6,138.39000000000001,0.021813953295350075,0.022193903103470802,0.05623575299978256,0.01614958979189396,0.0,0.0,1.116316556930542,-0.05,0.07,-0.04,0.0
40.67068400,40670684,2,-0.03,0.6,138.39000000000001,0.02100672386586666,0.02193349227309227,0.05599477142095566,0.010334979742765427,0.0,0.0,1.1170637607574463,-0.05,0.07,-0.04,0.0
40.77074400,40770744,2,-0.04,0.6,138.38,0.01956363394856453,0.022213809192180634,0.05608899146318436,0.014620688743889332,0.0,0.0,1.1190663576126099,-0.05,0.07,-0.04,0.0
40.87074300,40870743,2,-0.04,0.6,138.37,0.020032405853271484,0.02211565524339676,0.05686423182487488,0.039159245789051056,0.0,0.0,1.123099684715271,-0.05,0.07,-0.04,0.0
40.97076700,40970767,2,-0.03,0.6,138.37,0.020824024453759193,0.02223789505660534,0.05799850821495056,0.04656826704740524,0.0,0.0,1.1267913579940796,-0.05,0.07,-0.04,0.0
41.07074500,41070745,2,-0.03,0.6,138.36,0.020406393334269524,0.02192332036793232,0.05832751467823982,0.03440949693322182,0.0,0.0,1.129699945449829,-0.05,0.07,-0.04,0.0
41.17070400,41170704,2,-0.03,0.6,138.37,0.019681312143802643,0.021396219730377197,0.05959499254822731,0.03917393088340759,0.0,0.0,1.1339436769485474,-0.05,0.07,-0.04,0.0
41.27067200,41270672,2,-0.03,0.6,138.37,0.01978495717048645,0.02142816036939621,0.06061157211661339,0.052110280841588974,0.0,0.0,1.1389472484588623,-0.05,0.07,-0.04,0.0
41.37066600,41370666,2,-0.03,0.61,138.37,0.020022282376885414,0.021335119381546974,0.06183407083153725,0.05549127608537674,0.0,0.0,1.1441388130187988,-0.05,0.07,-0.04,0.0
41.47066900,41470669,2,-0.02,0.61,138.37,0.020558645948767662,0.020839491859078407,0.0631064921617508,0.05602073669433594,0.0,0.0,1.1494426727294922,-0.05,0.07,-0.04,0.0
41.57067400,41570674,2,-0.03,0.61,138.36,0.0209291223436594,0.021256135776638985,0.06353665888309479,0.03298652917146683,0.0,0.0,1.1519356966018677,-0.05,0.07,-0.04,0.0
41.67072000,41670720,2,-0.03,0.61,138.36,0.02099461853504181,0.021583635360002518,0.06327609717845917,0.0020499462261795998,0.0,0.0,1.1525208950042725,-0.05,0.07,-0.04,0.0
41.77075000,41770750,2,-0.03,0.61,138.35,0.021061917766928673,0.02186775580048561,0.06229976564645767,-0.02541033737361431,0.0,0.0,1.150543451309204,-0.05,0.07,-0.04,0.0
41.87076700,41870767,2,-0.03,0.61,138.35,0.02023266814649105,0.021873293444514275,0.060611359775066376,-0.04527254402637482,0.0,0.0,1.1473548412322998,-0.05,0.07,-0.04,0.0
41.97075000,41970750,2,-0.03,0.61,138.35,0.020454680547118187,0.022099100053310394,0.05959685519337654,-0.050944723188877106,0.0,0.0,1.1435256004333496,-0.05,0.07,-0.04,0.0
42.07069700,42070697,2,-0.03,0.61,138.34,0.020658137276768684,0.021201295778155327,0.06054109334945679,-0.04228564724326134,0.0,0.0,1.1404012441635132,-0.05,0.07,-0.04,0.0
42.17067000,42170670,2,-0.03,0.61,138.34,0.021031511947512627,0.02089349925518036,0.05971167981624603,-0.03761053830385208,0.0,0.0,1.1369647979736328,-0.05,0.07,-0.04,0.0
42.27066900,42270669,2,-0.04,0.61,138.35,0.021907197311520576,0.021071450784802437,0.059738416224718094,-0.015581315383315086,0.0,0.0,1.1363879442214966,-0.05,0.07,-0.04,0.0
42.37066700,42370667,2,-0.03,0.61,138.34,0.02199055254459381,0.020300300791859627,0.0595892108976841,-0.007209688890725374,0.0,0.0,1.134830117225647,-0.05,0.07,-0.04,0.0
42.47068300,42470683,2,-0.03,0.61,138.35,0.021413646638393402,0.020610347390174866,0.06000451743602753,-0.017360633239150047,0.0,0.0,1.1328213214874268,-0.05,0.07,-0.04,0.0
42.57074200,42570742,2,-0.03,0.61,138.34,0.021952291950583458,0.021074647083878517,0.05888958275318146,-0.032701555639505386,0.0,0.0,1.1293959617614746,-0.05,0.07,-0.04,0.0
42.67074400,42670744,2,-0.04,0.61,138.34,0.022318553179502487,0.021135998889803886,0.05784911662340164,-0.0370628759264946,0.0,0.0,1.126391887664795,-0.05,0.07,-0.04,0.0
42.77075700,42770757,2,-0.04,0.61,138.34,0.022288264706730843,0.021279845386743546,0.056875694543123245,-0.027610667049884796,0.0,0.0,1.1241317987442017,-0.05,0.07,-0.04,0.0
42.87074700,42870747,2,-0.04,0.61,138.33,0.022693917155265808,0.02207237109541893,0.05576980486512184,-0.008673224598169327,0.0,0.0,1.123747706413269,-0.05,0.07,-0.04,0.0
42.97070600,42970706,2,-0.04,0.61,138.33,0.023163458332419395,0.022129785269498825,0.05606352165341377,0.00615663081407547,0.0,0.0,1.1238499879837036,-0.05,0.07,-0.04,0.0
43.07066700,43070667,2,-0.04,0.62,138.33,0.02266419492661953,0.022459346801042557,0.057218603789806366,0.015655284747481346,0.0,0.0,1.1249828338623047,-0.05,0.07,-0.03,0.0
43.17066900,43170669,2,-0.04,0.62,138.32,0.023756472393870354,0.022544769570231438,0.05790966376662254,0.024974098429083824,0.0,0.0,1.12703537940979,-0.05,0.07,-0.03,0.0
43.27067400,43270674,2,-0.04,0.63,138.32,0.02393561415374279,0.02203434705734253,0.05964784324169159,0.04492775723338127,0.0,0.0,1.1314079761505127,-0.05,0.07,-0.03,0.0
43.37066700,43370667,2,-0.03,0.63,138.32,0.02388213761150837,0.02128872461616993,0.06099139153957367,0.04136553779244423,0.0,0.0,1.134079098701477,-0.05,0.07,-0.03,0.0
43.47073700,43470737,2,-0.04,0.63,138.33,0.023756008595228195,0.020708613097667694,0.061467234045267105,0.016727570444345474,0.0,0.0,1.13531494140625,-0.05,0.07,-0.03,0.0
43.57075900,43570759,2,-0.03,0.64,138.32,0.023659473285079002,0.02052161656320095,0.0617905929684639,0.008727915585041046,0.0,0.0,1.136655569076538,-0.05,0.07,-0.03,0.0
43.67076100,43670761,2,-0.03,0.64,138.32,0.02427765168249607,0.020297348499298096,0.0616370253264904,0.007464822847396135,0.0,0.0,1.1377389430999756,-0.05,0.07,-0.03,0.0
43.77075200,43770752,2,-0.03,0.64,138.32,0.024395588785409927,0.02051657997071743,0.06209356337785721,0.010600256733596325,0.0,0.0,1.1392282247543335,-0.05,0.07,-0.03,0.0
43.87070200,43870702,2,-0.04,0.64,138.31,0.02535594254732132,0.020353494212031364,0.06248203292489052,0.021278610453009605,0.0,0.0,1.14171302318573,-0.05,0.07,-0.03,0.0
43.97066600,43970666,2,-0.04,0.64,138.32,0.025508208200335503,0.020811958238482475,0.06339013576507568,0.0378243625164032,0.0,0.0,1.145586371421814,-0.05,0.07,-0.03,0.0
44.07066800,44070668,2,-0.04,0.64,138.32,0.026554740965366364,0.02036481909453869,0.06379103660583496,0.0382574126124382,0.0,0.0,1.148643970489502,-0.05,0.07,-0.03,0.0
44.17067000,44170670,2,-0.05,0.64,138.31,0.026859169825911522,0.020579377189278603,0.06306872516870499,0.025056006386876106,0.0,0.0,1.1508859395980835,-0.05,0.07,-0.03,0.0
44.27068700,44270687,2,-0.05,0.64,138.29,0.027336202561855316,0.02023116871714592,0.06308096647262573,0.03311510384082794,0.0,0.0,1.154841423034668,-0.05,0.07,-0.03,0.0
44.37073600,44370736,2,-0.04,0.64,138.29,0.0277592483907938,0.020609311759471893,0.06294048577547073,0.034460850059986115,0.0,0.0,1.1578062772750854,-0.05,0.07,-0.03,0.0
44.47075900,44470759,2,-0.04,0.65,138.29,0.02734372206032276,0.02041264809668064,0.06296639144420624,0.03263455629348755,0.0,0.0,1.1611931324005127,-0.05,0.07,-0.03,0.0
44.57076200,44570762,2,-0.04,0.65,138.29,0.027898846194148064,0.020908575505018234,0.06407950818538666,0.040827199816703796,0.0,0.0,1.165311336517334,-0.05,0.07,-0.03,0.0
44.67075800,44670758,2,-0.03,0.65,138.29,0.028178220614790916,0.020633311942219734,0.06376583129167557,0.00915316678583622,0.0,0.0,1.1649669408798218,-0.05,0.07,-0.03,0.0
44.77069600,44770696,2,-0.03,0.65,138.29,0.02870129607617855,0.020354488864541054,0.06151917949318886,-0.04778068885207176,0.0,0.0,1.1605162620544434,-0.05,0.07,-0.03,0.0
