timestamp,TimeUS,I,Status,GMS,GWk,NSats,HDop,Lat,Lng,Alt,Spd,GCrs,VZ,Yaw,U
1666744224.40000010,704689244,0,3,261042400,2233,12,0.89,42.7308896,-84.49043789999999,185.74,0.032649654895067215,130.03025817871094,0.10200000554323196,0.0,1
1666744224.58023906,704869483,0,3,261042600,2233,12,0.89,42.730889999999995,-84.4904373,185.51,0.025455845519900322,135.0,0.05900000408291817,0.0,1
1666744224.78029203,705069536,0,3,261042800,2233,12,0.89,42.7308905,-84.49043669999999,185.3,0.11482595652341843,33.27488708496094,-0.014000000432133675,0.0,1
1666744224.98032308,705269567,0,3,261043000,2233,11,1.0,42.730891,-84.4904361,184.96,0.16070158779621124,42.2257194519043,0.1850000023841858,0.0,1
1666744225.20003200,705489276,0,3,261043200,2233,10,1.0,42.7308915,-84.49043549999999,184.66,0.07299315184354782,350.5376892089844,0.2160000056028366,0.0,1
1666744225.38038707,705669631,0,3,261043400,2233,10,1.0,42.730891899999996,-84.4904349,184.31,0.05522680655121803,42.06432342529297,0.19500000774860382,0.0,1
1666744225.58043003,705869674,0,3,261043600,2233,10,1.0,42.7308923,-84.49043429999999,183.98,0.06685058027505875,235.3590545654297,0.15600000321865082,0.0,1
1666744225.78029704,706069541,0,3,261043800,2233,10,1.0,42.7308926,-84.490434,183.62,0.06209670007228851,255.06858825683594,0.07500000298023224,0.0,1
1666744225.99992704,706289171,0,3,261044000,2233,10,1.0,42.7308929,-84.4904336,183.32,0.013601471669971943,323.9726257324219,0.1810000091791153,0.0,1
1666744226.18025303,706469497,0,3,261044200,2233,10,1.0,42.730893099999996,-84.49043309999999,182.98,0.12301626056432724,180.9315643310547,0.17400000989437103,0.0,1
1666744226.40001512,706689259,0,3,261044400,2233,10,1.0,42.7308933,-84.4904327,182.67000000000002,0.02789265289902687,255.46554565429688,0.14900000393390656,0.0,1
1666744226.60002899,706889273,0,3,261044600,2233,10,1.0,42.730893599999995,-84.4904323,182.36,0.04531004652380943,202.03622436523438,0.010000000707805157,0.0,1
1666744226.80004811,707089292,0,3,261044800,2233,10,1.0,42.7308939,-84.4904318,182.09,0.05069516971707344,202.01129150390625,0.13700000941753387,0.0,1
1666744227.00000310,707289247,0,3,261045000,2233,10,1.0,42.7308941,-84.4904315,181.76,0.05531727150082588,220.60130310058594,0.058000002056360245,0.0,1
1666744227.18037605,707469620,0,3,261045200,2233,10,1.0,42.7308944,-84.49043089999999,181.36,0.08732125163078308,39.88957977294922,0.039000000804662704,0.0,1
1666744227.38043714,707669681,0,3,261045400,2233,10,1.0,42.7308947,-84.4904303,180.95000000000002,0.014035669155418873,184.08563232421875,0.06000000238418579,0.0,1
1666744227.59993196,707889176,0,3,261045600,2233,10,1.0,42.730894899999996,-84.4904298,180.53,0.028425343334674835,219.28941345214844,0.04700000211596489,0.0,1
1666744227.78020906,708069453,0,3,261045800,2233,10,1.0,42.7308951,-84.4904293,180.14000000000001,0.04477722942829132,66.29734802246094,0.07000000029802322,0.0,1
1666744228.00001311,708289257,0,3,261046000,2233,10,1.05,42.730895499999995,-84.4904286,179.78,0.14029255509376526,30.403425216674805,0.09400000423192978,0.0,1
1666744228.18042397,708469668,0,3,261046200,2233,10,1.05,42.7308958,-84.490428,179.5,0.012369317002594471,104.0362319946289,0.015000000596046448,0.0,1
1666744228.40003395,708689278,0,3,261046400,2233,10,1.05,42.730896099999995,-84.4904275,179.13,0.0720277801156044,1.5911401510238647,0.06400000303983688,0.0,1
1666744228.58040810,708869652,0,3,261046600,2233,10,1.05,42.7308964,-84.49042709999999,178.8,0.0430464893579483,357.3370056152344,0.0560000017285347,0.0,1
1666744228.80003715,709089281,0,3,261046800,2233,10,1.05,42.7308966,-84.49042659999999,178.43,0.0442831814289093,115.40770721435547,0.018000001087784767,0.0,1
1666744228.98032618,709269570,0,3,261047000,2233,10,1.05,42.730896699999995,-84.4904262,178.04,0.03492850065231323,13.240519523620605,0.007000000216066837,0.0,1
1666744229.18039012,709469634,0,3,261047200,2233,10,1.05,42.730897,-84.4904258,177.71,0.013152946718037128,98.74615478515625,-0.03700000047683716,0.0,1
1666744229.38025713,709669501,0,3,261047400,2233,10,1.05,42.7308971,-84.4904255,177.38,0.033600594848394394,233.4711456298828,-0.02500000037252903,0.0,1
1666744229.58027816,709869522,0,3,261047600,2233,10,1.05,42.730897299999995,-84.4904251,177.11,0.03176476061344147,208.1785888671875,-0.10600000619888306,0.0,1
1666744229.78030515,710069549,0,3,261047800,2233,10,1.05,42.7308975,-84.4904248,176.82,0.0427551195025444,190.78431701660156,-0.19100001454353333,0.0,1
1666744229.98036909,710269613,0,3,261048000,2233,9,1.08,42.7308977,-84.4904245,176.48,0.036400552839040756,52.81528854370117,-0.09800000488758087,0.0,1
1666744230.18039417,710469638,0,3,261048200,2233,9,1.08,42.730897899999995,-84.4904241,176.13,0.07451845705509186,40.10090255737305,-0.3330000042915344,0.0,1
1666744230.38041306,710669657,0,3,261048400,2233,10,1.08,42.7308978,-84.4904241,175.95000000000002,0.19112823903560638,177.9010772705078,-0.3920000195503235,0.0,1
1666744230.58031797,710869562,0,3,261048600,2233,9,1.08,42.7308981,-84.4904237,175.83,0.4421594738960266,4.150242805480957,-0.4360000193119049,0.0,1
1666744230.80001497,711089259,0,3,261048800,2233,9,1.08,42.730899199999996,-84.4904231,175.65,0.8969069123268127,29.451705932617188,-0.5040000081062317,0.0,1
1666744230.99995995,711289204,0,3,261049000,2233,9,1.17,42.730899699999995,-84.490422,175.25,0.28317663073539734,28.012975692749023,-0.36400002241134644,0.0,1
1666744231.18026400,711469508,0,3,261049200,2233,9,1.17,42.7309001,-84.4904213,175.03,0.3236819803714752,33.15001678466797,-0.1730000078678131,0.0,1
1666744231.38031006,711669554,0,3,261049400,2233,10,1.17,42.730900999999996,-84.4904201,174.98,0.5793254971504211,23.0687255859375,0.08500000089406967,0.0,1
1666744231.58039808,711869642,0,3,261049600,2233,10,1.17,42.7309013,-84.4904191,174.99,0.20640979707241058,49.519134521484375,0.14600001275539398,0.0,1
1666744231.78036118,712069605,0,3,261049800,2233,10,1.17,42.7309017,-84.4904177,175.15,0.39647069573402405,22.230783462524414,-0.06000000238418579,0.0,1
1666744231.98039412,712269638,0,3,261050000,2233,10,0.99,42.730902,-84.4904167,175.02,0.3838385343551636,48.16811752319336,-0.25,0.0,1
1666744232.18034101,712469585,0,3,261050200,2233,10,0.99,42.7309023,-84.4904158,175.0,0.44107258319854736,25.228776931762695,-0.34300002455711365,0.0,1
1666744232.38039112,712669635,0,3,261050400,2233,9,0.99,42.7309024,-84.4904148,175.36,0.2764706313610077,28.048105239868164,-0.5200000405311584,0.0,1
1666744232.58031607,712869560,0,3,261050600,2233,10,0.99,42.7309018,-84.4904139,175.61,0.12931357324123383,356.00909423828125,-0.5,0.0,1
1666744232.78034306,713069587,0,3,261050800,2233,10,0.99,42.7309011,-84.49041419999999,175.6,0.5275225043296814,236.1291961669922,0.07400000095367432,0.0,1
1666744232.98030615,713269550,0,3,261051000,2233,9,1.17,42.7309017,-84.4904143,175.61,0.5322265028953552,21.26165199279785,-0.5020000338554382,0.0,1
1666744233.18037200,713469616,0,3,261051200,2233,10,1.17,42.730902,-84.4904147,175.42000000000002,0.0998649150133133,304.80401611328125,-0.3240000009536743,0.0,1
1666744233.38035798,713669602,0,3,261051400,2233,9,1.17,42.730901599999996,-84.4904145,175.52,0.3604011833667755,182.70364379882812,-0.34300002455711365,0.0,1
1666744233.60002995,713889274,0,3,261051600,2233,10,1.17,42.7309006,-84.490414,175.77,0.10155294835567474,64.94902038574219,-0.039000000804662704,0.0,1
1666744233.78035617,714069600,0,3,261051800,2233,9,1.17,42.7309013,-84.4904135,175.91,0.4606788754463196,25.730703353881836,-0.009000000543892384,0.0,1
1666744233.98028517,714269529,0,3,261052000,2233,10,0.99,42.7309019,-84.4904135,175.84,0.10707474499940872,34.7289924621582,-0.242000013589859,0.0,1
1666744234.20001507,714489259,0,3,261052200,2233,11,0.99,42.7309026,-84.4904141,175.92000000000002,0.4893260896205902,8.461288452148438,0.010000000707805157,0.0,1
1666744234.40001512,714689259,0,3,261052400,2233,9,0.99,42.7309036,-84.49041439999999,175.96,0.23242203891277313,33.41658401489258,-0.11000000685453415,0.0,1
1666744234.58041096,714869655,0,3,261052600,2233,9,0.99,42.7309033,-84.4904155,176.1,0.15700000524520874,212.77908325195312,0.08400000631809235,0.0,1
1666744234.80001497,715089259,0,3,261052800,2233,9,0.99,42.7309027,-84.4904174,176.24,0.19948433339595795,234.7962188720703,0.18900001049041748,0.0,1
1666744235.00000310,715289247,0,3,261053000,2233,9,1.1500000000000001,42.730902799999996,-84.4904188,176.42000000000002,0.4206768572330475,11.657174110412598,0.3020000159740448,0.0,1
1666744235.18029118,715469535,0,3,261053200,2233,8,1.1500000000000001,42.730902799999996,-84.4904198,176.47,0.13668212294578552,196.57879638671875,0.08700000494718552,0.0,1
1666744235.38031006,715669554,0,3,261053400,2233,8,1.1500000000000001,42.7309019,-84.49042109999999,176.4,0.5488206148147583,183.13351440429688,0.12600000202655792,0.0,1
1666744235.58031416,715869558,0,3,261053600,2233,9,1.1500000000000001,42.730902799999996,-84.4904213,176.4,0.7721846103668213,34.2868766784668,0.19600000977516174,0.0,1
1666744235.80002403,716089268,0,3,261053800,2233,9,1.1500000000000001,42.730902799999996,-84.4904214,176.36,0.38876473903656006,174.5386962890625,0.13100001215934753,0.0,1
1666744236.00004601,716289290,0,3,261054000,2233,9,1.1500000000000001,42.7309021,-84.4904224,176.48,0.5592897534370422,193.86231994628906,0.46400001645088196,0.0,1
1666744236.18038297,716469627,0,3,261054200,2233,9,1.1500000000000001,42.7309023,-84.4904229,176.75,0.3191269338130951,91.61605834960938,0.09800000488758087,0.0,1
1666744236.40000010,716689244,0,3,261054400,2233,9,1.1500000000000001,42.730900999999996,-84.4904234,176.71,0.9553565382957458,170.05455017089844,-0.1860000044107437,0.0,1
1666744236.58044696,716869691,0,3,261054600,2233,9,1.1500000000000001,42.730899799999996,-84.4904243,176.72,0.5647450685501099,182.9434814453125,-0.036000002175569534,0.0,1
1666744236.78031397,717069558,0,3,261054800,2233,8,1.1500000000000001,42.730900999999996,-84.49042419999999,176.89000000000001,0.4825453460216522,26.724349975585938,0.39000001549720764,0.0,1
1666744236.99995017,717289194,0,3,261055000,2233,7,1.69,42.7309032,-84.49042329999999,176.9,0.9835878610610962,51.14914321899414,-0.25600001215934753,0.0,1
1666744237.20004010,717489284,0,3,261055200,2233,8,1.69,42.7309045,-84.4904222,177.1,0.2792704999446869,101.14898681640625,0.21700000762939453,0.0,1
1666744237.40003109,717689275,0,3,261055400,2233,8,1.69,42.7309042,-84.4904226,177.17000000000002,0.06020797789096832,138.366455078125,0.1900000125169754,0.0,1
1666744237.60005116,717889295,0,3,261055600,2233,9,1.69,42.730903999999995,-84.4904231,178.01,0.17936834692955017,154.5778350830078,-0.006000000052154064,0.0,1
1666744237.80006695,718089311,0,3,261055800,2233,9,1.69,42.730905199999995,-84.4904232,178.66,0.2172786295413971,92.90190887451172,0.14600001275539398,0.0,1
1666744238.00000095,718289245,0,3,261056000,2233,9,1.3800000000000001,42.730907099999996,-84.49042159999999,178.99,0.4687771499156952,55.428524017333984,-0.18700000643730164,0.0,1
1666744238.18043303,718469677,0,3,261056200,2233,9,1.3800000000000001,42.7309069,-84.49042159999999,179.12,0.7758724689483643,36.08708953857422,-0.14600001275539398,0.0,1
1666744238.40009713,718689341,0,3,261056400,2233,9,1.3800000000000001,42.730907599999995,-84.4904214,180.13,0.7802416682243347,183.2327880859375,-0.3580000102519989,0.0,1
1666744238.58029103,718869535,0,3,261056600,2233,8,1.3800000000000001,42.7309086,-84.4904208,180.39000000000001,0.7633957266807556,26.699310302734375,-0.21300001442432404,0.0,1
1666744238.78026795,719069512,0,3,261056800,2233,9,1.3800000000000001,42.730911,-84.49041989999999,181.23,1.5483572483062744,20.846221923828125,-0.484000027179718,0.0,1
1666744239.00001717,719289261,0,3,261057000,2233,9,1.1500000000000001,42.7309112,-84.49042089999999,181.78,0.09226592630147934,274.35107421875,-0.6030000448226929,0.0,1
1666744239.18032503,719469569,0,3,261057200,2233,8,1.1500000000000001,42.7309099,-84.4904226,182.35,0.18374167382717133,40.364532470703125,-0.5220000147819519,0.0,1
1666744239.38039517,719669639,0,3,261057400,2233,9,1.1500000000000001,42.7309087,-84.49042419999999,183.03,0.08095678687095642,287.9873352050781,-0.5370000004768372,0.0,1
1666744239.58043909,719869683,0,3,261057600,2233,9,1.1500000000000001,42.7309078,-84.49042589999999,183.61,0.03080584481358528,324.2461242675781,-0.40800002217292786,0.0,1
1666744239.78040004,720069644,0,3,261057800,2233,9,1.1500000000000001,42.7309073,-84.49042709999999,184.27,0.04939635843038559,148.2405242919922,-0.41700002551078796,0.0,1
1666744239.98046017,720269704,0,3,261058000,2233,9,1.1500000000000001,42.730906499999996,-84.4904284,184.63,0.11494781821966171,62.54325485229492,-0.4050000309944153,0.0,1
1666744240.18024707,720469491,0,3,261058200,2233,8,1.1500000000000001,42.730906499999996,-84.4904289,185.06,0.42655131220817566,65.77838134765625,-0.5139999985694885,0.0,1
1666744240.38024712,720669491,0,3,261058400,2233,8,1.1500000000000001,42.7309067,-84.4904294,186.82,0.49142345786094666,53.68975067138672,-0.4050000309944153,0.0,1
1666744240.58032417,720869568,0,3,261058600,2233,9,1.1500000000000001,42.730906499999996,-84.49042999999999,187.12,0.5163119435310364,43.74440002441406,-0.26600000262260437,0.0,1
1666744240.78038597,721069630,0,3,261058800,2233,10,1.1500000000000001,42.730906499999996,-84.49043019999999,187.78,0.2789928615093231,39.91074752807617,-0.15900000929832458,0.0,1
1666744240.98038197,721269626,0,3,261059000,2233,9,1.1500000000000001,42.7309057,-84.49043069999999,187.89000000000001,0.3626086115837097,130.18995666503906,-0.46800002455711365,0.0,1
1666744241.20003796,721489282,0,3,261059200,2233,9,1.1500000000000001,42.7309049,-84.49043119999999,188.26,0.07500000298023224,90.0,-0.28200000524520874,0.0,1
1666744241.40004301,721689287,0,3,261059400,2233,9,1.1500000000000001,42.730903999999995,-84.49043259999999,188.63,0.1440138965845108,232.33438110351562,-0.36900001764297485,0.0,1
1666744241.60002303,721889267,0,3,261059600,2233,8,1.1500000000000001,42.7309033,-84.4904342,188.96,0.2886243462562561,226.6846923828125,-0.35200002789497375,0.0,1
1666744241.78032207,722069566,0,3,261059800,2233,8,1.1500000000000001,42.7309031,-84.49043549999999,189.39000000000001,0.3011793792247772,279.55615234375,-0.6450000405311584,0.0,1
1666744241.98028302,722269527,0,3,261060000,2233,9,1.1500000000000001,42.7309025,-84.4904366,190.05,0.16935762763023376,266.27593994140625,-0.40800002217292786,0.0,1
1666744242.18030405,722469548,0,3,261060200,2233,9,1.1500000000000001,42.7309011,-84.4904387,190.43,0.5039246082305908,211.8607635498047,-0.39100003242492676,0.0,1
1666744242.38029599,722669540,0,3,261060400,2233,9,1.1500000000000001,42.7309001,-84.4904403,190.72,0.622822642326355,248.13027954101562,-0.4090000092983246,0.0,1
1666744242.58034205,722869586,0,3,261060600,2233,10,1.1500000000000001,42.730899099999995,-84.4904423,191.16,0.4875941276550293,219.1736602783203,-0.23500001430511475,0.0,1
1666744242.78036499,723069609,0,3,261060800,2233,10,1.1500000000000001,42.7308977,-84.4904445,192.27,0.27497273683547974,348.0362243652344,-0.34700000286102295,0.0,1
1666744242.98043609,723269680,0,3,261061000,2233,8,1.26,42.7308978,-84.49044529999999,193.48000000000002,0.05140038952231407,52.90715789794922,-0.6210000514984131,0.0,1
1666744243.18034911,723469593,0,3,261061200,2233,9,1.26,42.7308978,-84.4904461,194.78,0.47344061732292175,10.835247039794922,-0.5190000534057617,0.0,1
1666744243.38031411,723669558,0,3,261061400,2233,10,1.26,42.7308956,-84.4904495,197.98000000000002,0.09794896841049194,49.9697380065918,-0.5180000066757202,0.0,1
1666744243.58032703,723869571,0,3,261061600,2233,10,1.26,42.7308933,-84.49045269999999,200.78,0.19777007400989532,55.50639343261719,-0.5330000519752502,0.0,1
1666744243.78030896,724069553,0,3,261061800,2233,10,1.26,42.7308909,-84.49045559999999,202.68,0.49699196219444275,49.16111755371094,-0.6070000529289246,0.0,1
1666744243.99997115,724289215,0,3,261062000,2233,10,1.08,42.7308904,-84.490456,203.64000000000001,0.5835520625114441,43.54187774658203,-0.3580000102519989,0.0,1
1666744244.18031216,724469556,0,3,261062200,2233,8,1.08,42.7308884,-84.4904577,203.94,0.3220248818397522,90.71170043945312,-0.3050000071525574,0.0,1
1666744244.38038802,724669632,0,3,261062400,2233,7,1.08,42.7308867,-84.4904631,202.41,0.49159741401672363,70.01688385009766,-0.0560000017285347,0.0,1
1666744244.58034015,724869584,0,3,261062600,2233,8,1.08,42.7308867,-84.4904651,201.49,0.9964617490768433,24.044221878051758,0.01600000075995922,0.0,1
1666744244.78036809,725069612,0,3,261062800,2233,9,1.08,42.730886399999996,-84.4904672,201.28,0.18427155911922455,3.110840320587158,0.01600000075995922,0.0,1
1666744244.98040700,725269651,0,3,261063000,2233,9,1.1500000000000001,42.730886299999995,-84.490467,201.67000000000002,0.22073739767074585,103.09188842773438,-0.049000002443790436,0.0,1
1666744245.20003104,725489275,0,3,261063200,2233,9,1.1500000000000001,42.7308848,-84.4904675,202.05,0.32482612133026123,208.30076599121094,0.1420000046491623,0.0,1
1666744245.40003514,725689279,0,3,261063400,2233,9,1.1500000000000001,42.730883899999995,-84.49046829999999,202.47,0.04609772562980652,77.47118377685547,-0.2410000115633011,0.0,1
1666744245.60002995,725889274,0,3,261063600,2233,9,1.1500000000000001,42.7308835,-84.4904693,202.72,0.12119819223880768,351.936767578125,-0.1980000138282776,0.0,1
1666744245.78030705,726069551,0,3,261063800,2233,9,1.1500000000000001,42.730883399999996,-84.49046969999999,202.39000000000001,0.37342336773872375,26.56505012512207,-0.42000001668930054,0.0,1
1666744246.00000715,726289251,0,3,261064000,2233,10,1.1500000000000001,42.7308837,-84.4904693,202.27,0.14849916100502014,45.545654296875,-0.45900002121925354,0.0,1
1666744246.20006204,726489306,0,3,261064200,2233,10,1.1500000000000001,42.7308835,-84.4904684,202.36,0.22189413011074066,56.9544792175293,-0.4010000228881836,0.0,1
1666744246.40002418,726689268,0,3,261064400,2233,10,1.1500000000000001,42.7308823,-84.4904694,201.72,0.20747290551662445,3.8691840171813965,-0.34800001978874207,0.0,1
1666744246.60002518,726889269,0,3,261064600,2233,10,1.1500000000000001,42.7308823,-84.4904693,201.36,0.11640017479658127,36.96834182739258,-0.25600001215934753,0.0,1
1666744246.80003810,727089282,0,3,261064800,2233,9,1.1500000000000001,42.730882799999996,-84.49046849999999,201.21,0.2558065950870514,26.46488380432129,-0.08400000631809235,0.0,1
1666744247.00001001,727289254,0,3,261065000,2233,9,1.12,42.7308819,-84.4904687,201.03,0.4814997613430023,196.77903747558594,-0.005000000353902578,0.0,1
1666744247.19998407,727489228,0,3,261065200,2233,10,1.12,42.7308805,-84.4904679,200.38,0.33071136474609375,167.60272216796875,0.203000009059906,0.0,1
1666744247.38036108,727669605,0,3,261065400,2233,9,1.12,42.7308805,-84.4904668,199.87,0.4230898320674896,58.827213287353516,0.42100003361701965,0.0,1
1666744247.58036113,727869605,0,3,261065600,2233,10,1.12,42.7308805,-84.4904653,199.75,0.8225156664848328,140.42630004882812,0.023000001907348633,0.0,1
1666744247.78031206,728069556,0,3,261065800,2233,10,1.12,42.7308786,-84.490465,199.43,1.4832292795181274,191.19630432128906,0.5509999990463257,0.0,1
1666744247.98024702,728269491,0,3,261066000,2233,10,0.99,42.7308777,-84.49046589999999,199.04,0.6287527680397034,317.9653625488281,1.3140000104904175,0.0,1
1666744248.18029118,728469535,0,3,261066200,2233,11,0.99,42.730878,-84.49046659999999,199.37,0.3148396611213684,153.5977020263672,0.2939999997615814,0.0,1
1666744248.38032603,728669570,0,3,261066400,2233,10,0.99,42.7308775,-84.4904664,199.38,0.4130690395832062,46.37326431274414,0.47700002789497375,0.0,1
1666744248.58033109,728869575,0,3,261066600,2233,10,0.99,42.7308783,-84.4904653,199.9,0.20965926349163055,79.27960968017578,0.01100000087171793,0.0,1
1666744248.78039718,729069641,0,3,261066800,2233,10,0.99,42.7308781,-84.4904644,200.20000000000002,0.3671512305736542,187.51214599609375,0.320000022649765,0.0,1
1666744248.98044014,729269684,0,3,261067000,2233,10,0.99,42.730876099999996,-84.49046469999999,200.16,0.2266451120376587,105.87593841552734,-0.06700000166893005,0.0,1
1666744249.18042302,729469667,0,3,261067200,2233,9,0.99,42.7308734,-84.4904655,200.24,0.8935289978981018,211.35964965820312,0.09200000762939453,0.0,1
1666744249.38030314,729669547,0,3,261067400,2233,9,0.99,42.730869999999996,-84.4904676,199.75,0.7484090328216553,212.67083740234375,0.26500001549720764,0.0,1
1666744249.60003614,729889280,0,3,261067600,2233,11,0.99,42.730867499999995,-84.4904669,200.4,0.7684224247932434,189.891357421875,0.018000001087784767,0.0,1
1666744249.78022909,730069473,0,3,261067800,2233,10,0.99,42.7308643,-84.4904662,200.93,0.5066932439804077,76.64940643310547,-0.09400000423192978,0.0,1
1666744249.98032308,730269567,0,3,261068000,2233,10,1.05,42.730863199999995,-84.4904646,201.76,0.549091100692749,88.95647430419922,-0.24900001287460327,0.0,1
1666744250.18036199,730469606,0,3,261068200,2233,10,1.05,42.730860899999996,-84.4904636,201.37,0.555090069770813,160.42254638671875,0.14900000393390656,0.0,1
1666744250.38039398,730669638,0,3,261068400,2233,10,1.05,42.7308588,-84.4904622,201.03,0.3735625743865967,139.0160675048828,0.28300002217292786,0.0,1
1666744250.58041406,730869658,0,3,261068600,2233,11,1.05,42.7308571,-84.49046369999999,200.33,0.11909659951925278,130.9143829345703,0.203000009059906,0.0,1
1666744250.80002904,731089273,0,3,261068800,2233,11,1.05,42.7308568,-84.4904634,199.96,0.18117672204971313,64.849365234375,0.3630000054836273,0.0,1
1666744250.99995017,731289194,0,3,261069000,2233,11,0.93,42.730857199999996,-84.49046229999999,199.45000000000002,0.2211085706949234,109.828125,0.3270000219345093,0.0,1
1666744251.19997907,731489223,0,3,261069200,2233,11,0.93,42.730858,-84.4904605,199.43,0.45458775758743286,187.20318603515625,0.13100001215934753,0.0,1
1666744251.39999509,731689239,0,3,261069400,2233,10,0.93,42.7308583,-84.4904603,199.55,0.4754461348056793,209.206787109375,0.26200002431869507,0.0,1
1666744251.58031607,731869560,0,3,261069600,2233,10,0.93,42.7308561,-84.49046179999999,198.74,0.9571024179458618,203.4580078125,0.20900000631809235,0.0,1
1666744251.78036404,732069608,0,3,261069800,2233,10,0.93,42.7308543,-84.49046229999999,197.91,0.41796889901161194,213.8801727294922,-0.02500000037252903,0.0,1
1666744251.98034906,732269593,0,3,261070000,2233,10,0.9500000000000001,42.730852399999996,-84.4904628,197.26,0.4696913957595825,212.30279541015625,0.046000003814697266,0.0,1
1666744252.18043303,732469677,0,3,261070200,2233,10,0.9500000000000001,42.7308509,-84.4904638,197.20000000000002,0.5948344469070435,217.4863739013672,0.01900000125169754,0.0,1
1666744252.38032818,732669572,0,3,261070400,2233,10,0.9500000000000001,42.730849299999996,-84.4904638,196.68,0.2840862572193146,271.41192626953125,0.01100000087171793,0.0,1
1666744252.58036399,732869608,0,3,261070600,2233,10,0.9500000000000001,42.7308491,-84.4904645,196.67000000000002,0.4713321924209595,260.59765625,0.29600000381469727,0.0,1
1666744252.78027701,733069521,0,3,261070800,2233,10,0.9500000000000001,42.730848699999996,-84.490466,196.68,0.5820661783218384,274.82904052734375,0.07500000298023224,0.0,1
1666744253.00000715,733289251,0,3,261071000,2233,11,0.93,42.7308476,-84.49046589999999,196.96,0.17607101798057556,225.2301025390625,-0.4220000207424164,0.0,1
1666744253.18031716,733469561,0,3,261071200,2233,11,0.93,42.7308454,-84.4904665,196.37,0.22163259983062744,307.852294921875,-0.3140000104904175,0.0,1
1666744253.38043618,733669680,0,3,261071400,2233,10,0.93,42.7308443,-84.49046729999999,196.1,0.5481103658676147,252.58985900878906,0.17400000989437103,0.0,1
1666744253.60002518,733889269,0,3,261071600,2233,11,0.93,42.7308437,-84.4904669,195.6,0.1504792422056198,203.49856567382812,0.13600000739097595,0.0,1
1666744253.80004907,734089293,0,3,261071800,2233,10,0.93,42.730843,-84.4904662,195.15,0.40414851903915405,192.8671112060547,0.2550000250339508,0.0,1
1666744254.00004601,734289290,0,3,261072000,2233,10,0.9500000000000001,42.7308422,-84.49046589999999,194.81,0.3898025453090668,189.00320434570312,0.23900000751018524,0.0,1
1666744254.20001912,734489263,0,3,261072200,2233,9,0.9500000000000001,42.730841399999996,-84.4904653,194.74,0.4418257772922516,183.5035400390625,0.16300000250339508,0.0,1
1666744254.38030910,734669553,0,3,261072400,2233,8,0.9500000000000001,42.730841399999996,-84.4904643,194.75,0.09932271391153336,175.38006591796875,0.3490000069141388,0.0,1
1666744254.59997296,734889217,0,3,261072600,2233,8,0.9500000000000001,42.7308416,-84.49046249999999,194.91,0.16802380979061127,188.90171813964844,0.22700001299381256,0.0,1
1666744254.80000615,735089250,0,3,261072800,2233,11,0.9500000000000001,42.730840699999995,-84.4904608,194.41,0.11720068752765656,205.253173828125,0.3230000138282776,0.0,1
1666744254.99996614,735289210,0,3,261073000,2233,11,0.93,42.73084,-84.4904596,193.65,0.3269893229007721,197.99166870117188,0.4100000262260437,0.0,1
1666744255.20003414,735489278,0,3,261073200,2233,11,0.93,42.7308392,-84.4904585,192.67000000000002,0.14052759110927582,204.37646484375,0.49000000953674316,0.0,1
1666744255.40000916,735689253,0,3,261073400,2233,11,0.93,42.730838,-84.4904578,191.39000000000001,0.07373601943254471,249.35302734375,0.5800000429153442,0.0,1
1666744255.60002017,735889264,0,3,261073600,2233,11,0.93,42.7308367,-84.4904569,190.35,0.5401796698570251,197.56283569335938,0.4750000238418579,0.0,1
1666744255.78028798,736069532,0,3,261073800,2233,10,0.93,42.7308351,-84.4904559,189.68,0.307280033826828,196.25274658203125,0.5400000214576721,0.0,1
1666744256.00001216,736289256,0,3,261074000,2233,10,1.05,42.7308332,-84.4904557,188.98,0.1556534767150879,242.44720458984375,0.6930000185966492,0.0,1
1666744256.19997501,736489219,0,3,261074200,2233,10,1.05,42.7308319,-84.4904553,188.3,0.2729578912258148,225.59371948242188,0.6100000143051147,0.0,1
1666744256.39999604,736689240,0,3,261074400,2233,11,1.05,42.730830499999996,-84.4904553,187.68,0.18101106584072113,269.366943359375,0.7270000576972961,0.0,1
1666744256.59999609,736889240,0,3,261074600,2233,11,1.05,42.730829899999996,-84.4904552,187.11,0.17871765792369843,264.8636169433594,0.46800002455711365,0.0,1
1666744256.78037405,737069618,0,3,261074800,2233,11,1.05,42.7308308,-84.4904545,187.17000000000002,0.48382851481437683,350.3624572753906,0.5270000100135803,0.0,1
1666744257.00003695,737289281,0,3,261075000,2233,12,0.93,42.7308306,-84.4904547,187.55,0.33941274881362915,228.7029266357422,0.37400001287460327,0.0,1
1666744257.18032718,737469571,0,3,261075200,2233,11,0.93,42.7308295,-84.4904552,187.71,0.020518286153674126,46.97492980957031,0.20000000298023224,0.0,1
1666744257.40002799,737689272,0,3,261075400,2233,12,0.93,42.7308294,-84.4904545,187.95000000000002,0.40400126576423645,0.14182093739509583,0.11300000548362732,0.0,1
1666744257.60004401,737889288,0,3,261075600,2233,11,0.93,42.7308295,-84.49045439999999,188.53,0.13124404847621918,282.76556396484375,0.21000000834465027,0.0,1
1666744257.80003715,738089281,0,3,261075800,2233,11,0.93,42.730829799999995,-84.490454,189.46,0.061465442180633545,21.974506378173828,0.013000000268220901,0.0,1
1666744258.00001097,738289255,0,3,261076000,2233,11,0.93,42.7308297,-84.4904533,190.26,0.1140175461769104,164.74485778808594,0.05000000074505806,0.0,1
1666744258.18031812,738469562,0,3,261076200,2233,11,0.93,42.730829899999996,-84.4904524,191.03,0.06618912518024445,206.9521942138672,-0.005000000353902578,0.0,1
1666744258.38038301,738669627,0,3,261076400,2233,11,0.93,42.730829799999995,-84.4904518,191.72,0.17492856085300446,149.03623962402344,-0.2639999985694885,0.0,1
1666744258.58041310,738869657,0,3,261076600,2233,10,0.93,42.730828599999995,-84.4904518,192.08,0.1513472944498062,223.92918395996094,-0.9270000457763672,0.0,1
1666744258.78031015,739069554,0,3,261076800,2233,9,0.93,42.7308281,-84.4904516,192.55,0.41815072298049927,26.871440887451172,-0.4570000171661377,0.0,1
1666744259.00006318,739289307,0,3,261077000,2233,10,1.05,42.7308282,-84.4904511,193.1,0.3034023940563202,11.791397094726562,-0.4320000112056732,0.0,1
1666744259.20003915,739489283,0,3,261077200,2233,10,1.05,42.7308276,-84.4904512,193.63,0.21268051862716675,274.58465576171875,-0.37700000405311584,0.0,1
1666744259.40006208,739689306,0,3,261077400,2233,11,1.05,42.7308246,-84.4904533,193.52,0.06661081314086914,215.83766174316406,-0.2290000170469284,0.0,1
1666744259.60003805,739889282,0,3,261077600,2233,11,1.05,42.7308215,-84.4904549,193.57,0.04295346513390541,167.9052276611328,-0.41100001335144043,0.0,1
1666744259.79998899,740089233,0,3,261077800,2233,11,1.05,42.730818299999996,-84.4904565,193.67000000000002,0.07072482258081436,123.46537780761719,-0.31800001859664917,0.0,1
1666744259.99998903,740289233,0,3,261078000,2233,11,0.93,42.7308154,-84.49045799999999,193.8,0.04308132082223892,338.1986083984375,-0.3270000219345093,0.0,1
1666744260.19995308,740489197,0,3,261078200,2233,11,0.93,42.7308126,-84.4904595,193.97,0.014560219831764698,344.0545959472656,-0.3060000240802765,0.0,1
1666744260.39992905,740689173,0,3,261078400,2233,11,0.93,42.7308094,-84.4904612,194.13,0.11016352474689484,195.80252075195312,-0.3140000104904175,0.0,1
1666744260.60000706,740889251,0,3,261078600,2233,11,0.93,42.7308063,-84.4904627,194.3,0.058523502200841904,109.98310089111328,-0.30900001525878906,0.0,1
1666744260.80000901,741089253,0,3,261078800,2233,11,0.93,42.7308034,-84.4904641,194.48000000000002,0.09615092724561691,63.4349479675293,-0.2590000033378601,0.0,1
1666744261.00003195,741289276,0,3,261079000,2233,11,0.93,42.730801,-84.4904651,194.73000000000002,0.07874643057584763,17.744670867919922,-0.26200002431869507,0.0,1
1666744261.18035412,741469598,0,3,261079200,2233,11,0.93,42.7307984,-84.4904665,194.96,0.050803545862436295,323.8067932128906,-0.36100003123283386,0.0,1
1666744261.39990616,741689150,0,3,261079400,2233,9,0.93,42.7307973,-84.4904665,195.5,0.18041342496871948,37.5685920715332,-0.2970000207424164,0.0,1
1666744261.58042502,741869669,0,3,261079600,2233,8,0.93,42.7307956,-84.4904664,196.12,0.17001764476299286,123.97046661376953,-0.5530000329017639,0.0,1
1666744261.78034997,742069594,0,3,261079800,2233,9,0.93,42.730792699999995,-84.4904672,196.44,0.17041714489459991,39.76251983642578,-0.4490000307559967,0.0,1
1666744261.99990797,742289152,0,3,261080000,2233,9,1.0,42.7307902,-84.4904681,196.70000000000002,0.15741030871868134,13.59483528137207,-0.32100000977516174,0.0,1
1666744262.18025112,742469495,0,3,261080200,2233,9,1.0,42.7307877,-84.4904691,196.9,0.14403125643730164,1.1934893131256104,-0.4130000174045563,0.0,1
1666744262.38026309,742669507,0,3,261080400,2233,9,1.0,42.7307852,-84.4904699,197.24,0.10456099361181259,350.0872497558594,-0.3440000116825104,0.0,1
1666744262.58033109,742869575,0,3,261080600,2233,9,1.0,42.7307825,-84.4904707,197.43,0.16752313077449799,33.310630798339844,-0.37800002098083496,0.0,1
1666744262.79998016,743089224,0,3,261080800,2233,9,1.0,42.7307797,-84.4904715,197.59,0.03301515057682991,54.86580276489258,-0.39500001072883606,0.0,1
1666744262.99999809,743289242,0,3,261081000,2233,9,1.0,42.7307765,-84.4904725,197.9,0.04860041290521622,126.63410186767578,-0.3400000035762787,0.0,1
1666744263.20000100,743489245,0,3,261081200,2233,9,1.0,42.7307734,-84.4904732,198.14000000000001,0.11799152940511703,148.8696746826172,-0.4480000138282776,0.0,1
1666744263.39995003,743689194,0,3,261081400,2233,9,1.0,42.7307707,-84.4904737,198.46,0.09302150458097458,358.7680358886719,-0.3160000145435333,0.0,1
1666744263.59993505,743889179,0,3,261081600,2233,9,1.0,42.730768399999995,-84.4904741,198.91,0.05119570344686508,257.59259033203125,-0.23200000822544098,0.0,1
1666744263.78026414,744069508,0,3,261081800,2233,9,1.0,42.7307664,-84.4904742,199.26,0.049477268010377884,104.0362319946289,-0.281000018119812,0.0,1
1666744263.98027396,744269518,0,3,261082000,2233,9,1.0,42.7307644,-84.49047399999999,199.63,0.08221922069787979,71.56504821777344,-0.3270000219345093,0.0,1
1666744264.19998598,744489230,0,3,261082200,2233,9,1.0,42.730762399999996,-84.49047399999999,199.97,0.12272326648235321,14.149476051330566,-0.23600001633167267,0.0,1
1666744264.39998913,744689233,0,3,261082400,2233,9,1.0,42.7307604,-84.4904742,200.29,0.0970463827252388,358.228515625,-0.2750000059604645,0.0,1
1666744264.60002398,744889268,0,3,261082600,2233,9,1.0,42.7307583,-84.4904743,200.6,0.034365683794021606,8.365885734558105,-0.28200000524520874,0.0,1
1666744264.80000305,745089247,0,3,261082800,2233,9,1.0,42.730756299999996,-84.4904742,200.94,0.10034441202878952,60.11347579956055,-0.2680000066757202,0.0,1
1666744264.99997211,745289216,0,3,261083000,2233,9,1.0,42.7307541,-84.4904739,201.21,0.11142710596323013,158.9624786376953,-0.28700000047683716,0.0,1
1666744265.19992399,745489168,0,3,261083200,2233,10,1.0,42.730751999999995,-84.4904739,201.53,0.10407689958810806,2.2025983333587646,-0.26900002360343933,0.0,1
1666744265.38029408,745669538,0,3,261083400,2233,10,1.0,42.7307498,-84.49047399999999,201.82,0.21691013872623444,190.8955078125,-0.20100000500679016,0.0,1
1666744265.59997416,745889218,0,3,261083600,2233,10,1.0,42.7307475,-84.4904741,202.11,0.06499999761581421,233.13009643554688,-0.1990000158548355,0.0,1
1666744265.79998016,746089224,0,3,261083800,2233,10,1.0,42.7307455,-84.49047379999999,202.49,0.029698487371206284,45.0,-0.20800000429153442,0.0,1
1666744265.99999118,746289235,0,3,261084000,2233,10,1.0,42.7307437,-84.4904734,202.89000000000001,0.09183681756258011,35.24757385253906,-0.20200000703334808,0.0,1
1666744266.19999504,746489239,0,3,261084200,2233,10,1.0,42.730741599999995,-84.49047329999999,203.17000000000002,0.11271202564239502,207.4744415283203,-0.12800000607967377,0.0,1
1666744266.40002799,746689272,0,3,261084400,2233,10,1.0,42.7307396,-84.4904731,203.54,0.09178780764341354,209.35775756835938,-0.1080000028014183,0.0,1
1666744266.60000896,746889253,0,3,261084600,2233,10,1.0,42.730737999999995,-84.4904729,203.9,0.0252982210367918,341.5650634765625,-0.20600001513957977,0.0,1
1666744266.79995799,747089202,0,3,261084800,2233,10,1.0,42.7307364,-84.4904723,204.44,0.10374006628990173,17.38697052001953,-0.17000000178813934,0.0,1
1666744266.99995112,747289195,0,3,261085000,2233,10,1.0,42.7307348,-84.490472,204.83,0.09616652876138687,16.92751121520996,-0.242000013589859,0.0,1
1666744267.19994712,747489191,0,3,261085200,2233,10,1.0,42.730733199999996,-84.49047159999999,205.27,0.054708320647478104,149.21583557128906,-0.2970000207424164,0.0,1
1666744267.39997411,747689218,0,3,261085400,2233,9,1.0,42.730731399999996,-84.4904712,205.74,0.04123105853796005,39.09385681152344,-0.2840000092983246,0.0,1
1666744267.59998918,747889233,0,3,261085600,2233,10,1.0,42.7307296,-84.49047089999999,206.24,0.10307765007019043,2.223961114883423,-0.18800000846385956,0.0,1
1666744267.80000901,748089253,0,3,261085800,2233,9,1.0,42.730727699999996,-84.4904707,206.64000000000001,0.04104875400662422,34.07719421386719,-0.21800000965595245,0.0,1
1666744267.98030114,748269545,0,3,261086000,2233,8,1.0,42.730726,-84.49047019999999,207.1,0.11013628542423248,20.738706588745117,-0.2900000214576721,0.0,1
1666744268.18033695,748469581,0,3,261086200,2233,9,1.0,42.7307243,-84.49046969999999,207.55,0.0564003586769104,37.07307434082031,-0.1990000158548355,0.0,1
1666744268.40002918,748689273,0,3,261086400,2233,9,1.0,42.7307225,-84.4904693,207.97,0.0502493791282177,31.159299850463867,-0.20600001513957977,0.0,1
1666744268.59998012,748889224,0,3,261086600,2233,10,1.0,42.7307206,-84.49046899999999,208.44,0.042201898992061615,126.32682800292969,-0.2760000228881836,0.0,1
1666744268.79994917,749089193,0,3,261086800,2233,11,1.0,42.7307187,-84.4904689,208.73000000000002,0.05393514782190323,349.3150939941406,-0.23000000417232513,0.0,1
1666744268.99998403,749289228,0,3,261087000,2233,11,1.09,42.730717,-84.4904687,209.08,0.02941088378429413,72.18110656738281,-0.25699999928474426,0.0,1
1666744269.19998002,749489224,0,3,261087200,2233,11,1.09,42.7307152,-84.49046849999999,209.57,0.015620499849319458,129.80557250976562,-0.15200001001358032,0.0,1
1666744269.38036108,749669605,0,3,261087400,2233,11,1.09,42.7307132,-84.49046829999999,209.87,0.050358712673187256,96.84276580810547,-0.20000000298023224,0.0,1
1666744269.60000110,749889245,0,3,261087600,2233,11,1.09,42.7307114,-84.4904677,210.24,0.10294173657894135,50.12316131591797,-0.19500000774860382,0.0,1
1666744269.80000496,750089249,0,3,261087800,2233,11,1.09,42.7307096,-84.4904672,210.66,0.03862641751766205,201.25051879882812,-0.15700000524520874,0.0,1
1666744270.00002718,750289271,0,3,261088000,2233,11,1.09,42.7307078,-84.4904668,211.04,0.026000000536441803,22.619863510131836,-0.16900001466274261,0.0,1
1666744270.19998312,750489227,0,3,261088200,2233,11,1.09,42.7307061,-84.4904665,211.33,0.056462377309799194,22.932100296020508,-0.11400000751018524,0.0,1
1666744270.40001416,750689258,0,3,261088400,2233,11,1.09,42.7307042,-84.49046609999999,211.61,0.11064358055591583,189.88800048828125,-0.2160000056028366,0.0,1
1666744270.59998512,750889229,0,3,261088600,2233,11,1.09,42.7307025,-84.4904658,211.92000000000002,0.04130375385284424,6.9529571533203125,-0.11000000685453415,0.0,1
1666744270.78034115,751069585,0,3,261088800,2233,11,1.09,42.7307008,-84.4904651,212.31,0.08969392627477646,112.27589416503906,-0.20500001311302185,0.0,1
1666744270.99989605,751289140,0,3,261089000,2233,11,1.09,42.7306992,-84.4904643,212.8,0.0801561027765274,40.44622802734375,-0.23500001430511475,0.0,1
1666744271.19998097,751489225,0,3,261089200,2233,11,1.09,42.7306976,-84.49046349999999,213.23000000000002,0.046529561281204224,118.21734619140625,-0.23400001227855682,0.0,1
1666744271.39993310,751689177,0,3,261089400,2233,11,1.09,42.7306958,-84.4904631,213.53,0.019209373742341995,128.65980529785156,-0.1810000091791153,0.0,1
1666744271.58032107,751869565,0,3,261089600,2233,11,1.09,42.730694299999996,-84.4904626,213.9,0.07624303549528122,106.7712173461914,-0.203000009059906,0.0,1
1666744271.79999804,752089242,0,3,261089800,2233,11,1.09,42.7306928,-84.49046179999999,214.34,0.060074955224990845,2.8624048233032227,-0.10100000351667404,0.0,1
1666744271.99999499,752289239,0,3,261090000,2233,11,1.09,42.7306914,-84.4904612,214.8,0.06963476538658142,12.43956184387207,-0.24900001287460327,0.0,1
1666744272.18031311,752469557,0,3,261090200,2233,11,1.09,42.7306897,-84.4904605,215.21,0.11700428277254105,18.434947967529297,-0.15800000727176666,0.0,1
1666744272.39988613,752689130,0,3,261090400,2233,11,1.09,42.730688,-84.4904598,215.58,0.07746612280607224,39.23736572265625,-0.15600000321865082,0.0,1
1666744272.59993005,752889174,0,3,261090600,2233,11,1.09,42.730686399999996,-84.4904588,216.12,0.018384777009487152,67.61985778808594,-0.22300000488758087,0.0,1
1666744272.79991317,753089157,0,3,261090800,2233,11,1.09,42.7306847,-84.4904579,216.56,0.09508418291807175,357.5889587402344,-0.12300000339746475,0.0,1
1666744272.99991798,753289162,0,3,261091000,2233,11,1.09,42.730683,-84.49045699999999,216.99,0.09812746942043304,177.0792694091797,-0.15300001204013824,0.0,1
1666744273.20000196,753489246,0,3,261091200,2233,11,1.09,42.730681,-84.49045629999999,217.33,0.053150732070207596,94.31602478027344,-0.20400001108646393,0.0,1
1666744273.39999914,753689243,0,3,261091400,2233,11,1.09,42.7306793,-84.4904553,217.71,0.047801677137613297,127.34934997558594,-0.14600001275539398,0.0,1
1666744273.58036017,753869604,0,3,261091600,2233,11,1.09,42.730677799999995,-84.4904543,218.14000000000001,0.0072111026383936405,303.6900634765625,-0.18000000715255737,0.0,1
1666744273.80000806,754089252,0,3,261091800,2233,11,1.09,42.7306762,-84.49045339999999,218.53,0.1091100424528122,19.265262603759766,-0.18900001049041748,0.0,1
1666744273.99999309,754289237,0,3,261092000,2233,11,1.09,42.7306747,-84.49045249999999,218.94,0.06276942044496536,22.47943115234375,-0.12800000607967377,0.0,1
1666744274.20004606,754489290,0,3,261092200,2233,11,1.09,42.7306731,-84.4904516,219.32,0.033600594848394394,216.52886962890625,-0.2070000171661377,0.0,1
1666744274.39991307,754689157,0,3,261092400,2233,11,1.09,42.7306715,-84.4904506,219.76,0.044384684413671494,112.52056121826172,-0.13700000941753387,0.0,1
1666744274.59994006,754889184,0,3,261092600,2233,11,1.09,42.730669999999996,-84.49044959999999,220.22,0.020615529268980026,75.96375274658203,-0.20200000703334808,0.0,1
1666744274.80001116,755089255,0,3,261092800,2233,11,1.09,42.7306683,-84.49044839999999,220.64000000000001,0.06041523441672325,204.4439697265625,-0.14400000870227814,0.0,1
1666744275.00000405,755289248,0,3,261093000,2233,11,1.09,42.7306665,-84.4904473,221.01,0.0707106813788414,188.13011169433594,-0.1940000057220459,0.0,1
1666744275.20002413,755489268,0,3,261093200,2233,11,1.09,42.7306648,-84.4904461,221.46,0.005099019967019558,281.3099365234375,-0.20400001108646393,0.0,1
1666744275.39998007,755689224,0,3,261093400,2233,11,1.09,42.730663199999995,-84.4904449,221.9,0.03298484534025192,14.036242485046387,-0.21400001645088196,0.0,1
1666744275.60000610,755889250,0,3,261093600,2233,11,1.09,42.7306617,-84.4904437,222.32,0.07531268149614334,10.713123321533203,-0.2410000115633011,0.0,1
1666744438.39061499,918679859,0,3,261256400,2233,12,1.04,42.730675,-84.49047019999999,187.8,0.0604400560259819,16.336042404174805,-0.03400000184774399,0.0,1
1666744438.59058118,918879825,0,3,261256600,2233,12,1.04,42.730677,-84.4904694,188.0,0.08000000566244125,216.86990356445312,0.012000000104308128,0.0,1
1666744438.79050803,919079752,0,3,261256800,2233,12,1.04,42.730678999999995,-84.49046849999999,188.22,0.04675468057394028,41.531768798828125,-0.2070000171661377,0.0,1
1666744438.99056697,919279811,0,3,261257000,2233,12,1.04,42.730681,-84.4904677,188.42000000000002,0.09525755047798157,4.214178085327148,-0.10900000482797623,0.0,1
1666744439.21080017,919500044,0,3,261257200,2233,12,1.04,42.7306826,-84.49046709999999,188.69,0.1354178786277771,20.308441162109375,-0.10400000214576721,0.0,1
1666744439.37083316,919660077,0,3,261257400,2233,12,1.04,42.7306844,-84.4904664,189.04,0.03220248594880104,25.769325256347656,-0.1469999998807907,0.0,1
1666744439.59054804,919879792,0,3,261257600,2233,12,1.04,42.730685799999996,-84.4904658,189.36,0.11704700440168381,199.9831085205078,-0.20400001108646393,0.0,1
1666744439.79053998,920079784,0,3,261257800,2233,11,1.04,42.730687599999996,-84.4904651,189.77,0.09929753839969635,34.33021545410156,-0.25200000405311584,0.0,1
1666744439.99052215,920279766,0,3,261258000,2233,11,1.08,42.730689399999996,-84.4904643,190.08,0.17088301479816437,27.91469955444336,-0.24900001287460327,0.0,1
1666744440.19056511,920479809,0,3,261258200,2233,12,1.08,42.7306907,-84.49046369999999,190.36,0.09347192943096161,26.016780853271484,-0.18300001323223114,0.0,1
1666744440.39058113,920679825,0,3,261258400,2233,11,1.08,42.7306926,-84.4904628,190.73,0.1925097554922104,23.902048110961914,-0.22800001502037048,0.0,1
1666744440.59056807,920879812,0,3,261258600,2233,11,1.08,42.7306945,-84.490462,191.06,0.20428411662578583,18.2575626373291,-0.16700001060962677,0.0,1
1666744440.79060006,921079844,0,3,261258800,2233,12,1.08,42.730696099999996,-84.4904614,191.34,0.13980703055858612,6.159162521362305,-0.18800000846385956,0.0,1
1666744440.99055696,921279801,0,3,261259000,2233,12,1.04,42.7306978,-84.4904607,191.63,0.18429596722126007,27.816457748413086,-0.1810000091791153,0.0,1
1666744441.21087503,921500119,0,3,261259200,2233,11,1.04,42.7306999,-84.4904598,192.01,0.05092150717973709,19.50244903564453,-0.23600001633167267,0.0,1
1666744441.39046597,921679710,0,3,261259400,2233,10,1.04,42.730702,-84.4904588,192.37,0.07300685346126556,13.46520709991455,-0.16200000047683716,0.0,1
1666744441.59053802,921879782,0,3,261259600,2233,10,1.04,42.7307041,-84.4904578,192.67000000000002,0.07353910803794861,67.61985778808594,-0.15900000929832458,0.0,1
1666744441.79055309,922079797,0,3,261259800,2233,10,1.04,42.730705799999996,-84.49045699999999,192.83,0.03178049996495247,77.27564239501953,-0.0950000062584877,0.0,1
1666744441.99067116,922279915,0,3,261260000,2233,10,1.04,42.730707699999996,-84.4904562,193.09,0.10435517132282257,18.434947967529297,-0.22700001299381256,0.0,1
1666744442.17096615,922460210,0,3,261260200,2233,10,1.04,42.730709499999996,-84.4904554,193.32,0.11768603324890137,24.605121612548828,-0.19600000977516174,0.0,1
1666744442.39060903,922679853,0,3,261260400,2233,10,1.04,42.7307115,-84.4904547,193.57,0.1355912983417511,13.216323852539062,-0.2590000033378601,0.0,1
1666744442.59057903,922879823,0,3,261260600,2233,10,1.04,42.7307132,-84.490454,193.76,0.1320037990808487,37.30394744873047,-0.15800000727176666,0.0,1
1666744442.79056001,923079804,0,3,261260800,2233,10,1.04,42.7307151,-84.49045319999999,193.96,0.16735590994358063,14.534455299377441,-0.14100000262260437,0.0,1
1666744442.99050403,923279748,0,3,261261000,2233,10,1.3800000000000001,42.7307172,-84.4904523,194.21,0.298041969537735,21.658615112304688,-0.2760000228881836,0.0,1
1666744443.19050097,923479745,0,3,261261200,2233,10,1.3800000000000001,42.7307194,-84.49045129999999,194.48000000000002,0.11697008460760117,30.291696548461914,-0.3320000171661377,0.0,1
1666744443.39049101,923679735,0,3,261261400,2233,10,1.3800000000000001,42.7307215,-84.4904504,194.74,0.19669774174690247,18.06649398803711,-0.15000000596046448,0.0,1
1666744443.59067702,923879921,0,3,261261600,2233,10,1.3800000000000001,42.7307236,-84.4904495,195.02,0.041773200035095215,42.08916091918945,-0.16900001466274261,0.0,1
1666744443.79061413,924079858,0,3,261261800,2233,10,1.3800000000000001,42.7307257,-84.4904486,195.33,0.10791200399398804,32.51190948486328,-0.2540000081062317,0.0,1
1666744443.99062896,924279873,0,3,261262000,2233,10,1.3800000000000001,42.7307276,-84.49044769999999,195.63,0.07766595482826233,11.888657569885254,-0.29600000381469727,0.0,1
1666744444.19055796,924479802,0,3,261262200,2233,10,1.3800000000000001,42.730729499999995,-84.490447,195.88,0.2572353184223175,25.070716857910156,-0.5080000162124634,0.0,1
1666744444.39049006,924679734,0,3,261262400,2233,10,1.3800000000000001,42.730731899999995,-84.4904462,196.48000000000002,0.3874855041503906,23.256837844848633,-0.703000009059906,0.0,1
1666744444.59056807,924879812,0,3,261262600,2233,10,1.3800000000000001,42.7307341,-84.49044649999999,198.01,0.08013114333152771,29.124052047729492,-0.690000057220459,0.0,1
1666744444.79054999,925079794,0,3,261262800,2233,11,1.3800000000000001,42.7307339,-84.49044789999999,199.15,0.33833712339401245,9.183918952941895,-0.6030000448226929,0.0,1
1666744444.99058700,925279831,0,3,261263000,2233,11,1.08,42.730734299999995,-84.4904483,199.29,0.03862641751766205,338.74951171875,-0.6380000114440918,0.0,1
1666744445.19056106,925479805,0,3,261263200,2233,11,1.08,42.7307359,-84.490448,199.6,0.259724885225296,339.9603576660156,-0.4820000231266022,0.0,1
1666744445.39060116,925679845,0,3,261263400,2233,11,1.08,42.7307365,-84.4904483,199.98000000000002,0.07907591760158539,193.15756225585938,-0.5130000114440918,0.0,1
1666744445.59058499,925879829,0,3,261263600,2233,11,1.08,42.7307379,-84.4904487,201.22,0.16796725988388062,340.16259765625,-0.35100001096725464,0.0,1
1666744445.79057312,926079817,0,3,261263800,2233,11,1.08,42.730739299999996,-84.49044909999999,202.25,0.3713233172893524,345.8140563964844,-0.6640000343322754,0.0,1
1666744445.99056005,926279804,0,3,261264000,2233,11,1.08,42.7307402,-84.4904492,202.77,0.19126945734024048,353.3951721191406,-0.8460000157356262,0.0,1
1666744446.17095709,926460201,0,3,261264200,2233,11,1.08,42.7307426,-84.4904487,203.59,0.38732415437698364,355.26092529296875,-1.0040000677108765,0.0,1
1666744446.39052916,926679773,0,3,261264400,2233,11,1.08,42.7307433,-84.49044909999999,204.05,0.5292419791221619,358.267578125,-0.9820000529289246,0.0,1
1666744446.59052110,926879765,0,3,261264600,2233,11,1.08,42.7307432,-84.4904497,204.16,0.2652791142463684,313.31982421875,-0.9250000715255737,0.0,1
1666744446.79058003,927079824,0,3,261264800,2233,11,1.08,42.730744699999995,-84.4904495,204.62,0.5014418959617615,4.346124172210693,-1.0,0.0,1
1666744446.99060917,927279853,0,3,261265000,2233,11,1.08,42.7307434,-84.4904509,204.57,0.3380429148674011,301.5741882324219,-0.7470000386238098,0.0,1
1666744447.19057202,927479816,0,3,261265200,2233,11,1.08,42.730742,-84.4904522,204.55,0.09585406631231308,246.64443969726562,-0.8520000576972961,0.0,1
1666744447.39063716,927679881,0,3,261265400,2233,11,1.08,42.730741099999996,-84.49045319999999,204.47,0.27719488739967346,336.394287109375,-0.6110000014305115,0.0,1
1666744447.59057307,927879817,0,3,261265600,2233,11,1.08,42.7307402,-84.4904543,204.26,0.29995501041412354,8.049060821533203,-0.5160000324249268,0.0,1
1666744447.79069710,928079941,0,3,261265800,2233,11,1.08,42.7307401,-84.4904553,204.04,0.3201562464237213,358.2100830078125,-0.38100001215934753,0.0,1
1666744447.99062395,928279868,0,3,261266000,2233,11,1.08,42.73074,-84.49045629999999,203.72,0.29290443658828735,355.49627685546875,-0.21400001645088196,0.0,1
1666744448.19057918,928479823,0,3,261266200,2233,11,1.08,42.730740399999995,-84.4904564,203.55,0.3886309266090393,26.762847900390625,-0.281000018119812,0.0,1
1666744448.39056897,928679813,0,3,261266400,2233,12,1.08,42.7307412,-84.4904559,203.59,0.5354213714599609,11.855588912963867,-0.023000001907348633,0.0,1
1666744448.59056997,928879814,0,3,261266600,2233,11,1.08,42.7307428,-84.4904557,203.37,0.48193779587745667,18.134183883666992,-0.004000000189989805,0.0,1
1666744448.79057407,929079818,0,3,261266800,2233,11,1.08,42.7307437,-84.490456,203.11,0.19535866379737854,30.108654022216797,-0.04400000348687172,0.0,1
1666744448.97097516,929260219,0,3,261267000,2233,10,1.08,42.7307438,-84.4904564,202.71,0.3334246575832367,40.377628326416016,0.06400000303983688,0.0,1
1666744449.19058394,929479828,0,3,261267200,2233,10,1.09,42.730744,-84.4904567,202.44,0.4200059771537781,58.73210525512695,-0.1290000081062317,0.0,1
1666744449.39061713,929679861,0,3,261267400,2233,11,1.09,42.730744,-84.4904571,202.23000000000002,0.09420191496610641,350.837646484375,0.11000000685453415,0.0,1
1666744449.59058309,929879827,0,3,261267600,2233,10,1.09,42.7307438,-84.49045819999999,201.79,0.09618731588125229,3.576334238052368,0.026000000536441803,0.0,1
1666744449.79060507,930079849,0,3,261267800,2233,11,1.09,42.7307433,-84.49046009999999,201.11,0.31136155128479004,2.761322021484375,0.07200000435113907,0.0,1
1666744449.99056816,930279812,0,3,261268000,2233,11,1.08,42.7307431,-84.49046179999999,200.65,0.22756099700927734,257.3073425292969,0.1080000028014183,0.0,1
1666744450.19055915,930479803,0,3,261268200,2233,11,1.08,42.730743,-84.4904634,200.45000000000002,0.6901594400405884,225.46961975097656,0.05000000074505806,0.0,1
1666744450.39056396,930679808,0,3,261268400,2233,11,1.08,42.7307438,-84.4904648,200.25,0.24520400166511536,230.7928009033203,-0.04200000315904617,0.0,1
1666744450.59057117,930879815,0,3,261268600,2233,11,1.08,42.7307444,-84.4904656,200.47,0.2872368395328522,254.65740966796875,-0.19600000977516174,0.0,1
1666744450.79059315,931079837,0,3,261268800,2233,11,1.08,42.730745,-84.4904662,200.63,0.17586643993854523,335.47515869140625,-0.03700000047683716,0.0,1
1666744450.99065304,931279897,0,3,261269000,2233,11,1.08,42.7307449,-84.49046799999999,200.4,0.26531678438186646,251.76992797851562,-0.17400000989437103,0.0,1
1666744451.19051409,931479758,0,3,261269200,2233,11,1.08,42.7307452,-84.49046799999999,200.63,0.48100003600120544,0.0,-0.18300001323223114,0.0,1
1666744451.37086105,931660105,0,3,261269400,2233,11,1.08,42.730745399999996,-84.4904689,200.59,0.19592346251010895,247.49261474609375,-0.11800000816583633,0.0,1
1666744451.57089901,931860143,0,3,261269600,2233,10,1.08,42.7307461,-84.4904693,200.65,0.1533949226140976,259.8622131347656,-0.1850000023841858,0.0,1
1666744451.79060102,932079845,0,3,261269800,2233,11,1.08,42.7307476,-84.4904694,200.92000000000002,0.12553884088993073,247.52056884765625,-0.13100001215934753,0.0,1
1666744451.99053812,932279782,0,3,261270000,2233,10,1.3800000000000001,42.730748299999995,-84.4904695,200.99,0.13408206403255463,341.2947998046875,-0.16100001335144043,0.0,1
1666744452.19057608,932479820,0,3,261270200,2233,10,1.3800000000000001,42.7307492,-84.4904695,201.02,0.06382006406784058,324.5666809082031,-0.030000001192092896,0.0,1
1666744452.39050102,932679745,0,3,261270400,2233,11,1.3800000000000001,42.730748399999996,-84.49047039999999,200.78,0.1291394680738449,59.26451110839844,-0.15200001001358032,0.0,1
1666744452.59063196,932879876,0,3,261270600,2233,10,1.3800000000000001,42.730747699999995,-84.4904712,200.65,0.15008331835269928,178.09083557128906,-0.07900000363588333,0.0,1
1666744452.79057312,933079817,0,3,261270800,2233,11,1.3800000000000001,42.7307462,-84.4904725,200.35,0.09963935613632202,100.40769958496094,-0.10100000351667404,0.0,1
1666744452.97085214,933260096,0,3,261271000,2233,9,1.3800000000000001,42.7307455,-84.49047329999999,200.11,0.1250319927930832,149.74356079101562,-0.08800000697374344,0.0,1
1666744453.19058609,933479830,0,3,261271200,2233,11,1.3800000000000001,42.730745999999996,-84.4904739,200.02,0.16063936054706573,100.40054321289062,0.04000000283122063,0.0,1
1666744453.39063501,933679879,0,3,261271400,2233,10,1.3800000000000001,42.7307487,-84.490473,200.16,0.21418918669223785,92.40821075439453,0.07600000500679016,0.0,1
1666744453.59058309,933879827,0,3,261271600,2233,10,1.3800000000000001,42.7307486,-84.4904729,199.89000000000001,0.38755127787590027,118.6812515258789,-0.00800000037997961,0.0,1
1666744453.79055595,934079800,0,3,261271800,2233,11,1.3800000000000001,42.730747799999996,-84.4904736,199.53,0.2120000123977661,121.89078521728516,0.29600000381469727,0.0,1
1666744453.99046898,934279713,0,3,261272000,2233,10,1.3800000000000001,42.7307487,-84.4904725,199.87,1.0455127954483032,145.24591064453125,-0.3440000116825104,0.0,1
1666744454.19052911,934479773,0,3,261272200,2233,10,1.3800000000000001,42.7307485,-84.4904719,199.84,0.33549070358276367,144.46231079101562,0.4240000247955322,0.0,1
1666744454.37082696,934660071,0,3,261272400,2233,10,1.3800000000000001,42.7307497,-84.4904707,200.13,0.7494131326675415,86.48088836669922,-0.0860000029206276,0.0,1
1666744454.59066296,934879907,0,3,261272600,2233,10,1.3800000000000001,42.730750199999996,-84.49046899999999,200.01,0.8981759548187256,70.75811767578125,-0.046000003814697266,0.0,1
1666744454.79063416,935079878,0,3,261272800,2233,11,1.3800000000000001,42.7307513,-84.4904669,200.16,1.0123542547225952,75.70294189453125,-0.46700000762939453,0.0,1
1666744454.99057317,935279817,0,3,261273000,2233,11,1.08,42.730751,-84.4904662,200.14000000000001,0.2641230821609497,165.7532958984375,-0.0010000000474974513,0.0,1
1666744455.19056511,935479809,0,3,261273200,2233,11,1.08,42.730750099999995,-84.4904664,200.08,0.4075450897216797,170.5376739501953,-0.15800000727176666,0.0,1
1666744455.39047813,935679722,0,3,261273400,2233,11,1.08,42.73075,-84.4904669,199.74,0.3686475455760956,47.08855056762695,0.046000003814697266,0.0,1
1666744455.59053802,935879782,0,3,261273600,2233,10,1.08,42.7307498,-84.49046779999999,199.38,0.21878986060619354,13.210528373718262,-0.09700000286102295,0.0,1
1666744455.79056811,936079812,0,3,261273800,2233,11,1.08,42.7307497,-84.4904688,199.25,0.13700366020202637,359.581787109375,-0.13600000739097595,0.0,1
1666744455.99049401,936279738,0,3,261274000,2233,10,1.12,42.7307487,-84.490472,198.42000000000002,0.2621011435985565,33.32628631591797,-0.23000000417232513,0.0,1
1666744456.19057608,936479820,0,3,261274200,2233,11,1.12,42.7307487,-84.4904739,197.75,0.6211513876914978,28.66935157775879,-0.22800001502037048,0.0,1
1666744456.39064717,936679891,0,3,261274400,2233,10,1.12,42.730748899999995,-84.4904744,197.38,0.16120794415473938,11.44933795928955,-0.12300000339746475,0.0,1
1666744456.59060001,936879844,0,3,261274600,2233,12,1.12,42.7307488,-84.49047499999999,197.26,0.0999249741435051,283.8971862792969,-0.12400000542402267,0.0,1
1666744456.79059601,937079840,0,3,261274800,2233,8,1.12,42.7307485,-84.4904754,197.09,0.4053603708744049,215.25836181640625,-0.20600001513957977,0.0,1
1666744456.99056911,937279813,0,3,261275000,2233,10,1.12,42.7307479,-84.4904766,196.99,0.28037118911743164,255.96377563476562,-0.28700000047683716,0.0,1
1666744457.19059396,937479838,0,3,261275200,2233,10,1.12,42.730748,-84.4904778,196.92000000000002,0.20903828740119934,271.096435546875,-0.45100003480911255,0.0,1
1666744457.39049697,937679741,0,3,261275400,2233,9,1.12,42.730748,-84.4904784,197.01,0.49045389890670776,227.39627075195312,-0.23500001430511475,0.0,1
1666744457.59054518,937879789,0,3,261275600,2233,10,1.12,42.7307468,-84.4904792,196.93,0.4344801604747772,218.92755126953125,-0.4310000240802765,0.0,1
1666744457.79056096,938079805,0,3,261275800,2233,9,1.12,42.730745999999996,-84.4904803,196.70000000000002,0.37361612915992737,259.20135498046875,0.10100000351667404,0.0,1
1666744457.99060917,938279853,0,3,261276000,2233,10,1.12,42.7307457,-84.49048119999999,196.70000000000002,0.16484235227108002,299.83111572265625,-0.1290000081062317,0.0,1
1666744458.19058204,938479826,0,3,261276200,2233,10,1.12,42.730746599999996,-84.4904818,196.6,0.31403982639312744,359.0877380371094,-0.13700000941753387,0.0,1
1666744458.39056110,938679805,0,3,261276400,2233,10,1.12,42.7307474,-84.4904823,196.73000000000002,0.23675304651260376,278.74615478515625,-0.046000003814697266,0.0,1
1666744458.59058404,938879828,0,3,261276600,2233,10,1.12,42.7307481,-84.4904828,196.89000000000001,0.22367164492607117,249.86370849609375,-0.10300000756978989,0.0,1
1666744458.79060698,939079851,0,3,261276800,2233,9,1.12,42.7307476,-84.4904835,197.1,0.5548378229141235,221.2733612060547,-0.08500000089406967,0.0,1
1666744458.99057198,939279816,0,3,261277000,2233,9,1.12,42.7307475,-84.4904837,197.5,0.14384019374847412,218.22434997558594,-0.2070000171661377,0.0,1
1666744459.19055796,939479802,0,3,261277200,2233,10,1.12,42.730748399999996,-84.4904834,197.85,0.1038556694984436,38.745967864990234,-0.2720000147819519,0.0,1
1666744459.39058614,939679830,0,3,261277400,2233,10,1.12,42.7307493,-84.49048309999999,198.1,0.21095024049282074,31.4295654296875,-0.3290000259876251,0.0,1
1666744459.59056902,939879813,0,3,261277600,2233,10,1.12,42.73075,-84.4904832,198.28,0.21564091742038727,13.134021759033203,-0.2670000195503235,0.0,1
1666744459.77090406,940060148,0,3,261277800,2233,10,1.12,42.7307504,-84.49048359999999,198.29,0.2804567813873291,3.2704880237579346,-0.24500000476837158,0.0,1
1666744459.99056911,940279813,0,3,261278000,2233,10,1.12,42.7307505,-84.490484,198.29,0.10677547007799149,292.0007019042969,-0.18400001525878906,0.0,1
1666744460.19056606,940479810,0,3,261278200,2233,9,1.12,42.730750799999996,-84.4904844,198.16,0.10062306374311447,296.5650634765625,-0.2370000183582306,0.0,1
1666744460.39057302,940679817,0,3,261278400,2233,10,1.12,42.7307497,-84.49048549999999,198.08,0.10034441202878952,330.11346435546875,-0.23800000548362732,0.0,1
1666744460.59057498,940879819,0,3,261278600,2233,10,1.12,42.7307487,-84.4904863,198.05,0.12397581338882446,347.42108154296875,-0.27800002694129944,0.0,1
1666744460.79056811,941079812,0,3,261278800,2233,10,1.12,42.7307475,-84.4904868,197.89000000000001,0.1173243448138237,341.10174560546875,-0.2800000011920929,0.0,1
1666744460.99055505,941279799,0,3,261279000,2233,10,1.09,42.7307463,-84.490488,197.86,0.09044888615608215,275.7106018066406,-0.2160000056028366,0.0,1
1666744461.17094111,941460185,0,3,261279200,2233,9,1.09,42.7307461,-84.490489,197.69,0.2069033682346344,348.8529968261719,-0.13700000941753387,0.0,1
1666744461.39060497,941679849,0,3,261279400,2233,9,1.09,42.7307456,-84.4904901,197.35,0.2783612906932831,338.5043640136719,-0.164000004529953,0.0,1
1666744461.59056997,941879814,0,3,261279600,2233,8,1.09,42.730745399999996,-84.49049049999999,197.08,0.21444115042686462,15.137947082519531,-0.09200000762939453,0.0,1
1666744461.79059196,942079836,0,3,261279800,2233,11,1.09,42.730743,-84.4904918,196.83,0.20132561028003693,13.207927703857422,-0.10300000756978989,0.0,1
1666744461.99057913,942279823,0,3,261280000,2233,10,1.12,42.730742199999995,-84.4904919,196.56,0.2567041218280792,175.75534057617188,-0.0690000057220459,0.0,1
