timestamp,TimeUS,Lat,Lng,Alt,RelHomeAlt,RelOriginAlt
1666744224.26603007,704555274,42.7308796,-84.49044649999999,242.2899932861328,0.0009182952344417572,-5.0190815925598145
1666744224.30527711,704594521,42.730879699999996,-84.4904464,242.2899932861328,0.002248670905828476,-5.017751216888428
1666744224.32068300,704609927,42.7308798,-84.4904464,242.2899932861328,0.0027917884290218353,-5.017208099365234
1666744224.34522295,704634467,42.7308799,-84.4904463,242.2899932861328,0.0036438964307308197,-5.016355991363525
1666744224.38524103,704674485,42.73088,-84.4904463,242.2899932861328,0.005105879157781601,-5.014894008636475
1666744224.42056108,704709805,42.7308801,-84.4904462,242.2899932861328,0.006369497627019882,-5.013630390167236
1666744224.42517710,704714421,42.7308801,-84.4904462,242.2899932861328,0.006623174995183945,-5.013376712799072
1666744224.46585011,704755094,42.730880299999995,-84.49044599999999,242.2899932861328,0.00698557123541832,-5.013014316558838
1666744224.50575209,704794996,42.7308804,-84.4904459,242.2899932861328,0.007979299873113632,-5.012020587921143
1666744224.52048802,704809732,42.7308805,-84.4904459,242.2899932861328,0.008416559547185898,-5.01158332824707
1666744224.54559112,704834835,42.7308805,-84.49044579999999,242.2899932861328,0.009074117988348007,-5.010925769805908
1666744224.58527303,704874517,42.7308806,-84.49044579999999,242.29998779296875,0.010352995246648788,-5.009646892547607
1666744224.62049818,704909742,42.7308808,-84.4904456,242.29998779296875,0.010561849921941757,-5.0094380378723145
1666744224.62524295,704914487,42.7308808,-84.4904456,242.29998779296875,0.010781195014715195,-5.009218692779541
1666744224.66590214,704955146,42.730881,-84.49044549999999,242.29998779296875,0.01099863275885582,-5.0090012550354
1666744224.70553517,704994779,42.7308811,-84.4904454,242.29998779296875,0.011915113776922226,-5.008084774017334
1666744224.72049308,705009737,42.7308811,-84.49044529999999,242.29998779296875,0.012321379035711288,-5.007678508758545
1666744224.74523902,705034483,42.7308812,-84.49044529999999,242.29998779296875,0.012903597205877304,-5.007096290588379
1666744224.78533316,705074577,42.7308813,-84.4904452,242.29998779296875,0.014024164527654648,-5.005975723266602
1666744224.82060099,705109845,42.730881499999995,-84.4904451,242.29998779296875,0.014754202216863632,-5.005245685577393
1666744224.82524204,705114486,42.730881499999995,-84.4904451,242.29998779296875,0.014987852424383163,-5.005012035369873
1666744224.86578703,705155031,42.7308816,-84.4904449,242.29998779296875,0.01584186777472496,-5.004158020019531
1666744224.90566516,705194909,42.7308818,-84.49044479999999,242.29998779296875,0.017116930335760117,-5.002882957458496
1666744224.92041802,705209662,42.7308818,-84.49044479999999,242.29998779296875,0.017640497535467148,-5.002359390258789
1666744224.94531918,705234563,42.7308819,-84.4904447,242.29998779296875,0.01847543939948082,-5.001524448394775
1666744224.98523617,705274480,42.730882,-84.49044459999999,242.29998779296875,0.019894029945135117,-5.000105857849121
1666744225.02047610,705309720,42.730882199999996,-84.4904445,242.29998779296875,0.01905098184943199,-5.000948905944824
1666744225.02521014,705314454,42.730882199999996,-84.4904445,242.29998779296875,0.019253160804510117,-5.000746726989746
1666744225.06579709,705355041,42.7308824,-84.4904443,242.29998779296875,0.01830139383673668,-5.0016984939575195
1666744225.10560513,705394849,42.7308825,-84.4904442,242.29998779296875,0.018483545631170273,-5.001516342163086
1666744225.12048912,705409733,42.7308825,-84.49044409999999,242.29998779296875,0.01865234598517418,-5.001347541809082
1666744225.14522195,705434466,42.7308826,-84.490444,242.29998779296875,0.018801596015691757,-5.0011982917785645
1666744225.18528008,705474524,42.730882699999995,-84.490444,242.29998779296875,0.0195254348218441,-5.000474452972412
1666744225.22052908,705509773,42.7308829,-84.4904438,242.29998779296875,0.018404867500066757,-5.0015950202941895
1666744225.22520614,705514450,42.7308829,-84.4904438,242.29998779296875,0.01861276850104332,-5.001387119293213
1666744225.26585698,705555101,42.7308831,-84.4904437,242.29998779296875,0.01610555872321129,-5.003894329071045
1666744225.30561709,705594861,42.7308832,-84.49044359999999,242.29998779296875,0.015018370002508163,-5.004981517791748
1666744225.32054806,705609792,42.7308832,-84.4904435,242.29998779296875,0.014786150306463242,-5.005213737487793
1666744225.34538198,705634626,42.730883299999995,-84.4904435,242.29998779296875,0.014213945716619492,-5.005785942077637
1666744225.38532495,705674569,42.730883399999996,-84.49044339999999,242.29998779296875,0.01374521479010582,-5.00625467300415
1666744225.42048311,705709727,42.7308836,-84.4904433,242.29998779296875,0.010746385902166367,-5.00925350189209
1666744225.42529106,705714535,42.7308836,-84.4904433,242.29998779296875,0.01092996820807457,-5.009069919586182
1666744225.46584511,705755089,42.7308838,-84.4904431,242.2899932861328,0.007455255836248398,-5.012544631958008
1666744225.50555015,705794794,42.730883899999995,-84.490443,242.2899932861328,0.005735304206609726,-5.0142645835876465
1666744225.52049112,705809735,42.730883899999995,-84.490443,242.2899932861328,0.00529184564948082,-5.014708042144775
1666744225.54555297,705834797,42.730883999999996,-84.49044289999999,242.2899932861328,0.0043372176587581635,-5.015662670135498
1666744225.58521199,705874456,42.7308841,-84.4904428,242.2899932861328,0.0033144019544124603,-5.016685485839844
1666744225.62051916,705909763,42.7308842,-84.4904427,242.2899932861328,0.0008362792432308197,-5.019163608551025
1666744225.62536716,705914611,42.7308842,-84.4904427,242.2899932861328,0.000993635505437851,-5.019006252288818
1666744225.66580296,705955047,42.7308844,-84.4904426,242.27999877929688,-0.001863095909357071,-5.021862983703613
1666744225.70553112,705994775,42.730884499999995,-84.4904425,242.27999877929688,-0.0032149292528629303,-5.023214817047119
1666744225.72051501,706009759,42.730884499999995,-84.4904425,242.27999877929688,-0.0035544373095035553,-5.02355432510376
1666744225.74516797,706034412,42.730884599999996,-84.49044239999999,242.27999877929688,-0.004294965416193008,-5.024294853210449
1666744225.78534198,706074586,42.7308847,-84.4904423,242.27999877929688,-0.005219552665948868,-5.025219440460205
1666744225.82047701,706109721,42.7308848,-84.49044219999999,242.27999877929688,-0.007062528282403946,-5.02706241607666
1666744225.82526016,706114504,42.7308848,-84.49044219999999,242.27999877929688,-0.0069275833666324615,-5.026927471160889
1666744225.86582994,706155074,42.730885,-84.4904421,242.27999877929688,-0.00903758779168129,-5.0290374755859375
1666744225.90548396,706194728,42.730885099999995,-84.490442,242.27999877929688,-0.009913060814142227,-5.029912948608398
1666744225.92048311,706209727,42.730885099999995,-84.490442,242.26998901367188,-0.010116193443536758,-5.030116081237793
1666744225.94524407,706234488,42.730885099999995,-84.490442,242.26998901367188,-0.010585401207208633,-5.030585289001465
1666744225.98535204,706274596,42.730885199999996,-84.4904419,242.26998901367188,-0.011010263115167618,-5.031010150909424
1666744226.02048206,706309726,42.7308853,-84.4904418,242.26998901367188,-0.012841794639825821,-5.032841682434082
1666744226.02521706,706314461,42.7308853,-84.4904418,242.26998901367188,-0.012724969536066055,-5.032724857330322
1666744226.06590009,706355144,42.7308855,-84.49044169999999,242.26998901367188,-0.01567992940545082,-5.035679817199707
1666744226.10556698,706394811,42.7308856,-84.4904416,242.26998901367188,-0.01701793447136879,-5.037017822265625
1666744226.12055397,706409798,42.7308856,-84.4904416,242.26998901367188,-0.017371270805597305,-5.0373711585998535
1666744226.14522505,706434469,42.730885699999995,-84.4904415,242.26998901367188,-0.0181179977953434,-5.0381178855896
1666744226.18528414,706474528,42.730885699999995,-84.4904415,242.26998901367188,-0.019026372581720352,-5.039026260375977
1666744226.22049117,706509735,42.730885799999996,-84.4904413,242.25999450683594,-0.02162132039666176,-5.041621208190918
1666744226.22522902,706514473,42.730885799999996,-84.4904413,242.25999450683594,-0.021524999290704727,-5.041524887084961
1666744226.26583600,706555080,42.730886,-84.49044119999999,242.25999450683594,-0.02444276586174965,-5.044442653656006
1666744226.30557799,706594822,42.730886,-84.4904411,242.25999450683594,-0.025875184684991837,-5.045875072479248
1666744226.32057095,706609815,42.7308861,-84.4904411,242.25999450683594,-0.026267144829034805,-5.046267032623291
1666744226.34532499,706634569,42.7308861,-84.4904411,242.25999450683594,-0.02706155553460121,-5.047061443328857
1666744226.38530207,706674546,42.7308862,-84.49044099999999,242.25999450683594,-0.02793845906853676,-5.047938346862793
1666744226.42051911,706709763,42.7308862,-84.4904409,242.25999450683594,-0.029813382774591446,-5.049813270568848
1666744226.42524815,706714492,42.7308862,-84.4904409,242.25999450683594,-0.029741380363702774,-5.049741268157959
1666744226.46577311,706755017,42.730886399999996,-84.4904408,242.25,-0.03252515569329262,-5.052525043487549
1666744226.50556207,706794806,42.730886399999996,-84.4904407,242.25,-0.033922288566827774,-5.053922176361084
1666744226.52043605,706809680,42.7308865,-84.4904407,242.25,-0.03431186452507973,-5.054311752319336
1666744226.54547310,706834717,42.7308865,-84.4904406,242.25,-0.035089585930109024,-5.055089473724365
1666744226.58528709,706874531,42.7308866,-84.49044049999999,242.25,-0.03600702062249184,-5.056006908416748
1666744226.62046218,706909706,42.7308867,-84.49044049999999,242.25,-0.03693780675530434,-5.0569376945495605
1666744226.62526107,706914505,42.7308867,-84.4904404,242.25,-0.03687391057610512,-5.056873798370361
1666744226.66581511,706955059,42.7308868,-84.4904403,242.25,-0.038055989891290665,-5.058055877685547
1666744226.70561409,706994858,42.7308869,-84.4904402,242.25,-0.03867444768548012,-5.058674335479736
1666744226.72048807,707009732,42.7308869,-84.4904402,242.25,-0.038832757622003555,-5.05883264541626
1666744226.74531007,707034554,42.7308869,-84.4904402,242.25,-0.03915509954094887,-5.059154987335205
1666744226.78535104,707074595,42.730886999999996,-84.4904401,242.25,-0.03942069783806801,-5.059420585632324
1666744226.82051706,707109761,42.7308871,-84.49043999999999,242.239990234375,-0.04061994329094887,-5.060619831085205
1666744226.82526398,707114508,42.7308871,-84.49043999999999,242.239990234375,-0.04056558385491371,-5.06056547164917
1666744226.86580515,707155049,42.7308872,-84.4904399,242.239990234375,-0.04251870885491371,-5.06251859664917
1666744226.90558195,707194826,42.7308873,-84.49043979999999,242.239990234375,-0.04352054372429848,-5.063520431518555
1666744226.92065310,707209897,42.7308873,-84.49043979999999,242.239990234375,-0.04379758611321449,-5.063797473907471
1666744226.94519114,707234435,42.7308873,-84.4904397,242.239990234375,-0.0443478561937809,-5.064347743988037
1666744226.98521900,707274463,42.7308874,-84.4904396,242.239990234375,-0.0447293259203434,-5.0647292137146
1666744227.02049518,707309739,42.7308875,-84.4904396,242.239990234375,-0.045354459434747696,-5.065354347229004
1666744227.02537203,707314616,42.7308875,-84.4904395,242.239990234375,-0.0453096367418766,-5.065309524536133
1666744227.06590509,707355149,42.730887599999996,-84.4904394,242.239990234375,-0.046190354973077774,-5.066190242767334
1666744227.10556912,707394813,42.730887599999996,-84.49043929999999,242.239990234375,-0.046445462852716446,-5.066445350646973
1666744227.12050414,707409748,42.7308877,-84.49043929999999,242.239990234375,-0.0464993454515934,-5.06649923324585
1666744227.14523196,707434476,42.7308877,-84.49043929999999,242.239990234375,-0.046622369438409805,-5.066622257232666
1666744227.18522906,707474473,42.7308877,-84.4904392,242.239990234375,-0.04659518972039223,-5.066595077514648
1666744227.22049809,707509742,42.7308879,-84.4904391,242.239990234375,-0.04694661870598793,-5.066946506500244
1666744227.22528315,707514527,42.7308879,-84.4904391,242.239990234375,-0.04690894857048988,-5.066908836364746
1666744227.26585698,707555101,42.730888,-84.4904389,242.239990234375,-0.04725799337029457,-5.067257881164551
1666744227.30562210,707594866,42.7308881,-84.49043879999999,242.239990234375,-0.04724368825554848,-5.067243576049805
1666744227.32057405,707609818,42.7308881,-84.49043879999999,242.239990234375,-0.04721841588616371,-5.06721830368042
1666744227.34523916,707634483,42.7308881,-84.4904387,242.239990234375,-0.047177884727716446,-5.067177772521973
1666744227.38524413,707674488,42.730888199999995,-84.4904387,242.239990234375,-0.04690227285027504,-5.066902160644531
1666744227.42053795,707709782,42.7308883,-84.4904385,242.239990234375,-0.04731759801506996,-5.067317485809326
1666744227.42543006,707714674,42.7308883,-84.4904385,242.239990234375,-0.04728708043694496,-5.067286968231201
1666744227.46586704,707755111,42.7308884,-84.4904384,242.239990234375,-0.04772481694817543,-5.067724704742432
1666744227.50550795,707794752,42.7308885,-84.4904383,242.239990234375,-0.04784545674920082,-5.067845344543457
1666744227.52053809,707809782,42.7308885,-84.4904383,242.239990234375,-0.04783925786614418,-5.0678391456604
1666744227.54556704,707834811,42.7308886,-84.4904382,242.239990234375,-0.047868821769952774,-5.067868709564209
1666744227.58524609,707874490,42.7308886,-84.4904382,242.239990234375,-0.047861192375421524,-5.067861080169678
1666744227.62049007,707909734,42.7308887,-84.49043809999999,242.239990234375,-0.04816827550530434,-5.0681681632995605
1666744227.62520814,707914452,42.7308887,-84.49043809999999,242.239990234375,-0.04815349355340004,-5.068153381347656
1666744227.66593218,707955176,42.7308889,-84.49043789999999,242.239990234375,-0.04849586263298988,-5.068495750427246
1666744227.70553303,707994777,42.7308889,-84.4904378,242.239990234375,-0.04811391606926918,-5.068113803863525
1666744227.72049499,708009739,42.7308889,-84.4904378,242.239990234375,-0.0479947067797184,-5.067994594573975
1666744227.74523902,708034483,42.730889,-84.4904377,242.239990234375,-0.04775676503777504,-5.067756652832031
1666744227.78535295,708074597,42.730889,-84.4904377,242.239990234375,-0.04679355397820473,-5.066793441772461
1666744227.82048917,708109733,42.7308891,-84.4904375,242.239990234375,-0.046625230461359024,-5.066625118255615
1666744227.82522702,708114471,42.7308891,-84.4904375,242.239990234375,-0.04661998525261879,-5.066619873046875
1666744227.86600804,708155252,42.7308893,-84.49043739999999,242.239990234375,-0.04623374715447426,-5.0662336349487305
1666744227.90558004,708194824,42.7308893,-84.4904373,242.239990234375,-0.04565582051873207,-5.065655708312988
1666744227.92055917,708209803,42.730889399999995,-84.4904373,242.239990234375,-0.04546031728386879,-5.065460205078125
1666744227.94523811,708234482,42.730889399999995,-84.4904372,242.239990234375,-0.045076463371515274,-5.0650763511657715
1666744227.98522115,708274465,42.730889499999996,-84.4904371,242.239990234375,-0.04439506307244301,-5.064394950866699
1666744228.02048397,708309728,42.7308896,-84.490437,242.239990234375,-0.044440362602472305,-5.0644402503967285
1666744228.02519608,708314440,42.7308896,-84.490437,242.239990234375,-0.04441509023308754,-5.064414978027344
1666744228.06581497,708355059,42.7308897,-84.4904368,242.239990234375,-0.0448208786547184,-5.064820766448975
1666744228.10559797,708394842,42.7308898,-84.49043669999999,242.239990234375,-0.04458770528435707,-5.064587593078613
1666744228.12052202,708409766,42.7308898,-84.49043669999999,242.239990234375,-0.04454145208001137,-5.064541339874268
1666744228.14537001,708434614,42.7308899,-84.4904366,242.239990234375,-0.04441842809319496,-5.064418315887451
1666744228.18522906,708474473,42.730889999999995,-84.4904365,242.239990234375,-0.043663594871759415,-5.063663482666016
1666744228.22045398,708509698,42.730890099999996,-84.4904364,242.239990234375,-0.04306897893548012,-5.063068866729736
1666744228.22528195,708514526,42.730890099999996,-84.4904364,242.239990234375,-0.043069932609796524,-5.063069820404053
1666744228.26582313,708555067,42.7308902,-84.49043619999999,242.239990234375,-0.04229745641350746,-5.062297344207764
1666744228.30556703,708594811,42.7308903,-84.4904361,242.239990234375,-0.041542623192071915,-5.061542510986328
1666744228.32061195,708609856,42.7308903,-84.4904361,242.239990234375,-0.041292283684015274,-5.0612921714782715
1666744228.34527397,708634518,42.7308904,-84.490436,242.239990234375,-0.04083690419793129,-5.0608367919921875
1666744228.38531113,708674555,42.7308904,-84.4904359,242.239990234375,-0.04001102223992348,-5.06001091003418
1666744228.42055607,708709800,42.7308905,-84.4904358,242.25,-0.03985318914055824,-5.0598530769348145
1666744228.42526412,708714508,42.7308905,-84.4904358,242.25,-0.03985080495476723,-5.059850692749023
1666744228.46582699,708755071,42.730890699999996,-84.49043569999999,242.25,-0.039917562156915665,-5.059917449951172
1666744228.50564408,708794888,42.7308908,-84.4904356,242.25,-0.03956613317131996,-5.059566020965576
1666744228.52058196,708809826,42.7308908,-84.4904356,242.25,-0.0394807793200016,-5.059480667114258
1666744228.54554105,708834785,42.7308908,-84.49043549999999,242.25,-0.03923949971795082,-5.059239387512207
1666744228.58523011,708874474,42.7308909,-84.4904354,242.25,-0.038538072258234024,-5.05853796005249
1666744228.62059116,708909835,42.730891,-84.4904353,242.25,-0.03865346685051918,-5.058653354644775
1666744228.62531400,708914558,42.730891,-84.4904353,242.25,-0.038644883781671524,-5.058644771575928
1666744228.66588616,708955130,42.730891199999995,-84.4904352,242.25,-0.0386105515062809,-5.058610439300537
1666744228.70570111,708994945,42.730891199999995,-84.4904351,242.25,-0.03824338689446449,-5.058243274688721
1666744228.72050214,709009746,42.730891299999996,-84.49043499999999,242.25,-0.0381222702562809,-5.058122158050537
1666744228.74527097,709034515,42.730891299999996,-84.49043499999999,242.25,-0.03789767995476723,-5.057897567749023
1666744228.78537011,709074614,42.7308914,-84.4904349,242.25,-0.037209127098321915,-5.057209014892578
1666744228.82056618,709109810,42.7308915,-84.4904348,242.25,-0.03663120046257973,-5.056631088256836
1666744228.82530618,709114550,42.7308915,-84.4904348,242.25,-0.036629293113946915,-5.056629180908203
1666744228.86593509,709155179,42.7308916,-84.4904347,242.25,-0.035905931144952774,-5.055905818939209
1666744228.90558910,709194833,42.7308917,-84.4904346,242.25,-0.034959886223077774,-5.054959774017334
1666744228.92054105,709209785,42.7308917,-84.49043449999999,242.25,-0.03469571843743324,-5.0546956062316895
1666744228.94518399,709234428,42.7308917,-84.49043449999999,242.25,-0.03414878621697426,-5.0541486740112305
1666744228.98521304,709274457,42.730891799999995,-84.4904344,242.25,-0.03279504552483559,-5.052794933319092
1666744229.02062106,709309865,42.730891899999996,-84.49043429999999,242.25,-0.031455133110284805,-5.051455020904541
1666744229.02519917,709314443,42.730891899999996,-84.49043429999999,242.25,-0.031426046043634415,-5.051425933837891
1666744229.06593013,709355174,42.730892,-84.4904341,242.25999450683594,-0.029675576835870743,-5.049675464630127
1666744229.10553408,709394778,42.730892,-84.490434,242.25999450683594,-0.02804717794060707,-5.048047065734863
1666744229.12055302,709409797,42.7308921,-84.490434,242.25999450683594,-0.027533624321222305,-5.0475335121154785
1666744229.14528704,709434531,42.7308921,-84.4904339,242.25999450683594,-0.02659425511956215,-5.046594142913818
1666744229.18525314,709474497,42.7308922,-84.4904339,242.25999450683594,-0.024991128593683243,-5.0449910163879395
1666744229.22051597,709509760,42.7308922,-84.4904337,242.25999450683594,-0.023010823875665665,-5.043010711669922
1666744229.22534609,709514590,42.7308922,-84.4904337,242.25999450683594,-0.023008916527032852,-5.043008804321289
1666744229.26590896,709555153,42.7308923,-84.4904336,242.25999450683594,-0.020337674766778946,-5.040337562561035
1666744229.30558300,709594827,42.730892399999995,-84.4904335,242.26998901367188,-0.017745111137628555,-5.037744998931885
1666744229.32050896,709609753,42.730892399999995,-84.4904335,242.26998901367188,-0.01695260778069496,-5.036952495574951
1666744229.34529400,709634538,42.730892499999996,-84.4904334,242.26998901367188,-0.015411470085382462,-5.035411357879639
1666744229.38522696,709674471,42.730892499999996,-84.49043329999999,242.26998901367188,-0.012596223503351212,-5.032596111297607
1666744229.42055798,709709802,42.7308926,-84.4904332,242.27999877929688,-0.009563062340021133,-5.029562950134277
1666744229.42523909,709714483,42.7308926,-84.4904332,242.27999877929688,-0.00952586904168129,-5.0295257568359375
1666744229.46586299,709755107,42.7308927,-84.49043309999999,242.27999877929688,-0.005544755607843399,-5.0255446434021
1666744229.50558901,709794833,42.7308927,-84.490433,242.27999877929688,-0.001951310783624649,-5.021951198577881
1666744229.52054596,709809790,42.7308927,-84.490433,242.27999877929688,-0.0008016563951969147,-5.020801544189453
1666744229.54554105,709834785,42.7308928,-84.4904329,242.2899932861328,0.0013088248670101166,-5.018691062927246
1666744229.58535314,709874597,42.7308928,-84.4904329,242.2899932861328,0.005322840064764023,-5.014677047729492
1666744229.62042999,709909674,42.7308929,-84.4904328,242.29998779296875,0.010569002479314804,-5.009430885314941
1666744229.62525010,709914494,42.7308929,-84.4904328,242.29998779296875,0.010587122291326523,-5.00941276550293
1666744229.66582799,709955072,42.730892999999995,-84.49043259999999,242.29998779296875,0.01721992716193199,-5.002779960632324
1666744229.70564318,709994887,42.730892999999995,-84.49043259999999,242.30999755859375,0.0227602981030941,-4.997239589691162
1666744229.72046900,710009713,42.730892999999995,-84.4904325,242.30999755859375,0.02447357401251793,-4.995526313781738
1666744229.74538398,710034628,42.730893099999996,-84.4904325,242.30999755859375,0.027720358222723007,-4.992279529571533
1666744229.78534412,710074588,42.730893099999996,-84.4904324,242.3199920654297,0.03345051035284996,-4.986549377441406
1666744229.82051206,710109756,42.7308932,-84.4904323,242.3300018310547,0.04198065027594566,-4.9780192375183105
1666744229.82523608,710114480,42.7308932,-84.4904323,242.3300018310547,0.04210272058844566,-4.9778971672058105
1666744229.86575913,710155003,42.7308933,-84.4904322,242.33999633789062,0.053666021674871445,-4.966333866119385
1666744229.90558815,710194832,42.7308933,-84.49043209999999,242.34999084472656,0.06501761078834534,-4.954982280731201
1666744229.92049098,710209735,42.7308933,-84.49043209999999,242.34999084472656,0.0689496099948883,-4.951050281524658
1666744229.94536114,710234605,42.7308934,-84.49043209999999,242.36000061035156,0.07651129364967346,-4.943488597869873
1666744229.98531318,710274557,42.7308934,-84.490432,242.37998962402344,0.0910586416721344,-4.928941249847412
1666744230.02052498,710309769,42.7308935,-84.49043189999999,242.38999938964844,0.10700550675392151,-4.912994384765625
1666744230.02528405,710314528,42.7308935,-84.49043189999999,242.38999938964844,0.10785141587257385,-4.912148475646973
1666744230.06583595,710355080,42.730893599999995,-84.4904317,242.4099884033203,0.1294201910495758,-4.890579700469971
1666744230.10576200,710395006,42.730893699999996,-84.4904317,242.4399871826172,0.1511949598789215,-4.868804931640625
1666744230.12047005,710409714,42.730893699999996,-84.4904316,242.4399871826172,0.15895166993141174,-4.861048221588135
1666744230.14521813,710434462,42.730893699999996,-84.4904316,242.45999145507812,0.17310896515846252,-4.846890926361084
1666744230.18521500,710474459,42.7308938,-84.4904315,242.47999572753906,0.19837847352027893,-4.821621417999268
1666744230.22049713,710509741,42.7308939,-84.49043139999999,242.50999450683594,0.22521868348121643,-4.79478120803833
1666744230.22531509,710514559,42.7308939,-84.49043139999999,242.50999450683594,0.22707310318946838,-4.792926788330078
1666744230.26580596,710555050,42.730894,-84.49043119999999,242.54998779296875,0.26089850068092346,-4.759101390838623
1666744230.30568004,710594924,42.7308941,-84.4904311,242.5800018310547,0.2932800352573395,-4.726719856262207
1666744230.32052398,710609768,42.7308942,-84.4904311,242.58999633789062,0.3046707212924957,-4.715329170227051
1666744230.34523916,710634483,42.7308942,-84.490431,242.61000061035156,0.3250507414340973,-4.694949150085449
1666744230.38544297,710674687,42.730894299999996,-84.49043089999999,242.64999389648438,0.3604806959629059,-4.659519195556641
1666744230.42059016,710709834,42.7308944,-84.49043069999999,242.67999267578125,0.39477863907814026,-4.625221252441406
1666744230.42531013,710714554,42.7308944,-84.49043069999999,242.67999267578125,0.39706459641456604,-4.6229352951049805
1666744230.46589708,710755141,42.7308945,-84.4904306,242.72000122070312,0.4390186369419098,-4.580981254577637
1666744230.50559402,710794838,42.7308946,-84.4904305,242.75999450683594,0.47809258103370667,-4.54190731048584
1666744230.52049613,710809740,42.7308947,-84.4904304,242.77999877929688,0.49184170365333557,-4.528158187866211
1666744230.54564404,710834888,42.7308947,-84.4904303,242.79998779296875,0.5156592130661011,-4.504340648651123
1666744230.58517218,710874416,42.7308948,-84.49043019999999,242.84999084472656,0.56670081615448,-4.453299045562744
1666744230.62059116,710909835,42.730894899999996,-84.4904301,242.89999389648438,0.6175950765609741,-4.40240478515625
1666744230.62529898,710914543,42.730894899999996,-84.4904301,242.9099884033203,0.62071692943573,-4.399282932281494
1666744230.66617298,710955417,42.7308951,-84.4904299,242.97000122070312,0.6856778860092163,-4.334321975708008
1666744230.70554209,710994786,42.7308952,-84.4904298,243.02999877929688,0.7487396001815796,-4.2712602615356445
1666744230.72053599,711009780,42.7308953,-84.49042969999999,243.05999755859375,0.7702711820602417,-4.249728679656982
1666744230.74532008,711034564,42.7308953,-84.49042969999999,243.08999633789062,0.8078206777572632,-4.212179183959961
1666744230.78532910,711074573,42.730895499999995,-84.4904296,243.1599884033203,0.8705452680587769,-4.149454593658447
1666744230.82050395,711109748,42.7308956,-84.4904294,243.20999145507812,0.9287737607955933,-4.091226100921631
1666744230.82519817,711114442,42.7308956,-84.4904294,243.22000122070312,0.9320448637008667,-4.087954998016357
1666744230.86584496,711155089,42.7308958,-84.4904292,243.2899932861328,1.0008000135421753,-4.019199848175049
1666744230.90560699,711194851,42.7308959,-84.4904291,243.34999084472656,1.0604981184005737,-3.9595017433166504
1666744230.92050314,711209747,42.7308959,-84.4904291,243.3699951171875,1.0801490545272827,-3.9398508071899414
1666744230.94522309,711234467,42.730896,-84.49042899999999,243.39999389648438,1.1146198511123657,-3.9053800106048584
1666744230.98525596,711274500,42.730896099999995,-84.4904289,243.45999145507812,1.1701174974441528,-3.8498823642730713
1666744231.02048206,711309726,42.7308962,-84.49042879999999,243.50999450683594,1.2202945947647095,-3.7997052669525146
1666744231.02529001,711314534,42.7308962,-84.49042879999999,243.50999450683594,1.22284996509552,-3.797149896621704
1666744231.06586695,711355111,42.7308963,-84.4904286,243.55999755859375,1.2797151803970337,-3.7402846813201904
1666744231.10567117,711394915,42.7308964,-84.4904285,243.61000061035156,1.3247536420822144,-3.6952462196350098
1666744231.12062407,711409868,42.7308965,-84.4904285,243.6199951171875,1.3392943143844604,-3.6807055473327637
1666744231.14525604,711434500,42.7308965,-84.4904284,243.64999389648438,1.364341139793396,-3.655658721923828
1666744231.18525195,711474496,42.7308966,-84.49042829999999,243.6899871826172,1.4008902311325073,-3.619109630584717
1666744231.22043300,711509677,42.730896699999995,-84.4904281,243.72000122070312,1.4310005903244019,-3.5889992713928223
1666744231.22531509,711514559,42.730896699999995,-84.4904281,243.72000122070312,1.4325474500656128,-3.5874524116516113
1666744231.26583004,711555074,42.7308968,-84.490428,243.75,1.4653209447860718,-3.5546789169311523
1666744231.30560899,711594853,42.7308969,-84.49042779999999,243.76998901367188,1.489676594734192,-3.5303232669830322
1666744231.32049417,711609738,42.7308969,-84.49042779999999,243.77999877929688,1.4974743127822876,-3.5225255489349365
1666744231.34531903,711634563,42.730897,-84.4904277,243.79998779296875,1.5108190774917603,-3.509180784225464
1666744231.38531709,711674561,42.7308971,-84.49042759999999,243.80999755859375,1.5275250673294067,-3.4924747943878174
1666744231.42062616,711709870,42.7308972,-84.4904274,243.8199920654297,1.538849949836731,-3.481149911880493
1666744231.42529917,711714543,42.7308972,-84.4904274,243.8199920654297,1.5395361185073853,-3.480463743209839
1666744231.46580505,711755049,42.730897299999995,-84.4904272,243.8300018310547,1.5493065118789673,-3.470693349838257
1666744231.50559402,711794838,42.7308975,-84.490427,243.83999633789062,1.5527712106704712,-3.467228651046753
1666744231.52056217,711809806,42.7308975,-84.490427,243.83999633789062,1.5540529489517212,-3.465946912765503
1666744231.54557800,711834822,42.7308976,-84.4904269,243.83999633789062,1.5559660196304321,-3.464033842086792
1666744231.58531809,711874562,42.7308977,-84.4904268,243.83999633789062,1.5556246042251587,-3.4643752574920654
1666744231.62053704,711909781,42.7308978,-84.49042659999999,243.83999633789062,1.5527571439743042,-3.46724271774292
1666744231.62529516,711914539,42.7308978,-84.49042659999999,243.83999633789062,1.5533570051193237,-3.4666428565979004
1666744231.66584206,711955086,42.730897999999996,-84.49042639999999,243.8300018310547,1.5478283166885376,-3.4721715450286865
1666744231.70554900,711994793,42.7308981,-84.4904262,243.8300018310547,1.5414732694625854,-3.4785265922546387
1666744231.72045803,712009702,42.7308982,-84.4904262,243.8199920654297,1.5398565530776978,-3.4801433086395264
1666744231.74536014,712034604,42.7308982,-84.4904261,243.8199920654297,1.5364257097244263,-3.483574151992798
1666744231.78541517,712074659,42.7308984,-84.49042589999999,243.80999755859375,1.5296729803085327,-3.4903268814086914
1666744231.82053709,712109781,42.730898499999995,-84.4904258,243.80999755859375,1.5228739976882935,-3.4971258640289307
1666744231.82533717,712114581,42.730898499999995,-84.4904258,243.80999755859375,1.5236912965774536,-3.4963085651397705
1666744231.86584401,712155088,42.7308987,-84.4904255,243.79998779296875,1.5153511762619019,-3.5046486854553223
1666744231.90553403,712194778,42.7308989,-84.49042539999999,243.79998779296875,1.510851263999939,-3.509148597717285
1666744231.92046499,712209709,42.730899,-84.4904253,243.79998779296875,1.510727047920227,-3.509272813796997
1666744231.94524312,712234487,42.730899099999995,-84.49042519999999,243.79998779296875,1.5102835893630981,-3.509716272354126
1666744231.98528600,712274530,42.730899199999996,-84.4904251,243.79998779296875,1.5119510889053345,-3.5080487728118896
1666744232.02053595,712309780,42.7308994,-84.4904248,243.79998779296875,1.5147894620895386,-3.5052103996276855
1666744232.02532315,712314567,42.7308994,-84.4904248,243.79998779296875,1.5170553922653198,-3.5029444694519043
1666744232.06597304,712355217,42.7308996,-84.4904246,243.80999755859375,1.5220469236373901,-3.497952938079834
1666744232.10570717,712394951,42.730899699999995,-84.4904244,243.8199920654297,1.532509446144104,-3.48749041557312
1666744232.12048912,712409733,42.730899799999996,-84.4904243,243.8199920654297,1.537732481956482,-3.482267379760742
1666744232.14526296,712434507,42.7308999,-84.49042419999999,243.8300018310547,1.5459035634994507,-3.4740962982177734
1666744232.18524313,712474487,42.7309001,-84.49042399999999,243.83999633789062,1.5599385499954224,-3.4600613117218018
1666744232.22053099,712509775,42.7309002,-84.4904237,243.86000061035156,1.5719326734542847,-3.4480671882629395
1666744232.22531199,712514556,42.7309002,-84.4904237,243.86000061035156,1.575252652168274,-3.44474720954895
1666744232.26590395,712555148,42.730900399999996,-84.4904234,243.8699951171875,1.5885266065597534,-3.4314732551574707
1666744232.30555797,712594802,42.7309006,-84.4904231,243.88999938964844,1.6041616201400757,-3.4158382415771484
1666744232.32056499,712609809,42.7309006,-84.4904231,243.89999389648438,1.6115447282791138,-3.4084551334381104
1666744232.34528208,712634526,42.7309008,-84.4904229,243.9099884033203,1.6221462488174438,-3.3978536128997803
1666744232.38523197,712674476,42.730900899999995,-84.4904227,243.9199981689453,1.639078974723816,-3.380920886993408
1666744232.42066216,712709906,42.7309011,-84.4904224,243.9399871826172,1.6521538496017456,-3.3678460121154785
1666744232.42522407,712714468,42.7309011,-84.4904224,243.9399871826172,1.655786395072937,-3.364213466644287
1666744232.46599197,712755236,42.7309012,-84.49042209999999,243.9499969482422,1.6684263944625854,-3.3515734672546387
1666744232.50557113,712794815,42.7309014,-84.4904218,243.97000122070312,1.6832598447799683,-3.336740016937256
1666744232.52050614,712809750,42.730901499999995,-84.4904217,243.97000122070312,1.6896384954452515,-3.3303613662719727
1666744232.54558516,712834829,42.730901599999996,-84.49042159999999,243.97999572753906,1.6992710828781128,-3.3207287788391113
1666744232.58526897,712874513,42.7309017,-84.4904214,244.0,1.7137788534164429,-3.3062210083007812
1666744232.62042499,712909669,42.7309018,-84.49042109999999,244.00999450683594,1.724626898765564,-3.29537296295166
1666744232.62518597,712914430,42.7309018,-84.49042109999999,244.00999450683594,1.7280391454696655,-3.2919607162475586
1666744232.66587806,712955122,42.7309019,-84.49042089999999,244.01998901367188,1.739186406135559,-3.280813455581665
1666744232.70556402,712994808,42.7309021,-84.4904206,244.0399932861328,1.7536576986312866,-3.2663421630859375
1666744232.72044301,713009687,42.7309021,-84.4904206,244.04998779296875,1.7602323293685913,-3.259767532348633
1666744232.74530315,713034547,42.730902199999996,-84.49042039999999,244.04998779296875,1.769405722618103,-3.250594139099121
1666744232.78536510,713074609,42.7309023,-84.4904202,244.0699920654297,1.7843235731124878,-3.2356762886047363
1666744232.82043815,713109682,42.7309023,-84.4904201,244.0800018310547,1.794425368309021,-3.225574493408203
1666744232.82533216,713114576,42.7309024,-84.4904201,244.0800018310547,1.7972615957260132,-3.222738265991211
1666744232.86583996,713155084,42.7309024,-84.49041989999999,244.08999633789062,1.8075915575027466,-3.2124083042144775
1666744232.90568614,713194930,42.7309025,-84.49041969999999,244.11000061035156,1.821316123008728,-3.198683738708496
1666744232.92047906,713209723,42.7309025,-84.49041969999999,244.11000061035156,1.8270949125289917,-3.1929049491882324
1666744232.94520497,713234449,42.7309025,-84.4904196,244.1199951171875,1.8358956575393677,-3.1841042041778564
1666744232.98531508,713274559,42.7309026,-84.4904194,244.13999938964844,1.8500934839248657,-3.1699063777923584
1666744233.02051306,713309757,42.7309027,-84.4904193,244.14999389648438,1.8616255521774292,-3.158374309539795
1666744233.02523303,713314477,42.7309027,-84.49041919999999,244.14999389648438,1.8644458055496216,-3.1555540561676025
1666744233.06581903,713355063,42.730902799999996,-84.4904191,244.1599884033203,1.8757671117782593,-3.144232749938965
1666744233.10560513,713394849,42.7309029,-84.4904189,244.1699981689453,1.8880282640457153,-3.131971597671509
1666744233.12053609,713409780,42.7309029,-84.4904188,244.17999267578125,1.8930922746658325,-3.1269075870513916
1666744233.14529395,713434538,42.730903,-84.49041869999999,244.1899871826172,1.9005032777786255,-3.1194965839385986
1666744233.18536806,713474612,42.7309031,-84.4904186,244.1999969482422,1.9111980199813843,-3.10880184173584
1666744233.22058415,713509828,42.7309032,-84.4904184,244.1999969482422,1.9183717966079712,-3.101628065109253
1666744233.22530103,713514545,42.7309032,-84.4904184,244.20999145507812,1.9207755327224731,-3.099224328994751
1666744233.26584506,713555089,42.7309032,-84.4904182,244.20999145507812,1.9271758794784546,-3.0928239822387695
1666744233.30549407,713594738,42.7309033,-84.4904181,244.22000122070312,1.9357372522354126,-3.0842626094818115
1666744233.32061601,713609860,42.730903399999995,-84.49041799999999,244.22000122070312,1.939444661140442,-3.0805552005767822
1666744233.34520817,713634452,42.730903399999995,-84.49041799999999,244.22999572753906,1.944848895072937,-3.075150966644287
1666744233.38526917,713674513,42.7309035,-84.4904178,244.239990234375,1.9531267881393433,-3.066873073577881
1666744233.42058897,713709833,42.7309035,-84.4904177,244.239990234375,1.9589325189590454,-3.0610673427581787
1666744233.42530203,713714546,42.7309035,-84.4904177,244.25,1.9607466459274292,-3.059253215789795
1666744233.46589303,713755137,42.7309035,-84.49041749999999,244.25,1.9660300016403198,-3.0539698600769043
1666744233.50555205,713794796,42.7309035,-84.4904174,244.25999450683594,1.9730676412582397,-3.0469322204589844
1666744233.52048206,713809726,42.7309036,-84.4904174,244.25999450683594,1.9761353731155396,-3.0438644886016846
1666744233.54567409,713834918,42.7309036,-84.49041729999999,244.26998901367188,1.9803930521011353,-3.039606809616089
1666744233.58521104,713874455,42.7309036,-84.4904172,244.26998901367188,1.9867616891860962,-3.033238172531128
1666744233.62050605,713909750,42.7309036,-84.490417,244.27999877929688,1.9900492429733276,-3.0299506187438965
1666744233.62528515,713914529,42.7309037,-84.490417,244.27999877929688,1.9917250871658325,-3.0282747745513916
1666744233.66588712,713955131,42.7309036,-84.4904169,244.27999877929688,1.99398934841156,-3.026010513305664
1666744233.70554614,713994790,42.7309037,-84.4904167,244.27999877929688,1.998104453086853,-3.021895408630371
1666744233.72049499,714009739,42.7309037,-84.4904167,244.2899932861328,2.0002551078796387,-3.019744873046875
1666744233.74531507,714034559,42.7309037,-84.4904166,244.2899932861328,2.0031566619873047,-3.016843318939209
1666744233.78532600,714074570,42.7309037,-84.4904164,244.2899932861328,2.0066540241241455,-3.013345956802368
1666744233.82053804,714109782,42.7309038,-84.4904162,244.2899932861328,2.0078773498535156,-3.012122631072998
1666744233.82530499,714114549,42.7309038,-84.4904162,244.2899932861328,2.0093486309051514,-3.0106513500213623
1666744233.86591196,714155156,42.7309038,-84.490416,244.29998779296875,2.01009202003479,-3.0099079608917236
1666744233.90565801,714194902,42.7309039,-84.4904158,244.29998779296875,2.013939619064331,-3.0060603618621826
1666744233.92049599,714209740,42.7309039,-84.4904157,244.29998779296875,2.0158498287200928,-3.004150152206421
1666744233.94522500,714234469,42.730903999999995,-84.49041559999999,244.29998779296875,2.01839017868042,-3.0016098022460938
1666744233.98523998,714274484,42.7309041,-84.4904153,244.30999755859375,2.0222859382629395,-2.997714042663574
1666744234.02050495,714309749,42.7309042,-84.49041509999999,244.30999755859375,2.025067090988159,-2.9949328899383545
1666744234.02521396,714314458,42.7309042,-84.49041509999999,244.30999755859375,2.0262558460235596,-2.993744134902954
1666744234.06586099,714355105,42.7309042,-84.4904148,244.30999755859375,2.027853488922119,-2.9921464920043945
1666744234.10557795,714394822,42.7309043,-84.4904145,244.3199920654297,2.0303618907928467,-2.989638090133667
1666744234.12048006,714409724,42.7309044,-84.49041439999999,244.3199920654297,2.031667709350586,-2.9883322715759277
1666744234.14529300,714434537,42.7309045,-84.49041419999999,244.3199920654297,2.033287763595581,-2.9867122173309326
1666744234.18531513,714474559,42.730904599999995,-84.4904139,244.3199920654297,2.036278486251831,-2.9837214946746826
1666744234.22055817,714509802,42.730904699999996,-84.4904136,244.3199920654297,2.0382227897644043,-2.9817771911621094
1666744234.22517395,714514418,42.730904699999996,-84.4904136,244.3199920654297,2.039231538772583,-2.9807684421539307
1666744234.26590109,714555145,42.7309048,-84.4904133,244.3300018310547,2.0409095287323,-2.979090452194214
1666744234.30558896,714594833,42.730905,-84.49041299999999,244.3300018310547,2.0440480709075928,-2.975951910018921
1666744234.32062197,714609866,42.7309051,-84.4904129,244.3300018310547,2.045529842376709,-2.9744701385498047
1666744234.34530210,714634546,42.7309051,-84.4904127,244.3300018310547,2.0474658012390137,-2.9725341796875
1666744234.38528705,714674531,42.730905299999996,-84.4904124,244.33999633789062,2.0506374835968018,-2.969362497329712
1666744234.42055011,714709794,42.7309054,-84.4904122,244.33999633789062,2.0527026653289795,-2.967297315597534
1666744234.42528009,714714524,42.7309054,-84.4904122,244.33999633789062,2.05340576171875,-2.9665942192077637
1666744234.46583295,714755077,42.7309056,-84.4904119,244.33999633789062,2.0551371574401855,-2.964862823486328
1666744234.50559115,714794835,42.7309057,-84.4904117,244.33999633789062,2.05747389793396,-2.9625260829925537
1666744234.52049994,714809744,42.7309057,-84.4904116,244.33999633789062,2.0584189891815186,-2.961580991744995
1666744234.54550409,714834748,42.730905799999995,-84.4904114,244.33999633789062,2.059755563735962,-2.9602444171905518
1666744234.58536816,714874612,42.730906,-84.4904112,244.34999084472656,2.061781406402588,-2.958218574523926
1666744234.62043810,714909682,42.730906,-84.4904111,244.34999084472656,2.06289005279541,-2.9571099281311035
1666744234.62534904,714914593,42.730906,-84.490411,244.34999084472656,2.063295602798462,-2.9567043781280518
1666744234.66584110,714955085,42.7309061,-84.4904109,244.34999084472656,2.0641372203826904,-2.9558627605438232
1666744234.70555997,714994804,42.7309061,-84.4904107,244.34999084472656,2.0652949810028076,-2.954704999923706
1666744234.72053313,715009777,42.7309062,-84.4904107,244.34999084472656,2.065777540206909,-2.9542224407196045
1666744234.74530005,715034544,42.7309062,-84.49041059999999,244.34999084472656,2.0663599967956543,-2.9536399841308594
1666744234.78537416,715074618,42.7309063,-84.4904104,244.34999084472656,2.0671589374542236,-2.95284104347229
1666744234.82045817,715109702,42.7309063,-84.4904103,244.34999084472656,2.0671465396881104,-2.9528534412384033
1666744234.82527018,715114514,42.730906399999995,-84.4904103,244.34999084472656,2.0673539638519287,-2.952646017074585
1666744234.86586118,715155105,42.7309063,-84.4904103,244.34999084472656,2.0666399002075195,-2.953360080718994
1666744234.90556407,715194808,42.730906399999995,-84.4904102,244.34999084472656,2.0662076473236084,-2.9537923336029053
1666744234.92047596,715209720,42.730906399999995,-84.4904102,244.34999084472656,2.066108226776123,-2.9538917541503906
1666744234.94532514,715234569,42.730906499999996,-84.49041009999999,244.34999084472656,2.065842628479004,-2.9541573524475098
1666744234.98533511,715274579,42.7309066,-84.49041,244.34999084472656,2.0652341842651367,-2.954765796661377
1666744235.02048898,715309733,42.7309067,-84.49041,244.34999084472656,2.063676118850708,-2.9563238620758057
1666744235.02524400,715314488,42.7309067,-84.49041,244.34999084472656,2.0638041496276855,-2.956195831298828
1666744235.06585813,715355102,42.7309068,-84.49041,244.34999084472656,2.061490058898926,-2.958509922027588
1666744235.10555506,715394799,42.7309069,-84.4904099,244.33999633789062,2.0597403049468994,-2.9602596759796143
1666744235.12056613,715409810,42.730906999999995,-84.4904099,244.33999633789062,2.059156656265259,-2.960843324661255
1666744235.14518809,715434432,42.730907099999996,-84.4904099,244.33999633789062,2.0580475330352783,-2.9619524478912354
1666744235.18529606,715474540,42.7309073,-84.4904098,244.33999633789062,2.056058406829834,-2.9639415740966797
1666744235.22053218,715509776,42.7309073,-84.4904099,244.33999633789062,2.0540006160736084,-2.9659993648529053
1666744235.22525597,715514500,42.7309074,-84.4904098,244.33999633789062,2.0539190769195557,-2.966080904006958
1666744235.26592708,715555171,42.7309075,-84.4904099,244.33999633789062,2.0510611534118652,-2.9689388275146484
1666744235.30552006,715594764,42.730907599999995,-84.4904099,244.3300018310547,2.048274278640747,-2.9717257022857666
1666744235.32077718,715610021,42.730907699999996,-84.4904099,244.3300018310547,2.0473318099975586,-2.972668170928955
1666744235.34531116,715634555,42.7309078,-84.4904098,244.3300018310547,2.0455620288848877,-2.974437952041626
1666744235.38520408,715674448,42.7309081,-84.4904098,244.3300018310547,2.0426247119903564,-2.9773752689361572
1666744235.42056203,715709806,42.7309081,-84.4904099,244.3199920654297,2.039807081222534,-2.9801928997039795
1666744235.42534113,715714585,42.7309081,-84.4904098,244.3199920654297,2.039660692214966,-2.980339288711548
1666744235.46591997,715755164,42.730908199999995,-84.4904099,244.3199920654297,2.0364491939544678,-2.983550786972046
1666744235.50553417,715794778,42.7309084,-84.4904099,244.3199920654297,2.0338828563690186,-2.986117124557495
1666744235.52049708,715809741,42.7309084,-84.4904099,244.3199920654297,2.0329651832580566,-2.987034797668457
1666744235.54553914,715834783,42.7309086,-84.4904099,244.3199920654297,2.0314018726348877,-2.988598108291626
1666744235.58525395,715874498,42.730908799999995,-84.4904099,244.30999755859375,2.0288546085357666,-2.991145372390747
1666744235.62050700,715909751,42.730908899999996,-84.4904099,244.30999755859375,2.026301145553589,-2.993698835372925
1666744235.62525201,715914496,42.730909,-84.4904099,244.30999755859375,2.026075839996338,-2.993924140930176
1666744235.66587400,715955118,42.7309091,-84.49041,244.30999755859375,2.0231552124023438,-2.99684476852417
1666744235.70563316,715994877,42.7309093,-84.49041,244.30999755859375,2.020448684692383,-2.999551296234131
1666744235.72047305,716009717,42.730909499999996,-84.49041,244.29998779296875,2.019578218460083,-3.0004217624664307
1666744235.74525714,716034501,42.7309096,-84.49041,244.29998779296875,2.018099784851074,-3.0019001960754395
1666744235.78535700,716074601,42.7309099,-84.4904099,244.29998779296875,2.0158212184906006,-3.004178762435913
1666744235.82054114,716109785,42.73091,-84.49041,244.29998779296875,2.0137979984283447,-3.006201982498169
1666744235.82518101,716114425,42.73091,-84.4904099,244.29998779296875,2.013666868209839,-3.006333112716675
1666744235.86579418,716155038,42.73091,-84.49041009999999,244.29998779296875,2.011225461959839,-3.008774518966675
1666744235.90566397,716194908,42.7309102,-84.49041009999999,244.2899932861328,2.008822202682495,-3.0111777782440186
1666744235.92042398,716209668,42.7309102,-84.49041009999999,244.2899932861328,2.0078728199005127,-3.012127161026001
1666744235.94527698,716234521,42.7309103,-84.49041009999999,244.2899932861328,2.006234645843506,-3.013765335083008
1666744235.98525596,716274500,42.7309105,-84.49041009999999,244.2899932861328,2.0033156871795654,-3.0166842937469482
1666744236.02048707,716309731,42.7309105,-84.4904102,244.27999877929688,1.9998987913131714,-3.0201010704040527
1666744236.02527308,716314517,42.7309105,-84.4904102,244.27999877929688,1.9996572732925415,-3.0203425884246826
1666744236.06586313,716355107,42.7309104,-84.4904104,244.27999877929688,1.995294213294983,-3.024705648422241
1666744236.10564208,716394886,42.7309104,-84.4904105,244.27999877929688,1.991231083869934,-3.02876877784729
1666744236.12051010,716409754,42.7309104,-84.4904105,244.26998901367188,1.9897822141647339,-3.0302176475524902
1666744236.14535713,716434601,42.7309104,-84.49041059999999,244.26998901367188,1.9873770475387573,-3.032622814178467
1666744236.18529797,716474542,42.7309105,-84.49041059999999,244.26998901367188,1.983681082725525,-3.036318778991699
1666744236.22049499,716509739,42.7309103,-84.4904107,244.26998901367188,1.9804898500442505,-3.0395100116729736
1666744236.22523403,716514478,42.7309104,-84.4904107,244.26998901367188,1.98021399974823,-3.039785861968994
1666744236.26596999,716555214,42.7309102,-84.4904109,244.25999450683594,1.976446270942688,-3.043553590774536
1666744236.30555797,716594802,42.7309102,-84.490411,244.25999450683594,1.972880482673645,-3.047119379043579
1666744236.32060504,716609849,42.7309102,-84.490411,244.25999450683594,1.9716895818710327,-3.0483102798461914
1666744236.34529996,716634544,42.7309102,-84.490411,244.25,1.9696892499923706,-3.0503106117248535
1666744236.38522315,716674467,42.7309102,-84.4904111,244.25,1.9663337469100952,-3.053666114807129
1666744236.42049599,716709740,42.73091,-84.4904112,244.25,1.964084267616272,-3.055915594100952
1666744236.42533803,716714582,42.730910099999996,-84.4904112,244.25,1.9638725519180298,-3.0561273097991943
1666744236.46580100,716755045,42.7309097,-84.4904114,244.25,1.9619077444076538,-3.0580921173095703
1666744236.50557899,716794823,42.730909499999996,-84.4904115,244.239990234375,1.9598034620285034,-3.0601963996887207
1666744236.52049208,716809736,42.730909499999996,-84.4904115,244.239990234375,1.9590378999710083,-3.060961961746216
1666744236.54554296,716834787,42.7309094,-84.4904116,244.239990234375,1.9578651189804077,-3.0621347427368164
1666744236.58529401,716874538,42.7309093,-84.4904116,244.239990234375,1.9554435014724731,-3.064556360244751
1666744236.62052107,716909765,42.730908899999996,-84.49041179999999,244.239990234375,1.9537919759750366,-3.0662078857421875
1666744236.62534118,716914585,42.730909,-84.49041179999999,244.239990234375,1.9536343812942505,-3.0663654804229736
1666744236.66587496,716955119,42.7309085,-84.4904121,244.239990234375,1.9516483545303345,-3.0683515071868896
1666744236.70558810,716994832,42.730908299999996,-84.4904122,244.22999572753906,1.9492660760879517,-3.0707337856292725
1666744236.72050714,717009751,42.730908299999996,-84.4904123,244.22999572753906,1.9483965635299683,-3.071603298187256
1666744236.74519610,717034440,42.7309081,-84.4904123,244.22999572753906,1.9469929933547974,-3.0730068683624268
1666744236.78545213,717074696,42.730908,-84.4904124,244.22999572753906,1.9445961713790894,-3.0754036903381348
1666744236.82049203,717109736,42.7309078,-84.4904126,244.22999572753906,1.9411133527755737,-3.0788865089416504
1666744236.82526517,717114509,42.7309078,-84.4904126,244.22999572753906,1.940921425819397,-3.079078435897827
1666744236.86591196,717155156,42.7309075,-84.4904128,244.22000122070312,1.9366651773452759,-3.0833346843719482
1666744236.90560699,717194851,42.7309074,-84.4904128,244.22000122070312,1.9327467679977417,-3.0872530937194824
1666744236.92057109,717209815,42.7309074,-84.4904128,244.22000122070312,1.9314643144607544,-3.0885355472564697
1666744236.94524908,717234493,42.7309073,-84.4904129,244.20999145507812,1.929242491722107,-3.090757369995117
1666744236.98522115,717274465,42.7309073,-84.49041299999999,244.20999145507812,1.9258407354354858,-3.0941591262817383
1666744237.02054095,717309785,42.7309072,-84.49041299999999,244.20999145507812,1.9235268831253052,-3.096472978591919
1666744237.02523208,717314476,42.7309072,-84.49041299999999,244.20999145507812,1.923324465751648,-3.096675395965576
1666744237.06583595,717355080,42.730907099999996,-84.4904131,244.20999145507812,1.9210036993026733,-3.098996162414551
1666744237.10569215,717394936,42.730907099999996,-84.4904131,244.1999969482422,1.9186075925827026,-3.1013922691345215
1666744237.12050009,717409744,42.730907099999996,-84.4904131,244.1999969482422,1.9177454710006714,-3.1022543907165527
1666744237.14536214,717434606,42.730907099999996,-84.4904131,244.1999969482422,1.916338562965393,-3.103661298751831
1666744237.18525100,717474495,42.730907099999996,-84.49041319999999,244.1999969482422,1.9140664339065552,-3.105933427810669
1666744237.22055912,717509803,42.730906999999995,-84.49041319999999,244.1999969482422,1.9116514921188354,-3.1083483695983887
1666744237.22524095,717514485,42.730906999999995,-84.49041319999999,244.1999969482422,1.9115179777145386,-3.1084818840026855
1666744237.26586509,717555109,42.7309069,-84.4904133,244.1899871826172,1.9084566831588745,-3.1115431785583496
1666744237.30555797,717594802,42.7309069,-84.4904133,244.1899871826172,1.9054757356643677,-3.1145241260528564
1666744237.32054901,717609793,42.7309069,-84.4904133,244.1899871826172,1.9045125246047974,-3.1154873371124268
1666744237.34531713,717634561,42.7309069,-84.4904133,244.1899871826172,1.9028664827346802,-3.117133378982544
1666744237.38532114,717674565,42.7309069,-84.4904133,244.1899871826172,1.9002248048782349,-3.1197750568389893
1666744237.42065096,717709895,42.7309068,-84.4904134,244.17999267578125,1.897574543952942,-3.1224253177642822
1666744237.42525697,717714501,42.7309068,-84.4904134,244.17999267578125,1.8973740339279175,-3.1226258277893066
1666744237.46581602,717755060,42.7309067,-84.4904136,244.17999267578125,1.893940806388855,-3.126059055328369
1666744237.50571203,717794956,42.7309066,-84.49041369999999,244.17999267578125,1.891259789466858,-3.128740072250366
1666744237.52062607,717809870,42.7309066,-84.49041369999999,244.17999267578125,1.8902639150619507,-3.1297359466552734
1666744237.54550695,717834751,42.730906499999996,-84.4904138,244.1699981689453,1.8886884450912476,-3.1313114166259766
1666744237.58532500,717874569,42.730906499999996,-84.4904138,244.1699981689453,1.8861337900161743,-3.13386607170105
1666744237.62048197,717909726,42.730906399999995,-84.4904138,244.1699981689453,1.8841105699539185,-3.1358892917633057
1666744237.62526202,717914506,42.730906399999995,-84.4904138,244.1699981689453,1.883949875831604,-3.13604998588562
1666744237.66577315,717955017,42.7309063,-84.490414,244.1699981689453,1.8818718194961548,-3.1381280422210693
1666744237.70558310,717994827,42.7309062,-84.490414,244.1599884033203,1.8797029256820679,-3.1402969360351562
1666744237.72040796,718009652,42.7309062,-84.4904141,244.1599884033203,1.8790034055709839,-3.1409964561462402
1666744237.74526095,718034505,42.7309062,-84.4904141,244.1599884033203,1.8777869939804077,-3.1422128677368164
1666744237.78541708,718074661,42.7309061,-84.49041419999999,244.1599884033203,1.8758264780044556,-3.1441733837127686
1666744237.82057214,718109816,42.7309061,-84.49041419999999,244.1599884033203,1.8737889528274536,-3.1462109088897705
1666744237.82523417,718114478,42.7309061,-84.49041419999999,244.1599884033203,1.8736587762832642,-3.14634108543396
1666744237.86587715,718155121,42.730905899999996,-84.49041439999999,244.1599884033203,1.870698094367981,-3.149301767349243
1666744237.90561700,718194861,42.730905899999996,-84.49041439999999,244.14999389648438,1.8677529096603394,-3.1522469520568848
1666744237.92047715,718209721,42.730905799999995,-84.4904145,244.14999389648438,1.8668261766433716,-3.1531736850738525
1666744237.94540095,718234645,42.730905799999995,-84.4904145,244.14999389648438,1.865136742591858,-3.154863119125366
1666744237.98534417,718274588,42.7309057,-84.4904145,244.14999389648438,1.8624993562698364,-3.1575005054473877
1666744238.02044010,718309684,42.7309057,-84.4904146,244.14999389648438,1.8610395193099976,-3.1589603424072266
1666744238.02527809,718314522,42.7309057,-84.4904146,244.14999389648438,1.8609884977340698,-3.1590113639831543
1666744238.06580210,718355046,42.7309057,-84.4904146,244.13999938964844,1.8598202466964722,-3.160179615020752
1666744238.10558414,718394828,42.7309057,-84.4904146,244.13999938964844,1.8585342168807983,-3.161465644836426
1666744238.12051010,718409754,42.7309057,-84.4904146,244.13999938964844,1.8580514192581177,-3.1619484424591064
1666744238.14525318,718434497,42.7309057,-84.4904146,244.13999938964844,1.8573211431503296,-3.1626787185668945
1666744238.18529701,718474541,42.7309057,-84.4904146,244.13999938964844,1.8558484315872192,-3.164151430130005
1666744238.22050595,718509750,42.730905799999995,-84.4904145,244.13999938964844,1.8549643754959106,-3.1650354862213135
1666744238.22535205,718514596,42.730905799999995,-84.4904145,244.13999938964844,1.8548887968063354,-3.1651110649108887
1666744238.26586199,718555106,42.730905799999995,-84.4904145,244.13999938964844,1.8539732694625854,-3.1660265922546387
1666744238.30557013,718594814,42.730905899999996,-84.4904145,244.13999938964844,1.8531333208084106,-3.1668665409088135
1666744238.32057309,718609817,42.730905899999996,-84.4904145,244.13999938964844,1.8529280424118042,-3.16707181930542
1666744238.34518695,718634431,42.730905899999996,-84.49041439999999,244.13999938964844,1.8526123762130737,-3.1673874855041504
1666744238.38527107,718674515,42.730905899999996,-84.49041439999999,244.13999938964844,1.8517664670944214,-3.1682333946228027
1666744238.42056012,718709804,42.730905899999996,-84.49041439999999,244.13999938964844,1.8520582914352417,-3.1679415702819824
1666744238.42523217,718714476,42.730905799999995,-84.49041439999999,244.13999938964844,1.8519989252090454,-3.1680009365081787
1666744238.46589804,718755142,42.7309057,-84.4904145,244.13999938964844,1.8527201414108276,-3.1672797203063965
1666744238.50554109,718794785,42.7309056,-84.4904145,244.13999938964844,1.8522571325302124,-3.1677427291870117
1666744238.52053118,718809775,42.7309055,-84.4904145,244.13999938964844,1.8520561456680298,-3.1679437160491943
1666744238.54560113,718834845,42.7309054,-84.4904145,244.13999938964844,1.851718544960022,-3.168281316757202
1666744238.58530807,718874552,42.730905299999996,-84.4904145,244.13999938964844,1.8506380319595337,-3.1693618297576904
1666744238.62054014,718909784,42.730905199999995,-84.4904145,244.13999938964844,1.85006844997406,-3.169931411743164
1666744238.62533498,718914579,42.730905199999995,-84.4904145,244.12998962402344,1.849939227104187,-3.170060634613037
1666744238.66584206,718955086,42.7309051,-84.4904145,244.12998962402344,1.8492294549942017,-3.1707704067230225
1666744238.70557499,718994819,42.7309051,-84.4904145,244.12998962402344,1.8483370542526245,-3.1716628074645996
1666744238.72058010,719009824,42.730905,-84.4904145,244.12998962402344,1.8480530977249146,-3.1719467639923096
1666744238.74522495,719034469,42.730905,-84.4904145,244.12998962402344,1.8475903272628784,-3.1724095344543457
1666744238.78538895,719074633,42.7309048,-84.4904145,244.12998962402344,1.8462070226669312,-3.173792839050293
1666744238.82050800,719109752,42.7309049,-84.4904145,244.12998962402344,1.8460906744003296,-3.1739091873168945
1666744238.82518506,719114429,42.7309049,-84.4904145,244.12998962402344,1.8459664583206177,-3.1740334033966064
1666744238.86584496,719155089,42.730905,-84.49041439999999,244.12998962402344,1.8458458185195923,-3.174154043197632
1666744238.90556908,719194813,42.730905,-84.49041439999999,244.12998962402344,1.845617413520813,-3.174382448196411
1666744238.92050695,719209751,42.730905,-84.49041439999999,244.12998962402344,1.8455766439437866,-3.1744232177734375
1666744238.94536209,719234606,42.730905,-84.49041439999999,244.12998962402344,1.8455144166946411,-3.174485445022583
1666744238.98530102,719274545,42.730905,-84.4904143,244.12998962402344,1.8447445631027222,-3.175255298614502
1666744239.02045107,719309695,42.730905,-84.4904143,244.12998962402344,1.845115303993225,-3.174884557723999
1666744239.02523708,719314481,42.730905,-84.4904143,244.12998962402344,1.8450831174850464,-3.1749167442321777
1666744239.06583500,719355079,42.730905,-84.49041439999999,244.12998962402344,1.8460501432418823,-3.173949718475342
1666744239.10564303,719394887,42.730905,-84.49041439999999,244.12998962402344,1.8459798097610474,-3.1740200519561768
1666744239.12048411,719409728,42.7309049,-84.49041439999999,244.12998962402344,1.8459054231643677,-3.1740944385528564
1666744239.14531016,719434554,42.7309049,-84.49041439999999,244.12998962402344,1.8458703756332397,-3.1741294860839844
1666744239.18531013,719474554,42.7309049,-84.49041439999999,244.12998962402344,1.8456591367721558,-3.1743407249450684
1666744239.22047997,719509724,42.7309049,-84.4904145,244.12998962402344,1.847420573234558,-3.172579288482666
1666744239.22527599,719514520,42.7309049,-84.4904145,244.12998962402344,1.8473855257034302,-3.172614336013794
1666744239.26578617,719555030,42.7309049,-84.4904146,244.12998962402344,1.8490511178970337,-3.1709487438201904
1666744239.30563712,719594881,42.7309049,-84.4904147,244.12998962402344,1.8493400812149048,-3.1706597805023193
1666744239.32044697,719609691,42.7309048,-84.4904147,244.12998962402344,1.849305510520935,-3.170694351196289
1666744239.34529495,719634539,42.7309048,-84.4904147,244.12998962402344,1.8493651151657104,-3.1706347465515137
1666744239.38528609,719674530,42.7309048,-84.4904148,244.12998962402344,1.8489645719528198,-3.1710352897644043
