timestamp,TimeUS,C,Q1,Q2,Q3,Q4
1666744224.26464915,704553893,1,0.9542862176895142,-0.00369467050768435,0.006354358047246933,-0.2988039255142212
1666744224.30462098,704593865,1,0.9542853832244873,-0.0036774897016584873,0.006370846647769213,-0.29880642890930176
1666744224.31961703,704608861,1,0.9542823433876038,-0.0036736757028847933,0.006368524860590696,-0.2988163232803345
1666744224.34458899,704633833,1,0.9542843699455261,-0.003674071282148361,0.00636442331597209,-0.29880979657173157
1666744224.38459206,704673836,1,0.9542859792709351,-0.0036626115906983614,0.006377822253853083,-0.2988046407699585
1666744224.41961908,704708863,1,0.9542895555496216,-0.003653894877061248,0.006394859403371811,-0.2987929582595825
1666744224.42459011,704713834,1,0.954291582107544,-0.00365975359454751,0.006395922973752022,-0.29878634214401245
1666744224.46462011,704753864,1,0.954294741153717,-0.0036524671595543623,0.006422224920243025,-0.2987758219242096
1666744224.50462317,704793867,1,0.9542999863624573,-0.0036477213725447655,0.006443476304411888,-0.2987586557865143
1666744224.51958299,704808827,1,0.9542988538742065,-0.0036479239352047443,0.006446068175137043,-0.2987622618675232
1666744224.54462099,704833865,1,0.9542981386184692,-0.0036403133999556303,0.006457704585045576,-0.29876431822776794
1666744224.58459306,704873837,1,0.9543015956878662,-0.0036485018208622932,0.006476756650954485,-0.29875272512435913
1666744224.61959910,704908843,1,0.9542967081069946,-0.003636739682406187,0.006482071243226528,-0.29876846075057983
1666744224.62459207,704913836,1,0.9542968273162842,-0.00363804935477674,0.006486690137535334,-0.2987678349018097
1666744224.66458201,704953826,1,0.9542953968048096,-0.003627815516665578,0.006507301237434149,-0.2987721860408783
1666744224.70461106,704993855,1,0.9543018937110901,-0.0036211684346199036,0.006515888497233391,-0.29875120520591736
1666744224.71959710,705008841,1,0.9543027281761169,-0.0036237279418855906,0.006516025867313147,-0.298748642206192
1666744224.74459696,705033841,1,0.9543046355247498,-0.003614814020693302,0.0065267132595181465,-0.2987423539161682
1666744224.78461599,705073860,1,0.9543079733848572,-0.0036424710415303707,0.006533263251185417,-0.2987312376499176
1666744224.81958795,705108832,1,0.9542979001998901,-0.003622289514169097,0.006531980354338884,-0.29876360297203064
1666744224.82458997,705113834,1,0.9542982578277588,-0.0036206308286637068,0.006546268239617348,-0.29876214265823364
1666744224.86459303,705153837,1,0.9542968273162842,-0.0036128771025687456,0.006543835625052452,-0.2987670302391052
1666744224.90462613,705193870,1,0.9542832970619202,-0.0036108861677348614,0.006560443434864283,-0.29880982637405396
1666744224.91958809,705208832,1,0.9542824029922485,-0.00359243038110435,0.006566291209310293,-0.29881271719932556
1666744224.94461608,705233860,1,0.9542799592018127,-0.0035664737224578857,0.006585012190043926,-0.29882052540779114
1666744224.98462200,705273866,1,0.9542733430862427,-0.003557938151061535,0.006581599824130535,-0.2988417446613312
1666744225.01959109,705308835,1,0.9542645812034607,-0.003536749631166458,0.0065596443600952625,-0.2988705337047577
1666744225.02461195,705313856,1,0.9542655944824219,-0.0035387217067182064,0.00656660832464695,-0.2988671064376831
1666744225.06458998,705353834,1,0.9542580842971802,-0.003534657182171941,0.006552884355187416,-0.2988913357257843
1666744225.10460806,705393852,1,0.9542487859725952,-0.0035256277769804,0.006534205749630928,-0.2989215552806854
1666744225.11960602,705408850,1,0.9542500376701355,-0.0035216682590544224,0.006536008324474096,-0.298917680978775
1666744225.14463115,705433875,1,0.9542413353919983,-0.003510146401822567,0.006531596649438143,-0.2989456355571747
1666744225.18462801,705473872,1,0.9542367458343506,-0.0035060623195022345,0.006511467508971691,-0.29896074533462524
1666744225.21960115,705508845,1,0.9542301893234253,-0.0035090905148535967,0.00650479830801487,-0.29898184537887573
1666744225.22462106,705513865,1,0.9542297720909119,-0.0035090376622974873,0.0065129343420267105,-0.2989828586578369
1666744225.26459098,705553835,1,0.9542245864868164,-0.0034760008566081524,0.006497962865978479,-0.29900026321411133
1666744225.30458903,705593833,1,0.9542236924171448,-0.0034773636143654585,0.006496950052678585,-0.29900309443473816
1666744225.31962204,705608866,1,0.9542237520217896,-0.003479455830529332,0.006499848328530788,-0.29900288581848145
1666744225.34458995,705633834,1,0.9542251229286194,-0.0034743885044008493,0.006507568061351776,-0.2989983856678009
1666744225.38461494,705673859,1,0.9542261958122253,-0.0034846835769712925,0.00651762168854475,-0.2989945113658905
1666744225.41963601,705708880,1,0.9542164206504822,-0.003483418608084321,0.006511373445391655,-0.29902589321136475
1666744225.42460895,705713853,1,0.9542168974876404,-0.003481673076748848,0.006512988358736038,-0.2990243434906006
1666744225.46463704,705753881,1,0.9542180299758911,-0.003502439009025693,0.006491935811936855,-0.2990209758281708
1666744225.50458908,705793833,1,0.9542130827903748,-0.0035135115031152964,0.006483428180217743,-0.2990367114543915
1666744225.51957917,705808823,1,0.9542145729064941,-0.003512142226099968,0.0064771538600325584,-0.2990322411060333
1666744225.54459810,705833842,1,0.9542137384414673,-0.0035171164199709892,0.006479224190115929,-0.2990347743034363
1666744225.58457613,705873820,1,0.9542062878608704,-0.003515233751386404,0.0064531778916716576,-0.29905909299850464
1666744225.61962509,705908869,1,0.9541956782341003,-0.0035055233165621758,0.0064534153789281845,-0.29909300804138184
1666744225.62462902,705913873,1,0.9541922211647034,-0.0034996801987290382,0.006453031208366156,-0.2991042733192444
1666744225.66459298,705953837,1,0.9541864395141602,-0.0035166586749255657,0.006427929271012545,-0.29912298917770386
1666744225.70460606,705993850,1,0.9541842937469482,-0.003540970850735903,0.006424620281904936,-0.2991296350955963
1666744225.71962118,706008865,1,0.9541832804679871,-0.0035404404625296593,0.006426337640732527,-0.2991328239440918
1666744225.74459314,706033837,1,0.9541817307472229,-0.0035407678224146366,0.006419798359274864,-0.29913783073425293
1666744225.78459096,706073835,1,0.9541706442832947,-0.0035468516871333122,0.006392762530595064,-0.2991736829280853
1666744225.81962514,706108869,1,0.9541717767715454,-0.0035508503206074238,0.006401254329830408,-0.2991698086261749
1666744225.82462716,706113871,1,0.9541711807250977,-0.0035497844219207764,0.006391392555087805,-0.2991720139980316
1666744225.86460304,706153847,1,0.9541774988174438,-0.003562111873179674,0.0063779703341424465,-0.29915207624435425
1666744225.90462995,706193874,1,0.9541717767715454,-0.003564741462469101,0.006367465481162071,-0.29917046427726746
1666744225.91962099,706208865,1,0.9541711211204529,-0.0035558869130909443,0.006365633569657803,-0.29917261004447937
1666744225.94459009,706233834,1,0.9541699886322021,-0.003555899253115058,0.0063785226084291935,-0.2991759479045868
1666744225.98459411,706273838,1,0.9541663527488708,-0.0035626711323857307,0.006371870171278715,-0.2991877794265747
1666744226.01959395,706308838,1,0.954164445400238,-0.0035758325830101967,0.006368791218847036,-0.2991935908794403
1666744226.02460504,706313849,1,0.9541638493537903,-0.003572528949007392,0.006367918569594622,-0.2991955578327179
1666744226.06462097,706353865,1,0.9541545510292053,-0.0035804416984319687,0.006390152964740992,-0.29922476410865784
1666744226.10462403,706393868,1,0.9541453123092651,-0.0035881553776562214,0.006381771061569452,-0.29925423860549927
1666744226.11959815,706408842,1,0.9541463851928711,-0.0035831609275192022,0.0063854483887553215,-0.2992507815361023
1666744226.14463305,706433877,1,0.9541444778442383,-0.0035887109115719795,0.006393173709511757,-0.29925674200057983
1666744226.18458915,706473833,1,0.9541413187980652,-0.0035931195598095655,0.006377872545272112,-0.2992669641971588
1666744226.21959209,706508836,1,0.9541362524032593,-0.0036008560564368963,0.0063649858348071575,-0.29928335547447205
1666744226.22458911,706513833,1,0.9541345834732056,-0.003605326870456338,0.006364820990711451,-0.29928869009017944
1666744226.26460409,706553848,1,0.9541231989860535,-0.0036009284667670727,0.006388336885720491,-0.29932451248168945
1666744226.30462098,706593865,1,0.9541170597076416,-0.0035989191383123398,0.006404146086424589,-0.29934370517730713
1666744226.31959605,706608840,1,0.9541173577308655,-0.003603806020691991,0.00638987123966217,-0.2993430495262146
1666744226.34461617,706633860,1,0.9541071057319641,-0.003601878182962537,0.0063848430290818214,-0.29937586188316345
1666744226.38465309,706673897,1,0.9540999531745911,-0.003609997220337391,0.006390695925801992,-0.29939836263656616
1666744226.41960096,706708845,1,0.954085648059845,-0.0036168841179460287,0.006394139491021633,-0.2994438707828522
1666744226.42459106,706713835,1,0.954084038734436,-0.0036193516571074724,0.006399595644325018,-0.2994488477706909
1666744226.46459198,706753836,1,0.9540790319442749,-0.0036482103168964386,0.006413968279957771,-0.2994641661643982
1666744226.50457501,706793819,1,0.9540682435035706,-0.0036284399684518576,0.006407174281775951,-0.2994987666606903
1666744226.51959610,706808840,1,0.9540646076202393,-0.0036317617632448673,0.006409802474081516,-0.29951024055480957
1666744226.54462409,706833868,1,0.954059898853302,-0.003621806623414159,0.006421965546905994,-0.29952511191368103
1666744226.58462310,706873867,1,0.9540518522262573,-0.0036184079945087433,0.006439347751438618,-0.29955044388771057
1666744226.61959600,706908840,1,0.9540446996688843,-0.003624965902417898,0.006450317800045013,-0.2995728850364685
1666744226.62463713,706913881,1,0.9540455937385559,-0.00362118030898273,0.006456461269408464,-0.2995700240135193
1666744226.66459107,706953835,1,0.9540398120880127,-0.003638999303802848,0.006466735620051622,-0.29958808422088623
1666744226.70459199,706993836,1,0.954032301902771,-0.003622933989390731,0.006459617055952549,-0.29961225390434265
1666744226.71961212,707008856,1,0.9540295600891113,-0.003624332370236516,0.006454177666455507,-0.29962101578712463
1666744226.74463010,707033874,1,0.9540268778800964,-0.003630218794569373,0.006451352033764124,-0.2996295690536499
1666744226.78461099,707073855,1,0.9540279507637024,-0.00363093800842762,0.006456709932535887,-0.2996261417865753
1666744226.81961799,707108862,1,0.9540286660194397,-0.0036372749600559473,0.006471596658229828,-0.29962339997291565
1666744226.82462502,707113869,1,0.9540262222290039,-0.0036399224773049355,0.006473038345575333,-0.29963114857673645
1666744226.86459899,707153843,1,0.954024076461792,-0.003641496179625392,0.006451257970184088,-0.29963845014572144
1666744226.90459704,707193841,1,0.9540126919746399,-0.0036352528259158134,0.00643610255792737,-0.29967498779296875
1666744226.91964602,707208890,1,0.9540082812309265,-0.003626276273280382,0.0064418078400194645,-0.29968908429145813
1666744226.94460011,707233844,1,0.9540005326271057,-0.003629501909017563,0.006423985585570335,-0.2997141480445862
1666744226.98462796,707273872,1,0.9539881348609924,-0.003625683719292283,0.00643320893868804,-0.2997533082962036
1666744227.01963401,707308878,1,0.9539833664894104,-0.003623709548264742,0.0064549860544502735,-0.2997680604457855
1666744227.02462101,707313865,1,0.9539786577224731,-0.003619494615122676,0.00643513398244977,-0.2997836470603943
1666744227.06463408,707353878,1,0.953978419303894,-0.003629217855632305,0.006447887048125267,-0.2997840344905853
1666744227.10460114,707393845,1,0.9539804458618164,-0.003629537532106042,0.006448595784604549,-0.2997775077819824
1666744227.11962008,707408864,1,0.9539612531661987,-0.003618048271164298,0.006445468403398991,-0.29983869194984436
1666744227.14459610,707433840,1,0.9539450407028198,-0.0036127481143921614,0.006449155975133181,-0.29989027976989746
1666744227.18459415,707473838,1,0.9539228081703186,-0.003634137101471424,0.0064602382481098175,-0.29996049404144287
1666744227.21962810,707508872,1,0.9539071917533875,-0.0036323675885796547,0.006464031059294939,-0.3000101149082184
1666744227.22463202,707513876,1,0.9539080262184143,-0.003621566342189908,0.0064560906030237675,-0.30000776052474976
1666744227.26460314,707553847,1,0.9538999199867249,-0.0036097466945648193,0.0064435373060405254,-0.3000340163707733
1666744227.30463314,707593877,1,0.953906774520874,-0.0035883516538888216,0.006471580360084772,-0.3000117838382721
1666744227.31964707,707608891,1,0.9539117813110352,-0.0035670490469783545,0.006493998225778341,-0.29999563097953796
1666744227.34459615,707633840,1,0.9539180397987366,-0.003555580973625183,0.006493281573057175,-0.2999758720397949
1666744227.38460398,707673848,1,0.9538938403129578,-0.003500811755657196,0.00644651660695672,-0.3000545799732208
1666744227.41960502,707708849,1,0.9538779854774475,-0.0033707318361848593,0.0063508423045277596,-0.30010849237442017
1666744227.42459702,707713841,1,0.9538776278495789,-0.003327994840219617,0.006296909414231777,-0.30011117458343506
1666744227.46462011,707753864,1,0.953887403011322,-0.003070834092795849,0.006078048143535852,-0.30008742213249207
1666744227.50462604,707793870,1,0.9538618922233582,-0.003007214982062578,0.006086235865950584,-0.3001689910888672
1666744227.51963115,707808875,1,0.9538659453392029,-0.0030650263652205467,0.006135623902082443,-0.3001544773578644
1666744227.54460907,707833853,1,0.9538346529006958,-0.0032713916152715683,0.0061086066998541355,-0.3002522885799408
1666744227.58460402,707873848,1,0.9537648558616638,-0.0033379681408405304,0.006082852836698294,-0.30047380924224854
1666744227.61960816,707908852,1,0.9537364840507507,-0.0030582454055547714,0.005917292553931475,-0.30056998133659363
1666744227.62459803,707913842,1,0.9537267684936523,-0.0033690149430185556,0.006117400247603655,-0.3005935549736023
1666744227.66463900,707953883,1,0.9536362290382385,-0.0030959220603108406,0.0061462633311748505,-0.3008829355239868
1666744227.70460105,707993845,1,0.9536073207855225,-0.003429386066272855,0.006202054675668478,-0.3009697496891022
1666744227.71959710,708008841,1,0.9535784125328064,-0.0034142660442739725,0.006151141598820686,-0.30106261372566223
1666744227.74464703,708033891,1,0.9535415172576904,-0.0031159627251327038,0.006168016232550144,-0.3011823296546936
1666744227.78459907,708073843,1,0.953508198261261,-0.0030370354652404785,0.005972875282168388,-0.30129265785217285
1666744227.81959701,708108841,1,0.9534866213798523,-0.003166123293340206,0.0063467323780059814,-0.3013518750667572
1666744227.82459617,708113840,1,0.9534563422203064,-0.003229117253795266,0.006318544968962669,-0.3014475405216217
1666744227.86460018,708153844,1,0.953363835811615,-0.0033856690861284733,0.006217211484909058,-0.30174046754837036
1666744227.90464711,708193891,1,0.9532756209373474,-0.0032663417514413595,0.006031838245689869,-0.30202406644821167
1666744227.91959715,708208841,1,0.9532645344734192,-0.0032543884590268135,0.006097865756601095,-0.3020578622817993
1666744227.94461608,708233860,1,0.953191876411438,-0.0031789883505553007,0.0061445049941539764,-0.30228692293167114
1666744227.98463416,708273878,1,0.953130841255188,-0.0031925076618790627,0.006114057265222073,-0.3024798333644867
1666744228.01959395,708308838,1,0.9530791640281677,-0.0030732154846191406,0.006185841280966997,-0.3026423454284668
1666744228.02459812,708313842,1,0.9530713558197021,-0.00299211498349905,0.005964170675724745,-0.30267226696014404
1666744228.06460309,708353847,1,0.9530172944068909,-0.0033954244572669268,0.006219960283488035,-0.30283305048942566
1666744228.10458708,708393831,1,0.9530173540115356,-0.003093971172347665,0.006170451641082764,-0.302837073802948
1666744228.11959815,708408842,1,0.952989399433136,-0.0031255483627319336,0.006312915589660406,-0.3029218018054962
1666744228.14463115,708433875,1,0.9529540538787842,-0.0030845077708363533,0.0062649063766002655,-0.3030342757701874
1666744228.18462515,708473869,1,0.9528990387916565,-0.0029395325109362602,0.006182437762618065,-0.30321046710014343
1666744228.21958113,708508825,1,0.9528523087501526,-0.0029398282058537006,0.006152013782411814,-0.30335792899131775
1666744228.22462416,708513868,1,0.9528387784957886,-0.0030736825428903103,0.006146770901978016,-0.30339914560317993
1666744228.26459908,708553843,1,0.9527810215950012,-0.002965903840959072,0.006114277057349682,-0.30358219146728516
1666744228.30459595,708593840,1,0.9527583122253418,-0.00298593332991004,0.006042996887117624,-0.30365467071533203
1666744228.31963110,708608875,1,0.9527509808540344,-0.0029368253890424967,0.00598522461950779,-0.30367934703826904
1666744228.34462714,708633871,1,0.9527174234390259,-0.0030212923884391785,0.006117690354585648,-0.303781121969223
1666744228.38462901,708673873,1,0.9527039527893066,-0.002974049188196659,0.006007305346429348,-0.3038260042667389
1666744228.41962910,708708873,1,0.952664852142334,-0.003032159758731723,0.006072168238461018,-0.30394667387008667
1666744228.42463708,708713881,1,0.9526469707489014,-0.0027507885824888945,0.00597187178209424,-0.3040074408054352
1666744228.46460605,708753850,1,0.9526070952415466,-0.0028295868542045355,0.0059223473072052,-0.30413269996643066
1666744228.50460410,708793848,1,0.9525474905967712,-0.0027357758954167366,0.005966634955257177,-0.3043191730976105
1666744228.51966310,708808907,1,0.9525079727172852,-0.0027616803999990225,0.0060126627795398235,-0.30444175004959106
1666744228.54459810,708833842,1,0.9524938464164734,-0.002834073267877102,0.006018244661390781,-0.3044852316379547
1666744228.58463597,708873880,1,0.9524254202842712,-0.002839574823155999,0.005947435274720192,-0.3047005534172058
1666744228.61960602,708908850,1,0.9523853659629822,-0.0028672190383076668,0.00597755191847682,-0.3048248291015625
1666744228.62462997,708913874,1,0.9523886442184448,-0.002876001177355647,0.005833545234054327,-0.304817259311676
1666744228.66463399,708953878,1,0.9523217082023621,-0.002646542154252529,0.0058166757225990295,-0.3050287961959839
1666744228.70459700,708993841,1,0.9522734880447388,-0.0027919209096580744,0.005831943359225988,-0.30517756938934326
1666744228.71963596,709008880,1,0.952269971370697,-0.0026850115973502398,0.005716673098504543,-0.3051917254924774
1666744228.74459815,709033842,1,0.952222466468811,-0.002675106516107917,0.005651487037539482,-0.30534127354621887
1666744228.78459716,709073841,1,0.9521539807319641,-0.002849046140909195,0.0058365389704704285,-0.3055497705936432
1666744228.81963110,709108875,1,0.952113687992096,-0.0026999576948583126,0.0058242324739694595,-0.30567681789398193
1666744228.82463408,709113878,1,0.9521055221557617,-0.002907105954363942,0.005856544245034456,-0.30569976568222046
1666744228.86461711,709153861,1,0.9520408511161804,-0.002888227580115199,0.005765968468040228,-0.30590301752090454
1666744228.90463996,709193884,1,0.9519848227500916,-0.002795369364321232,0.005831733345985413,-0.30607688426971436
1666744228.91963911,709208883,1,0.9519711136817932,-0.0028541497886180878,0.0057020606473088264,-0.30612146854400635
1666744228.94459510,709233839,1,0.9519360065460205,-0.002787707606330514,0.005880147218704224,-0.3062278628349304
1666744228.98460007,709273844,1,0.951888918876648,-0.0026616465765982866,0.005893751513212919,-0.30637505650520325
1666744229.01963115,709308875,1,0.9517924189567566,-0.0028200228698551655,0.005741987377405167,-0.3066762089729309
1666744229.02458501,709313829,1,0.9518224000930786,-0.0024389857426285744,0.005463017150759697,-0.3065914809703827
1666744229.06462908,709353873,1,0.9517356157302856,-0.002537410007789731,0.0056510684080421925,-0.30685651302337646
1666744229.10461998,709393864,1,0.9516004323959351,-0.0027935451362282038,0.00568794272840023,-0.3072725236415863
1666744229.11962795,709408872,1,0.951580286026001,-0.0027234219014644623,0.005568790249526501,-0.30733779072761536
1666744229.14461303,709433857,1,0.9515003561973572,-0.0025303049478679895,0.005659824702888727,-0.307585209608078
1666744229.18459797,709473842,1,0.9513955116271973,-0.0026215347461402416,0.005508377216756344,-0.30791136622428894
1666744229.21959496,709508839,1,0.9512616395950317,-0.0026795652229338884,0.005644050892442465,-0.30832159519195557
1666744229.22459698,709513841,1,0.9512582421302795,-0.0025261223781853914,0.005612943787127733,-0.308334082365036
1666744229.26463199,709553876,1,0.9511246085166931,-0.002509040990844369,0.0055811526253819466,-0.3087466359138489
1666744229.30461717,709593861,1,0.9509865045547485,-0.002730383537709713,0.005595610477030277,-0.3091697692871094
1666744229.31957603,709608820,1,0.9508944153785706,-0.0027689109556376934,0.005597271025180817,-0.30945250391960144
1666744229.34463215,709633876,1,0.9508554339408875,-0.0024217970203608274,0.005322595592588186,-0.30957987904548645
1666744229.38463306,709673877,1,0.950709879398346,-0.0023818945046514273,0.005313271656632423,-0.310027152299881
1666744229.41960096,709708845,1,0.9505553841590881,-0.002291649580001831,0.005392150022089481,-0.31049972772598267
1666744229.42459607,709713840,1,0.9505476951599121,-0.002361012389883399,0.005265707615762949,-0.3105250298976898
1666744229.46459699,709753841,1,0.9503780007362366,-0.00229045283049345,0.005302362143993378,-0.31104394793510437
1666744229.50463295,709793877,1,0.9502140283584595,-0.002562355250120163,0.005367285571992397,-0.31154122948646545
1666744229.51959395,709808838,1,0.9501643776893616,-0.0024748945143073797,0.005321507807821035,-0.31169405579566956
1666744229.54464006,709833884,1,0.9500460624694824,-0.0024983591865748167,0.0053715780377388,-0.31205347180366516
1666744229.58463311,709873877,1,0.9498761892318726,-0.002136424882337451,0.0051435017958283424,-0.3125767707824707
1666744229.61959910,709908843,1,0.949726939201355,-0.0022823421750217676,0.005039374344050884,-0.313030481338501
1666744229.62459707,709913841,1,0.9497021436691284,-0.0021148764062672853,0.004900469910353422,-0.31310924887657166
1666744229.66460609,709953850,1,0.9495071768760681,-0.002121444558724761,0.004591156262904406,-0.31370460987091064
1666744229.70460105,709993845,1,0.9493193626403809,-0.0022719474509358406,0.004879406187683344,-0.31426700949668884
1666744229.71957517,710008819,1,0.9492279887199402,-0.0022323071025311947,0.004734555725008249,-0.3145454525947571
1666744229.74465299,710033897,1,0.9491361379623413,-0.0021917917765676975,0.004488797392696142,-0.3148263692855835
1666744229.78460813,710073852,1,0.9489639401435852,-0.002459194278344512,0.004032776225358248,-0.3153492510318756
1666744229.81962109,710108865,1,0.9487311244010925,-0.0014325734227895737,0.0034120145719498396,-0.3160625994205475
1666744229.82462096,710113865,1,0.9487622380256653,-0.0018889142666012049,0.0029164617881178856,-0.3159717917442322
1666744229.86459613,710153840,1,0.9486249685287476,-0.0006074937409721315,0.0014983267756178975,-0.3163985013961792
1666744229.90460110,710193845,1,0.9484257102012634,0.00043850706424564123,0.0006428274791687727,-0.3169984817504883
1666744229.91962004,710208864,1,0.9484027624130249,0.0003950224199797958,0.0006523349438793957,-0.3170672357082367
1666744229.94457698,710233821,1,0.948357880115509,0.0019675223156809807,-0.00046201437362469733,-0.31719598174095154
1666744229.98463297,710273877,1,0.9482461214065552,0.0034463517367839813,-0.0015650002751499414,-0.31751376390457153
1666744230.01964307,710308887,1,0.948121190071106,0.004491993226110935,-0.0032647873740643263,-0.31786057353019714
1666744230.02464008,710313884,1,0.9481154680252075,0.004627569112926722,-0.0032410447020083666,-0.3178759217262268
1666744230.06460404,710353848,1,0.9480589628219604,0.006454009562730789,-0.004672505427151918,-0.3179948329925537
1666744230.10459614,710393840,1,0.9480298757553101,0.007531945593655109,-0.006049793679267168,-0.3180345594882965
1666744230.11964798,710408892,1,0.9480199813842773,0.007334686350077391,-0.006353061646223068,-0.31806284189224243
1666744230.14460111,710433845,1,0.9480193853378296,0.00832771323621273,-0.006734096445143223,-0.31803232431411743
1666744230.18462801,710473872,1,0.948047935962677,0.009170935489237309,-0.007497789338231087,-0.31790682673454285
1666744230.21963596,710508880,1,0.9480307102203369,0.011085741221904755,-0.008878097869455814,-0.3178616166114807
1666744230.22462702,710513871,1,0.9480605125427246,0.01148787047713995,-0.009132885374128819,-0.31775137782096863
1666744230.26463509,710553879,1,0.948133647441864,0.011872335337102413,-0.009452447295188904,-0.31750959157943726
1666744230.30461097,710593855,1,0.9481906890869141,0.012334099039435387,-0.009754268452525139,-0.31731241941452026
1666744230.31963396,710608878,1,0.9482181668281555,0.012742588296532631,-0.009472816251218319,-0.31722262501716614
1666744230.34459496,710633839,1,0.9483000040054321,0.012808535248041153,-0.009012177586555481,-0.31698864698410034
1666744230.38460612,710673850,1,0.9484760165214539,0.01202078815549612,-0.007304763421416283,-0.3165365159511566
1666744230.41961908,710708863,1,0.9485877752304077,0.011513996869325638,-0.0067274603061378,-0.3162331283092499
1666744230.42463017,710713874,1,0.9486284852027893,0.011430132202804089,-0.005906031001359224,-0.31613048911094666
1666744230.46462011,710753864,1,0.9487906098365784,0.011376878246665001,-0.0052452716045081615,-0.31565719842910767
1666744230.50463200,710793876,1,0.9489685297012329,0.012627316638827324,-0.005484876222908497,-0.31507012248039246
1666744230.51962805,710808872,1,0.9490520358085632,0.012963767163455486,-0.005589949898421764,-0.3148029148578644
1666744230.54460812,710833852,1,0.949188232421875,0.01327348779886961,-0.005642798263579607,-0.31437817215919495
1666744230.58460402,710873848,1,-0.0725875124335289,0.004082296974956989,0.011533655226230621,0.9972869753837585
1666744230.61962700,710908871,1,-0.07329260557889938,0.004007603973150253,0.010736113414168358,0.997244656085968
1666744230.62460303,710913847,1,-0.07336575537919998,0.004103567451238632,0.011430990882217884,0.997231125831604
1666744230.66462517,710953869,1,-0.0743161290884018,0.004256756976246834,0.010446354746818542,0.9971709251403809
1666744230.70460105,710993845,1,-0.07504389435052872,0.003818169701844454,0.00902512390166521,0.9971320629119873
1666744230.71958113,711008825,1,-0.07531652599573135,0.004155020695179701,0.008853469975292683,0.9971117377281189
1666744230.74463010,711033874,1,-0.07588516920804977,0.0036156412679702044,0.00728737935423851,0.9970833659172058
1666744230.78459597,711073840,1,-0.0763893648982048,0.003232411341741681,0.006153302267193794,0.997053861618042
1666744230.81959605,711108840,1,-0.07646109163761139,0.0021142864134162664,0.005547625944018364,0.9970548748970032
1666744230.82459617,711113840,1,-0.07631953060626984,0.0025294851511716843,0.004394342191517353,0.9970704913139343
1666744230.86457396,711153818,1,-0.07635357975959778,0.002209724159911275,0.0012139275204390287,0.9970776438713074
1666744230.90462804,711193872,1,-0.07661141455173492,0.0014656796120107174,-0.0030536362901329994,0.9970552921295166
1666744230.91960001,711208844,1,-0.07662247866392136,0.0013282150030136108,-0.004697401542216539,0.9970481991767883
1666744230.94463706,711233881,1,-0.07681600004434586,0.0014159615384414792,-0.007881652563810349,0.9970131516456604
1666744230.98459816,711273842,1,-0.07718800753355026,0.0005656520952470601,-0.012875864282250404,0.9969332218170166
1666744231.01960206,711308846,1,-0.0778210237622261,0.0005231990362517536,-0.016458123922348022,0.9968313574790955
1666744231.02459598,711313840,1,-0.07795113325119019,0.0006082937470637262,-0.017363669350743294,0.9968057870864868
1666744231.06459713,711353841,1,-0.0788082405924797,0.00028564082458615303,-0.01963864453136921,0.9966962933540344
1666744231.10464597,711393890,1,-0.08005239069461823,-4.0623712266096845e-05,-0.02016938105225563,0.9965865612030029
1666744231.11959505,711408839,1,-0.08048640191555023,-0.00032286648638546467,-0.019955046474933624,0.9965558648109436
1666744231.14462113,711433865,1,-0.08139678090810776,-0.001540555851534009,-0.01873646304011345,0.9965044856071472
1666744231.18462014,711473864,1,-0.0827302485704422,-0.0025693022180348635,-0.015558128245174885,0.9964472055435181
1666744231.21960115,711508845,1,-0.08389808982610703,-0.003086420940235257,-0.013234092853963375,0.9963817000389099
1666744231.22459817,711513842,1,-0.08398108929395676,-0.003007861552760005,-0.013056631200015545,0.9963772892951965
1666744231.26460195,711553846,1,-0.0854424461722374,-0.00314644374884665,-0.008434649556875229,0.9963024258613586
1666744231.30459595,711593840,1,-0.0858725905418396,-0.004031583201140165,-0.006718744523823261,0.9962753057479858
1666744231.31957817,711608822,1,-0.08604990690946579,-0.00443250359967351,-0.004608155693858862,0.9962702989578247
1666744231.34463811,711633882,1,-0.08641115576028824,-0.005428791511803865,-0.0034438690636307,0.9962388277053833
1666744231.38462114,711673865,1,-0.0864863246679306,-0.007573015987873077,-0.00014978215040173382,0.9962242245674133
1666744231.41962409,711708868,1,-0.08622993528842926,-0.0102226035669446,0.001254871254786849,0.9962220191955566
1666744231.42463207,711713876,1,-0.08609572052955627,-0.010346381925046444,0.00195900141261518,0.996231198310852
1666744231.46459699,711753841,1,-0.08565863966941833,-0.013132648542523384,0.003495810553431511,0.9962318539619446
1666744231.50460100,711793845,1,-0.08432550728321075,-0.01582123339176178,0.004865691997110844,0.9963007569313049
1666744231.51963615,711808880,1,-0.08377114683389664,-0.016451505944132805,0.005667916964739561,0.9963330626487732
1666744231.54459000,711833834,1,-0.0828746035695076,-0.017850488424301147,0.005736206658184528,0.9963836073875427
1666744231.58463216,711873876,1,-0.08151926845312119,-0.019449980929493904,0.006244040559977293,0.9964624047279358
1666744231.61963701,711908881,1,-0.08017923682928085,-0.021093398332595825,0.006343172397464514,0.9965370893478394
1666744231.62463307,711913877,1,-0.0799761563539505,-0.02107282541692257,0.006097365170717239,0.9965553283691406
1666744231.66462517,711953869,1,-0.07866840809583664,-0.022107787430286407,0.005670036654919386,0.9966395497322083
1666744231.70459509,711993839,1,-0.07714927196502686,-0.022584250196814537,0.004002878442406654,0.9967557191848755
1666744231.71963906,712008883,1,-0.07665533572435379,-0.022370440885424614,0.002970772562548518,0.9968022108078003
1666744231.74459600,712033840,1,-0.07592114061117172,-0.022072838619351387,0.0012449114583432674,0.9968687295913696
1666744231.78464508,712073889,1,-0.07488666474819183,-0.02024933136999607,-0.0024826389271765947,0.9969833493232727
1666744231.81962204,712108866,1,-0.07411406934261322,-0.01876973919570446,-0.004101103637367487,0.9970647096633911
1666744231.82464600,712113890,1,-0.07393927872180939,-0.017702991142868996,-0.005124399904161692,0.9970924258232117
1666744231.86463714,712153881,1,-0.07329478114843369,-0.015555969439446926,-0.007105899043381214,0.9971636533737183
1666744231.90459800,712193842,1,-0.07306364178657532,-0.014177730306982994,-0.010322977788746357,0.9971730709075928
1666744231.91962695,712208871,1,-0.07311122864484787,-0.013417241163551807,-0.011923831887543201,0.9971622228622437
1666744231.94459510,712233839,1,-0.07314177602529526,-0.012579367496073246,-0.013326145708560944,0.9971531629562378
1666744231.98460197,712273846,1,-0.07317540049552917,-0.011216429062187672,-0.015047399327158928,0.997142493724823
1666744232.01963210,712308876,1,-0.07333557307720184,-0.010073887184262276,-0.017030540853738785,0.9971110224723816
1666744232.02463603,712313880,1,-0.07348471879959106,-0.009782316163182259,-0.016229650005698204,0.9971162676811218
1666744232.06460714,712353851,1,-0.07393202930688858,-0.008314436301589012,-0.018003035336732864,0.997066080570221
1666744232.10463405,712393878,1,-0.07381154596805573,-0.007138460874557495,-0.019217168912291527,0.9970614910125732
1666744232.11963105,712408875,1,-0.07387988269329071,-0.006760906428098679,-0.01975296065211296,0.997048556804657
1666744232.14460397,712433848,1,-0.0739329531788826,-0.005946647841483355,-0.020789287984371185,0.9970287680625916
1666744232.18459606,712473840,1,-0.0739746168255806,-0.005219992250204086,-0.022041188552975655,0.9970028400421143
1666744232.21962309,712508867,1,-0.07381928712129593,-0.005431910045444965,-0.022772599011659622,0.9969968199729919
1666744232.22459602,712513840,1,-0.07374446094036102,-0.004803650546818972,-0.022788751870393753,0.9970051646232605
1666744232.26462817,712553872,1,-0.0738309994339943,-0.004938327707350254,-0.022333988919854164,0.9970084428787231
1666744232.30461097,712593855,1,-0.07308024913072586,-0.005350563675165176,-0.021620837971568108,0.9970773458480835
1666744232.31959796,712608842,1,-0.07287207990884781,-0.005559330806136131,-0.021334562450647354,0.9970976114273071
1666744232.34463000,712633874,1,-0.07251137495040894,-0.005504596512764692,-0.020305616781115532,0.9971456527709961
1666744232.38459802,712673842,1,-0.07185039669275284,-0.005368598271161318,-0.017841968685388565,0.9972413778305054
1666744232.41957998,712708824,1,-0.07112190872430801,-0.00534392986446619,-0.014606126584112644,0.9973463416099548
1666744232.42460108,712713845,1,-0.07094035297632217,-0.004793816711753607,-0.01379761379212141,0.9973735809326172
1666744232.46459007,712753834,1,-0.07042655348777771,-0.0037653446197509766,-0.009212234988808632,0.9974673390388489
1666744232.50463295,712793877,1,-0.06953105330467224,-0.0024699608329683542,-0.004173263441771269,0.9975680112838745
1666744232.51959610,712808840,1,-0.06937505304813385,-0.001961509231477976,-0.0022188920993357897,0.9975862503051758
1666744232.54463410,712833878,1,-0.06897344440221786,-0.0011284452630206943,-3.75356939912308e-05,0.9976178407669067
1666744232.58461118,712873855,1,-0.0684870257973671,4.72382344014477e-05,0.003524897387251258,0.9976457953453064
1666744232.61959505,712908839,1,-0.06830531358718872,0.000572440039832145,0.0052220686338841915,0.9976506233215332
1666744232.62460113,712913845,1,-0.06829844415187836,0.00048248469829559326,0.005849308799952269,0.9976476430892944
1666744232.66461015,712953854,1,-0.06825242191553116,0.0006131003610789776,0.007043349556624889,0.9976430535316467
1666744232.70463204,712993876,1,-0.06809738278388977,0.0007175783975981176,0.007452237885445356,0.9976505637168884
1666744232.71959710,713008841,1,-0.0680622011423111,0.0005333556910045445,0.0078109437599778175,0.9976503849029541
1666744232.74462414,713033868,1,-0.06803524494171143,0.0006012166268192232,0.0077117313630878925,0.9976529479026794
1666744232.78463411,713073878,1,-0.0681881532073021,0.0007164073176681995,0.006875307764858007,0.9976485371589661
1666744232.81959605,713108840,1,-0.06810341030359268,0.0003108626406174153,0.00550224632024765,0.9976630210876465
1666744232.82459497,713113839,1,-0.06812135875225067,0.0002889508323278278,0.005195083096623421,0.9976634979248047
1666744232.86459804,713153842,1,-0.06819711625576019,-0.0006474789697676897,0.0027706765104085207,0.9976677894592285
1666744232.90459609,713193840,1,-0.06809317320585251,-0.002444537589326501,0.0005883760750293732,0.9976757764816284
1666744232.91958117,713208825,1,-0.06810851395130157,-0.0032239947468042374,2.4358414520975202e-05,0.9976727366447449
1666744232.94462705,713233871,1,-0.06805334240198135,-0.004616318736225367,-0.001030609244480729,0.9976704716682434
1666744232.98462200,713273866,1,-0.06785602122545242,-0.0065607307478785515,-0.001836909563280642,0.9976718425750732
1666744233.01963496,713308879,1,-0.06738056987524033,-0.0075180912390351295,-0.0017321512568742037,0.9976975321769714
1666744233.02463007,713313874,1,-0.06730104982852936,-0.00831380020827055,-0.0022545685060322285,0.9976955056190491
1666744233.06459808,713353842,1,-0.06693192571401596,-0.009353327564895153,-0.0022135123144835234,0.9977112412452698
1666744233.10460210,713393846,1,-0.06614206731319427,-0.009829686023294926,-0.002064758213236928,0.9977596402168274
1666744233.11964703,713408891,1,-0.06589215993881226,-0.010237802751362324,-0.0017652057576924562,0.9977726936340332
1666744233.14459705,713433841,1,-0.065440833568573,-0.010478219948709011,-0.001241595484316349,0.9978006482124329
1666744233.18462610,713473870,1,-0.06441564857959747,-0.010929688811302185,-0.0010836863657459617,0.997862696647644
1666744233.21962714,713508871,1,-0.06354307383298874,-0.010174206458032131,-0.0005755565362051129,0.9979270696640015
1666744233.22461009,713513854,1,-0.06340733915567398,-0.010474467650055885,-0.0002615668927319348,0.9979327321052551
1666744233.26460600,713553850,1,-0.0624488890171051,-0.00945363286882639,0.00011923444253625348,0.998003363609314
1666744233.30459404,713593838,1,-0.06131201609969139,-0.008357799611985683,0.0007412783452309668,0.9980833530426025
1666744233.31965017,713608894,1,-0.06099491938948631,-0.007997679524123669,0.000612306350376457,0.9981058239936829
1666744233.34459615,713633840,1,-0.06047457829117775,-0.007909031584858894,0.00020808263798244298,0.9981383681297302
1666744233.38458896,713673833,1,-0.05956548824906349,-0.00772693520411849,0.00113241549115628,0.9981938600540161
1666744233.41962695,713708871,1,-0.058964990079402924,-0.00863778404891491,0.00025432329857721925,0.9982226490974426
1666744233.42461395,713713858,1,-0.05876258388161659,-0.008521437644958496,0.0008046874427236617,0.998235285282135
1666744233.46464705,713753891,1,-0.0579347163438797,-0.010030169039964676,-0.00024550326634198427,0.9982699751853943
1666744233.50460315,713793847,1,-0.05709662660956383,-0.011394575238227844,-0.002097632735967636,0.9983014464378357
1666744233.51963210,713808876,1,-0.05671094357967377,-0.011559161357581615,-0.0026682144962251186,0.9983201622962952
1666744233.54461598,713833860,1,-0.05617364123463631,-0.01202722080051899,-0.003523326711729169,0.9983423352241516
1666744233.58459711,713873841,1,-0.054999321699142456,-0.012815634720027447,-0.0062559121288359165,0.9983845353126526
1666744233.61962795,713908872,1,-0.0539332777261734,-0.012259786017239094,-0.007913943380117416,0.9984379410743713
1666744233.62463212,713913876,1,-0.05377042666077614,-0.012570026330649853,-0.008364061824977398,0.9984391927719116
1666744233.66461110,713953855,1,-0.052583400160074234,-0.0126036386936903,-0.010498815216124058,0.998481810092926
1666744233.70463705,713993881,1,-0.05116308107972145,-0.013289712369441986,-0.01496151089668274,0.9984897971153259
1666744233.71963406,714008878,1,-0.05070921406149864,-0.013926293700933456,-0.017010869458317757,0.9984714388847351
1666744233.74459505,714033839,1,-0.04984940588474274,-0.015305218286812305,-0.021656271070241928,0.9984046220779419
1666744233.78459907,714073843,1,-0.048508986830711365,-0.0181538425385952,-0.030386844649910927,0.9981953501701355
1666744233.81959510,714108839,1,-0.047002989798784256,-0.021382223814725876,-0.03800026327371597,0.9979426264762878
1666744233.82459497,714113839,1,-0.04705176502466202,-0.021375687792897224,-0.039425116032361984,0.9978852272033691
1666744233.86462998,714153874,1,-0.04564899951219559,-0.02428760938346386,-0.04709097743034363,0.9975513815879822
1666744233.90463209,714193876,1,-0.043818097561597824,-0.026381120085716248,-0.05296541377902031,0.9972856640815735
1666744233.91959715,714208841,1,-0.04316556081175804,-0.02691112831234932,-0.054059527814388275,0.9972412586212158
1666744233.94462800,714233872,1,-0.04228241369128227,-0.027585381641983986,-0.05469796806573868,0.997225821018219
1666744233.98459816,714273842,1,-0.040569283068180084,-0.02867197059094906,-0.054207056760787964,0.9972931742668152
1666744234.01959705,714308841,1,-0.03922654688358307,-0.029833998531103134,-0.05432433262467384,0.9973064064979553
1666744234.02459908,714313843,1,-0.039121758192777634,-0.02957114204764366,-0.05328873544931412,0.9973742365837097
1666744234.06459618,714353840,1,-0.03761846572160721,-0.02964773029088974,-0.05027953162789345,0.9975860118865967
1666744234.10463500,714393879,1,-0.036129117012023926,-0.028601566329598427,-0.04755892604589462,0.9978049993515015
1666744234.11959815,714408842,1,-0.035579320043325424,-0.028082260861992836,-0.04541996121406555,0.9979391098022461
1666744234.14461613,714433860,1,-0.03487963229417801,-0.025505831465125084,-0.04069503769278526,0.9982368350028992
1666744234.18462801,714473872,1,-0.03339048847556114,-0.021278444677591324,-0.03218255192041397,0.9986974596977234
1666744234.21959615,714508840,1,-0.03208284080028534,-0.016621358692646027,-0.024270255118608475,0.9990522265434265
1666744234.22457218,714513816,1,-0.03201862797141075,-0.015712779015302658,-0.021380871534347534,0.9991350173950195
1666744234.26460409,714553848,1,-0.030600465834140778,-0.010714564472436905,-0.011219627223908901,0.9994112849235535
1666744234.30457306,714593817,1,-0.029126999899744987,-0.00656276848167181,-0.0031170533038675785,0.9995493292808533
1666744234.31960797,714608852,1,-0.028531698510050774,-0.005502726882696152,-0.0009086335776373744,0.9995773434638977
1666744234.34462595,714633870,1,-0.027781937271356583,-0.004349083639681339,0.0032742824405431747,0.9995991587638855
1666744234.38463902,714673883,1,-0.026559555903077126,-0.0033379769884049892,0.007108734920620918,0.9996163845062256
1666744234.41959810,714708842,1,-0.02547154761850834,-0.0032879007048904896,0.008700269274413586,0.9996322989463806
1666744234.42462111,714713865,1,-0.025381337851285934,-0.003260876750573516,0.009314585477113724,0.9996291399002075
1666744234.46460414,714753848,1,-0.02451370097696781,-0.0028229819145053625,0.009931467473506927,0.9996461868286133
1666744234.50460196,714793846,1,-0.023440640419721603,-0.002086956286802888,0.00988725945353508,0.9996741414070129
1666744234.51960707,714808851,1,-0.02306472137570381,-0.0018192969728261232,0.010135411284863949,0.9996809363365173
1666744234.54464102,714833885,1,-0.022587014362215996,-0.0012627806281670928,0.009097863920032978,0.9997026920318604
1666744234.58462596,714873870,1,-0.0219801627099514,-0.0018271517474204302,0.008932705037295818,0.9997168183326721
1666744234.61962700,714908871,1,-0.0218005683273077,-0.0033224604558199644,0.009159314446151257,0.9997148513793945
1666744234.62464213,714913886,1,-0.021679967641830444,-0.003397679654881358,0.008472828194499016,0.9997232556343079
1666744234.66461611,714953860,1,-0.021607818081974983,-0.006667332723736763,0.00808381661772728,0.9997116327285767
1666744234.70459509,714993839,1,-0.021810483187437057,-0.010796068236231804,0.007123301271349192,0.9996784329414368
1666744234.71963906,715008883,1,-0.021829742938280106,-0.012370221316814423,0.007291335612535477,0.9996585845947266
1666744234.74460006,715033844,1,-0.02208404801785946,-0.015578779391944408,0.006630078889429569,0.9996127486228943
1666744234.78463697,715073881,1,-0.022648019716143608,-0.021948693320155144,0.0052832928486168385,0.9994885921478271
1666744234.81962514,715108869,1,-0.023117713630199432,-0.028773106634616852,0.0034632221795618534,0.9993125796318054
1666744234.82462001,715113864,1,-0.023233573883771896,-0.02961721643805504,0.0038454129826277494,0.9992838501930237
1666744234.86463213,715153876,1,-0.023985203355550766,-0.038640644401311874,0.0023902771063148975,0.99896240234375
1666744234.90460014,715193844,1,-0.02476610243320465,-0.046834610402584076,0.0016552428714931011,0.9985942244529724
1666744234.91960812,715208852,1,-0.025103291496634483,-0.04949574172496796,0.0007290581124834716,0.9984585642814636
1666744234.94459510,715233839,1,-0.02564503625035286,-0.053218770772218704,0.0004471298889257014,0.9982534050941467
1666744234.98459506,715273839,1,-0.02675115503370762,-0.05737389624118805,-0.00017939867393579334,0.9979943037033081
1666744235.01962996,715308874,1,-0.027587387710809708,-0.059150952845811844,-0.0008168531348928809,0.9978674650192261
1666744235.02462506,715313869,1,-0.02766934223473072,-0.05922263488173485,-5.411912934505381e-05,0.9978612661361694
1666744235.06459999,715353844,1,-0.02866518869996071,-0.0598168782889843,-0.0008210099185816944,0.9977973699569702
1666744235.10461807,715393862,1,-0.029691331088542938,-0.05998711660504341,-0.0016476982273161411,0.9977561235427856
1666744235.11962914,715408873,1,-0.030063368380069733,-0.05977081134915352,-0.001679099048487842,0.9977579116821289
1666744235.14459896,715433843,1,-0.030764173716306686,-0.06036926805973053,-0.002557536819949746,0.9976986646652222
1666744235.18459916,715473843,1,-0.03186223283410072,-0.060470230877399445,-0.002512353239580989,0.9976581931114197
1666744235.21963501,715508879,1,-0.03273901715874672,-0.06082424148917198,-0.0015232398873195052,0.9976102709770203
1666744235.22457600,715513820,1,-0.032907165586948395,-0.06036660075187683,-0.0024059719871729612,0.997630774974823
1666744235.26463008,715553874,1,-0.03392558544874191,-0.05978649482131004,-0.0020502207335084677,0.9976323843002319
1666744235.30464697,715593891,1,-0.03485856205224991,-0.05869058519601822,-0.0018626619130373001,0.9976657032966614
1666744235.31964517,715608889,1,-0.03513021394610405,-0.05829393491148949,-0.0015931371599435806,0.9976798892021179
1666744235.34459710,715633841,1,-0.035688191652297974,-0.05718603357672691,-0.0015824208967387676,0.9977242350578308
1666744235.38459516,715673839,1,-0.036484792828559875,-0.0561441108584404,-0.0018848017789423466,0.9977540373802185
1666744235.41959810,715708842,1,-0.03709445148706436,-0.05632830783724785,-0.0024707051925361156,0.9977198839187622
1666744235.42459798,715713842,1,-0.037174053490161896,-0.055925365537405014,-0.001777513651177287,0.9977411031723022
1666744235.46462607,715753870,1,-0.037832871079444885,-0.055344026535749435,-0.0017541198758408427,0.9977487921714783
1666744235.50462818,715793872,1,-0.038449980318546295,-0.05369541049003601,-0.0019618060905486345,0.9978148937225342
1666744235.51960611,715808850,1,-0.03860679268836975,-0.05240580067038536,-0.002296272898092866,0.9978767037391663
1666744235.54463196,715833876,1,-0.038836847990751266,-0.05095064640045166,-0.002098721219226718,0.9979435205459595
1666744235.58460498,715873849,1,-0.03924483060836792,-0.04628538340330124,-0.0026547054294496775,0.9981535077095032
1666744235.61960006,715908844,1,-0.03925264999270439,-0.039353881031274796,-0.0015189318219199777,0.99845290184021
1666744235.62459803,715913842,1,-0.03925657644867897,-0.03857742249965668,-0.0021311554592102766,0.9984819293022156
1666744235.66461015,715953854,1,-0.03927835449576378,-0.02854745090007782,-0.0018783262930810452,0.9988186359405518
1666744235.70463014,715993874,1,-0.038992226123809814,-0.017538070678710938,-0.0011095436057075858,0.9990849494934082
1666744235.71959710,716008841,1,-0.038933347910642624,-0.013694684021174908,-0.0008312973077408969,0.9991475939750671
1666744235.74461412,716033858,1,-0.038659293204545975,-0.007893531583249569,-0.00021699638455174863,0.9992212653160095
1666744235.78463316,716073877,1,-0.037997424602508545,-0.0008174878894351423,0.0009353633504360914,0.9992770552635193
1666744235.81959605,716108840,1,-0.037261079996824265,0.0038217464461922646,1.761960083968006e-05,0.9992982745170593
1666744235.82459617,716113840,1,-0.03724530711770058,0.0043673207983374596,0.0007195879006758332,0.9992963671684265
1666744235.86459517,716153839,1,-0.03635537251830101,0.007510252762585878,4.556834028335288e-05,0.9993107318878174
1666744235.90460110,716193845,1,-0.035228315740823746,0.008462886326014996,-0.000249804143095389,0.9993434548377991
1666744235.91959500,716208839,1,-0.03484567999839783,0.009114263579249382,-0.0010725947795435786,0.9993505477905273
1666744235.94463205,716233876,1,-0.03416014462709427,0.009321806952357292,-0.000657462514936924,0.999372661113739
1666744235.98459816,716273842,1,-0.032750606536865234,0.00986152421683073,-0.0008585242321714759,0.9994145631790161
1666744236.01959014,716308834,1,-0.031426675617694855,0.010326080955564976,0.000632379378657788,0.999452531337738
1666744236.02463198,716313876,1,-0.03117782436311245,0.010277933441102505,-0.0005587167106568813,0.9994608759880066
1666744236.06460214,716353846,1,-0.029541052877902985,0.01022420171648264,-0.0007506858091801405,0.9995110034942627
1666744236.10460114,716393845,1,-0.027989741414785385,0.0092536062002182,0.0006076634745113552,0.9995651841163635
1666744236.11961699,716408861,1,-0.027253681793808937,0.008979673497378826,0.0001351970568066463,0.9995881915092468
1666744236.14464903,716433893,1,-0.02615450695157051,0.008643364533782005,0.0007077381014823914,0.9996203184127808
1666744236.18462515,716473869,1,-0.02436021715402603,0.007495147176086903,0.0006287274300120771,0.9996749758720398
1666744236.21964908,716508893,1,-0.022650498896837234,0.006975160446017981,-0.0004391032853163779,0.9997190237045288
1666744236.22463107,716513875,1,-0.022252090275287628,0.006832163780927658,0.0008315552258864045,0.9997286796569824
1666744236.26463604,716553880,1,-0.02018340677022934,0.006409426219761372,0.000734595290850848,0.9997754693031311
1666744236.30459499,716593839,1,-0.01792181469500065,0.005395245738327503,0.0006867501069791615,0.999824583530426
1666744236.31964207,716608886,1,-0.017011558637022972,0.00534273125231266,0.0005888110608793795,0.9998408555984497
1666744236.34460306,716633847,1,-0.01557058934122324,0.00477345148101449,0.0009263798710890114,0.9998669624328613
1666744236.38465095,716673895,1,-0.01321722287684679,0.004239973146468401,5.8317593357060105e-05,0.999903678894043
1666744236.41961813,716708862,1,-0.010892401449382305,0.0036686970852315426,0.000428611267125234,0.9999338388442993
1666744236.42461705,716713861,1,-0.010611487552523613,0.003300175303593278,1.9615001292550005e-05,0.9999382495880127
1666744236.46462703,716753871,1,-0.008162226527929306,0.002872518729418516,0.0001491138682467863,0.999962568283081
1666744236.50461698,716793861,1,-0.0056770662777125835,0.0026907094288617373,-0.00018432772776577622,0.9999802708625793
1666744236.51959801,716808842,1,-0.004773794207721949,0.0026457735802978277,5.570106441155076e-05,0.9999850988388062
1666744236.54459500,716833839,1,-0.0033693264704197645,0.0019684212747961283,0.0006880435976199806,0.9999921321868896
1666744236.58460498,716873849,1,-0.0010308116907253861,0.001588325947523117,0.0011329088592901826,0.9999975562095642
1666744236.61962700,716908871,1,0.0009617513860575855,0.001706950250081718,0.0005121987778693438,0.9999979734420776
1666744236.62460899,716913853,1,0.0011560223065316677,0.0016835478600114584,0.001132774050347507,0.9999972581863403
1666744236.66462302,716953867,1,0.0034379148855805397,0.0016897640889510512,0.0010054964805021882,0.9999921321868896
1666744236.70463204,716993876,1,0.005593986716121435,0.00157565635163337,0.0011930323671549559,0.9999824166297913
1666744236.71963310,717008877,1,0.0064625549130141735,0.0015152381965890527,0.0008144153980538249,0.9999776482582092
1666744236.74460816,717033852,1,0.007799671962857246,0.0013172449544072151,0.0016182514373213053,0.9999673962593079
1666744236.78459716,717073841,1,0.009908567182719707,0.0010908633703365922,0.0017322443891316652,0.9999487996101379
1666744236.81963205,717108876,1,0.011904135346412659,0.0009879787685349584,0.0009795266669243574,0.9999281764030457
1666744236.82458115,717113825,1,0.012251753360033035,0.0008699240861460567,0.001254838309250772,0.9999237656593323
1666744236.86462998,717153874,1,0.014471112750470638,0.0007801117026247084,0.0007869250257499516,0.9998946785926819
1666744236.90463209,717193876,1,0.01695374958217144,0.0005510829505510628,0.0006732477340847254,0.9998558759689331
1666744236.91962504,717208869,1,0.017738746479153633,0.0005588214844465256,0.00037546895327977836,0.9998424053192139
1666744236.94460416,717233848,1,0.0192370917648077,0.00027569974190555513,0.0009793131612241268,0.9998144507408142
1666744236.98460603,717273850,1,0.02177811786532402,0.00016639403474982828,0.0012971860123798251,0.9997619986534119
1666744237.01960397,717308848,1,0.023892855271697044,0.00038024288369342685,0.0007635109359398484,0.9997141361236572
1666744237.02460003,717313844,1,0.024152034893631935,0.00013926884275861084,0.0009479019790887833,0.999707818031311
1666744237.06462812,717353872,1,0.02665986493229866,3.0152234103297815e-05,0.00069943827111274,0.9996443390846252
1666744237.10461307,717393857,1,0.028911346569657326,-0.00014022336108610034,0.0006342317210510373,0.9995817542076111
1666744237.11960006,717408844,1,0.029881438240408897,-0.00019594567129388452,0.00036989880027249455,0.999553382396698
1666744237.14462709,717433871,1,0.031322602182626724,-0.00019811313541140407,0.0010560611262917519,0.9995087385177612
1666744237.18459606,717473840,1,0.0335296206176281,-0.00022719915432389826,0.0009114996064454317,0.9994372725486755
1666744237.21960402,717508848,1,0.035538554191589355,-0.00040465366328135133,-0.00017245419439859688,0.9993681907653809
1666744237.22459507,717513839,1,0.03591232746839523,-0.0003230115689802915,0.0008553984225727618,0.9993545413017273
1666744237.26459599,717553840,1,0.03808875381946564,-0.0002738854964263737,0.00014683052722830325,0.9992743134498596
1666744237.30462813,717593872,1,0.04037388041615486,-0.0005024450365453959,-0.000253990845521912,0.9991844892501831
1666744237.31960511,717608849,1,0.04111851379275322,-0.0003445298061706126,-0.00019554328173398972,0.9991542100906372
1666744237.34462500,717633869,1,0.04260847344994545,-0.0006717428332194686,-0.0007639418472535908,0.9990913271903992
1666744237.38462710,717673871,1,0.04492618516087532,-0.0007164819980971515,-0.0009809436742216349,0.9989895820617676
1666744237.41959596,717708840,1,0.04693865031003952,-1.507635988673428e-05,-0.0004340099694672972,0.9988976716995239
1666744237.42459512,717713839,1,0.04722585901618004,-0.0005626848433166742,-0.001171414041891694,0.9988833665847778
1666744237.46459699,717753841,1,0.049489401280879974,-0.00022591878951061517,-0.0005741301574744284,0.9987744688987732
1666744237.50459695,717793841,1,0.05181794613599777,4.048483970109373e-05,-0.0003743410052265972,0.9986564517021179
1666744237.51959610,717808840,1,0.052768412977457047,-0.0003830730856861919,-0.0009168833494186401,0.998606264591217
1666744237.54463410,717833878,1,0.05416565760970116,4.2626994400052354e-05,-0.00042622079490683973,0.9985318779945374
1666744237.58460617,717873850,1,0.056458160281181335,2.2290361812338233e-05,-0.0006027383496984839,0.9984048008918762
1666744237.61960316,717908847,1,0.05846504122018814,-0.00017484107229392976,-0.00014766240201424807,0.9982894062995911
1666744237.62463713,717913881,1,0.05871571972966194,-4.183034980087541e-05,-0.0004624540451914072,0.9982746243476868
1666744237.66460514,717953849,1,0.060974087566137314,-8.47575647640042e-05,-0.0004701987199950963,0.9981392621994019
1666744237.70459604,717993840,1,0.06315682083368301,-0.0004013290163129568,-6.172791472636163e-05,0.9980035424232483
1666744237.71959901,718008843,1,0.0640404224395752,-0.00010794441914185882,3.809096597251482e-05,0.9979472756385803
1666744237.74458218,718033826,1,0.06533436477184296,-0.0006588802789337933,-6.897618004586548e-05,0.997863233089447
1666744237.78463316,718073877,1,0.0675462856888771,-0.0006622914806939662,-1.9830292785627535e-06,0.997715950012207
1666744237.81964207,718108886,1,0.06941705197095871,-0.0013812336837872863,0.0008474839269183576,0.9975864291191101
1666744237.82463408,718113878,1,0.0697375014424324,-0.0005769190029241145,0.0002053228672593832,0.9975652098655701
1666744237.86459613,718153840,1,0.07190489023923874,-0.0003369604528415948,0.00033653510035946965,0.9974113702774048
1666744237.90459800,718193842,1,0.07393327355384827,-0.0002662545593921095,0.0002415640337858349,0.9972631335258484
1666744237.91964197,718208886,1,0.07458146661520004,-0.0002785772376228124,0.0005684961215592921,0.9972147345542908
1666744237.94460011,718233844,1,0.07584372162818909,-0.00031124427914619446,0.0003683374961838126,0.9971196055412292
1666744237.98465395,718273898,1,0.07776710391044617,-0.00022164132678881288,0.0003200846549589187,0.9969714879989624
1666744238.01960611,718308850,1,0.07952533662319183,-0.0005270985420793295,-5.937797686783597e-05,0.9968327283859253
1666744238.02460313,718313847,1,0.07965363562107086,-0.00010138710058527067,5.462312765303068e-05,0.9968225955963135
1666744238.06461096,718353855,1,0.08153820037841797,-0.00025599609944038093,0.00020779995247721672,0.9966701865196228
1666744238.10459709,718393841,1,0.08336259424686432,0.0002859793312381953,1.4840714356978424e-05,0.9965192675590515
1666744238.11963511,718408879,1,0.0840248242020607,0.001333356136456132,-0.0005308458930812776,0.9964626431465149
1666744238.14460015,718433844,1,0.08526156097650528,0.002347647910937667,-0.0008379058563150465,0.9963554739952087
1666744238.18459702,718473841,1,0.08698247373104095,0.007004132494330406,-0.0011031434405595064,0.9961845874786377
1666744238.21962595,718508870,1,0.08848051726818085,0.01298392005264759,-0.0009052620152942836,0.99599289894104
1666744238.22463417,718513878,1,0.08867012709379196,0.01396121084690094,-0.0016782184829935431,0.9959617853164673
1666744238.26460695,718553851,1,0.09029430896043777,0.02163471095263958,-0.0024754460901021957,0.9956770539283752
1666744238.30462909,718593873,1,0.09171659499406815,0.028747666627168655,-0.003192896256223321,0.9953649640083313
1666744238.31964207,718608886,1,0.09216588735580444,0.030418025329709053,-0.0034100771881639957,0.9952731132507324
1666744238.34459710,718633841,1,0.09302477538585663,0.03358079120516777,-0.0035076201893389225,0.9950911402702332
1666744238.38461018,718673854,1,0.0942014753818512,0.03698311373591423,-0.003790556685999036,0.9948587417602539
1666744238.41962504,718708869,1,0.09507108479738235,0.03852529078722,-0.003289868589490652,0.9947192668914795
1666744238.42459512,718713839,1,0.09523981809616089,0.03848640248179436,-0.003814988536760211,0.9947027564048767
1666744238.46464109,718753885,1,0.09614454954862595,0.03913145884871483,-0.003354310058057308,0.9945922493934631
1666744238.50460315,718793847,1,0.09704096615314484,0.03876191005110741,-0.0024674569722265005,0.994522213935852
1666744238.51959705,718808841,1,0.09742391109466553,0.03842112049460411,-0.0026861531659960747,0.9944974780082703
1666744238.54462695,718833871,1,0.09795128554105759,0.03766787424683571,-0.002429813612252474,0.9944751262664795
1666744238.58460116,718873845,1,0.09875257313251495,0.035568803548812866,-0.002316730795428157,0.9944734573364258
1666744238.61960506,718908849,1,0.09910976886749268,0.03282231092453003,-0.0015538530424237251,0.9945338368415833
1666744238.62460113,718913845,1,0.09935491532087326,0.033213283866643906,-0.0019256905652582645,0.9944957494735718
1666744238.66458797,718953832,1,0.09986966103315353,0.03088412433862686,-0.00044201232958585024,0.9945210218429565
1666744238.70462704,718993871,1,0.10013675689697266,0.02923472225666046,-0.00015754910418763757,0.9945440888404846
1666744238.71958709,719008831,1,0.10014836490154266,0.02850078046321869,0.00029950105817988515,0.9945641756057739
1666744238.74463201,719033876,1,0.10041715949773788,0.02902909554541111,-0.00015589238319080323,0.9945218563079834
1666744238.78462100,719073865,1,0.10071108490228653,0.03022889792919159,-0.0003905031189788133,0.9944562911987305
1666744238.81959605,719108840,1,0.100696861743927,0.032159943133592606,0.00012347125448286533,0.9943972229957581
1666744238.82459712,719113841,1,0.10086355358362198,0.03201780468225479,-0.0004254360683262348,0.9943848252296448
1666744238.86460209,719153846,1,0.10102840512990952,0.03405716270208359,-0.000755042303353548,0.994300127029419
1666744238.90463901,719193883,1,0.10075772553682327,0.03452979773283005,-0.0002392139140283689,0.9943115711212158
1666744238.91960001,719208844,1,0.100690558552742,0.03377722576260567,-0.0005805966211482882,0.9943441152572632
1666744238.94462895,719233873,1,0.10054082423448563,0.0331265814602375,0.00021333350741770118,0.9943812489509583
1666744238.98466802,719273912,1,0.10027675330638885,0.028543617576360703,3.182735599693842e-05,0.9945500493049622
1666744239.01959896,719308843,1,0.10000499337911606,0.023191621527075768,0.000989326392300427,0.9947161078453064
1666744239.02459598,719313840,1,0.09995179623365402,0.021656397730112076,6.549127283506095e-05,0.9947565793991089
1666744239.06459713,719353841,1,0.09965886175632477,0.01404131855815649,0.0010770062217488885,0.9949219822883606
1666744239.10459805,719393842,1,0.09929083287715912,0.006340546999126673,0.0014479468809440732,0.9950371980667114
