timestamp,TimeUS,C,Roll,Pitch,Yaw,VN,VE,VD,dPD,PN,PE,PD,GX,GY,GZ,OH
1666744224.26464915,704553893,1,-0.62,0.56,325.22,0.06846531480550766,0.03001708723604679,-0.06423322856426239,-0.03894858434796333,26.649850845336914,13.225056648254395,5.021007537841797,0.11,0.0,0.05,247.32
1666744224.30462098,704593865,1,-0.62,0.5700000000000001,325.22,0.06800033897161484,0.03001626580953598,-0.06408806890249252,-0.0353182777762413,26.66626739501953,13.233383178710938,5.01918363571167,0.11,0.0,0.05,247.32
1666744224.31961703,704608861,1,-0.61,0.5700000000000001,325.22,0.06769974529743195,0.030018936842679977,-0.06415878236293793,-0.03568370267748833,26.671369552612305,13.235965728759766,5.018477439880371,0.11,0.0,0.05,247.32
1666744224.34458899,704633833,1,-0.61,0.5700000000000001,325.22,0.06657672673463821,0.0300290547311306,-0.0639934167265892,-0.03718657046556473,26.6806697845459,13.240701675415039,5.017290115356445,0.11,0.0,0.05,247.32
1666744224.38459206,704673836,1,-0.61,0.5700000000000001,325.22,0.06504809111356735,0.029769139364361763,-0.06452968716621399,-0.041518885642290115,26.693265914916992,13.247135162353516,5.0153117179870605,0.11,0.0,0.05,247.32
1666744224.41961908,704708863,1,-0.61,0.5700000000000001,325.22,0.06399301439523697,0.030062265694141388,-0.06442592293024063,-0.0449090339243412,26.70397186279297,13.252653121948242,5.013576984405518,0.11,0.0,0.05,247.32
1666744224.42459011,704713834,1,-0.61,0.5700000000000001,325.22,0.06351553648710251,0.029879653826355934,-0.06439171731472015,-0.045366670936346054,26.704282760620117,13.252799034118652,5.013262748718262,0.11,0.0,0.05,247.32
1666744224.46462011,704753864,1,-0.61,0.5700000000000001,325.22,0.06238159164786339,0.03077808767557144,-0.0641637071967125,-0.043300580233335495,26.72235679626465,13.262967109680176,5.012010097503662,0.11,0.0,0.05,247.32
1666744224.50462317,704793867,1,-0.61,0.5700000000000001,325.22,0.06145409122109413,0.03239079937338829,-0.06358644366264343,-0.038458287715911865,26.74217987060547,13.274317741394043,5.010857105255127,0.11,0.0,0.05,247.32
1666744224.51958299,704808827,1,-0.61,0.58,325.22,0.0605602040886879,0.0325922891497612,-0.06358440965414047,-0.037211108952760696,26.746856689453125,13.277009010314941,5.010249137878418,0.11,0.0,0.05,247.32
1666744224.54462099,704833865,1,-0.61,0.58,325.22,0.05904156342148781,0.03314237669110298,-0.0633014589548111,-0.03587951511144638,26.75535011291504,13.28194808959961,5.009253025054932,0.11,0.0,0.05,247.32
1666744224.58459306,704873837,1,-0.62,0.58,325.23,0.056927576661109924,0.03356120362877846,-0.06286730617284775,-0.0363236702978611,26.76681137084961,13.288710594177246,5.007451057434082,0.11,0.0,0.05,247.32
1666744224.61959910,704908843,1,-0.61,0.58,325.22,0.05621171370148659,0.03463625907897949,-0.06210152059793472,-0.03346586972475052,26.784587860107422,13.299439430236816,5.006956577301025,0.11,0.0,0.05,247.32
1666744224.62459207,704913836,1,-0.61,0.58,325.22,0.05569326505064964,0.03474926948547363,-0.062010593712329865,-0.032365832477808,26.784860610961914,13.29960823059082,5.006653785705566,0.11,0.0,0.05,247.32
1666744224.66458201,704953826,1,-0.61,0.58,325.22,0.05433566868305206,0.03553548455238342,-0.06129695102572441,-0.0254120621830225,26.800580978393555,13.309250831604004,5.005642414093018,0.11,0.0,0.05,247.32
1666744224.70461106,704993855,1,-0.61,0.58,325.23,0.053031086921691895,0.036520615220069885,-0.060486603528261185,-0.023265963420271873,26.817747116088867,13.319937705993652,5.004755020141602,0.11,0.0,0.05,247.32
1666744224.71959710,705008841,1,-0.61,0.58,325.23,0.05222127586603165,0.0367298424243927,-0.060189757496118546,-0.02310135029256344,26.821815490722656,13.322525024414062,5.004194259643555,0.11,0.0,0.05,247.32
1666744224.74459696,705033841,1,-0.61,0.58,325.23,0.05119051784276962,0.03731018677353859,-0.05987377092242241,-0.024326231330633163,26.82914161682129,13.327216148376465,5.00336217880249,0.11,0.0,0.05,247.32
1666744224.78461599,705073860,1,-0.62,0.58,325.23,0.04892956092953682,0.03804771974682808,-0.060061872005462646,-0.028402961790561676,26.839059829711914,13.333724975585938,5.001801013946533,0.11,0.0,0.05,247.32
1666744224.81958795,705108832,1,-0.61,0.59,325.22,0.04955806955695152,0.039863940328359604,-0.059638816863298416,-0.03042019158601761,26.857929229736328,13.345110893249512,5.00082540512085,0.11,0.0,0.05,247.32
1666744224.82458997,705113834,1,-0.62,0.59,325.22,0.049257542937994,0.039811424911022186,-0.05969691649079323,-0.03051018714904785,26.858169555664062,13.345305442810059,5.000534534454346,0.11,0.0,0.05,247.32
1666744224.86459303,705153837,1,-0.61,0.59,325.22,0.04896962642669678,0.040909603238105774,-0.05938943848013878,-0.03153889253735542,26.874897003173828,13.355598449707031,4.999106407165527,0.11,0.0,0.05,247.32
1666744224.90462613,705193870,1,-0.61,0.59,325.22,0.04902760311961174,0.042675744742155075,-0.058906178921461105,-0.03435186296701431,26.893362045288086,13.367043495178223,4.997725963592529,0.11,0.0,0.05,247.32
1666744224.91958809,705208832,1,-0.61,0.59,325.22,0.04857896640896797,0.04300890117883682,-0.05888720229268074,-0.03560991212725639,26.897722244262695,13.369848251342773,4.997060298919678,0.11,0.0,0.05,247.32
1666744224.94461608,705233860,1,-0.61,0.59,325.22,0.04757847264409065,0.04338813200592995,-0.058685626834630966,-0.037729259580373764,26.905622482299805,13.37492847442627,4.996018409729004,0.11,0.0,0.05,247.32
1666744224.98462200,705273866,1,-0.61,0.59,325.21,0.04594292864203453,0.044008370488882065,-0.05883365496993065,-0.04174389690160751,26.91634750366211,13.38200855255127,4.994165420532227,0.11,0.0,0.05,247.32
1666744225.01959109,705308835,1,-0.61,0.59,325.21,0.047764573246240616,0.04616864398121834,-0.057895541191101074,-0.03300768882036209,26.936182022094727,13.39467716217041,4.994822978973389,0.11,0.01,0.05,247.32
1666744225.02461195,705313856,1,-0.61,0.59,325.21,0.04734672233462334,0.04609384387731552,-0.05782964453101158,-0.03062027506530285,26.936391830444336,13.394882202148438,4.994566440582275,0.11,0.01,0.05,247.32
1666744225.06458998,705353834,1,-0.61,0.59,325.21,0.047598984092473984,0.047706883400678635,-0.05690114572644234,-0.011401469819247723,26.954092025756836,13.406452178955078,4.994528770446777,0.11,0.01,0.05,247.32
1666744225.10460806,705393852,1,-0.6,0.59,325.21,0.04862656071782112,0.04999663680791855,-0.05643535032868385,-0.002357297111302614,26.97369384765625,13.419292449951172,4.99471378326416,0.11,0.01,0.05,247.32
1666744225.11960602,705408850,1,-0.6,0.59,325.21,0.04853151738643646,0.0500822514295578,-0.05613141134381294,-0.0005456035723909736,26.97830581665039,13.422442436218262,4.994435787200928,0.11,0.01,0.05,247.32
1666744225.14463115,705433875,1,-0.6,0.59,325.2,0.04774034395813942,0.05072106420993805,-0.05570465326309204,-0.00022903972421772778,26.986774444580078,13.428220748901367,4.994048118591309,0.11,0.01,0.05,247.32
1666744225.18462801,705473872,1,-0.6,0.59,325.2,0.046492304652929306,0.052162982523441315,-0.05544200539588928,-0.005763039458543062,26.998266220092773,13.436298370361328,4.992835998535156,0.11,0.01,0.05,247.32
1666744225.21960115,705508845,1,-0.6,0.59,325.2,0.04701607674360275,0.05329521372914314,-0.054353900253772736,-0.006943983491510153,27.014528274536133,13.445874214172363,4.9937591552734375,0.11,0.01,0.05,247.32
1666744225.22462106,705513865,1,-0.6,0.59,325.2,0.04662569239735603,0.053299274295568466,-0.054380469024181366,-0.00492342934012413,27.01475715637207,13.446133613586426,4.993494033813477,0.11,0.01,0.05,247.32
1666744225.26459098,705553835,1,-0.6,0.59,325.2,0.046695221215486526,0.05427579581737518,-0.05290145054459572,0.014796813949942589,27.032302856445312,13.45617961883545,4.994768142700195,0.11,0.01,0.05,247.32
1666744225.30458903,705593833,1,-0.6,0.59,325.2,0.046908486634492874,0.055405352264642715,-0.051141925156116486,0.029819810763001442,27.05175018310547,13.467185974121094,4.996689319610596,0.11,0.01,0.05,247.32
1666744225.31962204,705608866,1,-0.6,0.59,325.2,0.04653020575642586,0.05558976158499718,-0.050809528678655624,0.03363332524895668,27.056354522705078,13.46999454498291,4.996793270111084,0.11,0.01,0.05,247.32
1666744225.34458995,705633834,1,-0.6,0.59,325.2,0.0457642637193203,0.05614349991083145,-0.05004527047276497,0.0356590561568737,27.064687728881836,13.47497272491455,4.99724817276001,0.11,0.01,0.05,247.32
1666744225.38461494,705673859,1,-0.6,0.59,325.2,0.04486450180411339,0.05695651099085808,-0.04881497472524643,0.03256567567586899,27.076045989990234,13.482024192810059,4.997398853302002,0.11,0.01,0.05,247.32
1666744225.41963601,705708880,1,-0.6,0.59,325.19,0.045388687402009964,0.05831315368413925,-0.046819429844617844,0.03937802463769913,27.09416961669922,13.492963790893555,5.000327110290527,0.11,0.01,0.05,247.32
1666744225.42460895,705713853,1,-0.6,0.59,325.19,0.04506852105259895,0.05833117663860321,-0.04678779095411301,0.04179416224360466,27.094390869140625,13.49324893951416,5.000098705291748,0.11,0.01,0.05,247.32
1666744225.46463704,705753881,1,-0.6,0.58,325.19,0.044581055641174316,0.059187840670347214,-0.0451522134244442,0.05779159814119339,27.110519409179688,13.503331184387207,5.002283573150635,0.11,0.01,0.05,247.32
1666744225.50458908,705793833,1,-0.6,0.58,325.19,0.04529264196753502,0.06036360561847687,-0.04354624077677727,0.06382514536380768,27.128379821777344,13.514362335205078,5.005084991455078,0.11,0.01,0.05,247.32
1666744225.51957917,705808823,1,-0.6,0.58,325.19,0.04489035904407501,0.06033789739012718,-0.04320639371871948,0.06426572054624557,27.1325740814209,13.517145156860352,5.00547981262207,0.11,0.01,0.05,247.32
1666744225.54459810,705833842,1,-0.6,0.58,325.19,0.04437553137540817,0.060466088354587555,-0.04268890246748924,0.06139205023646355,27.14023208618164,13.52216625213623,5.006346702575684,0.11,0.01,0.05,247.32
1666744225.58457613,705873820,1,-0.6,0.58,325.19,0.043044622987508774,0.061086252331733704,-0.04133063182234764,0.05224628001451492,27.150625228881836,13.529239654541016,5.00714111328125,0.11,0.01,0.05,247.32
1666744225.61962509,705908869,1,-0.6,0.58,325.18,0.04296202212572098,0.06170399859547615,-0.03993866965174675,0.049350883811712265,27.166597366333008,13.538750648498535,5.0095744132995605,0.11,0.01,0.05,247.32
1666744225.62462902,705913873,1,-0.6,0.58,325.18,0.04247324913740158,0.061718687415122986,-0.039820924401283264,0.050087783485651016,27.166786193847656,13.539024353027344,5.009397506713867,0.11,0.01,0.05,247.32
1666744225.66459298,705953837,1,-0.6,0.58,325.18,0.04139162227511406,0.062226712703704834,-0.038769982755184174,0.05281871184706688,27.180946350097656,13.547849655151367,5.011155128479004,0.11,0.01,0.05,247.32
1666744225.70460606,705993850,1,-0.6,0.58,325.18,0.04072893410921097,0.06294497102499008,-0.03737672418355942,0.05007617548108101,27.19648551940918,13.557345390319824,5.013375282287598,0.11,0.01,0.05,247.32
1666744225.71962118,706008865,1,-0.6,0.58,325.18,0.040258120745420456,0.06321395188570023,-0.037097301334142685,0.04827015846967697,27.20012092590332,13.559794425964355,5.013670921325684,0.11,0.01,0.05,247.32
1666744225.74459314,706033837,1,-0.6,0.58,325.18,0.03928804397583008,0.06320644915103912,-0.036808133125305176,0.04343480244278908,27.20674705505371,13.564205169677734,5.014312744140625,0.11,0.01,0.05,247.32
1666744225.78459096,706073835,1,-0.6,0.5700000000000001,325.18,0.037426527589559555,0.0628570169210434,-0.03613993898034096,0.03488707169890404,27.215639114379883,13.570365905761719,5.015138626098633,0.11,0.01,0.05,247.32
1666744225.81962514,706108869,1,-0.6,0.5700000000000001,325.18,0.03665051609277725,0.06237262114882469,-0.03500062972307205,0.03240962699055672,27.230472564697266,13.578720092773438,5.01693058013916,0.11,0.01,0.05,247.32
1666744225.82462716,706113871,1,-0.6,0.5700000000000001,325.18,0.03626912459731102,0.06227894127368927,-0.03499481827020645,0.03290366381406784,27.23066520690918,13.579051971435547,5.016744613647461,0.11,0.01,0.05,247.32
1666744225.86460304,706153847,1,-0.6,0.5700000000000001,325.18,0.034967731684446335,0.061475738883018494,-0.03435775637626648,0.03372778743505478,27.243722915649414,13.58675479888916,5.017974853515625,0.11,0.01,0.05,247.32
1666744225.90462995,706193874,1,-0.6,0.5700000000000001,325.18,0.03425998613238335,0.060749128460884094,-0.03375818580389023,0.02989320456981659,27.258073806762695,13.594980239868164,5.019456386566162,0.11,0.01,0.05,247.32
1666744225.91962099,706208865,1,-0.6,0.5700000000000001,325.18,0.03370187059044838,0.060767434537410736,-0.03337453678250313,0.028276365250349045,27.261404037475586,13.597115516662598,5.019604682922363,0.11,0.01,0.05,247.32
1666744225.94459009,706233834,1,-0.6,0.5700000000000001,325.17,0.032428450882434845,0.060665033757686615,-0.03282163292169571,0.024417918175458908,27.267459869384766,13.600929260253906,5.019964218139648,0.11,0.01,0.05,247.32
1666744225.98459411,706273838,1,-0.6,0.5700000000000001,325.17,0.030891669914126396,0.05996659770607948,-0.031960051506757736,0.01669623889029026,27.27556037902832,13.606284141540527,5.0201873779296875,0.11,0.01,0.05,247.32
1666744226.01959395,706308838,1,-0.6,0.5700000000000001,325.17,0.030041372403502464,0.05951518565416336,-0.03105604089796543,0.014396686106920242,27.287601470947266,13.613468170166016,5.021974086761475,0.11,0.01,0.05,247.32
1666744226.02460504,706313849,1,-0.6,0.5700000000000001,325.17,0.029549123719334602,0.05942052602767944,-0.030976450070738792,0.016282178461551666,27.28775978088379,13.613783836364746,5.021808624267578,0.11,0.01,0.05,247.32
1666744226.06462097,706353865,1,-0.61,0.5700000000000001,325.17,0.02866489067673683,0.059532757848501205,-0.029899101704359055,0.030725812539458275,27.30078887939453,13.621749877929688,5.02373743057251,0.11,0.01,0.05,247.32
1666744226.10462403,706393868,1,-0.61,0.5700000000000001,325.17,0.028015639632940292,0.05873756483197212,-0.02882210724055767,0.03826204687356949,27.315143585205078,13.630277633666992,5.025859355926514,0.11,0.01,0.05,247.32
1666744226.11959815,706408842,1,-0.61,0.5700000000000001,325.17,0.027548283338546753,0.058756325393915176,-0.02853974886238575,0.03944511339068413,27.31846046447754,13.632505416870117,5.0261640548706055,0.11,0.01,0.05,247.32
1666744226.14463305,706433877,1,-0.61,0.5700000000000001,325.17,0.02679167315363884,0.05847753584384918,-0.028156744316220284,0.03879738599061966,27.324491500854492,13.63644790649414,5.026827812194824,0.11,0.01,0.05,247.32
1666744226.18458915,706473833,1,-0.61,0.5700000000000001,325.16,0.02535691112279892,0.057550784200429916,-0.02752016857266426,0.03422126546502113,27.33254623413086,13.641956329345703,5.027637958526611,0.11,0.01,0.05,247.32
1666744226.21959209,706508836,1,-0.61,0.5700000000000001,325.16,0.023720161989331245,0.057860907167196274,-0.026464639231562614,0.03781919926404953,27.344633102416992,13.650911331176758,5.030210971832275,0.11,0.01,0.05,247.32
1666744226.22458911,706513833,1,-0.61,0.5700000000000001,325.16,0.023382743820548058,0.05760762840509415,-0.026424456387758255,0.039598461240530014,27.344758987426758,13.65121841430664,5.0300703048706055,0.11,0.01,0.05,247.32
1666744226.26460409,706553848,1,-0.61,0.5700000000000001,325.16,0.0216071717441082,0.057542599737644196,-0.025422940030694008,0.04926570877432823,27.35526466369629,13.659477233886719,5.032025337219238,0.11,0.01,0.05,247.32
1666744226.30462098,706593865,1,-0.61,0.5700000000000001,325.15000000000003,0.019746961072087288,0.05755475535988808,-0.024339666590094566,0.05042943358421326,27.36670684814453,13.668390274047852,5.034219264984131,0.11,0.01,0.05,247.32
1666744226.31959605,706608840,1,-0.61,0.5700000000000001,325.15000000000003,0.01859378255903721,0.05744323506951332,-0.02413022890686989,0.0494399331510067,27.369304656982422,13.670702934265137,5.034566402435303,0.11,0.01,0.05,247.32
1666744226.34461617,706633860,1,-0.61,0.5700000000000001,325.15000000000003,0.017259133979678154,0.05688770115375519,-0.023525316268205643,0.046010833233594894,27.373998641967773,13.67481517791748,5.035295009613037,0.11,0.01,0.05,247.32
1666744226.38465309,706673897,1,-0.61,0.5700000000000001,325.15000000000003,0.014678127132356167,0.05670164152979851,-0.023100605234503746,0.037399474531412125,27.38014030456543,13.68056583404541,5.036043167114258,0.11,0.01,0.05,247.32
1666744226.41960096,706708845,1,-0.61,0.5700000000000001,325.14,0.013497120700776577,0.056448668241500854,-0.022215409204363823,0.03276829048991203,27.39017105102539,13.687994956970215,5.03788948059082,0.11,0.01,0.05,247.32
1666744226.42459106,706713835,1,-0.61,0.5700000000000001,325.14,0.01293583307415247,0.05642378330230713,-0.022305209189653397,0.033414240926504135,27.390235900878906,13.688270568847656,5.03778076171875,0.11,0.01,0.05,247.32
1666744226.46459198,706753836,1,-0.61,0.5700000000000001,325.14,0.01164364255964756,0.0558193102478981,-0.021353989839553833,0.04073163866996765,27.401187896728516,13.696331977844238,5.039691925048828,0.11,0.01,0.05,247.32
1666744226.50457501,706793819,1,-0.61,0.5700000000000001,325.14,0.010621839202940464,0.055788442492485046,-0.02061752788722515,0.04277750849723816,27.41326141357422,13.705026626586914,5.041815757751465,0.11,0.01,0.05,247.32
1666744226.51959610,706808840,1,-0.61,0.5700000000000001,325.13,0.009909683838486671,0.05535384640097618,-0.020183613523840904,0.042941682040691376,27.41594696044922,13.70727252960205,5.042168140411377,0.11,0.01,0.05,247.32
1666744226.54462409,706833868,1,-0.61,0.5700000000000001,325.13,0.008633037097752094,0.05525994673371315,-0.01971171237528324,0.04071378707885742,27.420852661132812,13.71124267578125,5.042907238006592,0.11,0.01,0.05,247.32
1666744226.58462310,706873867,1,-0.61,0.5700000000000001,325.13,0.006182781420648098,0.05512459576129913,-0.019344884902238846,0.03437194600701332,27.42725372314453,13.716858863830566,5.043713092803955,0.11,0.01,0.05,247.32
1666744226.61959600,706908840,1,-0.61,0.58,325.13,0.004807162098586559,0.054886505007743835,-0.01906537264585495,0.027713246643543243,27.437108993530273,13.724309921264648,5.044613838195801,0.11,0.01,0.05,247.32
1666744226.62463713,706913881,1,-0.61,0.58,325.13,0.004407074302434921,0.05485326051712036,-0.019036486744880676,0.0271869208663702,27.437129974365234,13.724553108215332,5.044529438018799,0.11,0.01,0.05,247.32
1666744226.66459107,706953835,1,-0.61,0.58,325.13,0.0028282280545681715,0.05475267022848129,-0.01849684678018093,0.022066283971071243,27.447654724121094,13.732731819152832,5.045258045196533,0.11,0.01,0.05,247.32
1666744226.70459199,706993836,1,-0.61,0.58,325.12,0.0012401276035234332,0.05505077913403511,-0.017825979739427567,0.017603710293769836,27.459287643432617,13.741562843322754,5.046266078948975,0.11,0.01,0.05,247.32
1666744226.71961212,707008856,1,-0.61,0.58,325.12,0.0002984627499245107,0.05506189912557602,-0.017674455419182777,0.01619691774249077,27.46181869506836,13.743816375732422,5.046388626098633,0.11,0.01,0.05,247.32
1666744226.74463010,707033874,1,-0.61,0.58,325.12,-0.0008830162114463747,0.05462382361292839,-0.01758124865591526,0.013169616460800171,27.466461181640625,13.74787425994873,5.0466532707214355,0.11,0.01,0.05,247.32
1666744226.78461099,707073855,1,-0.61,0.58,325.12,-0.0031065335497260094,0.054298803210258484,-0.01707737147808075,0.008089471608400345,27.472471237182617,13.753546714782715,5.0467939376831055,0.11,0.01,0.05,247.32
1666744226.81961799,707108862,1,-0.61,0.58,325.12,-0.0043877060525119305,0.0543130524456501,-0.016378037631511688,0.007197427097707987,27.481948852539062,13.761117935180664,5.047957420349121,0.11,0.01,0.05,247.32
1666744226.82462502,707113869,1,-0.62,0.58,325.12,-0.004804062191396952,0.05412370711565018,-0.016516750678420067,0.008108538575470448,27.48192596435547,13.761382102966309,5.047877311706543,0.11,0.01,0.05,247.32
1666744226.86459899,707153843,1,-0.61,0.58,325.12,-0.006412897724658251,0.0537574328482151,-0.016080984845757484,0.01802741177380085,27.492040634155273,13.769625663757324,5.049214839935303,0.11,0.01,0.05,247.32
1666744226.90459704,707193841,1,-0.61,0.5700000000000001,325.11,-0.007524108048528433,0.05369245633482933,-0.015312624163925648,0.024797653779387474,27.50326156616211,13.77855110168457,5.050735950469971,0.11,0.01,0.05,247.32
1666744226.91964602,707208890,1,-0.61,0.5700000000000001,325.11,-0.008216828107833862,0.053341224789619446,-0.015288827940821648,0.02603408880531788,27.505659103393555,13.780816078186035,5.050986289978027,0.11,0.01,0.05,247.32
1666744226.94460011,707233844,1,-0.61,0.5700000000000001,325.11,-0.009626827202737331,0.05291460081934929,-0.015175953507423401,0.026345647871494293,27.510066986083984,13.784892082214355,5.05148458480835,0.11,0.01,0.05,247.32
1666744226.98462796,707273872,1,-0.61,0.5700000000000001,325.11,-0.012092613615095615,0.052361130714416504,-0.015696890652179718,0.02066846564412117,27.515710830688477,13.790574073791504,5.051624298095703,0.11,0.01,0.05,247.32
1666744227.01963401,707308878,1,-0.61,0.58,325.1,-0.012182759121060371,0.0517166331410408,-0.015683060511946678,0.01432014536112547,27.52495002746582,13.797942161560059,5.052181243896484,0.11,0.01,0.05,247.32
1666744227.02462101,707313865,1,-0.61,0.5700000000000001,325.1,-0.011832229793071747,0.051098234951496124,-0.01561557874083519,0.014108948409557343,27.524892807006836,13.798192977905273,5.052104949951172,0.11,0.01,0.05,247.32
1666744227.06463408,707353878,1,-0.61,0.58,325.1,-0.015041355043649673,0.05214916542172432,-0.015306718647480011,0.012412361800670624,27.53478240966797,13.806134223937988,5.052589416503906,0.11,0.01,0.05,247.32
1666744227.10460114,707393845,1,-0.61,0.58,325.1,-0.015808088704943657,0.05001149699091911,-0.015611977316439152,0.0084677217528224,27.545820236206055,13.814714431762695,5.053008079528809,0.11,0.01,0.05,247.32
1666744227.11962008,707408864,1,-0.61,0.58,325.1,-0.016220442950725555,0.05163779854774475,-0.015558090060949326,0.007077573332935572,27.548128128051758,13.816883087158203,5.05300760269165,0.11,0.01,0.05,247.32
1666744227.14459610,707433840,1,-0.61,0.58,325.09000000000003,-0.018297873437404633,0.0513734295964241,-0.015503679402172565,0.004326986148953438,27.552419662475586,13.820823669433594,5.053029537200928,0.11,0.01,0.05,247.32
1666744227.18459415,707473838,1,-0.61,0.58,325.08,-0.020176859572529793,0.050136879086494446,-0.015248208306729794,-0.0007506890106014907,27.55780601501465,13.826251029968262,5.052759647369385,0.11,0.01,0.05,247.32
1666744227.21962810,707508872,1,-0.61,0.58,325.07,-0.02092391438782215,0.05043096840381622,-0.016584306955337524,-0.004512341693043709,27.57098960876465,13.836288452148438,5.05303430557251,0.11,0.01,0.05,247.32
1666744227.22463202,707513876,1,-0.61,0.58,325.07,-0.02171555906534195,0.0502459891140461,-0.015247323550283909,-0.0030521301086992025,27.570886611938477,13.83653450012207,5.052957057952881,0.11,0.01,0.05,247.32
1666744227.26460314,707553847,1,-0.61,0.58,325.07,-0.020401161164045334,0.052294980734586716,-0.015942532569169998,-0.0031879753805696964,27.58202362060547,13.845715522766113,5.053009510040283,0.11,0.01,0.05,247.32
1666744227.30463314,707593877,1,-0.61,0.58,325.07,-0.023289712145924568,0.052196767181158066,-0.015331584960222244,-0.0034349753987044096,27.594640731811523,13.855814933776855,5.053013801574707,0.11,0.01,0.05,247.32
1666744227.31964707,707608891,1,-0.61,0.58,325.08,-0.022620368748903275,0.05176763981580734,-0.015683487057685852,-0.004307554103434086,27.597278594970703,13.858341217041016,5.05292272567749,0.11,0.01,0.05,247.32
1666744227.34459615,707633840,1,-0.61,0.58,325.08,-0.01965232752263546,0.05205975100398064,-0.015283406712114811,-0.0050595784559845924,27.60226821899414,13.862959861755371,5.052759170532227,0.11,0.01,0.05,247.32
1666744227.38460398,707673848,1,-0.6,0.58,325.07,-0.023731252178549767,0.0499948188662529,-0.014978364109992981,-0.008260893635451794,27.608732223510742,13.869278907775879,5.052215576171875,0.11,0.01,0.05,247.32
1666744227.41960502,707708849,1,-0.58,0.5700000000000001,325.06,-0.022738546133041382,0.050695545971393585,-0.014794575050473213,-0.00785226933658123,27.621047973632812,13.878951072692871,5.052581310272217,0.11,0.01,0.05,247.32
1666744227.42459702,707713841,1,-0.58,0.5700000000000001,325.06,-0.022654445841908455,0.04946105554699898,-0.014766797423362732,-0.00719145592302084,27.62093734741211,13.879195213317871,5.052509784698486,0.11,0.01,0.05,247.32
1666744227.46462011,707753864,1,-0.54,0.55,325.07,-0.019037330523133278,0.045934539288282394,-0.013976736925542355,-0.0017873093020170927,27.631467819213867,13.887864112854004,5.0526556968688965,0.11,0.01,0.05,247.32
1666744227.50462604,707793870,1,-0.53,0.56,325.06,-0.022528626024723053,0.04581020399928093,-0.016373462975025177,-0.002167200669646263,27.643447875976562,13.897439956665039,5.052820205688477,0.11,0.01,0.05,247.32
1666744227.51963115,707808875,1,-0.54,0.56,325.06,-0.021158315241336823,0.043673075735569,-0.015403421595692635,-0.0009717651992104948,27.645957946777344,13.899794578552246,5.05273962020874,0.11,0.01,0.05,247.32
1666744227.54460907,707833853,1,-0.56,0.55,325.05,-0.022157713770866394,0.05234857648611069,-0.018115054816007614,-0.003983565606176853,27.650707244873047,13.904117584228516,5.052656173706055,0.11,0.01,0.05,247.32
1666744227.58460402,707873848,1,-0.5700000000000001,0.54,325.02,-0.029446683824062347,0.05242403224110603,-0.013910048641264439,-0.0014345614472404122,27.65665626525879,13.910562515258789,5.052461624145508,0.11,0.01,0.06,247.32
1666744227.61960816,707908852,1,-0.53,0.54,325.01,-0.028050275519490242,0.05298822745680809,-0.008607671596109867,0.003157083410769701,27.666336059570312,13.918550491333008,5.052681922912598,0.11,0.01,0.06,247.32
1666744227.62459803,707913842,1,-0.5700000000000001,0.55,325.0,-0.024916427209973335,0.05556899681687355,-0.018452314659953117,-0.006242815405130386,27.66620445251465,13.91881275177002,5.052626609802246,0.11,0.01,0.06,247.32
1666744227.66463900,707953883,1,-0.55,0.56,324.97,-0.030507057905197144,0.0455746091902256,-0.023641396313905716,-0.008602680638432503,27.676097869873047,13.927746772766113,5.052675724029541,0.11,0.01,0.06,247.32
1666744227.70460105,707993845,1,-0.58,0.55,324.96,-0.034987300634384155,0.05284993350505829,-0.008741986937820911,0.0021970532834529877,27.687482833862305,13.937041282653809,5.052180767059326,0.11,0.01,0.06,247.32
1666744227.71959710,708008841,1,-0.58,0.55,324.95,-0.03560273349285126,0.06072194129228592,0.003149054478853941,0.012002569623291492,27.68972396850586,13.939546585083008,5.052006721496582,0.11,0.01,0.06,247.32
1666744227.74464703,708033891,1,-0.55,0.56,324.93,-0.022922499105334282,0.04410288482904434,-0.017440324649214745,-0.012261628173291683,27.693952560424805,13.944001197814941,5.0516557693481445,0.11,0.01,0.06,247.32
1666744227.78459907,708073843,1,-0.53,0.54,324.92,-0.026796547695994377,0.05764837935566902,-0.014988303184509277,-0.018987413495779037,27.69974708557129,13.949947357177734,5.050256729125977,0.11,0.01,0.06,247.32
1666744227.81959701,708108841,1,-0.56,0.58,324.91,-0.02318914420902729,0.04411333054304123,-0.022499533370137215,-0.03145638480782509,27.711750030517578,13.960453987121582,5.049966335296631,0.11,0.01,0.06,247.32
1666744227.82459617,708113840,1,-0.5700000000000001,0.5700000000000001,324.90000000000003,-0.027774162590503693,0.040766142308712006,-0.0006581151392310858,-0.009634802117943764,27.71161651611328,13.96068000793457,5.04990816116333,0.11,0.01,0.06,247.32
1666744227.86460018,708153844,1,-0.58,0.56,324.87,-0.03268615901470184,0.057087358087301254,-0.013848411850631237,-0.021558381617069244,27.721956253051758,13.969979286193848,5.049367904663086,0.11,0.01,0.06,247.32
1666744227.90464711,708193891,1,-0.56,0.54,324.83,-0.019691525027155876,0.04166952520608902,-0.01696586422622204,-0.024921666830778122,27.733469009399414,13.9803466796875,5.04853630065918,0.11,0.01,0.06,247.32
1666744227.91959715,708208841,1,-0.56,0.55,324.83,-0.03218253701925278,0.0456409677863121,-0.0121332798153162,-0.020359423011541367,27.735876083374023,13.982837677001953,5.048257827758789,0.11,0.01,0.06,247.32
1666744227.94461608,708233860,1,-0.56,0.56,324.8,-0.04136214777827263,0.0568818673491478,-0.008509814739227295,-0.01695125550031662,27.740272521972656,13.987651824951172,5.0477705001831055,0.11,0.01,0.06,247.32
1666744227.98463416,708273878,1,-0.56,0.55,324.78000000000003,-0.027863625437021255,0.041085969656705856,-0.008741585537791252,-0.018544884398579597,27.74575424194336,13.994095802307129,5.04682731628418,0.11,0.01,0.06,247.32
1666744228.01959395,708308838,1,-0.55,0.56,324.76,-0.037894126027822495,0.06496017426252365,-0.00978392455726862,-0.018512342125177383,27.75701332092285,14.003541946411133,5.046815395355225,0.11,0.01,0.06,247.32
1666744228.02459812,708313842,1,-0.53,0.54,324.76,-0.043747641146183014,0.06166772171854973,-0.015852831304073334,-0.023262234404683113,27.756805419921875,14.003883361816406,5.046738147735596,0.11,0.01,0.06,247.32
1666744228.06460309,708353847,1,-0.58,0.56,324.74,-0.02814742736518383,0.04974532499909401,-0.008273773826658726,-0.005060432478785515,27.769418716430664,14.01433277130127,5.046882152557373,0.11,0.01,0.06,247.32
1666744228.10458708,708393831,1,-0.55,0.56,324.74,-0.03622959181666374,0.06538105010986328,-0.013211025856435299,-0.0054832762107253075,27.783987045288086,14.026214599609375,5.046594142913818,0.11,0.01,0.06,247.32
1666744228.11959815,708408842,1,-0.56,0.58,324.72,-0.03073180466890335,0.056043099611997604,-0.00535146240144968,0.0029213710222393274,27.786996841430664,14.029219627380371,5.046478271484375,0.11,0.01,0.06,247.32
1666744228.14463115,708433875,1,-0.55,0.5700000000000001,324.71,-0.030488109216094017,0.05469554290175438,-0.007880411110818386,0.0003251060552429408,27.79288101196289,14.034411430358887,5.046262264251709,0.11,0.01,0.06,247.32
1666744228.18462515,708473869,1,-0.53,0.5700000000000001,324.69,-0.034945905208587646,0.053907714784145355,-0.013637077994644642,-0.010981202125549316,27.80031394958496,14.041821479797363,5.045104026794434,0.11,0.01,0.06,247.32
1666744228.21958113,708508825,1,-0.53,0.56,324.67,-0.03054945170879364,0.05162682384252548,-0.010235113091766834,-0.01389900129288435,27.813432693481445,14.052510261535645,5.044397354125977,0.11,0.01,0.06,247.32
1666744228.22462416,708513868,1,-0.54,0.56,324.67,-0.02837860956788063,0.05008809641003609,-0.015560431405901909,-0.019925778731703758,27.813274383544922,14.052780151367188,5.044342041015625,0.11,0.01,0.06,247.32
1666744228.26459908,708553843,1,-0.53,0.56,324.65000000000003,-0.029078012332320213,0.062085509300231934,-0.005686955526471138,-0.013694340363144875,27.824432373046875,14.06277847290039,5.043506622314453,0.11,0.01,0.06,247.32
1666744228.30459595,708593840,1,-0.53,0.55,324.64,-0.026080667972564697,0.056430332362651825,-0.012553904205560684,-0.02431311085820198,27.83718490600586,14.07378101348877,5.042333602905273,0.11,0.01,0.06,247.32
1666744228.31963110,708608875,1,-0.52,0.55,324.63,-0.028078259900212288,0.05863315984606743,-0.013846507295966148,-0.026829231530427933,27.83987045288086,14.076560020446777,5.041979789733887,0.11,0.01,0.06,247.32
1666744228.34462714,708633871,1,-0.54,0.56,324.62,-0.029804952442646027,0.06235994026064873,-0.009383967146277428,-0.023823460564017296,27.844890594482422,14.081743240356445,5.041368007659912,0.11,0.01,0.06,247.32
1666744228.38462901,708673873,1,-0.53,0.55,324.62,-0.02973363921046257,0.05320832133293152,-0.010901553556323051,-0.027522439137101173,27.851198196411133,14.088716506958008,5.040257453918457,0.11,0.01,0.06,247.32
1666744228.41962910,708708873,1,-0.54,0.55,324.6,-0.0344662070274353,0.06575905531644821,-0.002105321967974305,-0.017355462536215782,27.862272262573242,14.097679138183594,5.040059566497803,0.11,0.01,0.06,247.32
1666744228.42463708,708713881,1,-0.5,0.55,324.59000000000003,-0.03717590868473053,0.05911107361316681,-0.0177543256431818,-0.031759828329086304,27.862083435058594,14.098015785217285,5.04000186920166,0.11,0.01,0.06,247.32
1666744228.46460605,708753850,1,-0.51,0.54,324.58,-0.028234824538230896,0.05436619743704796,-0.017052307724952698,-0.020357374101877213,27.874032974243164,14.107251167297363,5.0399627685546875,0.11,0.01,0.06,247.32
1666744228.50460410,708793848,1,-0.5,0.55,324.56,-0.033354680985212326,0.0625699982047081,-0.004987074062228203,-0.0028281209524720907,27.887800216674805,14.117745399475098,5.0395636558532715,0.11,0.01,0.06,247.32
1666744228.51966310,708808907,1,-0.51,0.55,324.54,-0.029124462977051735,0.053790852427482605,-0.015281171537935734,-0.012210567481815815,27.890663146972656,14.120323181152344,5.0394368171691895,0.11,0.01,0.06,247.32
1666744228.54459810,708833842,1,-0.51,0.55,324.54,-0.02580980584025383,0.05869019776582718,-0.010333491489291191,-0.006552678998559713,27.89617919921875,14.124993324279785,5.039144039154053,0.11,0.01,0.06,247.32
1666744228.58463597,708873880,1,-0.51,0.54,324.51,-0.02565065212547779,0.060232073068618774,-0.009114917367696762,-0.008636088110506535,27.903303146362305,14.131841659545898,5.038180828094482,0.11,0.01,0.07,247.32
1666744228.61960602,708908850,1,-0.52,0.55,324.5,-0.024075627326965332,0.056820083409547806,-0.006696710363030434,-0.005757182836532593,27.91679573059082,14.141180038452148,5.0384697914123535,0.11,0.01,0.07,247.32
1666744228.62462997,708913874,1,-0.51,0.53,324.5,-0.023018714040517807,0.05777398496866226,-0.013816573657095432,-0.012193688191473484,27.91669464111328,14.141433715820312,5.038422107696533,0.11,0.01,0.07,247.32
1666744228.66463399,708953878,1,-0.49,0.54,324.47,-0.03164883702993393,0.05445351451635361,-0.009455658495426178,-0.0018730763113126159,27.928157806396484,14.15022087097168,5.038424491882324,0.11,0.01,0.07,247.32
1666744228.70459700,708993841,1,-0.5,0.53,324.45,-0.027691757306456566,0.05979667603969574,-0.015438164584338665,-0.00677898433059454,27.94126319885254,14.159384727478027,5.038148403167725,0.11,0.01,0.07,247.32
1666744228.71963596,709008880,1,-0.49,0.52,324.45,-0.027836056426167488,0.06721049547195435,-0.010348907671868801,-0.0019263059366494417,27.943994522094727,14.161886215209961,5.038026332855225,0.11,0.01,0.07,247.32
1666744228.74459815,709033842,1,-0.48,0.52,324.43,-0.0237740445882082,0.051040779799222946,-0.009721407666802406,-0.002066593151539564,27.949087142944336,14.166289329528809,5.037820816040039,0.11,0.01,0.07,247.32
1666744228.78459716,709073841,1,-0.51,0.53,324.41,-0.028121117502450943,0.06668773293495178,-0.009165726602077484,-0.006179173942655325,27.955842971801758,14.172314643859863,5.0369486808776855,0.11,0.01,0.07,247.32
1666744228.81963110,709108875,1,-0.49,0.54,324.39,-0.027797479182481766,0.056353650987148285,-0.007155826780945063,-0.009059635922312737,27.96529197692871,14.18096923828125,5.036526679992676,0.11,0.01,0.07,247.32
1666744228.82463408,709113878,1,-0.52,0.53,324.39,-0.024188455194234848,0.05390991270542145,-0.010439516045153141,-0.012536831200122833,27.965166091918945,14.181235313415527,5.0364813804626465,0.11,0.01,0.07,247.32
1666744228.86461711,709153861,1,-0.51,0.52,324.37,-0.02763465791940689,0.0599367618560791,-0.011272303760051727,-0.013783927075564861,27.9749755859375,14.190661430358887,5.0359930992126465,0.11,0.01,0.07,247.32
1666744228.90463996,709193884,1,-0.5,0.53,324.35,-0.024248940870165825,0.05551552027463913,-0.006909344345331192,-0.013145629316568375,27.985990524291992,14.20098876953125,5.034991264343262,0.11,0.01,0.07,247.32
1666744228.91963911,709208883,1,-0.51,0.52,324.34000000000003,-0.020779050886631012,0.050881631672382355,-0.012405304238200188,-0.020173730328679085,27.988323211669922,14.203535079956055,5.034735679626465,0.11,0.01,0.07,247.32
1666744228.94459510,709233839,1,-0.51,0.54,324.33,-0.03380218520760536,0.05463983863592148,-0.008445525541901588,-0.018331576138734818,27.992656707763672,14.208233833312988,5.034212589263916,0.11,0.01,0.07,247.32
1666744228.98460007,709273844,1,-0.49,0.54,324.31,-0.02994936890900135,0.05595915764570236,-0.006428967230021954,-0.02311577834188938,27.998003005981445,14.21489429473877,5.032598972320557,0.11,0.01,0.07,247.32
1666744229.01963115,709308875,1,-0.5,0.52,324.27,-0.028214124962687492,0.06017884612083435,-0.011900356039404869,-0.035603608936071396,28.009063720703125,14.224597930908203,5.031310558319092,0.11,0.01,0.07,247.32
1666744229.02458501,709313829,1,-0.45,0.51,324.28000000000003,-0.029172714799642563,0.06394225358963013,-0.006535093765705824,-0.031039677560329437,28.008926391601562,14.224893569946289,5.031239986419678,0.11,0.01,0.07,247.32
1666744229.06462908,709353873,1,-0.47000000000000003,0.52,324.25,-0.03035353496670723,0.059559568762779236,-0.0013690546620637178,-0.030091311782598495,28.018199920654297,14.233932495117188,5.0297980308532715,0.11,0.01,0.07,247.32
1666744229.10461998,709393864,1,-0.5,0.52,324.2,-0.029536927118897438,0.058087028563022614,-0.0060264659114181995,-0.04001700505614281,28.028827667236328,14.243815422058105,5.02763032913208,0.11,0.01,0.07,247.32
1666744229.11962795,709408872,1,-0.49,0.51,324.19,-0.03183615952730179,0.05887633189558983,-0.014561035670340061,-0.050182268023490906,28.030946731567383,14.246315002441406,5.027066707611084,0.11,0.01,0.07,247.32
1666744229.14461303,709433857,1,-0.47000000000000003,0.52,324.16,-0.02939373441040516,0.05848073586821556,-0.0048688966780900955,-0.041895199567079544,28.03499984741211,14.25082778930664,5.026047229766846,0.11,0.01,0.07,247.32
1666744229.18459797,709473842,1,-0.48,0.5,324.13,-0.028311196714639664,0.06093788892030716,-0.012828866019845009,-0.05153463035821915,28.040115356445312,14.257165908813477,5.024200439453125,0.11,0.01,0.08,247.32
1666744229.21959496,709508839,1,-0.49,0.52,324.08,-0.02802152931690216,0.059767257422208786,-0.0010292395018041134,-0.041677817702293396,28.05010223388672,14.266714096069336,5.022253036499023,0.11,0.01,0.08,247.32
1666744229.22459698,709513841,1,-0.47000000000000003,0.52,324.07,-0.029421214014291763,0.05693402513861656,-0.012099630199372768,-0.053188126534223557,28.049957275390625,14.266993522644043,5.0222039222717285,0.11,0.01,0.08,247.32
1666744229.26463199,709553876,1,-0.47000000000000003,0.51,324.02,-0.032633256167173386,0.06083367019891739,-0.014506136067211628,-0.057754259556531906,28.058340072631836,14.27587604522705,5.020007610321045,0.11,0.01,0.08,247.32
1666744229.30461717,709593861,1,-0.49,0.51,323.97,-0.03256825730204582,0.06205558031797409,-0.013073842972517014,-0.06404039263725281,28.067794799804688,14.285590171813965,5.0165815353393555,0.11,0.01,0.08,247.32
1666744229.31957603,709608820,1,-0.5,0.51,323.94,-0.02987106330692768,0.05985381454229355,-0.022715017199516296,-0.07649065554141998,28.069726943969727,14.288055419921875,5.015750408172607,0.11,0.01,0.08,247.32
1666744229.34463215,709633876,1,-0.45,0.49,323.92,-0.033383406698703766,0.05873138830065727,-0.02034761942923069,-0.07686355710029602,28.073299407958984,14.292511940002441,5.014129638671875,0.11,0.01,0.08,247.32
1666744229.38463306,709673877,1,-0.44,0.49,323.87,-0.03651300445199013,0.058394622057676315,-0.017466217279434204,-0.08017528057098389,28.07775115966797,14.298806190490723,5.010825157165527,0.11,0.01,0.08,247.32
1666744229.41960096,709708845,1,-0.44,0.5,323.81,-0.034945473074913025,0.05852774158120155,-0.0245568435639143,-0.0924491360783577,28.086780548095703,14.307378768920898,5.007880687713623,0.11,0.01,0.08,247.32
1666744229.42459607,709713840,1,-0.44,0.48,323.81,-0.034452490508556366,0.05987083539366722,-0.014364869333803654,-0.08295869827270508,28.086593627929688,14.3076810836792,5.007785797119141,0.11,0.01,0.08,247.32
1666744229.46459699,709753841,1,-0.43,0.49,323.75,-0.03744284436106682,0.06461233645677567,-0.008479742333292961,-0.07905225455760956,28.0939884185791,14.315634727478027,5.004619598388672,0.11,0.01,0.08,247.32
1666744229.50463295,709793877,1,-0.47000000000000003,0.49,323.69,-0.032744962722063065,0.06245896592736244,-0.006690064910799265,-0.08402616530656815,28.102405548095703,14.324259757995605,4.999989032745361,0.11,0.01,0.09,247.32
1666744229.51959395,709808838,1,-0.45,0.49,323.67,-0.028930827975273132,0.0633183941245079,-0.010490949265658855,-0.09060194343328476,28.10403060913086,14.32655143737793,4.998810768127441,0.11,0.01,0.09,247.32
1666744229.54464006,709833884,1,-0.46,0.49,323.63,-0.036713920533657074,0.056741274893283844,-0.02526681125164032,-0.10631485283374786,28.107189178466797,14.330522537231445,4.996716499328613,0.11,0.01,0.09,247.32
1666744229.58463311,709873877,1,-0.41000000000000003,0.48,323.56,-0.034844376146793365,0.05846388265490532,-0.024155307561159134,-0.11037245392799377,28.111051559448242,14.336275100708008,4.992203712463379,0.11,0.01,0.09,247.32
1666744229.61959910,709908843,1,-0.42,0.46,323.51,-0.03387700021266937,0.05402044951915741,-0.015784727409482002,-0.11332527548074722,28.119304656982422,14.34427547454834,4.987013816833496,0.11,0.01,0.09,247.32
1666744229.62459707,709913841,1,-0.4,0.45,323.5,-0.03366076946258545,0.06384730339050293,-0.023482469841837883,-0.12357756495475769,28.11911964416504,14.344596862792969,4.986932277679443,0.11,0.01,0.09,247.32
1666744229.66460609,709953850,1,-0.39,0.42,323.43,-0.02751994878053665,0.058940742164850235,-0.01901942677795887,-0.13192006945610046,28.12602424621582,14.351974487304688,4.981581211090088,0.11,0.01,0.09,247.32
1666744229.70460105,709993845,1,-0.42,0.44,323.36,-0.03110498934984207,0.047391366213560104,-0.01625199429690838,-0.142971932888031,28.133934020996094,14.35981559753418,4.9742584228515625,0.11,0.01,0.09,247.32
1666744229.71957517,710008819,1,-0.41000000000000003,0.43,323.33,-0.024917786940932274,0.05003359913825989,-0.02648206055164337,-0.157883420586586,28.135520935058594,14.361913681030273,4.972466468811035,0.11,0.01,0.09,247.32
1666744229.74465299,710033897,1,-0.4,0.4,323.29,-0.032043930143117905,0.056854717433452606,-0.007020736578851938,-0.13963629305362701,28.13853645324707,14.365549087524414,4.969122886657715,0.11,0.01,0.09,247.32
1666744229.78460813,710073852,1,-0.41000000000000003,0.34,323.23,-0.02566925249993801,0.05279647186398506,-0.02762690559029579,-0.16446393728256226,28.142229080200195,14.370687484741211,4.962642669677734,0.11,0.01,0.1,247.32
1666744229.81962109,710108865,1,-0.27,0.31,323.14,-0.01577148772776127,0.050804704427719116,-0.05073904991149902,-0.2020055502653122,28.150341033935547,14.378209114074707,4.954347610473633,0.11,0.01,0.1,247.32
1666744229.82462096,710113865,1,-0.31,0.24,323.16,-0.014941545203328133,0.05900976061820984,-0.03616887331008911,-0.19082069396972656,28.150264739990234,14.378463745117188,4.95416784286499,0.11,0.01,0.1,247.32
1666744229.86459613,710153840,1,-0.12,0.14,323.1,-0.002365969819948077,0.06400520354509354,-0.06096882000565529,-0.23704150319099426,28.157257080078125,14.385344505310059,4.944708347320557,0.11,0.01,0.1,247.32
1666744229.90460110,710193845,1,0.02,0.08,323.03000000000003,0.006555358413606882,0.05944926664233208,-0.0876263678073883,-0.2954844534397125,28.165422439575195,14.39294719696045,4.930600643157959,0.11,0.01,0.1,247.32
1666744229.91962004,710208864,1,0.01,0.08,323.02,0.010695169679820538,0.06718850880861282,-0.08595055341720581,-0.304252564907074,28.167207717895508,14.394954681396484,4.9267191886901855,0.11,0.01,0.1,247.32
1666744229.94457698,710233821,1,0.23,0.02,323.01,0.003126604948192835,0.06295033544301987,-0.11945468932390213,-0.34481343626976013,28.170530319213867,14.398517608642578,4.919332981109619,0.11,0.01,0.1,247.32
1666744229.98463297,710273877,1,0.43,-0.04,322.97,0.00042962690349668264,0.06371787935495377,-0.1441403329372406,-0.38837385177612305,28.175052642822266,14.403764724731445,4.903671741485596,0.11,0.01,0.1,247.32
1666744230.01964307,710308887,1,0.6,-0.19,322.93,0.025872807949781418,0.0705954059958458,-0.20715396106243134,-0.4700765013694763,28.18470573425293,14.412408828735352,4.8881916999816895,0.11,0.01,0.1,247.32
1666744230.02464008,710313884,1,0.62,-0.18,322.92,0.011717692948877811,0.06818884611129761,-0.17930802702903748,-0.44563910365104675,28.18482208251953,14.412810325622559,4.887136459350586,0.11,0.01,0.1,247.32
1666744230.06460404,710353848,1,0.87,-0.27,322.91,0.012624737806618214,0.06806371361017227,-0.2116485834121704,-0.487390398979187,28.193546295166016,14.421060562133789,4.868646621704102,0.11,0.01,0.1,247.32
1666744230.10459614,710393840,1,1.03,-0.38,322.90000000000003,0.032642263919115067,0.06616596132516861,-0.27275049686431885,-0.5740906596183777,28.203655242919922,14.430280685424805,4.843188285827637,0.11,0.01,0.1,247.32
1666744230.11964798,710408892,1,1.02,-0.42,322.90000000000003,0.03731810301542282,0.07435517758131027,-0.28976014256477356,-0.6004759669303894,28.206172943115234,14.432781219482422,4.835687160491943,0.11,0.01,0.1,247.32
1666744230.14460111,710433845,1,1.1500000000000001,-0.42,322.90000000000003,0.05494672805070877,0.08429625630378723,-0.30604982376098633,-0.6204376816749573,28.21091079711914,14.437350273132324,4.821742534637451,0.11,0.01,0.1,247.32
1666744230.18462801,710473872,1,1.26,-0.48,322.91,0.06438973546028137,0.08487112820148468,-0.336877703666687,-0.6698543429374695,28.21782684326172,14.444039344787598,4.794935703277588,0.11,0.01,0.11,247.32
1666744230.21963596,710508880,1,1.52,-0.56,322.92,0.06562255322933197,0.09670566022396088,-0.37217003107070923,-0.7311052083969116,28.230121612548828,14.4542875289917,4.76894998550415,0.11,0.01,0.11,247.32
1666744230.22462702,710513871,1,1.58,-0.5700000000000001,322.93,0.08631210029125214,0.09703709930181503,-0.35523587465286255,-0.7197131514549255,28.230558395385742,14.454837799072266,4.7667646408081055,0.11,0.01,0.11,247.32
1666744230.26463509,710553879,1,1.6300000000000001,-0.59,322.96,0.1018708199262619,0.11620524525642395,-0.37095168232917786,-0.753865122795105,28.242454528808594,14.464873313903809,4.737209320068359,0.11,0.01,0.11,247.32
1666744230.30461097,710593855,1,1.69,-0.61,322.98,0.11338111013174057,0.1269814670085907,-0.4373702108860016,-0.8506723642349243,28.255977630615234,14.476030349731445,4.699770927429199,0.11,0.01,0.11,247.32
1666744230.31963396,710608878,1,1.72,-0.56,322.99,0.11211296170949936,0.12344352155923843,-0.44647499918937683,-0.8690033555030823,28.259658813476562,14.47922420501709,4.688652515411377,0.11,0.01,0.11,247.32
1666744230.34459496,710633839,1,1.71,-0.51,323.02,0.12585771083831787,0.13603682816028595,-0.47387388348579407,-0.8982598185539246,28.266427993774414,14.484932899475098,4.6684112548828125,0.11,0.01,0.11,247.32
1666744230.38460612,710673850,1,1.57,-0.35000000000000003,323.08,0.1273917406797409,0.12765713036060333,-0.5019802451133728,-0.9398004412651062,28.276592254638672,14.493550300598145,4.631452560424805,0.11,0.01,0.11,247.32
1666744230.41961908,710708863,1,1.49,-0.31,323.12,0.14041553437709808,0.1422123908996582,-0.52579265832901,-0.976092517375946,28.28624725341797,14.504152297973633,4.598016738891602,0.11,0.01,0.11,247.32
1666744230.42463017,710713874,1,1.45,-0.22,323.13,0.14898301661014557,0.13739363849163055,-0.5090877413749695,-0.9619418978691101,28.286991119384766,14.504904747009277,4.5952582359313965,0.11,0.01,0.11,247.32
1666744230.46462011,710753864,1,1.42,-0.15,323.19,0.1694706678390503,0.15169930458068848,-0.5554121136665344,-1.002070426940918,28.297163009643555,14.515810012817383,4.557905197143555,0.11,0.01,0.11,247.32
1666744230.50463200,710793876,1,1.57,-0.14,323.26,0.17935152351856232,0.16627958416938782,-0.5912084579467773,-1.0428355932235718,28.308137893676758,14.527681350708008,4.513564586639404,0.11,0.01,0.12,247.32
1666744230.51962805,710808872,1,1.61,-0.14,323.29,0.1856078952550888,0.17058752477169037,-0.5879203677177429,-1.0401886701583862,28.311613082885742,14.531312942504883,4.500166416168213,0.11,0.01,0.12,247.32
1666744230.54460812,710833852,1,1.6400000000000001,-0.13,323.34000000000003,0.1902286857366562,0.1762053370475769,-0.5990762710571289,-1.0411300659179688,28.317829132080078,14.53779411315918,4.476174831390381,0.11,0.01,0.12,247.32
1666744230.58460402,710873848,1,1.28,-0.56,188.31,0.17636996507644653,0.15363137423992157,-0.6216680407524109,-1.1472961902618408,28.32724952697754,14.547384262084961,4.419388294219971,0.11,0.01,0.12,247.32
1666744230.61962700,710908871,1,1.19,-0.54,188.4,0.177397221326828,0.1367591768503189,-0.6205136179924011,-1.2725721597671509,28.339284896850586,14.55942153930664,4.369443416595459,0.11,0.01,0.12,247.32
1666744230.62460303,710913847,1,1.27,-0.56,188.4,0.1616770327091217,0.14840194582939148,-0.638270914554596,-1.3072477579116821,28.340126037597656,14.560104370117188,4.366354942321777,0.11,0.01,0.12,247.32
1666744230.66462517,710953869,1,1.1500000000000001,-0.5700000000000001,188.51,0.15054181218147278,0.14194367825984955,-0.6366087198257446,-1.3979426622390747,28.351543426513672,14.571553230285645,4.310496807098389,0.11,0.01,0.12,247.32
1666744230.70460105,710993845,1,0.99,-0.51,188.6,0.14100871980190277,0.11032260954380035,-0.6456195116043091,-1.546899437904358,28.36265754699707,14.5828857421875,4.235517978668213,0.11,0.01,0.12,247.32
1666744230.71958113,711008825,1,0.97,-0.55,188.63,0.14637082815170288,0.09742211550474167,-0.6553707122802734,-1.5999857187271118,28.365737915039062,14.585831642150879,4.215007781982422,0.11,0.01,0.12,247.32
1666744230.74463010,711033874,1,0.8,-0.47000000000000003,188.70000000000002,0.12692773342132568,0.08439774066209793,-0.6600527167320251,-1.6416903734207153,28.37090492248535,14.59072494506836,4.177846431732178,0.11,0.01,0.12,247.32
1666744230.78459597,711073840,1,0.67,-0.42,188.75,0.11828284710645676,0.0729324221611023,-0.6831158399581909,-1.7097855806350708,28.377925872802734,14.59691333770752,4.1128644943237305,0.11,0.01,0.12,247.32
1666744230.81959605,711108840,1,0.61,-0.29,188.76,0.11238180100917816,0.08825526386499405,-0.6736605763435364,-1.7184066772460938,28.387897491455078,14.605854034423828,4.056065559387207,0.11,0.01,0.12,247.32
1666744230.82459617,711113840,1,0.47000000000000003,-0.32,188.75,0.11601600050926208,0.0663990005850792,-0.661131739616394,-1.7074828147888184,28.388439178466797,14.606223106384277,4.052830696105957,0.11,0.01,0.12,247.32
1666744230.86457396,711153818,1,0.11,-0.26,188.75,0.10800016671419144,0.05772458389401436,-0.664106011390686,-1.673288345336914,28.399717330932617,14.616159439086914,3.994330644607544,0.11,0.01,0.12,247.32
1666744230.90462804,711193872,1,-0.36,-0.14,188.78,0.10020194947719574,0.06073876470327377,-0.6198800206184387,-1.60366952419281,28.41135025024414,14.626394271850586,3.9242212772369385,0.11,0.01,0.12,247.32
1666744230.91960001,711208844,1,-0.54,-0.11,188.78,0.10196822136640549,0.05194713920354843,-0.6246359348297119,-1.5986748933792114,28.414478302001953,14.6289701461792,3.9049198627471924,0.11,0.01,0.12,247.32
1666744230.94463706,711233881,1,-0.91,-0.09,188.81,0.09272301197052002,0.06785958260297775,-0.5803660154342651,-1.516154408454895,28.419923782348633,14.633528709411621,3.8711071014404297,0.11,0.01,0.12,247.32
1666744230.98459816,711273842,1,-1.47,0.04,188.85,0.09110210835933685,0.08137382566928864,-0.5525139570236206,-1.4534804821014404,28.4274959564209,14.63984489440918,3.8134279251098633,0.11,0.01,0.12,247.32
1666744231.01960206,711308846,1,-1.8800000000000001,0.08,188.92000000000002,0.10714802891016006,0.07022058218717575,-0.5333009958267212,-1.4157817363739014,28.436466217041016,14.648716926574707,3.7648508548736572,0.11,0.01,0.12,247.32
1666744231.02459598,711313840,1,-1.98,0.08,188.94,0.09092789888381958,0.07790917158126831,-0.49888432025909424,-1.3782801628112793,28.43695068359375,14.649091720581055,3.7623181343078613,0.11,0.01,0.12,247.32
1666744231.06459713,711353841,1,-2.24,0.14,189.03,0.0881805270910263,0.07709511369466782,-0.4794955253601074,-1.296066403388977,28.446744918823242,14.659132957458496,3.7151241302490234,0.11,0.01,0.12,247.32
1666744231.10464597,711393890,1,-2.3000000000000003,0.18,189.18,0.09132380038499832,0.07279536128044128,-0.435062438249588,-1.1877589225769043,28.45732307434082,14.669917106628418,3.662297487258911,0.11,0.01,0.12,247.32
1666744231.11959505,711408839,1,-2.27,0.22,189.23,0.09284576773643494,0.0706835687160492,-0.4267300069332123,-1.1579080820083618,28.460264205932617,14.672768592834473,3.648083448410034,0.11,0.01,0.12,247.32
1666744231.14462113,711433865,1,-2.12,0.35000000000000003,189.33,0.08692705631256104,0.0801602303981781,-0.4124370217323303,-1.0923701524734497,28.465476989746094,14.677939414978027,3.623425245285034,0.11,0.01,0.12,247.32
1666744231.18462014,711473864,1,-1.75,0.44,189.48,0.10552426427602768,0.09030090272426605,-0.3453778624534607,-0.9488328695297241,28.47296714782715,14.685412406921387,3.5872037410736084,0.11,0.01,0.12,247.32
1666744231.21960115,711508845,1,-1.48,0.47000000000000003,189.62,0.09260383248329163,0.0949905663728714,-0.3386969566345215,-0.8718686103820801,28.48349380493164,14.69787311553955,3.558074712753296,0.11,0.01,0.12,247.32
1666744231.22459817,711513842,1,-1.46,0.46,189.62,0.10377193987369537,0.09264220297336578,-0.30757445096969604,-0.83140629529953,28.483972549438477,14.698317527770996,3.5565173625946045,0.11,0.01,0.12,247.32
1666744231.26460195,711553846,1,-0.93,0.44,189.79,0.09620797634124756,0.09283661842346191,-0.2871791422367096,-0.7239377498626709,28.494115829467773,14.710125923156738,3.5292749404907227,0.11,0.01,0.12,247.32
1666744231.30459595,711593840,1,-0.72,0.52,189.84,0.10242896527051926,0.1002802848815918,-0.26390358805656433,-0.6227860450744629,28.505176544189453,14.723103523254395,3.5007898807525635,0.11,0.01,0.12,247.32
1666744231.31957817,711608822,1,-0.48,0.55,189.87,0.10374606400728226,0.10043670237064362,-0.2554084360599518,-0.5904538631439209,28.50836753845215,14.726670265197754,3.493039608001709,0.11,0.01,0.12,247.32
1666744231.34463811,711633882,1,-0.33,0.65,189.91,0.11079671233892441,0.10632812976837158,-0.20992642641067505,-0.5042226314544678,28.513858795166016,14.732902526855469,3.480144500732422,0.11,0.01,0.12,247.32
1666744231.38462114,711673865,1,0.05,0.86,189.92000000000002,0.12068280577659607,0.11857292801141739,-0.19012270867824554,-0.4120554029941559,28.522138595581055,14.742045402526855,3.4645965099334717,0.11,0.01,0.12,247.32
1666744231.41962409,711708868,1,0.24,1.1500000000000001,189.89000000000001,0.12043877691030502,0.10679475218057632,-0.1668419986963272,-0.31643545627593994,28.536224365234375,14.75609302520752,3.453571319580078,0.11,0.01,0.12,247.32
1666744231.42463207,711713876,1,0.32,1.16,189.88,0.1283906102180481,0.11132735759019852,-0.16349077224731445,-0.3028336465358734,28.53687858581543,14.756662368774414,3.452700614929199,0.11,0.01,0.12,247.32
1666744231.46459699,711753841,1,0.52,1.46,189.83,0.12824009358882904,0.1029253676533699,-0.14716826379299164,-0.20769356191158295,28.55080795288086,14.769996643066406,3.4444503784179688,0.11,0.01,0.12,247.32
1666744231.50460100,711793845,1,0.7000000000000001,1.75,189.68,0.14661157131195068,0.10036393254995346,-0.1328757256269455,-0.09620808809995651,28.566404342651367,14.78439998626709,3.4416346549987793,0.11,0.01,0.12,247.32
1666744231.51963615,711808880,1,0.8,1.82,189.62,0.14569668471813202,0.10620077699422836,-0.13578690588474274,-0.0673639327287674,28.570838928222656,14.788180351257324,3.4403486251831055,0.11,0.01,0.12,247.32
1666744231.54459000,711833834,1,0.8200000000000001,1.98,189.52,0.16719938814640045,0.10283492505550385,-0.13289986550807953,-0.021479591727256775,28.57899284362793,14.795044898986816,3.438349485397339,0.11,0.01,0.12,247.32
1666744231.58463216,711873876,1,0.89,2.16,189.37,0.1875699907541275,0.10309989750385284,-0.1184554174542427,0.06212877854704857,28.591381072998047,14.804802894592285,3.440274715423584,0.11,0.01,0.12,247.32
1666744231.61963701,711908881,1,0.91,2.35,189.21,0.18372035026550293,0.09852572530508041,-0.12740030884742737,0.11294551193714142,28.606155395507812,14.818916320800781,3.4429168701171875,0.11,0.01,0.12,247.32
1666744231.62463307,711913877,1,0.89,2.35,189.19,0.20176059007644653,0.1031690314412117,-0.12502838671207428,0.12371507287025452,28.607173919677734,14.819452285766602,3.44222354888916,0.11,0.01,0.12,247.32
1666744231.66462517,711953869,1,0.84,2.47,189.04,0.2137375921010971,0.10078641027212143,-0.11872086673974991,0.17435277998447418,28.622655868530273,14.832700729370117,3.4455020427703857,0.11,0.01,0.12,247.32
1666744231.70459509,711993839,1,0.65,2.54,188.86,0.22851958870887756,0.09672650694847107,-0.12328348308801651,0.2264479398727417,28.6397705078125,14.847190856933594,3.455437421798706,0.11,0.01,0.12,247.32
1666744231.71963906,712008883,1,0.53,2.52,188.8,0.23631499707698822,0.10042253881692886,-0.12530629336833954,0.24144284427165985,28.64491081237793,14.850929260253906,3.456998825073242,0.11,0.01,0.12,247.32
1666744231.74459600,712033840,1,0.33,2.5100000000000002,188.71,0.2410093992948532,0.1008836105465889,-0.1268564909696579,0.2553347051143646,28.654443740844727,14.857780456542969,3.4601001739501953,0.11,0.01,0.12,247.32
1666744231.78464508,712073889,1,-0.1,2.33,188.58,0.2548286020755768,0.1009974479675293,-0.1479962170124054,0.25634217262268066,28.669189453125,14.867534637451172,3.468022346496582,0.11,0.01,0.12,247.32
1666744231.81962204,712108866,1,-0.3,2.17,188.49,0.27584028244018555,0.11846897006034851,-0.1637675166130066,0.25345438718795776,28.687463760375977,14.882402420043945,3.4744553565979004,0.1,0.01,0.12,247.32
1666744231.82464600,712113890,1,-0.43,2.06,188.47,0.2638532221317291,0.1026909276843071,-0.1862061768770218,0.23282456398010254,28.688779830932617,14.882943153381348,3.4736168384552,0.1,0.01,0.12,247.32
1666744231.86463714,712153881,1,-0.68,1.83,188.39000000000001,0.2933913469314575,0.1129692867398262,-0.24048800766468048,0.1719965934753418,28.708160400390625,14.89720344543457,3.477947473526001,0.1,0.01,0.12,247.32
1666744231.90459800,712193842,1,-1.06,1.7,188.36,0.3083493709564209,0.11652562022209167,-0.26402682065963745,0.15923605859279633,28.729093551635742,14.912957191467285,3.48689866065979,0.1,0.01,0.12,247.32
1666744231.91962695,712208871,1,-1.25,1.6300000000000001,188.36,0.3145085573196411,0.11891528964042664,-0.3011346459388733,0.12707644701004028,28.735597610473633,14.917254447937012,3.4869465827941895,0.1,0.01,0.12,247.32
1666744231.94459510,712233839,1,-1.41,1.54,188.37,0.3210139274597168,0.1260044127702713,-0.33643487095832825,0.08823760598897934,28.747262954711914,14.925088882446289,3.4870059490203857,0.1,0.01,0.12,247.32
1666744231.98460197,712273846,1,-1.62,1.4000000000000001,188.37,0.3239486813545227,0.13992120325565338,-0.4065612256526947,0.007597607560455799,28.765016555786133,14.936607360839844,3.4860544204711914,0.1,0.01,0.12,247.32
1666744232.01963210,712308876,1,-1.86,1.29,188.39000000000001,0.3295920491218567,0.1499369889497757,-0.4444156587123871,-0.04820932447910309,28.783479690551758,14.95478630065918,3.4826722145080566,0.1,0.01,0.12,247.32
1666744232.02463603,712313880,1,-1.77,1.25,188.41,0.34429308772087097,0.1403903365135193,-0.4582148492336273,-0.0641418918967247,28.78510856628418,14.955479621887207,3.480424404144287,0.1,0.01,0.12,247.32
1666744232.06460714,712353851,1,-1.98,1.1,188.46,0.34956905245780945,0.1756550520658493,-0.5005719661712646,-0.14090390503406525,28.804826736450195,14.973431587219238,3.4717960357666016,0.1,0.01,0.12,247.32
1666744232.10463405,712393878,1,-2.13,0.97,188.44,0.3494034707546234,0.1937534362077713,-0.5674777626991272,-0.23353593051433563,28.825916290283203,14.993447303771973,3.464794874191284,0.1,0.01,0.12,247.32
1666744232.11963105,712408875,1,-2.2,0.93,188.45000000000002,0.35048744082450867,0.19320835173130035,-0.583385169506073,-0.25753989815711975,28.832616806030273,14.999189376831055,3.459700584411621,0.1,0.01,0.12,247.32
1666744232.14460397,712433848,1,-2.32,0.85,188.46,0.3557400405406952,0.20290780067443848,-0.6056413054466248,-0.2970329523086548,28.844482421875,15.009607315063477,3.4509615898132324,0.1,0.01,0.12,247.32
1666744232.18459606,712473840,1,-2.47,0.78,188.46,0.36091694235801697,0.2377173900604248,-0.6433458924293518,-0.34706196188926697,28.86275291442871,15.025277137756348,3.4381163120269775,0.1,0.01,0.12,247.32
