timestamp,TimeUS,DesRoll,Roll,DesPitch,Pitch,DesYaw,Yaw,ErrRP,ErrYaw,AEKF
1682373323.94054604,115545787,0.0,-0.91,0.0,0.6900000000000001,185.9,188.34,0.0,0.0,3
1682373324.04026389,115645505,0.0,-0.91,0.0,0.68,183.84,188.33,0.0,0.0,3
1682373324.14034295,115745584,0.0,-0.91,0.0,0.6900000000000001,181.8,188.32,0.0,0.01,3
1682373324.24029183,115845533,0.0,-0.91,0.0,0.6900000000000001,179.79,188.31,0.0,0.0,3
1682373324.34028792,115945529,0.0,-0.91,0.0,0.6900000000000001,178.28,188.3,0.0,0.0,3
1682373324.44032192,116045563,0.0,-0.92,0.0,0.6900000000000001,177.64000000000001,188.3,0.0,0.01,3
1682373324.54039097,116145632,0.0,-0.91,0.0,0.7000000000000001,177.34,188.29,0.0,0.0,3
1682373324.64032984,116245571,0.0,-0.91,0.0,0.7000000000000001,176.85,188.28,0.0,0.0,3
1682373324.74019098,116345432,0.0,-0.91,0.0,0.7000000000000001,176.52,188.27,0.0,0.01,3
1682373324.84001994,116445261,0.0,-0.91,0.0,0.71,176.52,188.26,0.0,0.0,3
1682373324.93987894,116545120,0.0,-0.91,0.0,0.71,176.52,188.26,0.0,0.01,3
1682373325.03997803,116645219,0.0,-0.91,0.0,0.7000000000000001,176.52,188.26,0.0,0.01,3
1682373325.13999701,116745238,0.0,-0.9,0.0,0.7000000000000001,176.52,188.25,0.0,0.01,3
1682373325.23999405,116845235,0.0,-0.9,0.0,0.7000000000000001,176.52,188.24,0.01,0.01,3
1682373325.34002304,116945264,0.0,-0.9,0.0,0.7000000000000001,176.52,188.24,0.01,0.01,3
1682373325.44004297,117045284,0.0,-0.89,0.0,0.6900000000000001,176.52,188.23,0.0,0.01,3
1682373325.54037189,117145613,0.0,-0.89,0.0,0.6900000000000001,176.52,188.23,0.0,0.01,3
1682373325.64031601,117245557,0.0,-0.88,0.0,0.6900000000000001,176.52,188.23,0.0,0.01,3
1682373325.74043298,117345674,0.0,-0.88,0.0,0.7000000000000001,176.52,188.23,0.0,0.01,3
1682373325.83989191,117445133,0.0,-0.87,0.0,0.7000000000000001,176.52,188.22,0.0,0.01,3
1682373325.93999100,117545232,0.0,-0.87,0.0,0.7000000000000001,188.21,188.22,0.0,0.01,3
1682373326.04004192,117645283,0.0,-0.86,0.0,0.7000000000000001,188.20000000000002,188.21,0.0,0.01,3
1682373326.14004683,117745288,0.0,-0.85,0.0,0.6900000000000001,188.20000000000002,188.21,0.0,0.01,3
1682373326.24003506,117845276,0.0,-0.85,0.0,0.6900000000000001,188.19,188.20000000000002,0.01,0.01,3
1682373326.34004498,117945286,0.0,-0.84,0.0,0.6900000000000001,188.18,188.19,0.01,0.01,3
1682373326.44032288,118045564,0.0,-0.8300000000000001,0.0,0.6900000000000001,188.18,188.19,0.01,0.01,3
1682373326.54016495,118145406,0.0,-0.8300000000000001,0.0,0.6900000000000001,188.17000000000002,188.18,0.01,0.01,3
1682373326.64029884,118245540,0.0,-0.8300000000000001,0.0,0.6900000000000001,188.17000000000002,188.18,0.01,0.01,3
1682373326.74022889,118345470,0.0,-0.81,0.0,0.6900000000000001,188.18,188.19,0.01,0.01,3
1682373326.84034896,118445590,0.0,-0.81,0.0,0.6900000000000001,188.18,188.19,0.0,0.01,3
1682373326.94027185,118545513,0.0,-0.8,0.0,0.68,188.14000000000001,188.15,0.0,0.01,3
1682373327.04021692,118645458,0.0,-0.81,0.0,0.6900000000000001,188.14000000000001,188.15,0.0,0.01,3
1682373327.14028382,118745525,0.0,-0.78,0.0,0.68,188.18,188.19,0.0,0.01,3
1682373327.24032998,118845571,0.0,-0.78,0.0,0.68,188.1,188.11,0.0,0.01,3
1682373327.34032798,118945569,0.0,-0.79,0.0,0.7000000000000001,188.16,188.17000000000002,0.0,0.01,3
1682373327.44011402,119045355,0.0,-0.75,0.0,0.66,188.12,188.13,0.0,0.01,3
1682373327.54013205,119145373,0.0,-0.8,0.0,0.71,188.13,188.14000000000001,0.0,0.01,3
1682373327.63995504,119245196,0.0,-0.73,0.0,0.65,188.09,188.1,0.0,0.0,3
1682373327.74007893,119345320,0.0,-0.79,0.0,0.68,188.1,188.11,0.0,0.0,3
1682373327.84008598,119445327,0.0,-0.71,0.0,0.7000000000000001,188.11,188.12,0.0,0.01,3
1682373327.94035602,119545597,0.0,-0.77,0.0,0.66,188.08,188.09,0.0,0.01,3
1682373328.04035783,119645599,0.0,-0.72,0.0,0.6900000000000001,188.08,188.09,0.0,0.01,3
1682373328.14005399,119745295,0.0,-0.75,0.0,0.67,188.05,188.06,0.0,0.01,3
1682373328.24033785,119845579,0.0,-0.74,0.0,0.66,188.06,188.07,0.0,0.01,3
1682373328.34033394,119945575,0.0,-0.72,0.0,0.68,188.06,188.07,0.0,0.01,3
1682373328.44037890,120045620,0.0,-0.74,0.0,0.66,188.05,188.06,0.0,0.01,3
1682373328.54039097,120145632,0.0,-0.7000000000000001,0.0,0.68,188.05,188.06,0.0,0.01,3
1682373328.64038491,120245626,0.0,-0.73,0.0,0.66,188.04,188.05,0.0,0.01,3
1682373328.74032998,120345571,0.0,-0.6900000000000001,0.0,0.65,188.04,188.05,0.0,0.01,3
1682373328.84033203,120445573,0.0,-0.72,0.0,0.66,188.05,188.06,0.0,0.01,3
1682373328.94075203,120545993,0.0,-0.6900000000000001,0.0,0.64,188.04,188.05,0.0,0.01,3
1682373329.04034996,120645591,0.0,-0.71,0.0,0.65,188.04,188.05,0.0,0.01,3
1682373329.14033198,120745573,0.0,-0.7000000000000001,0.0,0.64,188.04,188.05,0.0,0.01,3
1682373329.24032998,120845571,0.0,-0.6900000000000001,0.0,0.64,188.03,188.04,0.0,0.01,3
1682373329.34036684,120945608,0.0,-0.7000000000000001,0.0,0.64,188.02,188.03,0.0,0.01,3
1682373329.44031692,121045558,0.0,-0.67,0.0,0.64,188.01,188.02,0.0,0.01,3
1682373329.54046988,121145711,0.0,-0.6900000000000001,0.0,0.64,188.01,188.02,0.0,0.01,3
1682373329.64032197,121245563,0.0,-0.65,0.0,0.64,188.0,188.01,0.0,0.01,3
1682373329.74003983,121345281,0.0,-0.67,0.0,0.65,188.0,188.01,0.0,0.01,3
1682373329.84011602,121445357,0.0,-0.65,0.0,0.65,187.99,188.0,0.0,0.02,3
1682373329.94018292,121545424,0.0,-0.65,0.0,0.65,187.98,187.99,0.0,0.02,3
1682373330.04013801,121645379,0.0,-0.64,0.0,0.66,187.98,187.99,0.0,0.01,3
1682373330.14013505,121745376,0.0,-0.64,0.0,0.65,187.97,187.98,0.0,0.01,3
1682373330.24035883,121845600,0.0,-0.65,0.0,0.65,187.96,187.97,0.0,0.01,3
1682373330.33995199,121945193,0.0,-0.63,0.0,0.65,187.96,187.97,0.0,0.01,3
1682373330.43997884,122045220,0.0,-0.65,0.0,0.64,187.95000000000002,187.96,0.0,0.01,3
1682373330.54011583,122145357,0.0,-0.63,0.0,0.64,187.94,187.95000000000002,0.0,0.01,3
1682373330.63999701,122245238,0.0,-0.64,0.0,0.64,187.93,187.94,0.0,0.01,3
1682373330.74004984,122345291,0.0,-0.64,0.0,0.63,187.93,187.94,0.0,0.01,3
1682373330.84004092,122445282,0.0,-0.64,0.0,0.63,187.92000000000002,187.93,0.0,0.01,3
1682373330.94015598,122545397,0.0,-0.64,0.0,0.63,187.91,187.92000000000002,0.0,0.01,3
1682373331.04018784,122645429,0.0,-0.63,0.0,0.63,187.91,187.92000000000002,0.0,0.01,3
1682373331.14004683,122745288,0.0,-0.64,0.0,0.63,187.89000000000001,187.9,0.0,0.0,3
1682373331.23989701,122845138,0.0,-0.63,0.0,0.64,187.89000000000001,187.9,0.0,0.01,3
1682373331.33998394,122945225,0.0,-0.63,0.0,0.63,187.88,187.89000000000001,0.0,0.01,3
1682373331.44000292,123045244,0.0,-0.62,0.0,0.63,187.88,187.89000000000001,0.0,0.01,3
1682373331.54004502,123145286,0.0,-0.62,0.0,0.63,187.87,187.88,0.0,0.01,3
1682373331.64003301,123245274,0.0,-0.62,0.0,0.63,187.86,187.87,0.0,0.01,3
1682373331.74011302,123345354,0.0,-0.61,0.0,0.63,187.85,187.86,0.0,0.01,3
1682373331.84015298,123445394,0.0,-0.62,0.0,0.63,187.85,187.86,0.0,0.01,3
1682373331.94013691,123545378,0.0,-0.6,0.0,0.63,187.84,187.85,0.0,0.01,3
1682373332.04043198,123645673,0.0,-0.61,0.0,0.63,187.83,187.84,0.0,0.0,3
1682373332.13996601,123745207,0.0,-0.61,0.0,0.63,187.82,187.83,0.0,0.0,3
1682373332.24025989,123845501,0.0,-0.61,0.0,0.62,187.81,187.82,0.0,0.0,3
1682373332.34025693,123945498,0.0,-0.6,0.0,0.63,187.81,187.82,0.0,0.0,3
1682373332.44020891,124045450,0.0,-0.6,0.0,0.63,187.8,187.81,0.0,0.0,3
1682373332.54032803,124145569,0.0,-0.6,0.0,0.63,187.79,187.8,0.0,0.0,3
1682373332.64026403,124245505,0.0,-0.6,0.0,0.63,187.78,187.79,0.0,0.01,3
1682373332.74028301,124345524,0.0,-0.6,0.0,0.63,187.77,187.78,0.0,0.0,3
1682373332.84027886,124445520,0.0,-0.6,0.0,0.63,187.76,187.77,0.0,0.0,3
1682373332.94052887,124545770,0.0,-0.6,0.0,0.64,187.75,187.76,0.0,0.01,3
1682373333.04026103,124645502,0.0,-0.59,0.0,0.64,187.75,187.76,0.0,0.01,3
1682373333.13995194,124745193,0.0,-0.59,0.0,0.64,187.75,187.76,0.0,0.01,3
1682373333.24000192,124845243,0.0,-0.6,0.0,0.64,187.74,187.75,0.0,0.01,3
1682373333.34001398,124945255,0.0,-0.59,0.0,0.64,187.74,187.75,0.0,0.01,3
1682373333.44003487,125045276,0.0,-0.6,0.0,0.64,187.74,187.75,0.0,0.01,3
1682373333.54015183,125145393,0.0,-0.59,0.0,0.64,187.74,187.75,0.0,0.01,3
1682373333.64032102,125245562,0.0,-0.59,0.0,0.65,187.74,187.75,0.0,0.0,3
1682373333.74034190,125345583,0.0,-0.59,0.0,0.65,187.74,187.75,0.0,0.0,3
1682373333.84036183,125445603,0.0,-0.59,0.0,0.65,187.74,187.75,0.0,0.0,3
1682373333.93987894,125545120,0.0,-0.59,0.0,0.66,187.73,187.74,0.0,0.0,3
1682373334.04043984,125645681,0.0,-0.59,0.0,0.65,187.73,187.74,0.0,0.0,3
1682373334.14036298,125745604,0.0,-0.59,0.0,0.65,187.72,187.73,0.0,0.0,3
1682373334.24032784,125845569,0.0,-0.59,0.0,0.65,187.72,187.73,0.0,0.0,3
1682373334.34033704,125945578,0.0,-0.59,0.0,0.66,187.71,187.72,0.0,0.0,3
1682373334.44032097,126045562,0.0,-0.59,0.0,0.66,187.71,187.72,0.0,0.0,3
1682373334.54036999,126145611,0.0,-0.59,0.0,0.66,187.70000000000002,187.71,0.0,0.0,3
1682373334.64032984,126245571,0.0,-0.59,0.0,0.66,187.69,187.70000000000002,0.0,0.01,3
1682373334.74058294,126345824,0.0,-0.59,0.0,0.66,187.69,187.70000000000002,0.0,0.01,3
1682373334.83992887,126445170,0.0,-0.59,0.0,0.66,187.69,187.70000000000002,0.0,0.01,3
1682373334.93998599,126545227,0.0,-0.59,0.0,0.66,187.69,187.70000000000002,0.0,0.01,3
1682373335.03999591,126645237,0.0,-0.59,0.0,0.67,187.70000000000002,187.71,0.0,0.01,3
1682373335.14001584,126745257,0.0,-0.59,0.0,0.67,187.70000000000002,187.71,0.0,0.01,3
1682373335.24015903,126845400,0.0,-0.59,0.0,0.67,187.69,187.70000000000002,0.0,0.01,3
1682373335.34004498,126945286,0.0,-0.59,0.0,0.67,187.69,187.70000000000002,0.0,0.01,3
1682373335.44032502,127045566,0.0,-0.59,0.0,0.67,187.70000000000002,187.71,0.0,0.0,3
1682373335.54017901,127145420,0.0,-0.6,0.0,0.67,187.69,187.70000000000002,0.0,0.0,3
1682373335.64002299,127245264,0.0,-0.59,0.0,0.68,187.69,187.70000000000002,0.0,0.0,3
1682373335.74021292,127345454,0.0,-0.6,0.0,0.68,187.69,187.70000000000002,0.0,0.0,3
1682373335.83999491,127445236,0.0,-0.6,0.0,0.68,187.68,187.69,0.0,0.0,3
1682373335.94004297,127545284,0.0,-0.6,0.0,0.68,187.68,187.69,0.0,0.0,3
1682373336.04001188,127645253,0.0,-0.6,0.0,0.68,187.68,187.69,0.0,0.0,3
1682373336.14003587,127745277,0.0,-0.6,0.0,0.68,187.68,187.68,0.0,0.0,3
1682373336.24013686,127845378,0.0,-0.6,0.0,0.68,187.68,187.68,0.0,0.0,3
1682373336.34005690,127945298,0.0,-0.59,0.0,0.6900000000000001,187.68,187.67000000000002,0.0,0.0,3
1682373336.44006801,128045309,0.0,-0.6,0.0,0.6900000000000001,187.68,187.67000000000002,0.01,0.0,3
1682373336.54040790,128145649,0.0,-0.59,0.0,0.6900000000000001,187.68,187.66,0.01,0.0,3
1682373336.63988590,128245127,0.0,-0.6,0.0,0.6900000000000001,187.68,187.66,0.01,0.0,3
1682373336.74028206,128345523,0.0,-0.59,0.0,0.6900000000000001,187.68,187.66,0.01,0.0,3
1682373336.84004903,128445290,0.0,-0.6,0.0,0.6900000000000001,187.68,187.65,0.01,0.01,3
1682373336.93998885,128545230,0.0,-0.6,0.0,0.6900000000000001,187.68,187.64000000000001,0.01,0.01,3
1682373337.04001498,128645256,0.0,-0.6,0.0,0.6900000000000001,187.68,187.63,0.01,0.01,3
1682373337.14002800,128745269,0.0,-0.6,0.0,0.6900000000000001,187.68,187.63,0.01,0.01,3
1682373337.24033785,128845579,0.0,-0.6,0.0,0.6900000000000001,187.68,187.62,0.01,0.01,3
1682373337.34011292,128945354,0.0,-0.6,0.0,0.6900000000000001,187.68,187.61,0.01,0.0,3
1682373337.44030786,129045549,0.0,-0.59,0.0,0.68,187.68,187.61,0.01,0.0,3
1682373337.54024601,129145487,0.0,-0.6,0.0,0.68,187.6,187.61,0.01,0.0,3
1682373337.64033198,129245573,0.0,-0.59,0.0,0.68,187.59,187.6,0.01,0.0,3
1682373337.74059892,129345840,0.0,-0.59,0.0,0.68,187.59,187.6,0.01,0.0,3
1682373337.84021688,129445458,0.0,-0.59,0.0,0.68,187.58,187.59,0.01,0.0,3
1682373337.94028187,129545523,0.0,-0.59,0.0,0.68,187.58,187.59,0.01,0.0,3
1682373338.04027796,129645519,0.0,-0.58,0.0,0.68,187.57,187.58,0.01,0.01,3
1682373338.14052486,129745766,0.0,-0.58,0.0,0.68,187.57,187.58,0.01,0.01,3
1682373338.24037385,129845615,0.0,-0.58,0.0,0.68,187.56,187.57,0.01,0.01,3
1682373338.34043384,129945675,0.0,-0.5700000000000001,0.0,0.68,187.55,187.56,0.01,0.0,3
1682373338.43995500,130045196,0.0,-0.5700000000000001,0.0,0.68,187.54,187.55,0.01,0.0,3
1682373338.54013491,130145376,0.0,-0.56,0.0,0.68,187.54,187.55,0.01,0.0,3
1682373338.64006591,130245307,0.0,-0.56,0.0,0.67,187.54,187.54,0.01,0.0,3
1682373338.74003005,130345271,0.0,-0.55,0.0,0.67,187.54,187.53,0.01,0.0,3
1682373338.84004784,130445289,0.0,-0.55,0.0,0.67,187.54,187.52,0.01,0.0,3
1682373338.94011593,130545357,0.0,-0.54,0.0,0.68,187.54,187.52,0.01,0.0,3
1682373339.04033804,130645579,0.0,-0.53,0.0,0.68,187.54,187.52,0.01,0.0,3
1682373339.14015985,130745401,0.0,-0.5700000000000001,0.0,0.65,187.54,187.49,0.01,0.0,3
1682373339.24038386,130845625,0.0,-0.51,0.0,0.67,187.54,187.56,0.01,0.0,3
1682373339.34037185,130945613,0.03,-0.53,-0.02,0.64,187.54,187.46,0.01,0.0,3
1682373339.44045401,131045695,-0.49,-0.58,-0.16,0.64,187.53,187.45000000000002,0.01,0.0,3
1682373339.54047990,131145721,0.06,-0.6,0.11,0.13,187.53,187.44,0.01,0.02,3
1682373339.64032793,131245569,0.0,0.99,0.46,-0.37,187.53,187.42000000000002,0.01,0.03,3
1682373339.74053288,131345774,-0.07,1.53,0.58,-0.24,187.53,187.31,0.01,0.04,3
1682373339.84039998,131445641,-0.01,0.9500000000000001,0.88,-0.04,187.53,187.16,0.01,0.04,3
1682373339.94057894,131545820,-0.27,0.63,1.09,0.23,187.53,186.97,0.01,0.03,3
1682373340.04038596,131645627,-0.28,0.01,1.34,0.53,187.53,186.76,0.01,0.03,3
1682373340.14040184,131745643,-0.14,-0.31,1.47,0.85,187.53,186.6,0.01,0.03,3
1682373340.24035692,131845598,0.12,-0.05,1.56,1.09,187.53,186.44,0.02,0.02,3
1682373340.34045291,131945694,0.67,0.17,1.52,1.19,187.53,186.37,0.02,0.02,3
1682373340.44037604,132045617,0.9500000000000001,0.73,1.47,1.1400000000000001,187.53,186.28,0.02,0.02,3
1682373340.54040694,132145648,1.24,1.26,1.35,1.1,187.53,186.23,0.02,0.02,3
1682373340.64035392,132245595,1.37,1.3800000000000001,1.29,1.07,187.53,186.15,0.02,0.02,3
1682373340.74039483,132345636,1.35,1.59,1.21,1.03,187.52,186.08,0.02,0.02,3
1682373340.84035397,132445595,1.3900000000000001,1.32,1.25,0.84,187.53,186.03,0.02,0.02,3
1682373340.94035101,132545592,1.36,1.1500000000000001,1.25,0.8300000000000001,187.53,185.96,0.02,0.01,3
1682373341.04039001,132645631,1.4000000000000001,0.9400000000000001,1.33,0.89,187.53,185.91,0.02,0.02,3
1682373341.14000297,132745244,1.48,1.1300000000000001,1.46,1.12,187.53,185.88,0.02,0.02,3
1682373341.24006391,132845305,1.46,1.11,1.59,1.37,187.53,185.81,0.03,0.02,3
1682373341.34007692,132945318,1.61,1.02,1.6300000000000001,1.46,187.54,185.77,0.03,0.02,3
1682373341.44003987,133045281,1.6,1.58,1.6400000000000001,1.53,187.54,185.71,0.03,0.02,3
1682373341.54021096,133145452,1.6300000000000001,1.42,1.67,1.5,187.54,185.64000000000001,0.03,0.02,3
1682373341.64011383,133245355,1.6,1.47,1.68,1.47,187.54,185.54,0.03,0.02,3
1682373341.74035692,133345598,1.53,1.49,1.58,1.3900000000000001,187.53,185.47,0.03,0.02,3
1682373341.84029984,133445541,1.46,1.3800000000000001,1.6,1.24,187.53,185.39000000000001,0.05,0.02,3
1682373341.94034696,133545588,1.4000000000000001,1.45,1.83,1.32,187.54,185.32,0.05,0.01,3
1682373342.04022884,133645470,1.36,1.6600000000000001,2.06,1.6,187.55,185.27,0.06,0.01,3
1682373342.14032102,133745562,1.31,1.06,2.23,1.97,187.55,185.26,0.06,0.01,3
1682373342.24028683,133845528,1.24,1.09,2.2800000000000002,2.29,187.55,185.29,0.06,0.01,3
1682373342.34025502,133945496,1.22,0.81,2.29,2.35,187.55,185.34,0.06,0.01,3
1682373342.44030094,134045542,1.2,1.03,2.22,2.24,187.55,185.42000000000002,0.06,0.01,3
1682373342.54041004,134145651,1.37,0.98,1.97,2.0300000000000002,187.54,185.51,0.06,0.01,3
1682373342.64033985,134245581,1.45,1.2,1.82,1.7,187.54,185.57,0.06,0.01,3
1682373342.74036193,134345603,1.55,1.55,1.6600000000000001,1.58,187.54,185.65,0.06,0.01,3
1682373342.84036994,134445611,1.54,1.59,1.67,1.3800000000000001,187.54,185.72,0.05,0.01,3
1682373342.94000793,134545249,1.48,1.41,1.72,1.54,187.54,185.84,0.05,0.02,3
1682373343.04011488,134645356,1.36,1.37,1.8,1.77,187.54,185.91,0.05,0.02,3
1682373343.14007592,134745317,1.43,1.3900000000000001,1.84,1.84,187.54,186.02,0.05,0.01,3
1682373343.24003696,134845278,1.4000000000000001,1.3,1.85,1.8,187.54,186.12,0.06,0.02,3
1682373343.34012103,134945362,1.2,1.52,1.86,1.68,187.54,186.22,0.06,0.01,3
1682373343.44015193,135045393,1.09,1.16,1.8800000000000001,1.73,187.54,186.36,0.06,0.01,3
1682373343.54039788,135145639,1.0,1.02,1.87,1.83,187.54,186.47,0.06,0.01,3
1682373343.64020205,135245443,0.97,0.81,1.8900000000000001,1.87,187.54,186.63,0.05,0.01,3
1682373343.74011302,135345354,0.97,0.8,1.85,1.8800000000000001,187.54,186.78,0.05,0.01,3
1682373343.83999205,135445233,1.0,0.97,1.85,1.85,187.54,186.9,0.04,0.02,3
1682373343.94011402,135545355,1.01,0.93,1.73,1.82,186.72,186.20000000000002,0.04,0.02,3
1682373344.04003000,135645271,0.9400000000000001,0.87,1.6500000000000001,1.76,186.72,186.34,0.04,0.02,3
1682373344.14035487,135745596,1.0,0.86,1.6400000000000001,1.68,186.72,186.45000000000002,0.04,0.02,3
1682373344.24035287,135845594,1.02,0.86,1.62,1.74,186.72,186.56,0.03,0.02,3
1682373344.34012604,135945367,1.1500000000000001,0.81,1.6500000000000001,1.71,186.72,186.61,0.03,0.02,3
1682373344.44037199,136045613,1.29,0.87,1.6500000000000001,1.71,186.72,186.64000000000001,0.03,0.02,3
1682373344.54039383,136145635,1.45,0.96,1.6,1.59,186.72,186.62,0.03,0.02,3
1682373344.64043784,136245679,1.62,1.19,1.59,1.52,186.72,186.58,0.03,0.02,3
1682373344.74032497,136345566,1.81,1.45,1.6,1.56,186.72,186.5,0.03,0.02,3
1682373344.84066606,136445907,1.9000000000000001,1.75,1.6400000000000001,1.68,186.72,186.35,0.03,0.02,3
1682373344.94032502,136545566,2.11,1.85,1.67,1.77,186.72,186.25,0.03,0.02,3
1682373345.04033089,136645572,2.11,2.32,1.73,1.86,186.72,186.16,0.03,0.02,3
1682373345.14034200,136745583,2.16,2.16,1.84,1.9000000000000001,186.73,186.20000000000002,0.03,0.02,3
1682373345.24028397,136845525,2.13,2.12,1.8800000000000001,2.08,186.73,186.22,0.03,0.02,3
1682373345.34029198,136945533,1.79,2.1,1.74,2.1,186.72,186.28,0.03,0.02,3
1682373345.44030499,137045546,1.56,1.6500000000000001,1.6300000000000001,1.85,186.72,186.26,0.04,0.03,3
1682373345.54039288,137145634,1.37,1.54,1.54,1.61,186.72,186.12,0.04,0.02,3
1682373345.64022589,137245467,1.23,1.52,1.6,1.43,186.72,185.97,0.03,0.02,3
1682373345.74038506,137345626,1.23,1.47,1.6400000000000001,1.36,186.72,185.77,0.03,0.02,3
1682373345.84030390,137445545,1.11,1.35,1.74,1.5,186.72,185.59,0.04,0.02,3
1682373345.94035888,137545600,0.97,1.04,2.1,1.58,186.73,185.42000000000002,0.04,0.02,3
1682373346.04035997,137645601,0.8300000000000001,0.9500000000000001,2.34,2.0300000000000002,186.73,185.36,0.04,0.02,3
1682373346.14016294,137745404,0.79,0.77,2.5500000000000003,2.47,186.74,185.14000000000001,0.04,0.02,3
1682373346.24017096,137845412,0.8,0.77,2.69,2.69,186.74,185.05,0.04,0.01,3
1682373346.34017396,137945415,0.8200000000000001,0.73,2.61,2.61,186.74,184.98,0.04,0.01,3
1682373346.44013906,138045380,0.75,0.8300000000000001,2.5500000000000003,2.3000000000000003,186.74,184.9,0.03,0.01,3
1682373346.54006004,138145301,0.44,0.54,2.4,2.05,186.73,184.92000000000002,0.03,0.02,3
1682373346.64007092,138245312,0.15,0.26,2.46,1.97,186.73,184.84,0.03,0.02,3
1682373346.74016595,138345407,-0.25,-0.31,2.42,2.1,186.73,184.84,0.03,0.01,3
1682373346.84011197,138445353,-0.55,-0.74,2.22,2.19,186.72,184.76,0.03,0.01,3
1682373346.94037890,138545620,-0.7000000000000001,-0.89,1.73,1.8900000000000001,186.72,184.74,0.03,0.01,3
1682373347.04015183,138645393,-0.89,-0.89,1.12,1.31,186.66,184.73,0.02,0.01,3
1682373347.14018083,138745422,-0.93,-0.71,0.41000000000000003,0.56,185.88,184.61,0.02,0.02,3
1682373347.24018884,138845430,-0.97,-0.8300000000000001,-0.24,-0.32,184.23,184.49,0.02,0.02,3
1682373347.34012794,138945369,-1.03,-1.01,-0.85,-1.01,181.69,184.05,0.02,0.02,3
1682373347.44003487,139045276,-1.0,-1.18,-1.34,-1.62,178.27,183.27,0.02,0.01,3
1682373347.54017591,139145417,-0.85,-1.36,-1.83,-1.8900000000000001,173.97,182.05,0.02,0.01,3
1682373347.64010501,139245346,-0.5700000000000001,-1.53,-2.09,-2.12,169.19,180.3,0.02,0.02,3
1682373347.74038696,139345628,-0.01,-1.53,-2.21,-2.24,165.21,177.9,0.02,0.02,3
1682373347.84047985,139445721,0.37,-0.52,-2.19,-2.31,162.1,175.15,0.02,0.02,3
1682373347.94040298,139545644,0.84,0.18,-2.14,-2.33,159.87,172.09,0.02,0.03,3
1682373348.04042196,139645663,1.07,0.9,-1.84,-2.11,158.53,169.0,0.02,0.03,3
1682373348.14036489,139745606,1.18,1.49,-1.4000000000000001,-1.46,157.84,165.86,0.02,0.04,3
1682373348.24038291,139845624,1.22,1.69,-0.87,-0.72,157.5,162.74,0.02,0.04,3
1682373348.34037304,139945614,1.24,1.81,-0.37,-0.09,157.32,159.65,0.02,0.05,3
1682373348.44050193,140045743,1.2,1.74,0.1,0.37,157.24,156.67000000000002,0.03,0.05,3
1682373348.54048705,140145728,1.29,1.93,0.46,0.79,157.20000000000002,153.83,0.03,0.05,3
1682373348.64030600,140245547,1.29,1.99,0.92,1.05,157.18,151.25,0.02,0.05,3
1682373348.74031997,140345561,1.33,2.15,1.21,1.68,157.17000000000002,149.04,0.02,0.05,3
1682373348.84038496,140445626,1.26,1.86,1.44,2.13,157.16,147.15,0.03,0.05,3
1682373348.94030786,140545549,1.23,1.37,1.55,2.27,157.16,145.51,0.03,0.06,3
1682373349.04031205,140645553,1.24,1.07,1.52,2.2600000000000002,157.16,144.19,0.03,0.07,3
1682373349.14034986,140745591,1.26,1.3900000000000001,1.37,2.13,157.16,143.14000000000001,0.03,0.07,3
1682373349.24002695,140845268,1.22,1.55,1.29,1.85,157.16,142.41,0.03,0.07,3
1682373349.34011889,140945360,1.22,1.16,1.2,1.6500000000000001,157.15,141.91,0.03,0.08,3
1682373349.44009900,141045340,1.2,1.04,1.18,1.59,157.15,141.62,0.03,0.07,3
1682373349.54015994,141145401,0.98,1.04,1.33,1.53,157.15,141.55,0.03,0.06,3
1682373349.64014602,141245387,0.76,0.91,1.41,1.6300000000000001,157.15,141.64000000000001,0.03,0.06,3
1682373349.74037290,141345614,0.72,0.6900000000000001,1.44,1.67,157.15,142.0,0.03,0.06,3
1682373349.84036088,141445602,0.51,0.45,1.5,1.56,157.15,142.53,0.03,0.07,3
1682373349.94021201,141545453,0.48,0.21,1.49,1.49,157.15,143.19,0.03,0.06,3
1682373350.04020405,141645445,0.37,-0.04,1.49,1.52,157.15,143.99,0.03,0.05,3
1682373350.14002800,141745269,0.48,-0.06,1.3900000000000001,1.6400000000000001,157.15,144.94,0.03,0.05,3
1682373350.24011803,141845359,0.45,0.2,1.34,1.6600000000000001,157.15,145.95000000000002,0.03,0.04,3
1682373350.34009099,141945332,0.37,0.15,1.33,1.48,157.15,147.06,0.03,0.04,3
1682373350.44036484,142045606,0.32,-0.02,1.3,1.5,157.15,148.16,0.02,0.04,3
1682373350.54041195,142145653,0.19,-0.14,1.29,1.52,157.14000000000001,149.38,0.02,0.03,3
1682373350.64029884,142245540,0.15,-0.41000000000000003,1.31,1.45,157.14000000000001,150.59,0.02,0.03,3
1682373350.74031901,142345560,0.12,-0.17,1.28,1.52,157.14000000000001,151.75,0.02,0.03,3
1682373350.84030795,142445549,0.05,-0.51,1.33,1.44,157.14000000000001,152.97,0.02,0.03,3
1682373350.94040394,142545645,0.23,-0.55,1.31,1.42,157.14000000000001,154.20000000000002,0.02,0.03,3
1682373351.04024291,142645484,0.28,-0.11,1.36,1.3900000000000001,157.15,155.37,0.02,0.02,3
1682373351.14035892,142745600,0.45,0.03,1.3,1.26,157.15,156.51,0.02,0.02,3
1682373351.24028897,142845530,0.55,0.17,1.31,1.17,157.15,157.53,0.02,0.01,3
1682373351.34028101,142945522,0.66,0.19,1.35,1.1500000000000001,157.15,158.41,0.02,0.02,3
1682373351.44031286,143045554,0.73,0.36,1.42,1.22,157.15,159.17000000000002,0.02,0.01,3
1682373351.54038787,143145629,0.78,0.7000000000000001,1.42,1.34,157.15,159.76,0.02,0.01,3
1682373351.64018202,143245423,0.79,0.8,1.42,1.3900000000000001,157.15,160.19,0.02,0.01,3
1682373351.74018383,143345425,0.76,0.9500000000000001,1.44,1.35,157.15,160.51,0.02,0.02,3
1682373351.84013700,143445378,0.6900000000000001,0.9400000000000001,1.47,1.4000000000000001,157.15,160.66,0.02,0.02,3
1682373351.94001198,143545253,0.61,0.78,1.49,1.41,157.15,160.70000000000002,0.02,0.03,3
1682373352.04047799,143645719,0.55,0.79,1.55,1.48,157.15,160.66,0.02,0.03,3
1682373352.14034104,143745582,0.54,0.67,1.51,1.49,157.15,160.51,0.02,0.03,3
1682373352.24037004,143845611,0.52,0.62,1.48,1.43,157.15,160.31,0.02,0.02,3
1682373352.34035587,143945597,0.5,0.53,1.45,1.37,157.15,160.08,0.02,0.02,3
1682373352.44037390,144045615,0.5,0.52,1.43,1.31,157.15,159.79,0.01,0.02,3
1682373352.54041600,144145657,0.59,0.37,1.3900000000000001,1.27,157.15,159.51,0.01,0.02,3
1682373352.64036393,144245605,0.63,0.47000000000000003,1.4000000000000001,1.21,157.15,159.21,0.02,0.02,3
1682373352.74038792,144345629,0.65,0.58,1.3800000000000001,1.1400000000000001,157.15,158.87,0.02,0.02,3
1682373352.84039402,144445635,0.63,0.62,1.3800000000000001,1.2,157.15,158.51,0.01,0.02,3
1682373352.94044089,144545682,0.58,0.6,1.3800000000000001,1.26,157.15,158.13,0.01,0.03,3
1682373353.04049397,144645735,0.47000000000000003,0.48,1.4000000000000001,1.31,157.15,157.74,0.01,0.03,3
1682373353.14067698,144745918,0.4,0.45,1.3800000000000001,1.3800000000000001,157.15,157.32,0.01,0.03,3
1682373353.24014091,144845382,0.32,0.31,1.3800000000000001,1.37,157.15,156.98,0.01,0.03,3
1682373353.34017086,144945412,0.26,0.34,1.41,1.31,157.15,156.63,0.01,0.03,3
1682373353.44018888,145045430,0.2,0.35000000000000003,1.42,1.32,157.14000000000001,156.31,0.01,0.02,3
1682373353.54023385,145145475,0.18,0.19,1.45,1.3,157.14000000000001,156.02,0.01,0.03,3
1682373353.64014792,145245389,0.18,0.27,1.49,1.42,157.14000000000001,155.8,0.01,0.02,3
1682373353.74004197,145345283,0.23,0.18,1.4000000000000001,1.42,157.15,155.6,0.01,0.02,3
1682373353.84046197,145445703,0.26,0.24,1.37,1.45,157.15,155.5,0.01,0.01,3
1682373353.94036198,145545603,0.29,0.45,1.24,1.5,157.15,155.41,0.01,0.01,3
1682373354.04029083,145645532,0.24,0.56,1.16,1.41,157.14000000000001,155.36,0.02,0.01,3
1682373354.14037085,145745612,0.13,0.26,1.12,1.37,157.14000000000001,155.31,0.02,0.01,3
1682373354.24031496,145845556,0.0,0.16,1.06,1.3900000000000001,157.14000000000001,155.25,0.02,0.01,3
1682373354.34032202,145945563,-0.04,-0.04,1.1300000000000001,1.23,157.14000000000001,155.27,0.02,0.01,3
1682373354.44032598,146045567,-0.13,-0.1,1.1400000000000001,1.34,157.14000000000001,155.25,0.02,0.01,3
1682373354.54039693,146145638,0.0,0.11,1.16,1.31,157.14000000000001,155.27,0.02,0.02,3
1682373354.64002800,146245269,-0.02,0.11,1.18,1.4000000000000001,157.14000000000001,155.33,0.01,0.02,3
1682373354.74011493,146345356,0.0,0.24,1.19,1.48,157.14000000000001,155.31,0.01,0.01,3
1682373354.84010005,146445341,-0.03,0.13,1.24,1.45,157.14000000000001,155.35,0.01,0.02,3
1682373354.94005203,146545293,-0.04,-0.02,1.27,1.44,157.14000000000001,155.43,0.01,0.02,3
1682373355.04015899,146645400,-0.05,0.09,1.3,1.47,157.14000000000001,155.45000000000002,0.01,0.02,3
1682373355.14022303,146745464,-0.03,0.03,1.31,1.54,157.14000000000001,155.59,0.01,0.02,3
1682373355.24018502,146845426,-0.01,0.11,1.31,1.53,157.14000000000001,155.71,0.01,0.02,3
1682373355.34019399,146945435,0.08,0.16,1.34,1.43,157.14000000000001,155.88,0.01,0.02,3
1682373355.44043589,147045677,0.08,0.23,1.35,1.37,157.14000000000001,156.0,0.02,0.02,3
1682373355.54007292,147145314,0.03,0.16,1.46,1.34,157.14000000000001,156.18,0.02,0.02,3
1682373355.64046597,147245707,-0.02,0.08,1.5,1.44,157.14000000000001,156.32,0.03,0.03,3
1682373355.74039292,147345634,0.01,-0.08,1.51,1.44,157.14000000000001,156.48,0.03,0.02,3
1682373355.84035587,147445597,0.06,0.12,1.52,1.44,157.14000000000001,156.58,0.03,0.02,3
1682373355.94036984,147545611,0.18,-0.02,1.47,1.3800000000000001,157.14000000000001,156.71,0.03,0.02,3
1682373356.04038501,147645626,0.3,0.09,1.47,1.34,157.15,156.75,0.02,0.02,3
1682373356.14037704,147745618,0.38,0.18,1.43,1.21,157.15,156.84,0.02,0.02,3
1682373356.24041200,147845653,0.42,0.4,1.43,1.22,157.15,156.85,0.02,0.02,3
1682373356.34059286,147945834,0.49,0.35000000000000003,1.3800000000000001,1.29,157.15,156.89000000000001,0.02,0.02,3
1682373356.44031787,148045559,0.47000000000000003,0.4,1.36,1.26,157.15,156.86,0.02,0.02,3
1682373356.54054594,148145787,0.51,0.43,1.36,1.2,157.15,156.85,0.02,0.02,3
1682373356.64035487,148245596,0.5700000000000001,0.43,1.36,1.16,157.15,156.78,0.01,0.02,3
1682373356.74005198,148345293,0.74,0.4,1.4000000000000001,1.1500000000000001,157.15,156.81,0.01,0.01,3
1682373356.84013605,148445377,0.86,0.63,1.46,1.21,157.15,156.73,0.02,0.01,3
1682373356.94016790,148545409,0.92,0.75,1.49,1.34,157.15,156.73,0.02,0.01,3
1682373357.04017401,148645415,0.92,0.72,1.53,1.44,157.15,156.67000000000002,0.02,0.02,3
1682373357.14015603,148745397,0.97,0.86,1.6,1.57,157.16,156.66,0.02,0.01,3
1682373357.24023890,148845480,0.99,0.89,1.6,1.6400000000000001,157.16,156.66,0.03,0.01,3
1682373357.34038305,148945624,0.99,0.99,1.48,1.69,157.15,156.67000000000002,0.03,0.01,3
1682373357.44048786,149045729,0.97,0.9,1.37,1.44,157.15,156.69,0.03,0.01,3
1682373357.54047799,149145719,0.9500000000000001,0.78,1.24,1.3800000000000001,157.15,156.70000000000002,0.03,0.01,3
1682373357.64028096,149245522,0.96,0.62,1.19,1.21,157.15,156.77,0.03,0.01,3
1682373357.74031901,149345560,0.99,0.68,1.1500000000000001,1.21,157.15,156.8,0.03,0.01,3
1682373357.84028387,149445525,1.0,0.75,1.12,1.29,157.15,156.89000000000001,0.02,0.01,3
1682373357.94031596,149545557,1.1,0.9400000000000001,1.11,1.26,157.15,156.96,0.02,0.01,3
1682373358.04031587,149645557,1.1,0.93,1.08,1.36,157.15,157.02,0.02,0.01,3
1682373358.14035988,149745601,1.12,0.77,1.01,1.24,157.15,157.05,0.02,0.01,3
1682373358.24023485,149845476,1.1400000000000001,0.96,0.97,1.12,157.15,157.09,0.02,0.0,3
1682373358.34037805,149945619,1.19,0.96,0.97,1.05,157.15,157.07,0.02,0.01,3
1682373358.44035196,150045593,1.19,1.16,0.98,1.12,157.15,157.05,0.02,0.01,3
1682373358.54015493,150145396,1.2,0.96,0.96,1.17,157.15,157.02,0.02,0.01,3
1682373358.64014196,150245383,1.22,0.87,0.99,1.07,157.15,156.94,0.03,0.01,3
1682373358.74018288,150345424,1.26,1.1500000000000001,1.02,1.09,157.15,156.89000000000001,0.03,0.01,3
1682373358.84018087,150445422,1.26,1.16,1.09,1.16,157.15,156.8,0.03,0.01,3
1682373358.94017792,150545419,1.1500000000000001,1.33,1.1400000000000001,1.21,157.15,156.73,0.03,0.01,3
1682373359.04040885,150645650,1.04,1.01,1.18,1.24,157.15,156.64000000000001,0.03,0.01,3
1682373359.14002705,150745268,1.04,0.98,1.29,1.29,157.15,156.55,0.03,0.01,3
1682373359.24055099,150845792,1.01,0.89,1.3800000000000001,1.41,157.15,156.47,0.02,0.01,3
1682373359.34049582,150945737,1.03,1.01,1.46,1.59,157.16,156.38,0.02,0.01,3
1682373359.44037390,151045615,0.98,0.8,1.53,1.67,157.16,156.32,0.02,0.01,3
1682373359.54040790,151145649,0.97,0.81,1.6500000000000001,1.6300000000000001,157.16,156.25,0.02,0.01,3
1682373359.64038992,151245631,0.9400000000000001,0.7000000000000001,1.72,1.6600000000000001,157.16,156.16,0.03,0.01,3
1682373359.74036384,151345605,0.9,0.9500000000000001,1.76,1.73,157.16,156.12,0.03,0.01,3
1682373359.84017301,151445414,0.84,0.65,1.81,1.7,157.16,156.08,0.02,0.01,3
1682373359.94013000,151545371,0.84,0.78,1.81,1.77,157.16,156.05,0.02,0.01,3
1682373360.04002690,151645268,0.79,0.93,1.83,1.79,157.15,156.06,0.02,0.01,3
1682373360.14011002,151745351,0.75,0.78,1.72,1.76,157.15,156.09,0.02,0.01,3
1682373360.24010587,151845347,0.67,0.75,1.61,1.48,157.15,156.12,0.03,0.01,3
1682373360.34038591,151945627,0.66,0.93,1.59,1.37,157.15,156.1,0.03,0.01,3
1682373360.44051790,152045759,0.59,0.79,1.56,1.35,157.15,156.11,0.03,0.01,3
1682373360.54034686,152145588,0.59,0.6900000000000001,1.55,1.41,157.15,156.12,0.03,0.01,3
1682373360.64031887,152245560,0.56,0.6,1.53,1.5,157.15,156.14000000000001,0.03,0.01,3
1682373360.74031591,152345557,0.61,0.6,1.43,1.5,157.15,156.21,0.03,0.01,3
1682373360.84034395,152445585,0.54,0.56,1.3900000000000001,1.43,157.15,156.18,0.03,0.01,3
1682373360.94023705,152545478,0.64,0.63,1.4000000000000001,1.36,157.15,156.21,0.03,0.01,3
1682373361.04034090,152645582,0.6,0.6900000000000001,1.43,1.37,157.15,156.21,0.03,0.01,3
1682373361.14029884,152745540,0.66,0.9,1.55,1.53,157.15,156.21,0.03,0.01,3
1682373361.24062586,152845867,0.64,0.63,1.61,1.6300000000000001,157.15,156.24,0.03,0.01,3
1682373361.34038496,152945626,0.55,0.62,1.69,1.76,157.15,156.23,0.03,0.01,3
1682373361.44024086,153045482,0.47000000000000003,0.67,1.75,1.77,157.15,156.34,0.03,0.01,3
1682373361.54023290,153145474,0.46,0.39,1.81,1.77,157.15,156.41,0.03,0.01,3
1682373361.64018297,153245424,0.5,0.41000000000000003,1.86,1.84,157.15,156.46,0.03,0.01,3
1682373361.74019194,153345433,0.66,0.44,1.84,1.81,157.15,156.63,0.03,0.01,3
1682373361.84001184,153445253,0.71,0.76,1.83,1.76,157.15,156.74,0.03,0.0,3
1682373361.94011784,153545359,0.81,0.76,1.8800000000000001,1.71,157.16,156.87,0.03,0.0,3
1682373362.04008698,153645328,0.85,0.75,1.9100000000000001,1.84,157.16,157.0,0.03,0.0,3
1682373362.14010191,153745343,0.87,0.71,1.9100000000000001,1.8800000000000001,157.16,157.1,0.03,0.0,3
1682373362.24015689,153845398,0.9,0.91,1.9100000000000001,1.94,157.16,157.27,0.03,0.01,3
1682373362.34017587,153945417,0.84,0.9500000000000001,1.77,1.92,157.16,157.34,0.03,0.01,3
1682373362.44036984,154045611,0.8200000000000001,0.87,1.71,1.74,157.15,157.42000000000002,0.02,0.01,3
1682373362.54044104,154145682,0.81,0.99,1.6,1.6500000000000001,157.15,157.45000000000002,0.02,0.01,3
1682373362.64040589,154245647,0.75,0.77,1.54,1.58,157.15,157.48,0.02,0.01,3
1682373362.74039388,154345635,0.8200000000000001,0.74,1.55,1.51,157.15,157.44,0.02,0.0,3
1682373362.84045100,154445692,0.79,0.68,1.58,1.53,157.15,157.45000000000002,0.02,0.0,3
1682373362.94034696,154545588,0.8,0.72,1.6400000000000001,1.6,157.15,157.37,0.02,0.01,3
1682373363.04035783,154645599,0.84,0.61,1.68,1.75,157.15,157.35,0.02,0.01,3
1682373363.14037085,154745612,0.84,0.52,1.7,1.81,157.15,157.28,0.02,0.01,3
1682373363.24038982,154845631,0.86,0.62,1.6600000000000001,1.87,157.15,157.23,0.02,0.01,3
1682373363.34037089,154945612,0.85,0.6,1.59,1.82,157.15,157.15,0.02,0.01,3
1682373363.44036889,155045610,0.79,0.71,1.53,1.69,157.15,157.11,0.02,0.0,3
1682373363.54048085,155145722,0.79,0.74,1.51,1.51,157.15,157.02,0.02,0.01,3
1682373363.64000893,155245250,0.7000000000000001,0.9500000000000001,1.49,1.44,157.15,156.88,0.02,0.01,3
1682373363.74012184,155345363,0.51,0.79,1.6,1.24,157.15,156.74,0.02,0.01,3
1682373363.84011102,155445352,0.27,0.8200000000000001,1.68,1.3900000000000001,157.15,156.55,0.02,0.01,3
1682373363.94002986,155545271,0.07,0.37,1.75,1.58,157.14000000000001,156.45000000000002,0.02,0.01,3
1682373364.04012203,155645363,-0.1,-0.02,1.77,1.71,157.14000000000001,156.26,0.02,0.01,3
1682373364.14015198,155745393,-0.18,-0.01,1.72,1.76,157.14000000000001,156.15,0.02,0.01,3
1682373364.24018192,155845423,-0.27,-0.08,1.69,1.74,157.14000000000001,156.01,0.02,0.01,3
1682373364.34038782,155945629,-0.15,0.08,1.62,1.52,157.14000000000001,155.86,0.02,0.01,3
1682373364.44039297,156045634,-0.16,-0.1,1.58,1.46,157.14000000000001,155.78,0.02,0.01,3
1682373364.54005384,156145295,-0.15,0.04,1.6500000000000001,1.45,157.14000000000001,155.70000000000002,0.02,0.01,3
1682373364.64038086,156245622,-0.18,0.28,1.69,1.62,157.14000000000001,155.67000000000002,0.02,0.01,3
1682373364.74030805,156345549,-0.19,0.05,1.67,1.87,157.14000000000001,155.61,0.02,0.01,3
1682373364.84028292,156445524,-0.19,0.03,1.6400000000000001,1.76,157.14000000000001,155.63,0.02,0.01,3
1682373364.94030499,156545546,-0.21,0.0,1.58,1.71,157.14000000000001,155.66,0.02,0.01,3
1682373365.04029703,156645538,-0.2,0.14,1.52,1.51,157.14000000000001,155.77,0.02,0.01,3
1682373365.14031887,156745560,-0.14,-0.2,1.53,1.47,157.14000000000001,155.76,0.02,0.01,3
1682373365.24030900,156845550,-0.12,-0.22,1.57,1.52,157.14000000000001,155.88,0.02,0.02,3
1682373365.34035397,156945595,-0.08,-0.02,1.58,1.6600000000000001,157.14000000000001,155.98,0.02,0.02,3
1682373365.44025803,157045499,-0.1,0.23,1.58,1.7,157.14000000000001,156.04,0.02,0.02,3
1682373365.54067087,157145912,0.0,0.06,1.5,1.73,157.14000000000001,156.18,0.02,0.02,3
1682373365.64035201,157245593,0.0,0.1,1.45,1.53,157.14000000000001,156.3,0.02,0.02,3
1682373365.74027801,157345519,0.1,-0.15,1.37,1.3900000000000001,157.14000000000001,156.43,0.02,0.02,3
1682373365.84029984,157445541,0.17,-0.04,1.35,1.4000000000000001,157.14000000000001,156.55,0.02,0.02,3
1682373365.94028187,157545523,0.22,0.31,1.3800000000000001,1.44,157.14000000000001,156.66,0.02,0.02,3
1682373366.04032183,157645563,0.26,0.14,1.46,1.48,157.15,156.82,0.02,0.02,3
1682373366.14032292,157745564,0.32,0.34,1.54,1.54,157.15,156.94,0.02,0.02,3
1682373366.24039984,157845641,0.39,0.26,1.62,1.62,157.15,157.1,0.02,0.02,3
1682373366.34025598,157945497,0.46,0.55,1.6,1.77,157.15,157.24,0.02,0.01,3
1682373366.44062996,158045871,0.53,0.35000000000000003,1.58,1.73,157.15,157.4,0.02,0.02,3
1682373366.54048085,158145722,0.53,0.38,1.46,1.67,157.15,157.53,0.02,0.02,3
1682373366.64004683,158245288,0.54,0.26,1.3900000000000001,1.46,157.15,157.71,0.02,0.02,3
1682373366.74021482,158345456,0.63,0.4,1.28,1.3800000000000001,157.15,157.82,0.02,0.02,3
1682373366.84016585,158445407,0.65,0.47000000000000003,1.21,1.26,157.15,157.96,0.01,0.01,3
1682373366.94018388,158545425,0.76,0.45,1.1400000000000001,1.12,157.15,158.05,0.01,0.01,3
1682373367.04019094,158645432,0.79,0.54,1.12,1.05,157.15,158.15,0.01,0.01,3
1682373367.14015293,158745394,0.79,0.64,1.11,1.01,157.15,158.17000000000002,0.01,0.01,3
1682373367.24004388,158845285,0.78,0.75,1.1500000000000001,1.05,157.15,158.19,0.01,0.01,3
1682373367.34006190,158945303,0.8,0.91,1.1,1.16,157.15,158.19,0.01,0.01,3
1682373367.44008994,159045331,0.74,0.85,1.1,1.08,157.15,158.12,0.01,0.01,3
1682373367.54040694,159145648,0.73,0.64,1.1400000000000001,1.08,157.15,158.12,0.01,0.01,3
1682373367.64037704,159245618,0.66,0.62,1.19,1.09,157.15,158.07,0.01,0.01,3
1682373367.74044490,159345686,0.78,0.65,1.33,1.16,157.15,158.03,0.01,0.01,3
1682373367.84037399,159445615,0.79,0.6900000000000001,1.41,1.3800000000000001,157.15,157.98,0.01,0.01,3
1682373367.94038892,159545630,0.88,0.77,1.53,1.43,157.15,157.94,0.01,0.01,3
1682373368.04039288,159645634,0.9400000000000001,0.66,1.6,1.5,157.16,157.95000000000002,0.02,0.01,3
1682373368.14039683,159745638,1.01,0.73,1.6,1.53,157.16,157.89000000000001,0.02,0.01,3
1682373368.24042583,159845667,1.04,0.6900000000000001,1.67,1.45,157.16,157.91,0.03,0.01,3
1682373368.34035087,159945592,1.07,0.6900000000000001,1.77,1.55,157.16,157.86,0.03,0.01,3
1682373368.44035792,160045599,1.08,0.64,1.84,1.7,157.16,157.82,0.03,0.01,3
1682373368.54072094,160145962,1.17,0.76,1.87,1.77,157.16,157.75,0.03,0.01,3
1682373368.64037800,160245619,1.19,0.97,1.8900000000000001,1.87,157.16,157.73,0.03,0.02,3
1682373368.74038196,160345623,1.16,1.1300000000000001,1.8900000000000001,2.0100000000000002,157.16,157.64000000000001,0.03,0.02,3
1682373368.84040904,160445650,1.12,0.99,1.86,2.0300000000000002,157.16,157.54,0.03,0.02,3
1682373368.94042087,160545662,1.11,0.9,1.81,2.07,157.16,157.39000000000001,0.03,0.02,3
1682373369.04088092,160646122,1.06,0.93,1.73,2.06,157.16,157.27,0.02,0.02,3
1682373369.14049387,160745735,1.1300000000000001,1.07,1.6300000000000001,1.94,157.16,157.11,0.02,0.02,3
1682373369.24035096,160845592,1.1,1.26,1.56,1.77,157.16,156.92000000000002,0.02,0.02,3
1682373369.34024501,160945486,1.17,0.99,1.53,1.56,157.16,156.75,0.02,0.02,3
1682373369.44031787,161045559,1.11,1.44,1.56,1.48,157.16,156.59,0.02,0.02,3
1682373369.54038191,161145623,1.0,1.05,1.62,1.44,157.16,156.43,0.02,0.02,3
1682373369.64031291,161245554,0.87,0.96,1.7,1.59,157.16,156.3,0.02,0.02,3
1682373369.74032402,161345565,0.68,0.99,1.82,1.58,157.15,156.21,0.02,0.01,3
1682373369.84043694,161445678,0.5700000000000001,0.42,1.9100000000000001,1.77,157.15,156.1,0.03,0.01,3
1682373369.94003987,161545281,0.51,0.45,1.8800000000000001,1.8800000000000001,157.15,156.07,0.03,0.01,3
1682373370.04035592,161645597,0.5,0.37,1.85,1.74,157.15,156.0,0.03,0.01,3
1682373370.14009500,161745336,0.54,0.15,1.77,1.71,157.15,156.0,0.03,0.01,3
1682373370.24005198,161845293,0.5700000000000001,0.1,1.69,1.6600000000000001,157.15,156.02,0.02,0.01,3
1682373370.34012389,161945365,0.64,0.55,1.6400000000000001,1.61,157.15,156.04,0.02,0.02,3
1682373370.44016790,162045409,0.68,0.51,1.61,1.5,157.15,156.06,0.02,0.02,3
1682373370.54039288,162145634,0.78,0.6900000000000001,1.61,1.55,157.15,156.12,0.02,0.02,3
1682373370.64017296,162245414,0.81,0.6,1.76,1.61,157.15,156.16,0.02,0.02,3
1682373370.74012685,162345368,0.91,0.88,2.11,1.97,157.16,156.24,0.02,0.02,3
1682373370.84003401,162445275,0.98,0.86,2.64,2.5,157.16,156.32,0.02,0.01,3
1682373370.94013405,162545375,0.96,0.86,3.23,3.3200000000000003,157.17000000000002,156.47,0.02,0.01,3
1682373371.04047704,162645718,0.91,0.88,3.88,4.0200000000000005,157.17000000000002,156.59,0.01,0.01,3
1682373371.14037299,162745614,0.98,0.65,4.5200000000000005,4.59,157.18,156.73,0.01,0.01,3
1682373371.24035883,162845600,1.03,0.88,5.16,5.25,157.19,156.89000000000001,0.01,0.01,3
1682373371.34033394,162945575,1.09,0.9400000000000001,5.62,5.75,157.20000000000002,157.01,0.01,0.02,3
1682373371.44035387,163045595,1.1,0.96,5.95,6.07,157.20000000000002,157.14000000000001,0.02,0.02,3
1682373371.54022384,163145465,1.09,1.16,6.0200000000000005,6.2,157.20000000000002,157.23,0.02,0.02,3
1682373371.64034986,163245591,1.07,1.02,5.91,6.09,157.20000000000002,157.29,0.02,0.03,3
1682373371.74025702,163345498,1.02,0.97,5.62,5.72,157.19,157.37,0.02,0.03,3
1682373371.84035301,163445594,0.98,1.03,5.1000000000000005,5.2,157.19,157.39000000000001,0.03,0.03,3
1682373371.94035006,163545591,0.99,0.81,4.39,4.48,157.18,157.41,0.03,0.03,3
1682373372.04038882,163645630,0.93,0.93,3.71,3.63,157.17000000000002,157.33,0.03,0.02,3
1682373372.14032388,163745565,0.85,0.77,3.0700000000000003,2.79,157.17000000000002,157.3,0.03,0.02,3
1682373372.24039388,163845635,0.75,0.87,2.5100000000000002,2.18,157.16,157.21,0.03,0.02,3
1682373372.34036803,163945609,0.61,0.54,2.0300000000000002,1.62,157.15,157.09,0.03,0.03,3
1682373372.44041300,164045654,0.52,0.5,1.75,1.31,157.15,156.92000000000002,0.03,0.03,3
1682373372.54044199,164145683,0.0,0.34,1.9000000000000001,1.26,157.6,156.75,0.03,0.02,3
1682373372.64032292,164245564,-0.09,-0.48,2.0100000000000002,1.67,157.82,156.74,0.03,0.02,3
1682373372.74045300,164345694,-0.05,-0.61,2.24,1.93,157.82,156.82,0.03,0.02,3
1682373372.84033799,164445579,0.03,-0.4,2.43,2.12,157.82,156.85,0.03,0.02,3
1682373372.94036102,164545602,0.25,0.22,2.49,2.37,157.82,156.93,0.03,0.02,3
1682373373.04062104,164645862,0.36,0.54,2.52,2.43,157.82,157.06,0.02,0.02,3
1682373373.14037585,164745617,0.43,0.8300000000000001,2.5300000000000002,2.52,157.82,157.12,0.02,0.02,3
1682373373.24035287,164845594,0.41000000000000003,0.62,2.5100000000000002,2.52,157.82,157.15,0.02,0.02,3
1682373373.34033895,164945580,0.31,0.65,2.5100000000000002,2.45,157.82,157.28,0.02,0.02,3
1682373373.44039893,165045640,0.21,0.42,2.5100000000000002,2.36,157.82,157.37,0.02,0.01,3
1682373373.54005599,165145297,0.2,0.39,2.56,2.22,157.82,157.48,0.02,0.01,3
1682373373.64006090,165245302,0.17,0.38,2.57,2.2600000000000002,157.82,157.70000000000002,0.02,0.02,3
1682373373.74009085,165345332,0.23,0.43,2.5500000000000003,2.37,157.82,157.89000000000001,0.02,0.02,3
1682373373.84003997,165445281,0.24,0.63,2.5300000000000002,2.57,157.82,158.13,0.02,0.01,3
1682373373.94011784,165545359,0.3,0.6,2.45,2.59,157.82,158.35,0.02,0.01,3
1682373374.04034686,165645588,0.37,0.46,2.35,2.49,157.82,158.62,0.01,0.01,3
1682373374.14015985,165745401,0.35000000000000003,0.59,2.2600000000000002,2.35,157.82,158.75,0.01,0.01,3
1682373374.24015784,165845399,0.38,0.52,2.18,2.18,157.82,159.0,0.01,0.01,3
1682373374.34038997,165945631,0.38,0.44,2.09,2.02,157.82,159.13,0.01,0.02,3
1682373374.44033003,166045571,0.35000000000000003,0.38,2.05,1.98,157.82,159.27,0.01,0.01,3
1682373374.54052782,166145769,0.3,0.4,2.0100000000000002,1.98,157.82,159.33,0.01,0.01,3
1682373374.64031386,166245555,0.25,0.24,2.02,2.02,157.82,159.35,0.02,0.02,3
1682373374.74005103,166345292,0.21,0.11,1.97,1.98,157.82,159.37,0.02,0.02,3
1682373374.84005785,166445299,0.15,-0.01,1.95,1.8900000000000001,157.82,159.31,0.02,0.01,3
1682373374.94013500,166545376,0.15,-0.07,1.8900000000000001,1.87,157.82,159.31,0.02,0.01,3
1682373375.04015803,166645399,0.19,-0.09,1.8800000000000001,1.81,157.82,159.28,0.02,0.01,3
1682373375.14013195,166745373,0.34,-0.05,1.8800000000000001,1.87,157.82,159.29,0.02,0.02,3
1682373375.24010491,166845346,0.43,0.14,1.8800000000000001,1.99,157.82,159.27,0.02,0.01,3
1682373375.34032083,166945562,0.6,0.32,1.8800000000000001,1.98,157.82,159.24,0.02,0.01,3
1682373375.44043088,167045672,0.72,0.36,1.84,1.92,157.82,159.20000000000002,0.02,0.01,3
1682373375.54039001,167145631,0.8200000000000001,0.62,1.76,1.76,157.82,159.19,0.02,0.01,3
1682373375.64025092,167245492,0.91,0.87,1.73,1.6400000000000001,157.82,159.11,0.02,0.01,3
1682373375.74031997,167345561,0.92,0.98,1.75,1.6,157.82,159.09,0.02,0.01,3
1682373375.84028602,167445527,0.88,0.99,1.77,1.6500000000000001,157.82,159.01,0.02,0.01,3
1682373375.94028902,167545530,0.88,0.91,1.76,1.79,157.82,158.95000000000002,0.02,0.01,3
1682373376.04029703,167645538,0.89,0.89,1.76,1.8900000000000001,157.82,158.87,0.01,0.01,3
1682373376.14035702,167745598,1.02,0.84,1.72,1.9100000000000001,157.82,158.78,0.01,0.01,3
1682373376.24022198,167845463,1.05,1.06,1.71,1.8,157.82,158.63,0.01,0.01,3
1682373376.34034300,167945584,1.1300000000000001,1.1400000000000001,1.6600000000000001,1.73,157.82,158.56,0.01,0.01,3
1682373376.44029093,168045532,1.1300000000000001,1.27,1.6600000000000001,1.69,157.82,158.4,0.01,0.01,3
1682373376.54064798,168145889,1.12,1.41,1.7,1.59,157.82,158.31,0.01,0.01,3
1682373376.64034486,168245586,1.03,1.33,1.75,1.71,157.82,158.17000000000002,0.01,0.01,3
1682373376.74032784,168345569,0.97,1.06,1.8,1.86,157.82,158.09,0.01,0.01,3
1682373376.84034491,168445586,0.9500000000000001,1.08,1.84,1.99,157.82,157.92000000000002,0.01,0.01,3
1682373376.94035006,168545591,0.9400000000000001,0.91,1.9000000000000001,1.92,157.82,157.81,0.01,0.01,3
1682373377.04036903,168645610,0.85,0.79,1.9100000000000001,1.9100000000000001,157.82,157.70000000000002,0.01,0.01,3
1682373377.14039993,168745641,0.8,1.02,1.96,1.9100000000000001,157.82,157.59,0.01,0.0,3
1682373377.24047899,168845720,0.71,0.79,2.0,2.0,157.82,157.58,0.01,0.0,3
1682373377.34034705,168945588,0.71,1.02,2.06,2.05,157.82,157.49,0.01,0.01,3
1682373377.44066596,169045907,0.68,1.06,2.09,2.13,157.82,157.48,0.01,0.01,3
1682373377.54050088,169145742,0.68,0.75,2.12,2.16,157.82,157.48,0.01,0.01,3
1682373377.64038587,169245627,0.66,0.8200000000000001,2.12,2.23,157.82,157.5,0.01,0.01,3
1682373377.74036193,169345603,0.65,0.62,2.08,2.16,157.82,157.6,0.01,0.01,3
1682373377.84014297,169445384,0.71,0.64,2.06,2.1,157.82,157.68,0.01,0.01,3
1682373377.94011092,169545352,0.73,0.55,2.02,2.06,157.82,157.74,0.01,0.01,3
1682373378.03999496,169645236,0.78,0.58,2.0,2.05,157.82,157.9,0.01,0.01,3
1682373378.14011383,169745355,0.74,0.81,2.0100000000000002,2.2,157.82,158.0,0.01,0.02,3
1682373378.24013090,169845372,0.73,0.6900000000000001,2.02,2.14,157.82,158.1,0.01,0.02,3
1682373378.34005094,169945292,0.75,0.49,2.02,2.11,157.82,158.22,0.01,0.02,3
1682373378.44014502,170045386,0.72,0.54,2.02,2.0300000000000002,157.82,158.32,0.01,0.01,3
1682373378.54022694,170145468,0.81,0.49,1.98,2.05,157.82,158.45000000000002,0.01,0.01,3
1682373378.64035892,170245600,0.89,0.78,1.93,1.99,157.82,158.5,0.01,0.01,3
1682373378.74018002,170345421,1.02,0.85,1.8900000000000001,1.94,157.82,158.62,0.01,0.02,3
1682373378.84011292,170445354,1.07,1.03,1.82,1.9000000000000001,157.82,158.66,0.01,0.02,3
1682373378.94000196,170545243,1.18,1.1400000000000001,1.72,1.8800000000000001,157.82,158.74,0.01,0.02,3
1682373379.04001403,170645255,1.22,1.09,1.6600000000000001,1.82,157.82,158.73,0.01,0.02,3
1682373379.14009094,170745332,1.26,1.26,1.59,1.68,157.81,158.75,0.01,0.02,3
1682373379.24004292,170845284,1.25,1.1500000000000001,1.56,1.56,157.81,158.70000000000002,0.02,0.01,3
1682373379.34019589,170945437,1.35,1.18,1.61,1.53,157.81,158.66,0.02,0.01,3
1682373379.44014382,171045385,1.3800000000000001,1.23,1.6300000000000001,1.54,157.81,158.59,0.01,0.01,3
1682373379.54024887,171145490,1.41,1.32,1.6600000000000001,1.57,157.82,158.56,0.01,0.01,3
1682373379.64016294,171245404,1.3900000000000001,1.36,1.67,1.6300000000000001,157.82,158.46,0.01,0.01,3
1682373379.74043298,171345674,1.46,1.42,1.7,1.6,157.82,158.37,0.01,0.01,3
1682373379.84000301,171445244,1.49,1.56,1.75,1.58,157.82,158.26,0.01,0.01,3
1682373379.94035888,171545600,1.59,1.74,1.78,1.5,157.82,158.14000000000001,0.01,0.01,3
1682373380.04028106,171645522,1.61,1.73,1.8,1.6600000000000001,157.82,158.08,0.01,0.01,3
1682373380.14030290,171745544,1.72,1.52,1.82,1.73,157.82,158.0,0.01,0.01,3
1682373380.24029493,171845536,1.71,1.5,1.83,1.83,157.82,157.92000000000002,0.01,0.01,3
1682373380.34040189,171945643,1.77,1.61,1.84,1.75,157.82,157.95000000000002,0.01,0.01,3
1682373380.44051886,172045760,1.7,1.43,1.84,1.72,157.82,157.87,0.01,0.01,3
1682373380.54022098,172145462,1.6500000000000001,1.25,1.83,1.67,157.82,157.96,0.01,0.0,3
1682373380.64035892,172245600,1.58,1.31,1.81,1.62,157.82,158.0,0.02,0.01,3
1682373380.74033785,172345579,1.54,1.05,1.82,1.6400000000000001,157.82,158.1,0.02,0.01,3
1682373380.84038687,172445628,1.46,1.1400000000000001,1.83,1.72,157.82,158.13,0.01,0.01,3
1682373380.94032097,172545562,1.46,1.25,1.82,1.7,157.82,158.12,0.01,0.01,3
1682373381.04035187,172645593,1.37,1.22,1.81,1.8800000000000001,157.82,158.15,0.01,0.01,3
1682373381.14035106,172745592,1.27,1.1400000000000001,1.74,1.81,157.82,158.14000000000001,0.01,0.01,3
1682373381.24015999,172845401,1.21,0.85,1.68,1.68,157.82,158.14000000000001,0.02,0.01,3
1682373381.34016895,172945410,1.05,1.01,1.69,1.7,157.82,158.1,0.02,0.01,3
1682373381.44019604,173045437,0.97,1.01,1.72,1.7,157.82,158.07,0.03,0.01,3
1682373381.54023004,173145471,0.9,0.72,1.69,1.7,157.82,158.06,0.03,0.01,3
1682373381.64000106,173245242,0.87,0.97,1.7,1.62,157.82,158.03,0.03,0.01,3
1682373381.74044085,173345682,0.91,0.74,1.72,1.6400000000000001,157.82,158.0,0.03,0.01,3
1682373381.84032083,173445562,0.8300000000000001,1.0,1.75,1.79,157.82,157.98,0.03,0.01,3
1682373381.94001698,173545258,0.93,0.88,1.76,1.84,157.82,157.98,0.03,0.01,3
1682373382.04005790,173645299,0.93,1.1500000000000001,1.75,1.8,157.82,158.01,0.03,0.01,3
1682373382.14013791,173745379,1.03,1.03,1.75,1.73,157.82,158.0,0.03,0.01,3
1682373382.24017191,173845413,1.12,1.1300000000000001,1.73,1.6600000000000001,157.82,158.02,0.02,0.01,3
1682373382.34015799,173945399,1.21,1.26,1.72,1.6,157.82,158.0,0.02,0.01,3
1682373382.44014692,174045388,1.21,1.22,1.72,1.53,157.82,158.09,0.02,0.01,3
1682373382.54042602,174145667,1.1300000000000001,1.37,1.75,1.49,157.82,158.11,0.02,0.01,3
1682373382.64036894,174245610,1.03,1.11,1.78,1.48,157.82,158.17000000000002,0.03,0.01,3
1682373382.74033904,174345580,0.92,0.79,1.77,1.43,157.82,158.16,0.03,0.01,3
1682373382.84027505,174445516,0.78,1.0,1.76,1.34,157.82,158.16,0.03,0.0,3
1682373382.94029784,174545539,0.8,0.89,1.81,1.27,157.82,158.13,0.03,0.01,3
1682373383.04029584,174645537,0.78,0.76,1.84,1.41,157.82,158.1,0.02,0.01,3
1682373383.14031601,174745557,0.81,0.9,1.82,1.62,157.82,158.06,0.02,0.0,3
1682373383.24030900,174845550,0.78,0.6900000000000001,1.79,1.6300000000000001,157.82,158.02,0.02,0.01,3
1682373383.34030795,174945549,0.8300000000000001,0.81,1.71,1.68,157.82,157.97,0.02,0.01,3
1682373383.44022703,175045468,0.86,1.07,1.6,1.7,157.82,157.93,0.03,0.01,3
1682373383.54051399,175145755,0.92,1.07,1.47,1.6500000000000001,157.81,157.91,0.03,0.01,3
1682373383.64028192,175245523,0.85,1.23,1.34,1.59,157.81,157.9,0.03,0.01,3
1682373383.74058700,175345828,0.43,0.91,0.68,1.31,157.81,157.87,0.03,0.01,3
1682373383.84033990,175445581,0.22,0.17,0.35000000000000003,0.61,157.81,157.82,0.04,0.01,3
1682373383.94012904,175545370,0.11,0.08,0.17,0.29,157.81,157.8,0.04,0.02,3
1682373384.04018688,175645428,0.05,0.2,0.09,0.21,157.81,157.76,0.04,0.01,3
1682373384.14015794,175745399,0.02,0.21,0.04,0.1,157.81,157.70000000000002,0.04,0.02,3
1682373384.24008799,175845329,0.01,0.23,0.02,0.23,157.81,157.69,0.04,0.01,3
1682373384.33997798,175945219,0.0,0.28,0.01,0.28,157.81,157.63,0.04,0.01,3
1682373384.43999791,176045239,0.0,0.35000000000000003,0.0,0.35000000000000003,157.81,157.57,0.03,0.01,3
1682373384.54015994,176145401,0.0,0.29,0.0,0.36,157.81,157.55,0.03,0.01,3
1682373384.64030385,176245545,0.0,0.24,0.0,0.46,157.81,157.43,0.03,0.01,3
1682373384.74033999,176345581,0.0,0.44,0.0,0.41000000000000003,157.81,157.32,0.03,0.01,3
1682373384.84031701,176445558,0.0,0.25,0.0,0.35000000000000003,157.81,157.22,0.03,0.01,3
1682373384.94034100,176545582,0.0,0.43,0.0,0.36,157.81,157.08,0.03,0.01,3
1682373385.04035091,176645592,0.0,0.38,0.0,0.31,157.81,156.96,0.03,0.01,3
1682373385.14038801,176745629,0.0,0.34,0.0,0.24,157.81,156.88,0.03,0.01,3
1682373385.24030685,176845548,0.0,0.19,0.0,0.34,157.81,156.79,0.03,0.01,3
1682373385.34036589,176945607,0.0,0.29,0.0,0.32,157.81,156.70000000000002,0.03,0.01,3
1682373385.44030404,177045545,0.0,0.1,0.0,0.29,157.81,156.71,0.02,0.01,3
1682373385.54069400,177145935,0.0,0.08,0.0,0.21,157.81,156.69,0.02,0.01,3
1682373385.64036703,177245608,0.0,0.13,0.0,0.24,157.81,156.65,0.02,0.01,3
1682373385.74013805,177345379,0.0,0.08,0.0,0.22,157.81,156.70000000000002,0.02,0.01,3
1682373385.84015203,177445393,0.0,0.01,1.36,0.35000000000000003,157.81,156.72,0.02,0.01,3
1682373385.94008899,177545330,0.0,-0.04,3.41,2.3000000000000003,157.81,156.74,0.02,0.01,3
1682373386.04009604,177645337,0.0,0.09,5.0600000000000005,5.41,157.81,156.85,0.02,0.01,3
1682373386.13997793,177745219,0.0,0.0,6.25,7.3,157.81,156.89000000000001,0.02,0.01,3
1682373386.24036503,177845606,0.0,0.12,6.3,7.87,157.81,156.99,0.02,0.02,3
1682373386.34001803,177945259,0.0,0.21,5.88,6.99,157.81,157.09,0.02,0.01,3
1682373386.44021487,178045456,0.0,0.01,5.44,5.82,157.81,157.21,0.03,0.01,3
1682373386.54031491,178145556,0.0,0.05,4.97,5.09,157.81,157.28,0.03,0.01,3
1682373386.64031982,178245561,0.0,0.01,4.61,4.46,157.81,157.38,0.03,0.01,3
1682373386.74028683,178345528,0.0,0.01,4.34,4.05,157.81,157.46,0.03,0.01,3
1682373386.84028888,178445530,0.0,-0.15,4.13,3.83,157.81,157.6,0.03,0.01,3
1682373386.94050598,178545747,0.0,-0.02,3.87,3.7,157.81,157.67000000000002,0.03,0.01,3
1682373387.03998899,178645230,0.0,-0.02,3.7,3.46,157.81,157.75,0.03,0.01,3
1682373387.13998985,178745231,0.0,-0.03,3.48,3.27,157.81,157.76,0.03,0.01,3
1682373387.24004292,178845284,0.0,0.01,3.29,3.0100000000000002,157.81,157.81,0.02,0.01,3
1682373387.33999801,178945239,0.0,0.14,3.2,2.83,157.81,157.78,0.02,0.01,3
1682373387.44004083,179045282,0.0,0.27,3.46,3.0300000000000002,157.81,157.77,0.02,0.01,3
1682373387.54016590,179145407,0.0,0.2,3.77,3.42,157.81,157.81,0.02,0.01,3
1682373387.64015388,179245395,0.0,0.12,4.4,3.97,157.81,157.73,0.02,0.01,3
1682373387.74021292,179345454,0.0,0.21,5.46,4.89,157.81,157.71,0.02,0.01,3
1682373387.84039998,179445641,0.0,0.25,5.83,5.99,157.81,157.64000000000001,0.02,0.01,3
1682373387.94026494,179545506,0.0,0.24,5.79,6.29,157.81,157.58,0.02,0.0,3
1682373388.04038882,179645630,0.0,0.23,5.79,5.71,157.81,157.52,0.02,0.01,3
1682373388.14032292,179745564,0.0,0.16,5.8500000000000005,5.59,157.81,157.51,0.02,0.01,3
1682373388.24029994,179845541,0.0,0.3,6.0600000000000005,5.58,157.81,157.56,0.02,0.02,3
1682373388.34033799,179945579,0.0,0.28,6.390000000000001,5.83,157.81,157.59,0.02,0.02,3
1682373388.44032502,180045566,0.0,0.02,6.640000000000001,6.3500000000000005,157.81,157.61,0.02,0.02,3
1682373388.54038000,180145621,0.0,0.36,6.78,6.53,157.81,157.68,0.02,0.02,3
1682373388.64034700,180245588,0.0,0.2,6.86,6.54,157.81,157.71,0.02,0.02,3
1682373388.74062204,180345863,0.0,0.24,6.87,6.5200000000000005,157.81,157.69,0.02,0.03,3
1682373388.84032083,180445562,0.21,0.18,6.82,6.5,157.81,157.73,0.01,0.03,3
1682373388.94034600,180545587,0.76,0.54,6.78,6.47,157.81,157.74,0.01,0.02,3
1682373389.04032183,180645563,1.04,1.4000000000000001,6.78,6.32,157.81,157.77,0.02,0.03,3
1682373389.14001894,180745260,2.0,1.9000000000000001,6.5,6.29,157.81,157.76,0.02,0.03,3
1682373389.24005198,180845293,2.47,2.5300000000000002,6.390000000000001,5.97,157.81,157.76,0.02,0.03,3
1682373389.34013605,180945377,2.07,3.21,6.3100000000000005,5.64,157.81,157.72,0.02,0.04,3
1682373389.44016194,181045403,1.6400000000000001,2.44,6.36,5.53,157.81,157.62,0.02,0.04,3
1682373389.54022098,181145462,1.06,1.3900000000000001,6.38,5.8,157.81,157.6,0.02,0.03,3
1682373389.64009285,181245334,0.54,0.91,6.37,5.9,157.81,157.55,0.02,0.02,3
1682373389.74001002,181345251,0.27,0.09,6.59,6.0600000000000005,157.81,157.57,0.02,0.02,3
1682373389.84042287,181445664,0.14,0.01,6.7,6.25,157.81,157.64000000000001,0.02,0.02,3
1682373389.94031191,181545553,0.08,-0.13,6.74,6.59,157.81,157.62,0.02,0.02,3
1682373390.04021382,181645455,1.05,0.04,6.1000000000000005,6.51,157.81,157.67000000000002,0.02,0.02,3
1682373390.14029002,181745531,2.66,1.34,4.6000000000000005,5.38,157.81,157.71,0.02,0.02,3
1682373390.24026203,181845503,3.19,3.66,3.66,3.0100000000000002,157.81,157.69,0.03,0.03,3
1682373390.34028792,181945529,2.64,4.28,3.24,1.74,157.81,157.64000000000001,0.03,0.04,3
1682373390.44030094,182045542,1.43,2.73,3.45,1.86,157.81,157.52,0.04,0.04,3
1682373390.54058790,182145829,0.73,0.25,3.11,2.7800000000000002,157.81,157.38,0.04,0.03,3
1682373390.63998103,182245222,0.37,-0.97,2.81,2.94,157.81,157.25,0.04,0.04,3
1682373390.74001384,182345255,0.19,-1.1400000000000001,2.31,2.47,157.81,157.14000000000001,0.04,0.03,3
1682373390.84010100,182445342,0.09,-0.67,1.68,1.74,157.81,157.1,0.04,0.03,3
1682373390.94001889,182545260,0.04,-0.72,1.26,0.8300000000000001,157.81,157.09,0.04,0.03,3
1682373391.04004502,182645286,0.02,-0.68,1.35,0.41000000000000003,157.81,157.03,0.04,0.02,3
1682373391.14004183,182745283,0.01,-0.29,1.6,0.8,157.81,157.11,0.04,0.02,3
1682373391.24033904,182845580,0.0,-0.26,2.08,1.44,157.81,157.1,0.04,0.02,3
1682373391.34033203,182945573,0.16,-0.63,2.42,2.32,157.81,157.05,0.04,0.02,3
1682373391.44038200,183045623,0.64,-0.34,2.27,2.7600000000000002,157.81,157.04,0.04,0.02,3
1682373391.54004002,183145281,0.99,0.27,1.74,2.27,157.81,156.99,0.04,0.01,3
1682373391.64035392,183245595,1.07,0.8,1.74,1.26,157.81,156.94,0.05,0.01,3
1682373391.74030995,183345551,1.1500000000000001,0.9,1.92,1.1500000000000001,157.81,156.89000000000001,0.05,0.02,3
1682373391.84030485,183445546,1.23,1.29,2.02,1.67,157.81,156.86,0.04,0.02,3
1682373391.94037199,183545613,1.36,1.27,2.02,2.02,157.81,156.82,0.04,0.02,3
1682373392.04032493,183645566,1.84,1.44,2.0,2.13,157.81,156.78,0.05,0.02,3
1682373392.14032483,183745566,2.23,2.23,2.0300000000000002,1.99,157.81,156.75,0.05,0.02,3
1682373392.24034095,183845582,2.2800000000000002,2.61,1.94,1.96,157.81,156.77,0.04,0.02,3
1682373392.34059691,183945838,2.35,2.5,2.09,1.82,157.81,156.75,0.04,0.02,3
1682373392.43998599,184045227,2.14,2.63,2.14,2.02,157.81,156.87,0.04,0.02,3
1682373392.54012895,184145370,2.2,2.07,2.16,2.16,157.81,156.88,0.04,0.01,3
1682373392.64000583,184245247,2.43,1.83,2.0300000000000002,2.23,157.81,156.99,0.04,0.01,3
1682373392.74003100,184345272,2.6,1.97,1.83,2.08,157.81,157.08,0.04,0.01,3
1682373392.84005284,184445294,2.58,2.63,1.94,1.76,157.81,157.1,0.04,0.02,3
1682373392.94016790,184545409,2.42,2.57,1.97,1.72,157.81,157.15,0.04,0.02,3
1682373393.04014993,184645391,2.24,2.31,2.0100000000000002,1.76,157.81,157.17000000000002,0.03,0.01,3
1682373393.14013505,184745376,2.2600000000000002,1.68,1.8900000000000001,1.8900000000000001,157.81,157.25,0.03,0.02,3
1682373393.24038792,184845629,2.16,1.46,1.84,1.76,157.81,157.23,0.03,0.01,3
1682373393.33998489,184945226,1.54,1.11,2.09,1.76,157.81,157.15,0.03,0.01,3
1682373393.44027686,185045518,0.89,0.63,2.43,2.05,157.81,157.09,0.03,0.02,3
1682373393.54034996,185145591,0.47000000000000003,-0.27,2.59,2.62,157.81,157.01,0.03,0.02,3
1682373393.64022303,185245464,0.24,-0.13,2.69,2.91,157.81,156.98,0.03,0.02,3
1682373393.74029589,185345537,0.48,-0.2,2.73,2.89,157.81,156.89000000000001,0.03,0.02,3
1682373393.84029198,185445533,0.9,0.36,2.64,3.0,157.81,156.94,0.03,0.02,3
1682373393.94035387,185545595,1.56,0.8200000000000001,1.98,2.71,157.81,156.96,0.03,0.02,3
1682373394.04021788,185645459,2.09,1.6300000000000001,1.54,1.77,157.81,157.08,0.03,0.02,3
1682373394.14009905,185745340,1.84,2.35,1.24,0.9400000000000001,157.81,156.98,0.03,0.02,3
1682373394.23997998,185845221,1.3,2.05,1.22,0.78,157.81,157.06,0.03,0.01,3
1682373394.34000397,185945245,1.03,1.5,1.11,1.11,157.81,157.06,0.03,0.02,3
