timestamp,TimeUS,I,Status,GMS,GWk,NSats,HDop,Lat,Lng,Alt,Spd,GCrs,VZ,Yaw,U
1682373324.00000000,115605241,0,3,165342000,2259,17,0.64,42.6899756,-84.4888103,257.0,0.024351593106985092,19.179006576538086,0.009000000543892384,0.0,1
1682373324.19972587,115804967,0,3,165342200,2259,17,0.64,42.6899757,-84.4888103,256.99,0.010198039934039116,191.3099365234375,0.02200000174343586,0.0,1
1682373324.39962101,116004862,0,3,165342400,2259,17,0.64,42.6899757,-84.4888103,256.99,0.009486833587288857,288.4349365234375,0.01100000087171793,0.0,1
1682373324.59976101,116205002,0,3,165342600,2259,17,0.64,42.6899757,-84.4888103,256.98,0.014560219831764698,195.94540405273438,0.021000001579523087,0.0,1
1682373324.80001903,116405260,0,3,165342800,2259,17,0.64,42.6899757,-84.4888103,256.97,0.010816654190421104,123.6900634765625,0.08300000429153442,0.0,1
1682373324.99973583,116604977,0,3,165343000,2259,17,0.64,42.6899757,-84.4888103,256.96,0.04356604442000389,189.24612426757812,0.1120000034570694,0.0,1
1682373325.19968295,116804924,0,3,165343200,2259,17,0.64,42.6899757,-84.48881039999999,256.95,0.00824621133506298,165.9637451171875,0.07400000095367432,0.0,1
1682373325.39969802,117004939,0,3,165343400,2259,17,0.64,42.6899758,-84.48881039999999,256.94,0.026832815259695053,153.43495178222656,0.10000000149011612,0.0,1
1682373325.59973502,117204976,0,3,165343600,2259,17,0.64,42.6899758,-84.48881039999999,256.94,0.033970579504966736,132.61404418945312,0.08000000566244125,0.0,1
1682373325.79978085,117405022,0,3,165343800,2259,17,0.64,42.6899758,-84.48881039999999,256.94,0.027658633887767792,167.47119140625,0.08500000089406967,0.0,1
1682373325.99975491,117604996,0,3,165344000,2259,17,0.64,42.6899759,-84.48881039999999,256.94,0.005385165102779865,158.19857788085938,-0.003000000026077032,0.0,1
1682373326.19980884,117805050,0,3,165344200,2259,17,0.64,42.6899759,-84.48881039999999,256.94,0.04535416513681412,194.0362548828125,0.06400000303983688,0.0,1
1682373326.39993596,118005177,0,3,165344400,2259,17,0.64,42.6899759,-84.4888105,256.93,0.02500000037252903,163.7397918701172,0.030000001192092896,0.0,1
1682373326.60020089,118205442,0,3,165344600,2259,17,0.64,42.6899759,-84.4888105,256.94,0.037443291395902634,145.88552856445312,0.05300000309944153,0.0,1
1682373326.79975104,118404992,0,3,165344800,2259,17,0.64,42.6899759,-84.4888105,256.93,0.03106445074081421,176.30860900878906,0.07400000095367432,0.0,1
1682373326.99967694,118604918,0,3,165345000,2259,17,0.64,42.6899759,-84.4888105,256.93,0.027784889563918114,300.2564392089844,0.024000000208616257,0.0,1
1682373327.19969893,118804940,0,3,165345200,2259,17,0.64,42.689976,-84.4888106,256.93,0.04101219400763512,135.0,0.10700000822544098,0.0,1
1682373327.39996600,119005207,0,3,165345400,2259,17,0.64,42.689976099999996,-84.4888105,256.93,0.026419691741466522,60.524105072021484,0.055000003427267075,0.0,1
1682373327.59973788,119204979,0,3,165345600,2259,17,0.64,42.689976099999996,-84.4888105,256.94,0.004999999888241291,126.8698959350586,0.032999999821186066,0.0,1
1682373327.78017402,119385415,0,3,165345800,2259,17,0.64,42.6899762,-84.4888105,256.93,0.02789265289902687,104.5344467163086,0.018000001087784767,0.0,1
1682373327.99985886,119605100,0,3,165346000,2259,17,0.64,42.6899762,-84.48881039999999,256.94,0.1066255122423172,159.69552612304688,0.1120000034570694,0.0,1
1682373328.20026803,119805509,0,3,165346200,2259,17,0.64,42.689976099999996,-84.48881039999999,256.92,0.018681542947888374,254.47589111328125,0.0430000014603138,0.0,1
1682373328.40000296,120005244,0,3,165346400,2259,17,0.64,42.6899762,-84.4888105,256.92,0.0152970589697361,191.3099365234375,0.11800000816583633,0.0,1
1682373328.59973502,120204976,0,3,165346600,2259,17,0.64,42.6899762,-84.4888105,256.93,0.08640602231025696,156.10482788085938,0.15600000321865082,0.0,1
1682373328.79966593,120404907,0,3,165346800,2259,17,0.64,42.6899763,-84.48881039999999,256.94,0.03573513776063919,162.0720672607422,0.052000001072883606,0.0,1
1682373328.99992085,120605162,0,3,165347000,2259,17,0.64,42.6899763,-84.48881039999999,256.95,0.0439658984541893,162.80145263671875,0.06400000303983688,0.0,1
1682373329.19972992,120804971,0,3,165347200,2259,17,0.64,42.6899764,-84.48881039999999,256.96,0.01600000075995922,90.0,0.013000000268220901,0.0,1
1682373329.39977098,121005012,0,3,165347400,2259,17,0.64,42.6899764,-84.48881039999999,256.96,0.01100000087171793,0.0,0.00800000037997961,0.0,1
1682373329.59971690,121204958,0,3,165347600,2259,17,0.64,42.6899765,-84.48881039999999,256.98,0.010440307669341564,73.30075073242188,0.006000000052154064,0.0,1
1682373329.79984784,121405089,0,3,165347800,2259,17,0.64,42.6899766,-84.48881039999999,256.99,0.03189043700695038,221.18592834472656,-0.012000000104308128,0.0,1
1682373330.02022505,121625466,0,3,165348000,2259,17,0.64,42.6899766,-84.4888105,257.01,0.019798990339040756,135.0,0.046000003814697266,0.0,1
1682373330.19977784,121805019,0,3,165348200,2259,17,0.64,42.689976699999995,-84.4888105,257.01,0.04338202625513077,154.0255889892578,0.09000000357627869,0.0,1
1682373330.40003991,122005281,0,3,165348400,2259,17,0.64,42.689976699999995,-84.4888105,257.02,0.027294687926769257,171.57301330566406,0.09000000357627869,0.0,1
1682373330.60000587,122205247,0,3,165348600,2259,17,0.64,42.6899768,-84.4888105,257.03000000000003,0.049244288355112076,167.0925750732422,0.08000000566244125,0.0,1
1682373330.79968190,122404923,0,3,165348800,2259,17,0.64,42.6899768,-84.4888105,257.04,0.024698181077837944,21.370620727539062,-0.007000000216066837,0.0,1
1682373330.99972200,122604963,0,3,165349000,2259,17,0.64,42.689977,-84.4888105,257.06,0.05277309939265251,170.18067932128906,0.1380000114440918,0.0,1
1682373331.19980192,122805043,0,3,165349200,2259,17,0.64,42.689977,-84.4888105,257.06,0.036124784499406815,184.76365661621094,0.08500000089406967,0.0,1
1682373331.39968896,123004930,0,3,165349400,2259,17,0.64,42.689977,-84.4888105,257.07,0.02617250569164753,133.4518280029297,0.03500000014901161,0.0,1
1682373331.59981799,123205059,0,3,165349600,2259,17,0.64,42.6899771,-84.4888105,257.08,0.014560219831764698,164.05459594726562,0.026000000536441803,0.0,1
1682373331.79989386,123405135,0,3,165349800,2259,17,0.64,42.6899771,-84.4888105,257.09000000000003,0.04949747771024704,188.13011169433594,0.14000000059604645,0.0,1
1682373331.99992704,123605168,0,3,165350000,2259,17,0.64,42.6899772,-84.4888105,257.1,0.018027756363153458,160.55995178222656,0.04400000348687172,0.0,1
1682373332.20022583,123805467,0,3,165350200,2259,17,0.64,42.689977299999995,-84.4888106,257.11,0.02500000037252903,180.0,0.06200000271201134,0.0,1
1682373332.39965796,124004899,0,3,165350400,2259,17,0.64,42.6899774,-84.4888106,257.14,0.02745906077325344,169.50851440429688,0.06700000166893005,0.0,1
1682373332.59993386,124205175,0,3,165350600,2259,17,0.64,42.6899774,-84.4888106,257.15,0.008602325804531574,125.53766632080078,0.06599999964237213,0.0,1
1682373332.79996586,124405207,0,3,165350800,2259,17,0.64,42.6899775,-84.4888106,257.16,0.00824621133506298,165.9637451171875,0.03400000184774399,0.0,1
1682373333.00000286,124605244,0,3,165351000,2259,17,0.64,42.6899776,-84.4888106,257.19,0.053037725389003754,182.1610870361328,0.12800000607967377,0.0,1
1682373333.20001101,124805252,0,3,165351200,2259,17,0.64,42.6899778,-84.4888107,257.21,0.046173591166734695,175.03025817871094,0.1469999998807907,0.0,1
1682373333.39985800,125005099,0,3,165351400,2259,17,0.64,42.6899778,-84.4888107,257.22,0.017804494127631187,321.8427734375,-0.03200000151991844,0.0,1
1682373333.59996796,125205209,0,3,165351600,2259,17,0.64,42.689977899999995,-84.4888107,257.24,0.03080584481358528,166.865966796875,0.06100000441074371,0.0,1
1682373333.79999900,125405240,0,3,165351800,2259,17,0.64,42.689977999999996,-84.4888107,257.26,0.02828427217900753,171.86988830566406,0.026000000536441803,0.0,1
1682373334.00027895,125605520,0,3,165352000,2259,17,0.64,42.6899781,-84.4888107,257.29,0.034365683794021606,171.6341094970703,0.14300000667572021,0.0,1
1682373334.19966602,125804907,0,3,165352200,2259,17,0.64,42.6899782,-84.4888107,257.3,0.016552945598959923,154.9831085205078,0.05100000277161598,0.0,1
1682373334.39968991,126004931,0,3,165352400,2259,17,0.64,42.6899783,-84.4888107,257.32,0.015556350350379944,45.0,-0.009000000543892384,0.0,1
1682373334.59974885,126204990,0,3,165352600,2259,17,0.64,42.6899784,-84.4888107,257.36,0.07085901498794556,188.93060302734375,0.11700000613927841,0.0,1
1682373334.79976988,126405011,0,3,165352800,2259,17,0.64,42.6899784,-84.4888107,257.37,0.012369317002594471,194.0362548828125,0.032999999821186066,0.0,1
1682373335.00003290,126605274,0,3,165353000,2259,17,0.64,42.689978499999995,-84.4888107,257.39,0.036400552839040756,127.18470001220703,0.0690000057220459,0.0,1
1682373335.19961095,126804852,0,3,165353200,2259,17,0.64,42.6899787,-84.4888106,257.42,0.013601470738649368,107.10272216796875,0.02500000037252903,0.0,1
1682373335.39976192,127005003,0,3,165353400,2259,17,0.64,42.6899788,-84.4888107,257.45,0.040718547999858856,204.6768798828125,0.0430000014603138,0.0,1
1682373335.60000396,127205245,0,3,165353600,2259,17,0.64,42.6899789,-84.4888107,257.48,0.035227831453084946,186.5198211669922,0.06300000101327896,0.0,1
1682373335.80003500,127405276,0,3,165353800,2259,17,0.64,42.689979,-84.4888107,257.51,0.012649111449718475,108.43494415283203,0.03100000135600567,0.0,1
1682373335.99966192,127604903,0,3,165354000,2259,17,0.64,42.689979099999995,-84.4888107,257.55,0.029154758900403976,149.03623962402344,0.06200000271201134,0.0,1
1682373336.19969797,127804939,0,3,165354200,2259,17,0.64,42.6899793,-84.4888107,257.58,0.024041632190346718,343.0724792480469,-0.046000003814697266,0.0,1
1682373336.39973187,128004973,0,3,165354400,2259,17,0.64,42.6899795,-84.4888107,257.63,0.055713552981615067,158.9624786376953,0.1600000113248825,0.0,1
1682373336.60000992,128205251,0,3,165354600,2259,17,0.64,42.6899795,-84.4888106,257.64,0.021189620718359947,70.70995330810547,0.06300000101327896,0.0,1
1682373336.79975295,128404994,0,3,165354800,2259,17,0.64,42.6899796,-84.4888106,257.67,0.03206244111061096,183.5763397216797,0.10300000756978989,0.0,1
1682373336.99980497,128605046,0,3,165355000,2259,17,0.64,42.689979799999996,-84.4888106,257.7,0.02570992149412632,166.50425720214844,0.1120000034570694,0.0,1
1682373337.19986391,128805105,0,3,165355200,2259,17,0.64,42.6899799,-84.4888106,257.73,0.03413209691643715,174.95753479003906,0.08700000494718552,0.0,1
1682373337.40020394,129005445,0,3,165355400,2259,17,0.64,42.68998,-84.4888106,257.77,0.044721364974975586,153.43495178222656,0.13700000941753387,0.0,1
1682373337.59975386,129204995,0,3,165355600,2259,17,0.64,42.6899801,-84.4888106,257.79,0.013152946718037128,171.2538299560547,0.006000000052154064,0.0,1
1682373337.80001092,129405252,0,3,165355800,2259,17,0.64,42.689980299999995,-84.4888106,257.85,0.06754258275032043,154.5731201171875,0.14600001275539398,0.0,1
1682373337.99992990,129605171,0,3,165356000,2259,17,0.64,42.689980399999996,-84.4888105,257.88,0.013152946718037128,171.2538299560547,0.029000001028180122,0.0,1
1682373338.19998097,129805222,0,3,165356200,2259,17,0.64,42.6899805,-84.4888106,257.93,0.018110772594809532,186.34019470214844,0.010000000707805157,0.0,1
1682373338.40002489,130005266,0,3,165356400,2259,17,0.64,42.6899807,-84.4888106,257.98,0.006708203814923763,243.43496704101562,0.04700000211596489,0.0,1
1682373338.60008287,130205324,0,3,165356600,2259,17,0.64,42.689980899999995,-84.4888106,258.03000000000003,0.039812058210372925,168.40780639648438,0.12800000607967377,0.0,1
1682373338.79985785,130405099,0,3,165356800,2259,17,0.64,42.689980999999996,-84.4888106,258.06,0.027313001453876495,156.25050354003906,0.08700000494718552,0.0,1
1682373339.01980090,130625042,0,3,165357000,2259,17,0.64,42.6899811,-84.4888106,258.1,0.016278820112347603,222.5104522705078,0.02800000086426735,0.0,1
1682373339.20029092,130805532,0,3,165357200,2259,17,0.64,42.6899812,-84.4888106,258.15,0.044944413006305695,159.14552307128906,0.0650000050663948,0.0,1
1682373339.39976501,131005006,0,3,165357400,2259,17,0.64,42.6899814,-84.4888106,258.21,0.03324154019355774,201.16127014160156,0.0820000022649765,0.0,1
1682373339.59972405,131204965,0,3,165357600,2259,17,0.64,42.689981499999995,-84.4888106,258.26,0.008544004522264004,110.55603790283203,-0.1290000081062317,0.0,1
1682373339.79973102,131404972,0,3,165357800,2259,17,0.64,42.689981599999996,-84.4888106,258.41,0.0723671242594719,168.84532165527344,-0.7950000166893005,0.0,1
1682373340.00000501,131605246,0,3,165358000,2259,17,0.64,42.689981599999996,-84.4888105,258.58,0.09479451924562454,133.29017639160156,-0.609000027179718,0.0,1
1682373340.20005703,131805298,0,3,165358200,2259,17,0.64,42.689981499999995,-84.4888102,258.73,0.20909327268600464,111.90316772460938,-0.6370000243186951,0.0,1
1682373340.39976692,132005008,0,3,165358400,2259,17,0.64,42.689981599999996,-84.48880989999999,258.95,0.11621101945638657,142.34121704101562,-0.7660000324249268,0.0,1
1682373340.59963894,132204880,0,3,165358600,2259,17,0.64,42.689981499999995,-84.48880969999999,259.11,0.12261321395635605,142.28895568847656,-0.6040000319480896,0.0,1
1682373340.79977393,132405015,0,3,165358800,2259,17,0.64,42.6899814,-84.4888095,259.24,0.12228655815124512,140.9743194580078,-0.5370000004768372,0.0,1
1682373340.99980497,132605046,0,3,165359000,2259,17,0.64,42.6899811,-84.4888094,259.34000000000003,0.17613916099071503,177.72238159179688,-0.4350000321865082,0.0,1
1682373341.20004988,132805291,0,3,165359200,2259,17,0.64,42.689980899999995,-84.48880919999999,259.43,0.15061542391777039,135.2689971923828,-0.4010000228881836,0.0,1
1682373341.39970398,133004945,0,3,165359400,2259,17,0.64,42.689980899999995,-84.4888091,259.57,0.17748521268367767,168.6267547607422,-0.2850000262260437,0.0,1
1682373341.59990692,133205148,0,3,165359600,2259,17,0.64,42.689980899999995,-84.4888091,259.67,0.07816009223461151,106.3481674194336,-0.42600002884864807,0.0,1
1682373341.80021787,133405459,0,3,165359800,2259,17,0.64,42.6899806,-84.48880899999999,259.77,0.29024818539619446,177.63047790527344,-0.43700000643730164,0.0,1
1682373342.02005601,133625297,0,3,165360000,2259,17,0.64,42.689980399999996,-84.4888089,259.91,0.1487615704536438,159.12840270996094,-0.43400001525878906,0.0,1
1682373342.19978499,133805026,0,3,165360200,2259,17,0.64,42.689980399999996,-84.48880899999999,260.04,0.14747203886508942,200.64700317382812,-0.4100000262260437,0.0,1
1682373342.39965606,134004897,0,3,165360400,2259,17,0.64,42.6899805,-84.4888091,260.21,0.06946222484111786,67.12632751464844,-0.6160000562667847,0.0,1
1682373342.59976792,134205009,0,3,165360600,2259,17,0.64,42.6899806,-84.48880899999999,260.36,0.033526111394166946,162.64596557617188,-0.6160000562667847,0.0,1
1682373342.79981899,134405060,0,3,165360800,2259,17,0.64,42.6899805,-84.48880899999999,260.48,0.09702061861753464,178.8188018798828,-0.5410000085830688,0.0,1
1682373342.99977398,134605015,0,3,165361000,2259,17,0.64,42.6899805,-84.4888089,260.62,0.11669190973043442,107.96913146972656,-0.6880000233650208,0.0,1
1682373343.19971299,134804954,0,3,165361200,2259,17,0.64,42.6899806,-84.48880899999999,260.8,0.17938785254955292,247.72410583496094,-0.6010000109672546,0.0,1
1682373343.41976786,135025009,0,3,165361400,2259,17,0.64,42.6899805,-84.48880919999999,260.94,0.06906519085168839,182.48956298828125,-0.5870000123977661,0.0,1
1682373343.60002494,135205266,0,3,165361600,2259,17,0.64,42.689980399999996,-84.48880919999999,261.05,0.04972926527261734,164.84591674804688,-0.5730000138282776,0.0,1
1682373343.79985094,135405092,0,3,165361800,2259,17,0.64,42.689980399999996,-84.48880919999999,261.19,0.007810249924659729,309.8055725097656,-0.5590000152587891,0.0,1
1682373344.00018191,135605423,0,3,165362000,2259,17,0.64,42.689980399999996,-84.48880919999999,261.29,0.0660075768828392,180.86807250976562,-0.4650000333786011,0.0,1
1682373344.21978593,135825027,0,3,165362200,2259,17,0.64,42.689980299999995,-84.48880919999999,261.38,0.06694027781486511,166.1713409423828,-0.4650000333786011,0.0,1
1682373344.39998889,136005230,0,3,165362400,2259,17,0.64,42.6899802,-84.4888091,261.47,0.016278820112347603,317.48956298828125,-0.49400001764297485,0.0,1
1682373344.60005093,136205292,0,3,165362600,2259,18,0.64,42.6899802,-84.4888091,261.57,0.05869412422180176,134.30970764160156,-0.39900001883506775,0.0,1
1682373344.80003285,136405274,0,3,165362800,2259,18,0.64,42.6899801,-84.48880899999999,261.65,0.05824087932705879,164.05459594726562,-0.4190000295639038,0.0,1
1682373344.99993086,136605172,0,3,165363000,2259,18,0.64,42.68998,-84.48880899999999,261.73,0.11690166592597961,169.65130615234375,-0.3330000042915344,0.0,1
1682373345.19994998,136805191,0,3,165363200,2259,18,0.64,42.6899799,-84.4888091,261.82,0.09604165703058243,301.3730163574219,-0.4390000104904175,0.0,1
1682373345.39974785,137004989,0,3,165363400,2259,18,0.64,42.6899801,-84.48880919999999,261.92,0.04805205762386322,192.01148986816406,-0.3330000042915344,0.0,1
1682373345.59982896,137205070,0,3,165363600,2259,18,0.64,42.6899802,-84.4888094,262.03000000000003,0.057140178978443146,237.14427185058594,-0.3750000298023224,0.0,1
1682373345.79980803,137405049,0,3,165363800,2259,18,0.64,42.6899801,-84.48880969999999,262.14,0.19872847199440002,223.98062133789062,-0.4270000159740448,0.0,1
1682373346.01999283,137625234,0,3,165364000,2259,18,0.6,42.6899799,-84.48880989999999,262.2,0.08256512880325317,191.17385864257812,-0.2710000276565552,0.0,1
1682373346.20000386,137805245,0,3,165364200,2259,18,0.6,42.6899801,-84.4888101,262.31,0.07623647898435593,265.48602294921875,-0.1510000079870224,0.0,1
1682373346.40002203,138005263,0,3,165364400,2259,18,0.6,42.6899802,-84.48881039999999,262.38,0.12101653218269348,270.94696044921875,-0.24000000953674316,0.0,1
1682373346.59977698,138205018,0,3,165364600,2259,18,0.6,42.6899802,-84.4888107,262.4,0.06718631088733673,265.73211669921875,0.06800000369548798,0.0,1
1682373346.79971385,138404955,0,3,165364800,2259,18,0.6,42.689980299999995,-84.48881089999999,262.4,0.05281098559498787,288.7780456542969,0.14000000059604645,0.0,1
1682373347.01993990,138625181,0,3,165365000,2259,18,0.6,42.689980399999996,-84.488811,262.38,0.055901702493429184,349.6951599121094,0.11400000751018524,0.0,1
1682373347.20006204,138805303,0,3,165365200,2259,18,0.6,42.689980399999996,-84.488811,262.35,0.04356604442000389,80.7538833618164,0.21700000762939453,0.0,1
1682373347.40017486,139005416,0,3,165365400,2259,18,0.6,42.689980399999996,-84.4888108,262.32,0.1153169646859169,111.89366149902344,0.15900000929832458,0.0,1
1682373347.60011387,139205355,0,3,165365600,2259,18,0.6,42.6899805,-84.4888106,262.35,0.2509761154651642,129.01634216308594,0.16900001466274261,0.0,1
1682373347.79997802,139405219,0,3,165365800,2259,18,0.6,42.6899802,-84.4888101,262.34000000000003,0.34165626764297485,125.83009338378906,0.07900000363588333,0.0,1
1682373348.04021502,139645456,0,3,165366000,2259,18,0.6,42.689979799999996,-84.4888094,262.34000000000003,0.511962890625,135.4748077392578,0.1980000138282776,0.0,1
1682373348.20004296,139805284,0,3,165366200,2259,18,0.6,42.689979099999995,-84.48880849999999,262.32,0.563320517539978,141.19723510742188,0.046000003814697266,0.0,1
1682373348.40002298,140005264,0,3,165366400,2259,18,0.6,42.689978599999996,-84.48880779999999,262.4,0.5688022971153259,143.29127502441406,-0.01100000087171793,0.0,1
1682373348.60008693,140205328,0,3,165366600,2259,18,0.6,42.6899778,-84.4888071,262.41,0.6474109888076782,148.83892822265625,0.06599999964237213,0.0,1
1682373348.79974198,140404983,0,3,165366800,2259,18,0.6,42.689976699999995,-84.4888062,262.41,0.7616488933563232,148.58468627929688,-0.017000000923871994,0.0,1
1682373348.99979091,140605032,0,3,165367000,2259,18,0.6,42.6899756,-84.48880539999999,262.43,0.7064120769500732,151.87503051757812,0.10400000214576721,0.0,1
1682373349.19981694,140805058,0,3,165367200,2259,18,0.6,42.6899745,-84.4888047,262.43,0.7628768086433411,159.5933837890625,0.04800000041723251,0.0,1
1682373349.39979005,141005031,0,3,165367400,2259,18,0.6,42.689973099999996,-84.4888041,262.39,0.806310772895813,162.98085021972656,0.19200000166893005,0.0,1
1682373349.59965706,141204898,0,3,165367600,2259,18,0.6,42.689971899999996,-84.4888036,262.39,0.7499926686286926,162.94219970703125,0.08800000697374344,0.0,1
1682373349.79978704,141405028,0,3,165367800,2259,18,0.6,42.689970699999996,-84.48880319999999,262.43,0.7846247553825378,164.4758758544922,0.1600000113248825,0.0,1
1682373350.00004387,141605285,0,3,165368000,2259,18,0.6,42.689969399999995,-84.4888027,262.39,0.7190842032432556,163.9342041015625,0.0560000017285347,0.0,1
1682373350.20012498,141805366,0,3,165368200,2259,18,0.6,42.6899681,-84.4888023,262.37,0.7800520062446594,166.65853881835938,0.1940000057220459,0.0,1
1682373350.40009904,142005340,0,3,165368400,2259,18,0.6,42.6899668,-84.4888019,262.37,0.7803698182106018,168.24368286132812,0.1810000091791153,0.0,1
1682373350.59995890,142205200,0,3,165368600,2259,18,0.6,42.6899655,-84.4888015,262.35,0.777373194694519,163.40663146972656,0.08100000023841858,0.0,1
1682373350.80003595,142405277,0,3,165368800,2259,18,0.6,42.6899642,-84.4888009,262.34000000000003,0.7757686376571655,162.28907775878906,0.11500000208616257,0.0,1
1682373351.00019789,142605439,0,3,165369000,2259,18,0.6,42.689963,-84.4888004,262.34000000000003,0.7164803147315979,163.79095458984375,0.17100000381469727,0.0,1
1682373351.20025086,142805492,0,3,165369200,2259,18,0.6,42.6899618,-84.4887998,262.33,0.770636796951294,158.29522705078125,0.006000000052154064,0.0,1
1682373351.39995384,143005195,0,3,165369400,2259,18,0.6,42.6899605,-84.4887992,262.32,0.7128990888595581,159.55682373046875,0.009000000543892384,0.0,1
1682373351.60004783,143205289,0,3,165369600,2259,18,0.6,42.6899592,-84.4887986,262.3,0.778869092464447,161.5883026123047,0.09000000357627869,0.0,1
1682373351.80005383,143405295,0,3,165369800,2259,18,0.6,42.689958,-84.488798,262.33,0.7857544422149658,160.13525390625,0.08400000631809235,0.0,1
1682373352.00015783,143605399,0,3,165370000,2259,18,0.6,42.6899568,-84.4887974,262.33,0.7348483204841614,157.51806640625,0.020000001415610313,0.0,1
1682373352.20012784,143805369,0,3,165370200,2259,18,0.6,42.689955399999995,-84.4887967,262.3,0.7483615875244141,159.5066680908203,0.03400000184774399,0.0,1
1682373352.39997792,144005219,0,3,165370400,2259,18,0.6,42.6899543,-84.488796,262.34000000000003,0.7442668080329895,155.63885498046875,-0.05100000277161598,0.0,1
1682373352.59978485,144205026,0,3,165370600,2259,18,0.6,42.6899531,-84.4887954,262.35,0.7507343292236328,161.27542114257812,-0.01100000087171793,0.0,1
1682373352.79985690,144405098,0,3,165370800,2259,18,0.6,42.6899519,-84.4887948,262.36,0.7567965388298035,162.30723571777344,0.0690000057220459,0.0,1
1682373352.99980497,144605046,0,3,165371000,2259,18,0.6,42.6899507,-84.4887942,262.35,0.7598763704299927,157.89053344726562,0.01600000075995922,0.0,1
1682373353.19988203,144805123,0,3,165371200,2259,18,0.6,42.689949399999996,-84.4887935,262.35,0.7803493142127991,158.89395141601562,0.05100000277161598,0.0,1
1682373353.40005684,145005298,0,3,165371400,2259,18,0.6,42.689948099999995,-84.48879289999999,262.36,0.7836249470710754,161.24134826660156,0.04100000113248825,0.0,1
1682373353.60004783,145205289,0,3,165371600,2259,18,0.6,42.689946899999995,-84.48879219999999,262.35,0.7285993695259094,159.8489227294922,0.03700000047683716,0.0,1
1682373353.80004191,145405283,0,3,165371800,2259,18,0.6,42.6899458,-84.4887916,262.35,0.7242493033409119,155.87684631347656,0.039000000804662704,0.0,1
1682373354.01996183,145625203,0,3,165372000,2259,18,0.6,42.6899446,-84.4887909,262.35,0.7871372699737549,160.94354248046875,0.024000000208616257,0.0,1
1682373354.19973493,145804976,0,3,165372200,2259,18,0.6,42.689943199999995,-84.4887902,262.35,0.8165121078491211,161.87570190429688,0.007000000216066837,0.0,1
1682373354.39977002,146005011,0,3,165372400,2259,18,0.6,42.6899419,-84.48878959999999,262.34000000000003,0.7771364450454712,158.08905029296875,0.164000004529953,0.0,1
1682373354.61979985,146225041,0,3,165372600,2259,18,0.6,42.6899406,-84.488789,262.32,0.8089463114738464,161.02749633789062,0.05100000277161598,0.0,1
1682373354.80021691,146405458,0,3,165372800,2259,18,0.6,42.6899393,-84.4887883,262.32,0.8340803980827332,157.21630859375,0.06400000303983688,0.0,1
1682373355.00005603,146605297,0,3,165373000,2259,18,0.6,42.6899379,-84.4887876,262.33,0.7995211482048035,159.11683654785156,0.07300000637769699,0.0,1
1682373355.19998288,146805224,0,3,165373200,2259,18,0.6,42.689936599999996,-84.4887868,262.32,0.8090099692344666,153.498291015625,0.07100000232458115,0.0,1
1682373355.40007496,147005316,0,3,165373400,2259,18,0.6,42.689935299999995,-84.4887861,262.32,0.8626703023910522,161.4810333251953,0.05400000140070915,0.0,1
1682373355.60006595,147205307,0,3,165373600,2259,18,0.6,42.689934,-84.4887854,262.31,0.7464972138404846,154.3617401123047,0.10300000756978989,0.0,1
1682373355.79972196,147404963,0,3,165373800,2259,18,0.6,42.689932899999995,-84.4887846,262.34000000000003,0.7611682415008545,153.13197326660156,0.14900000393390656,0.0,1
1682373355.99972892,147604970,0,3,165374000,2259,18,0.6,42.6899318,-84.4887839,262.37,0.7778695821762085,155.70843505859375,0.014000000432133675,0.0,1
1682373356.19976687,147805008,0,3,165374200,2259,18,0.6,42.6899306,-84.4887832,262.37,0.759895384311676,156.33607482910156,0.11600000411272049,0.0,1
1682373356.39984298,148005084,0,3,165374400,2259,18,0.6,42.6899295,-84.48878239999999,262.38,0.7835228443145752,153.63116455078125,-0.03400000184774399,0.0,1
1682373356.59979200,148205033,0,3,165374600,2259,18,0.6,42.6899283,-84.4887815,262.39,0.8028879761695862,149.9541778564453,0.036000002175569534,0.0,1
1682373356.79999995,148405241,0,3,165374800,2259,18,0.6,42.6899271,-84.4887806,262.39,0.7846999764442444,157.12738037109375,0.18300001323223114,0.0,1
1682373357.02004194,148625283,0,3,165375000,2259,18,0.6,42.6899259,-84.4887798,262.4,0.8632265329360962,152.54440307617188,0.07800000160932541,0.0,1
1682373357.19998693,148805228,0,3,165375200,2259,18,0.6,42.6899247,-84.4887791,262.42,0.6774429678916931,156.23501586914062,-0.0020000000949949026,0.0,1
1682373357.40001488,149005256,0,3,165375400,2259,18,0.6,42.6899237,-84.4887784,262.45,0.7496753334999084,154.5629425048828,0.0430000014603138,0.0,1
1682373357.60009694,149205338,0,3,165375600,2259,18,0.6,42.6899224,-84.48877759999999,262.45,0.7651889324188232,153.20053100585938,0.04400000348687172,0.0,1
1682373357.79997396,149405215,0,3,165375800,2259,18,0.6,42.6899212,-84.4887768,262.44,0.7592002749443054,154.98765563964844,-0.05100000277161598,0.0,1
1682373357.99977994,149605021,0,3,165376000,2259,18,0.6,42.68992,-84.488776,262.44,0.72855544090271,152.80186462402344,0.07800000160932541,0.0,1
1682373358.19981599,149805057,0,3,165376200,2259,18,0.6,42.689918899999995,-84.4887751,262.48,0.785947859287262,152.16336059570312,-0.04000000283122063,0.0,1
1682373358.39978004,150005021,0,3,165376400,2259,18,0.6,42.689917799999996,-84.4887744,262.51,0.7368616461753845,157.7509765625,-0.015000000596046448,0.0,1
1682373358.60003805,150205279,0,3,165376600,2259,18,0.6,42.689916499999995,-84.4887736,262.51,0.8161887526512146,155.38174438476562,0.04700000211596489,0.0,1
1682373358.80014801,150405389,0,3,165376800,2259,18,0.6,42.689915299999996,-84.4887729,262.53000000000003,0.7918384075164795,161.7480926513672,-0.027000000700354576,0.0,1
1682373359.00005889,150605300,0,3,165377000,2259,18,0.6,42.6899139,-84.4887722,262.52,0.852789580821991,155.98974609375,0.13100001215934753,0.0,1
1682373359.20014286,150805384,0,3,165377200,2259,18,0.6,42.6899125,-84.48877139999999,262.5,0.8383078575134277,157.4116668701172,0.08500000089406967,0.0,1
1682373359.39972305,151004964,0,3,165377400,2259,18,0.6,42.6899113,-84.48877069999999,262.52,0.8718951344490051,160.92083740234375,0.18400001525878906,0.0,1
1682373359.59974289,151204984,0,3,165377600,2259,18,0.6,42.689909899999996,-84.48877,262.52,0.8000100255012512,157.66659545898438,0.09800000488758087,0.0,1
1682373359.80001998,151405261,0,3,165377800,2259,18,0.6,42.6899087,-84.4887692,262.53000000000003,0.7893719673156738,155.44790649414062,0.005000000353902578,0.0,1
1682373360.01980495,151625046,0,3,165378000,2259,18,0.6,42.6899075,-84.4887686,262.54,0.6995605826377869,159.67401123046875,0.07000000029802322,0.0,1
1682373360.20009398,151805335,0,3,165378200,2259,18,0.6,42.6899064,-84.4887679,262.57,0.8016389608383179,156.47293090820312,-0.004000000189989805,0.0,1
1682373360.39984584,152005087,0,3,165378400,2259,18,0.6,42.6899051,-84.48876709999999,262.58,0.7509440779685974,156.95167541503906,-0.0690000057220459,0.0,1
1682373360.60011482,152205356,0,3,165378600,2259,18,0.6,42.6899041,-84.4887664,262.65,0.7016987204551697,153.87313842773438,-0.1600000113248825,0.0,1
1682373360.79980302,152405044,0,3,165378800,2259,18,0.6,42.6899029,-84.4887656,262.68,0.8161923885345459,153.90585327148438,-0.02500000037252903,0.0,1
1682373360.99978805,152605029,0,3,165379000,2259,18,0.6,42.6899015,-84.4887648,262.66,0.8350838422775269,158.5043487548828,0.09700000286102295,0.0,1
1682373361.19972706,152804968,0,3,165379200,2259,18,0.6,42.6899002,-84.4887641,262.67,0.8210804462432861,157.21371459960938,0.03400000184774399,0.0,1
1682373361.39997983,153005221,0,3,165379400,2259,18,0.6,42.689898799999995,-84.4887632,262.65,0.8645305633544922,154.1462860107422,0.12600000202655792,0.0,1
1682373361.60001802,153205259,0,3,165379600,2259,18,0.6,42.689897599999995,-84.4887624,262.65,0.768989622592926,154.83456420898438,0.08900000154972076,0.0,1
1682373361.80019283,153405434,0,3,165379800,2259,18,0.6,42.689896399999995,-84.48876159999999,262.65,0.8665818572044373,159.18084716796875,0.1600000113248825,0.0,1
1682373362.00020003,153605441,0,3,165380000,2259,18,0.6,42.6898951,-84.4887608,262.65,0.8096542954444885,154.700927734375,0.1210000067949295,0.0,1
1682373362.19995594,153805197,0,3,165380200,2259,18,0.6,42.6898939,-84.48876,262.66,0.7364950776100159,155.2791748046875,0.032999999821186066,0.0,1
1682373362.40002298,154005264,0,3,165380400,2259,18,0.6,42.6898927,-84.48875919999999,262.67,0.7562334537506104,156.2144317626953,-0.01100000087171793,0.0,1
1682373362.60003400,154205275,0,3,165380600,2259,18,0.6,42.689891499999995,-84.4887585,262.69,0.7807003855705261,157.6398162841797,0.11600000411272049,0.0,1
1682373362.79977584,154405017,0,3,165380800,2259,18,0.6,42.6898902,-84.4887578,262.69,0.8185157179832458,160.5910186767578,0.03500000014901161,0.0,1
1682373362.99972606,154604967,0,3,165381000,2259,18,0.6,42.689889,-84.4887571,262.71,0.753395676612854,159.5685577392578,-0.032999999821186066,0.0,1
1682373363.19974995,154804991,0,3,165381200,2259,18,0.6,42.6898878,-84.4887565,262.76,0.7608956098556519,160.89830017089844,-0.005000000353902578,0.0,1
1682373363.39978695,155005028,0,3,165381400,2259,18,0.6,42.6898865,-84.4887559,262.76,0.7785628437995911,159.2372283935547,-0.005000000353902578,0.0,1
1682373363.59983897,155205080,0,3,165381600,2259,18,0.6,42.6898853,-84.4887553,262.78000000000003,0.83504319190979,163.58334350585938,0.08900000154972076,0.0,1
1682373363.80012488,155405366,0,3,165381800,2259,18,0.6,42.6898839,-84.4887546,262.76,0.7647771239280701,162.6549072265625,-0.030000001192092896,0.0,1
1682373363.99998593,155605227,0,3,165382000,2259,18,0.6,42.6898826,-84.4887541,262.77,0.7650758624076843,162.5834197998047,0.02800000086426735,0.0,1
1682373364.19995093,155805192,0,3,165382200,2259,18,0.6,42.689881299999996,-84.4887534,262.74,0.7568018436431885,159.09837341308594,0.14500001072883606,0.0,1
1682373364.40002704,156005268,0,3,165382400,2259,18,0.6,42.689879999999995,-84.48875269999999,262.72,0.8238962888717651,160.5753936767578,0.10100000351667404,0.0,1
1682373364.62004089,156225282,0,3,165382600,2259,18,0.6,42.6898787,-84.4887521,262.73,0.7563399076461792,158.3533172607422,0.058000002056360245,0.0,1
1682373364.80012083,156405362,0,3,165382800,2259,18,0.6,42.6898775,-84.4887514,262.71,0.761864185333252,162.34986877441406,0.21400001645088196,0.0,1
1682373364.99973202,156604973,0,3,165383000,2259,18,0.6,42.6898762,-84.48875079999999,262.7,0.8045552372932434,159.78567504882812,0.08400000631809235,0.0,1
1682373365.19977999,156805021,0,3,165383200,2259,18,0.6,42.689875,-84.4887502,262.71,0.7666159272193909,157.44911193847656,0.03200000151991844,0.0,1
1682373365.39982986,157005071,0,3,165383400,2259,18,0.6,42.6898738,-84.4887494,262.71,0.7247545123100281,155.9813232421875,0.1340000033378601,0.0,1
1682373365.60009384,157205335,0,3,165383600,2259,18,0.6,42.689872699999995,-84.4887488,262.74,0.7242762446403503,158.9624786376953,0.05900000408291817,0.0,1
1682373365.80005383,157405295,0,3,165383800,2259,18,0.6,42.689871499999995,-84.4887481,262.74,0.8031046390533447,160.27899169921875,0.09300000220537186,0.0,1
1682373366.04004788,157645289,0,3,165384000,2259,18,0.6,42.6898702,-84.4887473,262.75,0.8144722580909729,154.31585693359375,0.10700000822544098,0.0,1
1682373366.20004487,157805286,0,3,165384200,2259,18,0.6,42.689869,-84.4887466,262.76,0.7498913407325745,156.75123596191406,0.1380000114440918,0.0,1
1682373366.40014982,158005391,0,3,165384400,2259,18,0.6,42.689867899999996,-84.4887459,262.78000000000003,0.7427947521209717,157.8548126220703,-0.0650000050663948,0.0,1
1682373366.60009789,158205339,0,3,165384600,2259,18,0.6,42.689866699999996,-84.4887452,262.79,0.7069540619850159,156.84397888183594,0.05300000309944153,0.0,1
1682373366.79997683,158405218,0,3,165384800,2259,18,0.6,42.6898656,-84.4887444,262.77,0.7088449001312256,155.49583435058594,0.0950000062584877,0.0,1
1682373367.00001597,158605257,0,3,165385000,2259,18,0.6,42.6898645,-84.4887437,262.8,0.7710006833076477,155.3961181640625,-0.01100000087171793,0.0,1
1682373367.20004582,158805287,0,3,165385200,2259,18,0.6,42.6898633,-84.48874289999999,262.82,0.7233872413635254,157.22779846191406,-0.021000001579523087,0.0,1
1682373367.40007997,159005321,0,3,165385400,2259,18,0.6,42.6898621,-84.48874219999999,262.82,0.7847611308097839,156.01527404785156,0.10300000756978989,0.0,1
1682373367.59995198,159205193,0,3,165385600,2259,18,0.6,42.6898608,-84.4887413,262.83,0.8378621935844421,154.78067016601562,-0.01900000125169754,0.0,1
1682373367.80001593,159405257,0,3,165385800,2259,18,0.6,42.6898595,-84.48874049999999,262.84000000000003,0.8092688918113708,157.93563842773438,0.01600000075995922,0.0,1
1682373368.00008202,159605323,0,3,165386000,2259,18,0.6,42.689858199999996,-84.4887397,262.84000000000003,0.7533876895904541,155.9525604248047,0.03100000135600567,0.0,1
1682373368.19976783,159805009,0,3,165386200,2259,18,0.6,42.6898568,-84.4887389,262.82,0.9071240425109863,158.32760620117188,0.12400000542402267,0.0,1
1682373368.39971304,160004954,0,3,165386400,2259,18,0.6,42.6898555,-84.48873809999999,262.82,0.8007128238677979,155.73960876464844,0.12400000542402267,0.0,1
1682373368.59996796,160205209,0,3,165386600,2259,18,0.6,42.6898541,-84.48873739999999,262.81,0.8500965237617493,162.3323516845703,0.08400000631809235,0.0,1
1682373368.80000901,160405250,0,3,165386800,2259,18,0.6,42.6898528,-84.48873669999999,262.83,0.8234003186225891,157.7333984375,0.036000002175569534,0.0,1
1682373369.00018501,160605426,0,3,165387000,2259,18,0.6,42.689851499999996,-84.488736,262.85,0.7901355028152466,158.077392578125,0.05100000277161598,0.0,1
1682373369.20001984,160805261,0,3,165387200,2259,18,0.6,42.689850199999995,-84.4887352,262.83,0.8227782249450684,157.11228942871094,0.1120000034570694,0.0,1
1682373369.40000486,161005246,0,3,165387400,2259,18,0.6,42.6898489,-84.4887346,262.84000000000003,0.8143617510795593,162.34378051757812,0.03100000135600567,0.0,1
1682373369.59977984,161205021,0,3,165387600,2259,18,0.6,42.6898475,-84.488734,262.83,0.8695131540298462,165.5482177734375,0.1420000046491623,0.0,1
1682373369.79981685,161405058,0,3,165387800,2259,18,0.6,42.6898462,-84.4887335,262.85,0.7531487941741943,165.15188598632812,0.04500000178813934,0.0,1
1682373369.99978304,161605024,0,3,165388000,2259,18,0.6,42.689845,-84.488733,262.88,0.7464650273323059,160.35133361816406,-0.04200000315904617,0.0,1
1682373370.19972801,161804969,0,3,165388200,2259,18,0.6,42.6898437,-84.48873239999999,262.89,0.7608482241630554,161.37454223632812,-0.01900000125169754,0.0,1
1682373370.39975286,162004994,0,3,165388400,2259,18,0.6,42.6898425,-84.4887317,262.92,0.7688465714454651,157.4374542236328,-0.08000000566244125,0.0,1
1682373370.60002494,162205266,0,3,165388600,2259,18,0.6,42.6898413,-84.488731,262.94,0.7495632767677307,155.4864501953125,0.02200000174343586,0.0,1
1682373370.80018592,162405427,0,3,165388800,2259,18,0.6,42.6898401,-84.4887303,262.95,0.7353564500808716,158.0394287109375,0.027000000700354576,0.0,1
1682373371.00020099,162605442,0,3,165389000,2259,18,0.6,42.689839,-84.4887296,262.96,0.7375636100769043,155.6588897705078,0.0430000014603138,0.0,1
1682373371.19988084,162805122,0,3,165389200,2259,18,0.6,42.6898379,-84.48872899999999,262.96,0.6369372010231018,158.34890747070312,0.02800000086426735,0.0,1
1682373371.40006399,163005305,0,3,165389400,2259,18,0.6,42.689836899999996,-84.4887285,262.97,0.5296688079833984,164.3369140625,0.12300000339746475,0.0,1
1682373371.60003686,163205278,0,3,165389600,2259,18,0.6,42.689836199999995,-84.4887282,262.97,0.45328250527381897,158.2455291748047,0.049000002443790436,0.0,1
1682373371.80014300,163405384,0,3,165389800,2259,18,0.6,42.689835599999995,-84.4887279,262.98,0.20974509418010712,172.60391235351562,-0.03500000014901161,0.0,1
1682373372.01996684,163625208,0,3,165390000,2259,18,0.6,42.6898354,-84.488728,263.01,0.19798991084098816,188.13011169433594,0.07300000637769699,0.0,1
1682373372.19999599,163805237,0,3,165390200,2259,18,0.6,42.689835099999996,-84.4887281,263.01,0.10154801607131958,212.125,-0.023000001907348633,0.0,1
1682373372.40029502,164005536,0,3,165390400,2259,18,0.6,42.689835099999996,-84.4887282,263.02,0.10855874419212341,211.0542755126953,0.08000000566244125,0.0,1
1682373372.60003090,164205272,0,3,165390600,2259,18,0.6,42.6898349,-84.48872829999999,263.01,0.12358398735523224,185.57220458984375,0.10700000822544098,0.0,1
1682373372.79977703,164405018,0,3,165390800,2259,18,0.6,42.6898348,-84.48872829999999,263.01,0.08528774976730347,175.29214477539062,0.11400000751018524,0.0,1
1682373372.99964499,164604886,0,3,165391000,2259,18,0.6,42.6898347,-84.48872829999999,263.0,0.07655064016580582,160.144775390625,0.0820000022649765,0.0,1
1682373373.19978404,164805025,0,3,165391200,2259,18,0.6,42.6898346,-84.48872829999999,263.0,0.06694027781486511,166.1713409423828,0.03100000135600567,0.0,1
1682373373.39980698,165005048,0,3,165391400,2259,18,0.6,42.6898346,-84.48872829999999,263.02,0.08036168664693832,163.36904907226562,0.10400000214576721,0.0,1
1682373373.60009503,165205336,0,3,165391600,2259,18,0.6,42.689834499999996,-84.48872829999999,263.02,0.010295630432665348,150.94540405273438,0.01100000087171793,0.0,1
1682373373.79970002,165404941,0,3,165391800,2259,18,0.6,42.6898346,-84.48872829999999,263.04,0.040311288088560104,113.38520812988281,0.1080000028014183,0.0,1
1682373373.99971795,165604959,0,3,165392000,2259,18,0.6,42.6898347,-84.4887282,263.03000000000003,0.03178049996495247,102.7243423461914,0.1300000101327896,0.0,1
1682373374.19975400,165804995,0,3,165392200,2259,18,0.6,42.6898347,-84.4887282,263.02,0.03132092207670212,16.69924545288086,-0.006000000052154064,0.0,1
1682373374.39980698,166005048,0,3,165392400,2259,18,0.6,42.6898348,-84.48872829999999,263.04,0.025632010772824287,159.44393920898438,0.11500000208616257,0.0,1
1682373374.59977102,166205012,0,3,165392600,2259,18,0.6,42.6898348,-84.48872829999999,263.03000000000003,0.04810405522584915,20.695449829101562,0.02200000174343586,0.0,1
1682373374.79988384,166405125,0,3,165392800,2259,18,0.6,42.689834999999995,-84.48872829999999,263.04,0.019723083823919296,30.465545654296875,0.09300000220537186,0.0,1
1682373375.02003193,166625273,0,3,165393000,2259,18,0.6,42.689835099999996,-84.48872829999999,263.05,0.03700000047683716,108.92463684082031,0.11700000613927841,0.0,1
1682373375.19997191,166805213,0,3,165393200,2259,18,0.6,42.689835099999996,-84.48872829999999,263.05,0.03956008329987526,16.144338607788086,-0.005000000353902578,0.0,1
1682373375.39999890,167005240,0,3,165393400,2259,18,0.6,42.6898353,-84.48872829999999,263.05,0.07158910483121872,28.354961395263672,0.009000000543892384,0.0,1
1682373375.60002899,167205270,0,3,165393600,2259,18,0.6,42.6898354,-84.48872829999999,263.06,0.04477722942829132,66.29734802246094,0.007000000216066837,0.0,1
1682373375.79996896,167405210,0,3,165393800,2259,18,0.6,42.6898354,-84.4887282,263.06,0.0672309473156929,59.62086868286133,0.015000000596046448,0.0,1
1682373376.00005794,167605299,0,3,165394000,2259,18,0.6,42.689835599999995,-84.488728,263.07,0.0931343138217926,86.92253875732422,0.10300000756978989,0.0,1
1682373376.20017195,167805413,0,3,165394200,2259,18,0.6,42.689835599999995,-84.4887279,263.06,0.0722772479057312,75.5792236328125,0.02800000086426735,0.0,1
1682373376.40010095,168005342,0,3,165394400,2259,18,0.6,42.689835699999996,-84.4887277,263.06,0.07684400677680969,108.19915771484375,0.0990000069141388,0.0,1
1682373376.59987497,168205116,0,3,165394600,2259,18,0.6,42.689835699999996,-84.4887277,263.05,0.05597320944070816,131.37850952148438,0.16200000047683716,0.0,1
1682373376.79997897,168405220,0,3,165394800,2259,18,0.6,42.689835599999995,-84.48872759999999,263.02,0.07500667124986649,137.16107177734375,0.12200000882148743,0.0,1
1682373376.99981689,168605058,0,3,165395000,2259,18,0.6,42.689835599999995,-84.4887275,263.01,0.06888396292924881,152.31893920898438,0.11700000613927841,0.0,1
1682373377.19976592,168805007,0,3,165395200,2259,18,0.6,42.689835599999995,-84.4887275,263.0,0.08784645795822144,157.2296142578125,0.12400000542402267,0.0,1
1682373377.39972687,169004968,0,3,165395400,2259,18,0.6,42.6898355,-84.4887274,262.99,0.08115417510271072,157.54306030273438,0.09300000220537186,0.0,1
1682373377.61995792,169225199,0,3,165395600,2259,18,0.6,42.6898355,-84.4887274,263.0,0.07863841205835342,172.69422912597656,0.0950000062584877,0.0,1
1682373377.80000091,169405242,0,3,165395800,2259,18,0.6,42.6898355,-84.4887274,263.01,0.06624197959899902,151.11341857910156,0.09200000762939453,0.0,1
1682373377.99983096,169605072,0,3,165396000,2259,18,0.6,42.6898354,-84.4887274,263.01,0.07158910483121872,167.9052276611328,0.05300000309944153,0.0,1
1682373378.19977784,169805019,0,3,165396200,2259,18,0.6,42.6898354,-84.4887274,263.02,0.07831347733736038,174.87179565429688,0.06700000166893005,0.0,1
1682373378.39964700,170004888,0,3,165396400,2259,18,0.6,42.6898353,-84.4887274,263.01,0.013601470738649368,107.10272216796875,-0.026000000536441803,0.0,1
1682373378.59975600,170204997,0,3,165396600,2259,18,0.6,42.6898354,-84.4887274,263.03000000000003,0.047010637819767,141.9112091064453,0.04000000283122063,0.0,1
1682373378.80002093,170405262,0,3,165396800,2259,18,0.6,42.6898354,-84.4887274,263.04,0.025632012635469437,69.4439468383789,-0.04100000113248825,0.0,1
1682373379.00011587,170605357,0,3,165397000,2259,18,0.6,42.6898354,-84.4887274,263.05,0.030413813889026642,80.53767395019531,0.01100000087171793,0.0,1
1682373379.20003700,170805278,0,3,165397200,2259,18,0.6,42.6898355,-84.4887274,263.05,0.06082763150334358,136.33221435546875,0.13600000739097595,0.0,1
1682373379.39989591,171005137,0,3,165397400,2259,18,0.6,42.6898355,-84.4887273,263.06,0.04118252173066139,119.0545883178711,0.04700000211596489,0.0,1
1682373379.59994388,171205185,0,3,165397600,2259,18,0.6,42.689835599999995,-84.4887273,263.08,0.035227831453084946,96.5197982788086,0.04000000283122063,0.0,1
1682373379.79996896,171405210,0,3,165397800,2259,18,0.6,42.689835599999995,-84.4887273,263.08,0.061983872205019,100.22216033935547,0.09300000220537186,0.0,1
1682373380.00018597,171605427,0,3,165398000,2259,18,0.6,42.689835599999995,-84.4887272,263.05,0.050159744918346405,94.57391357421875,0.2120000123977661,0.0,1
1682373380.20004487,171805286,0,3,165398200,2259,18,0.6,42.689835599999995,-84.4887272,263.01,0.05879626423120499,138.4473876953125,0.39400002360343933,0.0,1
1682373380.40002394,172005265,0,3,165398400,2259,18,0.6,42.689835699999996,-84.4887272,262.95,0.021189620718359947,250.7099609375,0.4650000333786011,0.0,1
1682373380.60005999,172205301,0,3,165398600,2259,18,0.6,42.689835599999995,-84.4887272,262.84000000000003,0.03606937825679779,133.87669372558594,0.4880000352859497,0.0,1
1682373380.79977989,172405021,0,3,165398800,2259,18,0.6,42.6898355,-84.4887272,262.72,0.019723083823919296,120.46554565429688,0.6510000228881836,0.0,1
1682373380.99969983,172604941,0,3,165399000,2259,18,0.6,42.689835599999995,-84.4887272,262.62,0.005385165102779865,21.801406860351562,0.48500001430511475,0.0,1
1682373381.19994688,172805188,0,3,165399200,2259,18,0.6,42.6898355,-84.4887273,262.53000000000003,0.14989329874515533,211.35708618164062,0.5820000171661377,0.0,1
1682373381.39978194,173005023,0,3,165399400,2259,18,0.6,42.6898354,-84.4887274,262.43,0.02961418591439724,78.31063079833984,0.3920000195503235,0.0,1
1682373381.59984493,173205086,0,3,165399600,2259,18,0.6,42.6898355,-84.4887274,262.39,0.08868484199047089,172.87496948242188,0.39900001883506775,0.0,1
1682373381.79978800,173405029,0,3,165399800,2259,18,0.6,42.6898353,-84.4887274,262.29,0.043829213827848434,152.85031127929688,0.49900001287460327,0.0,1
1682373381.99988699,173605128,0,3,165400000,2259,18,0.6,42.6898354,-84.4887274,262.25,0.03195309266448021,110.13629913330078,0.40300002694129944,0.0,1
1682373382.20000505,173805246,0,3,165400200,2259,18,0.6,42.6898354,-84.4887274,262.17,0.013928388245403767,248.96249389648438,0.34300002455711365,0.0,1
1682373382.39998984,174005231,0,3,165400400,2259,18,0.6,42.6898354,-84.4887274,262.09000000000003,0.04440721124410629,125.837646484375,0.5100000500679016,0.0,1
1682373382.60003400,174205275,0,3,165400600,2259,18,0.6,42.6898355,-84.4887274,262.03000000000003,0.03505709767341614,3.2704880237579346,0.3850000202655792,0.0,1
1682373382.80001187,174405253,0,3,165400800,2259,18,0.6,42.6898355,-84.4887274,261.96,0.039115212857723236,147.52879333496094,0.3760000169277191,0.0,1
1682373382.99994087,174605182,0,3,165401000,2259,18,0.6,42.689835599999995,-84.4887274,261.9,0.0458802804350853,110.40987396240234,0.3880000114440918,0.0,1
1682373383.19975901,174805000,0,3,165401200,2259,18,0.6,42.689835699999996,-84.4887274,261.85,0.05333854258060455,59.58891677856445,0.3710000216960907,0.0,1
1682373383.39981604,175005057,0,3,165401400,2259,18,0.6,42.689835699999996,-84.4887274,261.76,0.06511528789997101,227.48956298828125,0.5020000338554382,0.0,1
1682373383.59977984,175205021,0,3,165401600,2259,18,0.6,42.689835699999996,-84.4887274,261.71,0.1243261843919754,129.45152282714844,0.3830000162124634,0.0,1
1682373383.79962492,175404866,0,3,165401800,2259,18,0.6,42.6898358,-84.4887274,261.65,0.07605919241905212,331.7502746582031,0.4570000171661377,0.0,1
1682373384.03981304,175645054,0,3,165402000,2259,18,0.6,42.6898359,-84.4887274,261.58,0.10655045509338379,150.7886962890625,0.40800002217292786,0.0,1
1682373384.20011592,175805357,0,3,165402200,2259,18,0.6,42.6898358,-84.4887273,261.54,0.11531262844800949,136.75698852539062,0.20600001513957977,0.0,1
1682373384.40004802,176005289,0,3,165402400,2259,18,0.6,42.689835599999995,-84.48872709999999,261.5,0.1365613490343094,137.07716369628906,0.11300000548362732,0.0,1
1682373384.61987400,176225115,0,3,165402600,2259,18,0.6,42.6898354,-84.4887268,261.48,0.19872847199440002,136.01937866210938,0.12000000476837158,0.0,1
1682373384.79995584,176405197,0,3,165402800,2259,18,0.6,42.6898352,-84.48872639999999,261.49,0.21646246314048767,128.24642944335938,-0.026000000536441803,0.0,1
1682373385.00023293,176605474,0,3,165403000,2259,18,0.6,42.6898349,-84.488726,261.52,0.29739201068878174,137.9984588623047,-0.055000003427267075,0.0,1
1682373385.19979191,176805033,0,3,165403200,2259,18,0.6,42.6898346,-84.4887255,261.54,0.2682032883167267,132.73353576660156,-0.0990000069141388,0.0,1
1682373385.39977503,177005016,0,3,165403400,2259,18,0.6,42.6898341,-84.488725,261.55,0.31749802827835083,135.3828125,-0.12800000607967377,0.0,1
1682373385.59963298,177204874,0,3,165403600,2259,18,0.6,42.6898337,-84.4887244,261.57,0.3677635192871094,133.89828491210938,-0.15000000596046448,0.0,1
1682373385.80002093,177405262,0,3,165403800,2259,18,0.6,42.689833199999995,-84.4887237,261.61,0.42464694380760193,139.1060028076172,-0.17400000989437103,0.0,1
1682373386.00003099,177605272,0,3,165404000,2259,18,0.6,42.6898327,-84.488723,261.66,0.3999125063419342,130.74114990234375,-0.13700000941753387,0.0,1
1682373386.20001197,177805253,0,3,165404200,2259,18,0.6,42.6898324,-84.48872229999999,261.71,0.3297104835510254,113.22140502929688,-0.18900001049041748,0.0,1
1682373386.40002394,178005265,0,3,165404400,2259,18,0.6,42.6898323,-84.4887218,261.75,0.17608237266540527,103.79947662353516,-0.11300000548362732,0.0,1
1682373386.59973598,178204977,0,3,165404600,2259,18,0.6,42.6898325,-84.4887214,261.79,0.23297424614429474,56.378135681152344,-0.02800000086426735,0.0,1
1682373386.79973483,178404976,0,3,165404800,2259,18,0.6,42.6898329,-84.488721,261.82,0.3165896534919739,23.650100708007812,-0.11400000751018524,0.0,1
1682373386.99980092,178605042,0,3,165405000,2259,18,0.6,42.6898334,-84.4887207,261.85,0.32035139203071594,18.943979263305664,-0.009000000543892384,0.0,1
1682373387.20018196,178805423,0,3,165405200,2259,18,0.6,42.6898341,-84.4887205,261.86,0.4176745116710663,14.701668739318848,-0.015000000596046448,0.0,1
1682373387.40002298,179005264,0,3,165405400,2259,18,0.6,42.6898349,-84.4887202,261.86,0.48316043615341187,13.403483390808105,0.0690000057220459,0.0,1
1682373387.59998298,179205224,0,3,165405600,2259,18,0.6,42.6898359,-84.48872,261.89,0.4728171229362488,9.741228103637695,0.08500000089406967,0.0,1
1682373387.80001187,179405253,0,3,165405800,2259,18,0.6,42.689836799999995,-84.48872,261.88,0.5360932946205139,358.9311828613281,0.07700000703334808,0.0,1
1682373388.00005698,179605298,0,3,165406000,2259,18,0.6,42.6898379,-84.48872,261.87,0.652019202709198,359.5606384277344,0.10100000351667404,0.0,1
1682373388.19967985,179804921,0,3,165406200,2259,18,0.6,42.6898392,-84.4887201,261.87,0.7305758595466614,357.7250671386719,0.19300000369548798,0.0,1
1682373388.39969587,180004937,0,3,165406400,2259,18,0.6,42.6898408,-84.4887203,261.88,0.859807014465332,350.4938659667969,0.22600001096725464,0.0,1
1682373388.59973383,180204975,0,3,165406600,2259,18,0.6,42.6898426,-84.4887208,261.88,1.056489109992981,348.4241638183594,0.07000000029802322,0.0,1
1682373388.79978490,180405026,0,3,165406800,2259,18,0.6,42.6898446,-84.4887213,261.86,1.1753932237625122,349.31146240234375,0.17100000381469727,0.0,1
1682373388.99979496,180605036,0,3,165407000,2259,18,0.6,42.6898467,-84.488722,261.82,1.2970097064971924,345.0315856933594,0.1600000113248825,0.0,1
1682373389.19987893,180805120,0,3,165407200,2259,18,0.6,42.689849099999996,-84.4887229,261.81,1.4155200719833374,343.7543640136719,0.14600001275539398,0.0,1
1682373389.39998603,181005227,0,3,165407400,2259,18,0.6,42.6898517,-84.48872399999999,261.8,1.5119024515151978,341.2894287109375,0.09700000286102295,0.0,1
1682373389.59996295,181205204,0,3,165407600,2259,18,0.6,42.6898546,-84.4887253,261.84000000000003,1.6890826225280762,340.2777099609375,0.07100000232458115,0.0,1
1682373389.79999495,181405236,0,3,165407800,2259,18,0.6,42.689857499999995,-84.4887268,261.84000000000003,1.8019726276397705,339.6039733886719,0.03200000151991844,0.0,1
1682373390.01994801,181625189,0,3,165408000,2259,18,0.6,42.689860599999996,-84.48872829999999,261.83,1.804195761680603,339.5963439941406,0.14100000262260437,0.0,1
1682373390.19970989,181804951,0,3,165408200,2259,18,0.6,42.6898637,-84.48872999999999,261.8,1.9438848495483398,335.43896484375,0.11600000411272049,0.0,1
1682373390.39973998,182004981,0,3,165408400,2259,18,0.6,42.6898669,-84.488732,261.81,1.909325122833252,334.1999206542969,0.05400000140070915,0.0,1
1682373390.59977198,182205013,0,3,165408600,2259,18,0.6,42.6898702,-84.4887341,261.83,2.0105786323547363,336.5843811035156,0.00800000037997961,0.0,1
1682373390.80016804,182405409,0,3,165408800,2259,18,0.6,42.6898735,-84.488736,261.84000000000003,1.9622732400894165,335.81219482421875,-0.013000000268220901,0.0,1
1682373391.00003004,182605271,0,3,165409000,2259,18,0.6,42.6898767,-84.488738,261.84000000000003,2.0087897777557373,336.344482421875,0.026000000536441803,0.0,1
1682373391.19998097,182805222,0,3,165409200,2259,18,0.6,42.689879999999995,-84.48873979999999,261.85,1.8914018869400024,337.62481689453125,0.07900000363588333,0.0,1
1682373391.40002489,183005266,0,3,165409400,2259,18,0.6,42.6898833,-84.4887416,261.87,1.9565657377243042,337.6819763183594,0.01100000087171793,0.0,1
1682373391.60011101,183205352,0,3,165409600,2259,18,0.6,42.6898865,-84.4887432,261.87,1.8592238426208496,340.912109375,0.015000000596046448,0.0,1
1682373391.79967499,183404916,0,3,165409800,2259,18,0.6,42.689889799999996,-84.4887447,261.88,1.928084373474121,341.1797790527344,0.05300000309944153,0.0,1
1682373391.99971104,183604952,0,3,165410000,2259,18,0.6,42.6898929,-84.4887463,261.88,1.7906184196472168,339.29791259765625,-0.03400000184774399,0.0,1
1682373392.19973183,183804973,0,3,165410200,2259,18,0.6,42.689896,-84.4887478,261.9,1.7698819637298584,340.561767578125,0.06700000166893005,0.0,1
1682373392.39981198,184005053,0,3,165410400,2259,18,0.6,42.689899,-84.4887494,261.89,1.7865535020828247,335.6011657714844,0.05900000408291817,0.0,1
1682373392.60005784,184205299,0,3,165410600,2259,18,0.6,42.689902,-84.48875129999999,261.9,1.8549062013626099,334.48486328125,-0.01900000125169754,0.0,1
1682373392.79986095,184405102,0,3,165410800,2259,18,0.6,42.689904899999995,-84.48875319999999,261.91,1.796477198600769,333.1639404296875,0.046000003814697266,0.0,1
1682373393.02002096,184625262,0,3,165411000,2259,18,0.6,42.6899078,-84.4887552,261.91,1.7772431373596191,333.6800537109375,0.08000000566244125,0.0,1
1682373393.19999290,184805234,0,3,165411200,2259,18,0.6,42.6899106,-84.48875699999999,261.87,1.7276418209075928,332.97515869140625,0.09600000083446503,0.0,1
1682373393.42006683,185025308,0,3,165411400,2259,18,0.6,42.6899133,-84.4887591,261.86,1.6590853929519653,328.85858154296875,0.09400000423192978,0.0,1
1682373393.62026405,185225505,0,3,165411600,2259,18,0.6,42.6899158,-84.488761,261.82,1.664536714553833,332.0955810546875,0.12200000882148743,0.0,1
1682373393.79969287,185404934,0,3,165411800,2259,18,0.6,42.689918399999996,-84.4887629,261.79,1.5846530199050903,330.9278259277344,0.23600001633167267,0.0,1
1682373393.99996495,185605206,0,3,165412000,2259,18,0.6,42.689921,-84.48876469999999,261.78000000000003,1.5442520380020142,333.7502136230469,0.20500001311302185,0.0,1
1682373394.20019603,185805437,0,3,165412200,2259,18,0.6,42.6899234,-84.4887665,261.75,1.4774725437164307,329.2690124511719,0.1510000079870224,0.0,1
1682373394.40012097,186005362,0,3,165412400,2259,18,0.6,42.6899259,-84.48876829999999,261.77,1.5889924764633179,333.01568603515625,0.04700000211596489,0.0,1
1682373394.62007284,186225314,0,3,165412600,2259,18,0.6,42.6899284,-84.4887701,261.79,1.4256707429885864,328.9190673828125,0.024000000208616257,0.0,1
1682373394.81993699,186425178,0,3,165412800,2259,18,0.6,42.6899306,-84.488772,261.79,1.4791229963302612,327.9001770019531,0.07500000298023224,0.0,1
1682373395.02000093,186625242,0,3,165413000,2259,18,0.6,42.6899328,-84.48877379999999,261.75,1.4345860481262207,330.289794921875,0.13300000131130219,0.0,1
1682373395.20003486,186805276,0,3,165413200,2259,18,0.6,42.689935,-84.4887756,261.74,1.3950212001800537,328.5431823730469,0.07600000500679016,0.0,1
1682373395.39967990,187004921,0,3,165413400,2259,18,0.6,42.689937199999996,-84.48877739999999,261.76,1.3620973825454712,327.99017333984375,-0.015000000596046448,0.0,1
1682373395.59971404,187204955,0,3,165413600,2259,18,0.6,42.6899394,-84.4887791,261.77,1.330678105354309,330.6610107421875,0.21000000834465027,0.0,1
1682373395.79973292,187404974,0,3,165413800,2259,18,0.6,42.689941499999996,-84.4887808,261.79,1.3300981521606445,328.2457580566406,-0.02200000174343586,0.0,1
1682373396.01978993,187625031,0,3,165414000,2259,18,0.6,42.6899436,-84.48878239999999,261.79,1.365766167640686,332.0089416503906,0.003000000026077032,0.0,1
1682373396.20013905,187805380,0,3,165414200,2259,18,0.6,42.6899459,-84.488784,261.8,1.3367760181427002,333.9524841308594,0.13199999928474426,0.0,1
1682373396.39988995,188005131,0,3,165414400,2259,18,0.6,42.689948099999995,-84.4887854,261.78000000000003,1.3612208366394043,334.7339172363281,0.14300000667572021,0.0,1
1682373396.59994102,188205182,0,3,165414600,2259,18,0.6,42.6899504,-84.4887868,261.81,1.287092924118042,335.58551025390625,0.07400000095367432,0.0,1
1682373396.80002093,188405262,0,3,165414800,2259,18,0.6,42.6899525,-84.488788,261.8,1.2135279178619385,337.9794006347656,0.10700000822544098,0.0,1
1682373397.00013185,188605373,0,3,165415000,2259,18,0.6,42.6899547,-84.48878909999999,261.8,1.2681363821029663,342.1365661621094,0.004000000189989805,0.0,1
1682373397.19968104,188804922,0,3,165415200,2259,18,0.6,42.6899568,-84.4887902,261.8,1.2117096185684204,337.0745849609375,0.06400000303983688,0.0,1
1682373397.39969683,189004938,0,3,165415400,2259,18,0.6,42.6899587,-84.4887914,261.81,1.0814403295516968,334.1220703125,0.030000001192092896,0.0,1
1682373397.59974504,189204986,0,3,165415600,2259,18,0.6,42.6899604,-84.4887924,261.83,0.8604539632797241,336.65277099609375,-0.01600000075995922,0.0,1
1682373397.79977894,189405020,0,3,165415800,2259,18,0.6,42.6899618,-84.48879319999999,261.84000000000003,0.7539615631103516,336.8014221191406,-0.017000000923871994,0.0,1
1682373397.99976802,189605009,0,3,165416000,2259,18,0.6,42.6899629,-84.48879389999999,261.87,0.5854955911636353,336.76287841796875,-0.010000000707805157,0.0,1
1682373398.20002484,189805266,0,3,165416200,2259,18,0.6,42.6899638,-84.4887945,261.88,0.5103038549423218,334.08770751953125,0.013000000268220901,0.0,1
1682373398.40013885,190005380,0,3,165416400,2259,18,0.6,42.6899647,-84.488795,261.91,0.3991854190826416,349.90057373046875,-0.004000000189989805,0.0,1
1682373398.60000587,190205247,0,3,165416600,2259,18,0.6,42.6899653,-84.4887952,261.9,0.373121976852417,347.30462646484375,-0.027000000700354576,0.0,1
1682373398.80004501,190405286,0,3,165416800,2259,18,0.6,42.689966,-84.4887952,261.91,0.3334861397743225,3.094058036804199,0.04400000348687172,0.0,1
1682373398.99999094,190605232,0,3,165417000,2259,18,0.6,42.6899666,-84.48879529999999,261.92,0.2560703158378601,1.3426239490509033,0.04200000315904617,0.0,1
1682373399.22015905,190825400,0,3,165417200,2259,18,0.6,42.689966999999996,-84.48879529999999,261.91,0.256719708442688,11.0035400390625,0.0950000062584877,0.0,1
1682373399.39974403,191004985,0,3,165417400,2259,18,0.6,42.689967499999995,-84.4887952,261.9,0.24103321135044098,34.349369049072266,0.19300000369548798,0.0,1
1682373399.59978104,191205022,0,3,165417600,2259,18,0.6,42.6899679,-84.488795,261.91,0.10783784836530685,18.939001083374023,0.14400000870227814,0.0,1
1682373399.79977393,191405015,0,3,165417800,2259,18,0.6,42.6899681,-84.4887949,261.89,0.1029028668999672,55.69220733642578,0.30000001192092896,0.0,1
1682373399.99986100,191605102,0,3,165418000,2259,18,0.6,42.689968199999996,-84.4887947,261.84000000000003,0.10417773574590683,68.60710144042969,0.18300001323223114,0.0,1
1682373400.19997382,191805215,0,3,165418200,2259,18,0.6,42.6899683,-84.4887945,261.81,0.02831960655748844,47.86240005493164,0.21000000834465027,0.0,1
1682373400.42009687,192025338,0,3,165418400,2259,18,0.6,42.6899685,-84.48879439999999,261.78000000000003,0.09868130832910538,70.46334075927734,0.26500001549720764,0.0,1
1682373400.60011387,192205355,0,3,165418600,2259,18,0.6,42.6899687,-84.4887942,261.77,0.15498711168766022,42.64670181274414,0.2540000081062317,0.0,1
1682373400.79968691,192404928,0,3,165418800,2259,18,0.6,42.6899689,-84.488794,261.72,0.1078239381313324,28.228775024414062,0.29600000381469727,0.0,1
1682373400.99971390,192604955,0,3,165419000,2259,18,0.6,42.689969399999995,-84.488794,261.71,0.1371787190437317,2.9249777793884277,0.3700000047683716,0.0,1
