timestamp,TimeUS,C,Roll,Pitch,Yaw,VN,VE,VD,dPD,PN,PE,PD,GX,GY,GZ,OH
1682373323.93939304,115544634,2,-0.8,1.03,189.13,-0.0029647694900631905,0.008039017207920551,0.061454009264707565,-0.015380484983325005,-0.09213287383317947,0.06591478735208511,0.49710774421691895,-0.09,0.08,0.17,260.97
1682373324.03938985,115644631,2,-0.8,1.03,189.12,-0.0028057245071977377,0.008160891011357307,0.06027354672551155,-0.014731894247233868,-0.09225466102361679,0.06538025289773941,0.4960780143737793,-0.09,0.08,0.17,260.97
1682373324.13944197,115744683,2,-0.81,1.03,189.11,-0.0011787578696385026,0.007993903011083603,0.05984960496425629,-0.007901369594037533,-0.0911979228258133,0.06492617726325989,0.49562811851501465,-0.09,0.08,0.17,260.97
1682373324.23951793,115844759,2,-0.81,1.03,189.1,-0.0005258433520793915,0.008489846251904964,0.05944900959730148,0.006204954348504543,-0.09013890475034714,0.06447838991880417,0.49621057510375977,-0.09,0.08,0.17,260.97
1682373324.33951592,115944757,2,-0.81,1.03,189.09,0.00033781109959818423,0.008137705735862255,0.05953757092356682,0.01743432506918907,-0.08904256671667099,0.0638289824128151,0.49780726432800293,-0.09,0.08,0.17,260.97
1682373324.43950295,116044744,2,-0.8,1.03,189.1,0.002060286933556199,0.007564428728073835,0.05921229347586632,0.026161231100559235,-0.08773952722549438,0.06307386606931686,0.4998457431793213,-0.09,0.08,0.17,260.97
1682373324.53942800,116144669,2,-0.8,1.02,189.09,0.001850400003604591,0.005438211839646101,0.058660972863435745,0.021437011659145355,-0.08614899218082428,0.06180987134575844,0.5016758441925049,-0.09,0.08,0.17,260.97
1682373324.63941598,116244657,2,-0.8,1.02,189.08,0.0009797486709430814,0.004739341326057911,0.05687432363629341,0.024222930893301964,-0.08498014509677887,0.06054031103849411,0.503887414932251,-0.09,0.08,0.17,260.97
1682373324.73941302,116344654,2,-0.8,1.02,189.07,-1.8857172108255327e-05,0.002714467002078891,0.055909764021635056,0.02332683838903904,-0.0843309685587883,0.05903554707765579,0.5061557292938232,-0.09,0.08,0.17,260.97
1682373324.83939385,116444635,2,-0.8,1.03,189.07,-0.0006072347168810666,0.0018558682641014457,0.056287169456481934,0.03662307187914848,-0.08382805436849594,0.05784080922603607,0.5099828243255615,-0.09,0.08,0.17,260.97
1682373324.93938398,116544625,2,-0.81,1.02,189.05,-0.0010529523715376854,0.0015643443912267685,0.05715285614132881,0.05169953778386116,-0.08335354179143906,0.05699539557099342,0.5147039890289307,-0.09,0.08,0.17,260.97
1682373325.03945589,116644697,2,-0.8,1.02,189.05,-0.002679883735254407,0.0007278817938640714,0.058694709092378616,0.0627060979604721,-0.08376777917146683,0.05611381307244301,0.5207650661468506,-0.09,0.08,0.17,260.97
1682373325.13953090,116744772,2,-0.8,1.02,189.04,-0.006524938158690929,-0.0005611273809336126,0.060531068593263626,0.08169539272785187,-0.08551834523677826,0.05485882982611656,0.5281658172607422,-0.09,0.08,0.17,260.97
1682373325.23952198,116844763,2,-0.8,1.02,189.03,-0.010009842924773693,-0.0014269223902374506,0.06179961934685707,0.07807266712188721,-0.08719367533922195,0.05368189513683319,0.5351507663726807,-0.09,0.08,0.17,260.97
1682373325.33946085,116944702,2,-0.8,1.02,189.03,-0.012351076118648052,-0.002147814491763711,0.06315892934799194,0.07142382115125656,-0.08854053169488907,0.05252963304519653,0.5418155193328857,-0.09,0.08,0.17,260.97
1682373325.43951702,117044758,2,-0.8,1.03,189.02,-0.013195862993597984,-0.0027604654897004366,0.06476318836212158,0.07149455696344376,-0.08989531546831131,0.05171883851289749,0.5492167472839355,-0.09,0.08,0.17,260.97
1682373325.53942895,117144670,2,-0.81,1.03,189.02,-0.014689365401864052,-0.0014502218691632152,0.06720674782991409,0.08406747877597809,-0.09120868891477585,0.05135228857398033,0.5573978424072266,-0.09,0.08,0.17,260.97
1682373325.63938403,117244625,2,-0.81,1.03,189.02,-0.015209849923849106,-0.0010120195802301168,0.06936962157487869,0.08254334330558777,-0.09244001656770706,0.0515645407140255,0.5652725696563721,-0.09,0.08,0.17,260.97
1682373325.73941088,117344652,2,-0.81,1.03,189.01,-0.016578875482082367,0.0013115726178511977,0.07089094817638397,0.0813022330403328,-0.09350131452083588,0.052557628601789474,0.573249340057373,-0.09,0.08,0.17,260.97
1682373325.83939004,117444631,2,-0.81,1.04,189.01,-0.017645105719566345,0.004647118039429188,0.07130995392799377,0.07967336475849152,-0.09466974437236786,0.05356365814805031,0.5812664031982422,-0.09,0.08,0.17,260.97
1682373325.93943191,117544673,2,-0.8200000000000001,1.03,189.0,-0.019914863631129265,0.005897635128349066,0.07314740866422653,0.08311739563941956,-0.09590961039066315,0.05446147173643112,0.589508056640625,-0.09,0.08,0.17,260.97
1682373326.03950906,117644750,2,-0.8200000000000001,1.02,188.99,-0.02122478373348713,0.00692332349717617,0.0731327086687088,0.07388019561767578,-0.09662369638681412,0.055213361978530884,0.5960705280303955,-0.09,0.08,0.17,260.97
1682373326.13951492,117744756,2,-0.81,1.02,188.98,-0.02175380103290081,0.006987931672483683,0.07188604027032852,0.039062608033418655,-0.0964621752500534,0.055531855672597885,0.6001205444335938,-0.09,0.08,0.17,260.97
1682373326.23945999,117844701,2,-0.81,1.02,188.98,-0.02375262789428234,0.006404133513569832,0.07087773829698563,0.03076009452342987,-0.09705313295125961,0.05535447597503662,0.604241132736206,-0.09,0.08,0.17,260.97
1682373326.33943796,117944679,2,-0.81,1.02,188.98,-0.025253450497984886,0.00580349937081337,0.06981245428323746,0.0318823903799057,-0.09838797152042389,0.05438363552093506,0.6082234382629395,-0.09,0.08,0.17,260.97
1682373326.43942404,118044665,2,-0.8200000000000001,1.02,188.97,-0.02727685496211052,0.005121003836393356,0.06858838349580765,0.031858332455158234,-0.09962619841098785,0.05352332070469856,0.6115496158599854,-0.09,0.08,0.17,260.97
1682373326.53938603,118144627,2,-0.8200000000000001,1.02,188.97,-0.029225889593362808,0.005583398975431919,0.06865380704402924,0.023670503869652748,-0.10060250014066696,0.052715450525283813,0.6143276691436768,-0.09,0.08,0.17,260.97
1682373326.63938594,118244627,2,-0.84,1.02,188.97,-0.030685029923915863,0.0062119499780237675,0.06858403980731964,0.025483794510364532,-0.10177931934595108,0.052427325397729874,0.6170144081115723,-0.09,0.08,0.17,260.97
1682373326.73940206,118344643,2,-0.8300000000000001,1.03,188.98,-0.03140410780906677,0.006606893613934517,0.06753159314393997,0.02229919098317623,-0.10287526249885559,0.052721574902534485,0.6195666790008545,-0.09,0.08,0.17,260.97
1682373326.83945489,118444696,2,-0.84,1.03,188.98,-0.03389007970690727,0.009062131866812706,0.0674150139093399,0.026515165343880653,-0.10383900254964828,0.052780840545892715,0.6225621700286865,-0.09,0.08,0.17,260.97
1682373326.93953896,118544780,2,-0.8300000000000001,1.02,188.95000000000002,-0.033948834985494614,0.005334021057933569,0.0664665624499321,0.032815031707286835,-0.10494646430015564,0.05272413417696953,0.6258852481842041,-0.09,0.08,0.17,260.97
1682373327.03949499,118644736,2,-0.85,1.03,188.95000000000002,-0.025608278810977936,0.015675630420446396,0.06516053527593613,0.024760939180850983,-0.10423074662685394,0.05163174867630005,0.627643346786499,-0.09,0.08,0.17,260.97
1682373327.13948703,118744728,2,-0.8300000000000001,1.02,188.98,-0.03896946832537651,0.0001395942090312019,0.06374050676822662,-0.020982522517442703,-0.10318213701248169,0.049757298082113266,0.6248891353607178,-0.09,0.08,0.17,260.97
1682373327.23938084,118844622,2,-0.85,1.02,188.9,-0.021149877458810806,0.017324548214673996,0.06356249749660492,-0.04132118076086044,-0.10256323218345642,0.04921523854136467,0.6234097480773926,-0.09,0.08,0.17,260.97
1682373327.33941889,118944660,2,-0.87,1.04,188.96,-0.04467976838350296,-0.0008415472693741322,0.06248662248253822,-0.03005288355052471,-0.10183828324079514,0.04917232692241669,0.6214470863342285,-0.09,0.08,0.17,260.97
1682373327.43938398,119044625,2,-0.8300000000000001,1.0,188.93,-0.02687705308198929,0.02257516048848629,0.06163381040096283,-0.03674765303730965,-0.1014288142323494,0.04970265552401543,0.618027925491333,-0.09,0.08,0.17,260.97
1682373327.53938103,119144622,2,-0.89,1.05,188.94,-0.03385816887021065,0.008137661963701248,0.05941641330718994,-0.057039640843868256,-0.09801436960697174,0.05043981596827507,0.6126875877380371,-0.09,0.08,0.17,260.97
1682373327.63939190,119244633,2,-0.8200000000000001,1.0,188.91,-0.03828450292348862,0.015599940903484821,0.058197516947984695,-0.05951932817697525,-0.0965777114033699,0.05123072862625122,0.607698917388916,-0.09,0.08,0.17,260.97
1682373327.73947191,119344713,2,-0.9,1.02,188.91,-0.014706636779010296,0.016646672040224075,0.05449271574616432,-0.05123132839798927,-0.09301066398620605,0.051067642867565155,0.603325605392456,-0.09,0.08,0.17,260.97
1682373327.83949685,119444738,2,-0.8200000000000001,1.05,188.91,-0.03490014001727104,0.012991659343242645,0.05219581723213196,-0.04801434651017189,-0.08934538811445236,0.052074678242206573,0.5985560417175293,-0.09,0.08,0.17,260.97
1682373327.93953586,119544777,2,-0.89,1.02,188.88,-0.028113096952438354,0.02184469997882843,0.050588738173246384,-0.05008332058787346,-0.08655883371829987,0.05241507291793823,0.5938184261322021,-0.09,0.08,0.17,260.97
1682373328.03945684,119644698,2,-0.85,1.06,188.89000000000001,-0.022669639438390732,0.015303007327020168,0.04897148162126541,-0.03682858496904373,-0.08483629673719406,0.05416427552700043,0.5906579494476318,-0.09,0.08,0.17,260.97
1682373328.13943887,119744680,2,-0.88,1.04,188.87,-0.03778870403766632,0.025465084239840508,0.04929826408624649,-0.021815035492181778,-0.08630868047475815,0.05559365078806877,0.5879824161529541,-0.09,0.08,0.17,260.97
1682373328.23941398,119844655,2,-0.88,1.04,188.87,-0.02479558251798153,0.017297210171818733,0.04726863652467728,-0.03609154000878334,-0.08726916462182999,0.05665821209549904,0.5838570594787598,-0.09,0.08,0.17,260.97
1682373328.33938384,119944625,2,-0.87,1.05,188.88,-0.03629763796925545,0.02781694568693638,0.04531627520918846,-0.041201621294021606,-0.08720436692237854,0.056687936186790466,0.5801126956939697,-0.09,0.08,0.17,260.97
1682373328.43939590,120044637,2,-0.9,1.04,188.86,-0.03376707434654236,0.02018146403133869,0.044040240347385406,-0.01244583260267973,-0.08787835389375687,0.05654626339673996,0.5796756744384766,-0.09,0.08,0.17,260.97
1682373328.53938103,120144622,2,-0.86,1.05,188.86,-0.031929656863212585,0.026737838983535767,0.04384142532944679,0.02444467321038246,-0.08739503473043442,0.05658350884914398,0.5813472270965576,-0.09,0.08,0.17,260.97
1682373328.63946605,120244707,2,-0.9,1.05,188.86,-0.04154239222407341,0.025723926723003387,0.043625809252262115,0.027102241292595863,-0.0884813517332077,0.057069044560194016,0.5830891132354736,-0.09,0.08,0.17,260.97
1682373328.73954487,120344786,2,-0.86,1.05,188.85,-0.03613590821623802,0.02667934261262417,0.04390985518693924,0.035295967012643814,-0.09052324295043945,0.058923203498125076,0.5856950283050537,-0.09,0.08,0.17,260.97
1682373328.83954692,120444788,2,-0.91,1.05,188.86,-0.04473806545138359,0.03126433864235878,0.044480301439762115,0.02684985101222992,-0.09210896492004395,0.06052108481526375,0.5876286029815674,-0.09,0.08,0.17,260.97
1682373328.93946195,120544703,2,-0.88,1.04,188.86,-0.03963810205459595,0.027677850797772408,0.042878005653619766,0.009100418537855148,-0.09349503368139267,0.06240779533982277,0.5881361961364746,-0.09,0.08,0.17,260.97
1682373329.03938484,120644626,2,-0.9,1.05,188.86,-0.04232567921280861,0.03671432286500931,0.04244454950094223,-0.0031660781241953373,-0.09452575445175171,0.06422530114650726,0.5883228778839111,-0.09,0.08,0.17,260.97
1682373329.13941789,120744659,2,-0.9,1.05,188.85,-0.04671946167945862,0.029572630301117897,0.04217907413840294,-0.009608158841729164,-0.09573812782764435,0.06593083590269089,0.587552547454834,-0.09,0.08,0.17,260.97
1682373329.23938203,120844623,2,-0.89,1.05,188.85,-0.04281838983297348,0.04055372253060341,0.0408753976225853,-0.029448630288243294,-0.09605663269758224,0.06782824546098709,0.5848736763000488,-0.09,0.08,0.17,260.97
1682373329.33938789,120944629,2,-0.91,1.05,188.84,-0.04739164188504219,0.03567997366189957,0.03805588185787201,-0.05801992863416672,-0.09482565522193909,0.06949423253536224,0.5797333717346191,-0.09,0.08,0.17,260.97
1682373329.43938494,121044626,2,-0.89,1.05,188.83,-0.04359334707260132,0.041308894753456116,0.03648972883820534,-0.06206318736076355,-0.09333162009716034,0.0711127519607544,0.5750467777252197,-0.09,0.08,0.17,260.97
1682373329.53945684,121144698,2,-0.92,1.07,188.84,-0.0423261933028698,0.04076838865876198,0.03486160561442375,-0.05241277813911438,-0.0901239737868309,0.07181282341480255,0.5706522464752197,-0.09,0.08,0.17,260.97
1682373329.63954306,121244784,2,-0.89,1.07,188.83,-0.03959039971232414,0.04111119732260704,0.03288950398564339,-0.049741778522729874,-0.0870366021990776,0.07284741848707199,0.565880298614502,-0.09,0.08,0.17,260.97
1682373329.73950100,121344742,2,-0.91,1.08,188.84,-0.037298765033483505,0.043356750160455704,0.03173545002937317,-0.05366865172982216,-0.08290253579616547,0.07329417765140533,0.560788631439209,-0.09,0.08,0.17,260.97
1682373329.83945894,121444700,2,-0.89,1.09,188.84,-0.035278595983982086,0.039747465401887894,0.02925342507660389,-0.04766560345888138,-0.07937128841876984,0.07348591089248657,0.556412935256958,-0.09,0.08,0.17,260.97
1682373329.93938184,121544623,2,-0.89,1.09,188.82,-0.03527376428246498,0.04168016463518143,0.027248166501522064,-0.04247841238975525,-0.07584763318300247,0.0724017471075058,0.5523386001586914,-0.09,0.08,0.17,260.97
1682373330.03941584,121644657,2,-0.88,1.1,188.83,-0.03178834915161133,0.037965498864650726,0.02586657553911209,-0.036625936627388,-0.07347012311220169,0.07227467745542526,0.5485227108001709,-0.09,0.08,0.17,260.97
1682373330.13938403,121744625,2,-0.87,1.1,188.82,-0.03210078924894333,0.040132053196430206,0.02540271356701851,-0.02572963573038578,-0.06962031126022339,0.07167208939790726,0.5460205078125,-0.09,0.08,0.17,260.97
1682373330.23938990,121844631,2,-0.87,1.1,188.82,-0.029231112450361252,0.038465410470962524,0.023271482437849045,-0.03216836601495743,-0.06665315479040146,0.07153505086898804,0.5423746109008789,-0.09,0.08,0.17,260.97
1682373330.33938694,121944628,2,-0.86,1.1,188.82,-0.02874322235584259,0.0389544703066349,0.023270387202501297,-0.03472406789660454,-0.06405211240053177,0.07167764753103256,0.5389795303344727,-0.09,0.08,0.17,260.97
1682373330.43944192,122044683,2,-0.87,1.1,188.81,-0.02666325680911541,0.03974525257945061,0.022966746240854263,-0.034305278211832047,-0.06195276603102684,0.0718136727809906,0.5358424186706543,-0.09,0.08,0.17,260.97
1682373330.53951001,122144751,2,-0.85,1.1,188.81,-0.025850532576441765,0.03754695877432823,0.022843725979328156,-0.03027445822954178,-0.05952183157205582,0.07170847058296204,0.5326175689697266,-0.09,0.08,0.17,260.97
1682373330.63951683,122244758,2,-0.86,1.09,188.82,-0.028004586696624756,0.03951725736260414,0.02276487834751606,-0.03576919808983803,-0.05793127417564392,0.07179192453622818,0.5292773246765137,-0.09,0.08,0.17,260.97
1682373330.73949885,122344740,2,-0.86,1.09,188.81,-0.024107351899147034,0.035840146243572235,0.022588877007365227,-0.02902461774647236,-0.05641613528132439,0.07175739854574203,0.5264294147491455,-0.09,0.08,0.17,260.97
1682373330.83938193,122444623,2,-0.86,1.08,188.8,-0.025646934285759926,0.037893474102020264,0.02259630151093006,-0.0455261766910553,-0.05402917414903641,0.07185596972703934,0.5212557315826416,-0.09,0.08,0.17,260.97
1682373330.93941402,122544655,2,-0.86,1.08,188.8,-0.021385909989476204,0.0362141914665699,0.021496117115020752,-0.056556444615125656,-0.04981633275747299,0.07159245014190674,0.5166306495666504,-0.09,0.08,0.17,260.97
1682373331.03938389,122644625,2,-0.85,1.09,188.8,-0.021756110712885857,0.03627125173807144,0.021581457927823067,-0.0294673852622509,-0.046660494059324265,0.07159760594367981,0.5148930549621582,-0.09,0.08,0.17,260.97
1682373331.13938999,122744631,2,-0.85,1.09,188.79,-0.02135164849460125,0.035160716623067856,0.022572649642825127,0.013240923173725605,-0.04415663704276085,0.07112893462181091,0.5158817768096924,-0.09,0.08,0.17,260.97
1682373331.23938298,122844624,2,-0.84,1.09,188.8,-0.019509809091687202,0.033657725900411606,0.02323002740740776,0.023096732795238495,-0.041972093284130096,0.070682093501091,0.5171515941619873,-0.09,0.08,0.17,260.97
1682373331.33943486,122944676,2,-0.85,1.09,188.79,-0.020414868369698524,0.03328803926706314,0.0233096145093441,0.02176789380609989,-0.03963366523385048,0.06955298036336899,0.5182094573974609,-0.09,0.08,0.17,260.97
1682373331.43952203,123044763,2,-0.84,1.09,188.78,-0.018427511677145958,0.030688704922795296,0.022982610389590263,0.007170561701059341,-0.0373290479183197,0.0689457431435585,0.5183427333831787,-0.09,0.08,0.17,260.97
1682373331.53949499,123144736,2,-0.84,1.1,188.78,-0.018468186259269714,0.03287163004279137,0.022878844290971756,0.0014581492869183421,-0.034398842602968216,0.06854661554098129,0.5185296535491943,-0.09,0.08,0.17,260.97
1682373331.63948488,123244726,2,-0.85,1.1,188.78,-0.016418147832155228,0.031057892367243767,0.022434039041399956,0.002590380609035492,-0.03151395916938782,0.06830262392759323,0.5190210342407227,-0.09,0.08,0.17,260.97
1682373331.73943686,123344678,2,-0.84,1.1,188.79,-0.0157296322286129,0.03166225180029869,0.022604599595069885,-0.001989891054108739,-0.027897629886865616,0.06784837692975998,0.5185637474060059,-0.09,0.08,0.17,260.97
1682373331.83942604,123444667,2,-0.85,1.1,188.79,-0.015027632005512714,0.029825065284967422,0.023712443187832832,-0.008375421166419983,-0.02528061904013157,0.06719186902046204,0.5184035301208496,-0.09,0.08,0.17,260.97
1682373331.93938303,123544624,2,-0.84,1.1,188.78,-0.01602085307240486,0.02842947095632553,0.025202808901667595,0.012328601442277431,-0.02314770221710205,0.06601571291685104,0.5198078155517578,-0.09,0.08,0.17,260.97
1682373332.03938484,123644626,2,-0.85,1.1,188.78,-0.016621273010969162,0.027799539268016815,0.026431355625391006,0.016560446470975876,-0.020955106243491173,0.0651099681854248,0.5212242603302002,-0.09,0.08,0.17,260.97
1682373332.13939095,123744632,2,-0.84,1.1,188.78,-0.015134024433791637,0.025112951174378395,0.028316698968410492,0.0024459732230752707,-0.018017655238509178,0.06413109600543976,0.5206282138824463,-0.09,0.08,0.17,260.97
1682373332.23942804,123844669,2,-0.84,1.11,188.78,-0.01461485493928194,0.026570534333586693,0.028493467718362808,-0.0031240484677255154,-0.015191607177257538,0.0632377415895462,0.5211396217346191,-0.09,0.08,0.17,260.97
1682373332.33949089,123944732,2,-0.84,1.11,188.77,-0.014709518291056156,0.02443373017013073,0.028357094153761864,0.012105755507946014,-0.012002852745354176,0.061947450041770935,0.5225536823272705,-0.09,0.08,0.17,260.97
1682373332.43949986,124044741,2,-0.8300000000000001,1.1,188.77,-0.012786815874278545,0.02558882348239422,0.028697669506072998,0.01181526854634285,-0.008676678873598576,0.06076820194721222,0.5234889984130859,-0.09,0.08,0.17,260.97
1682373332.53949594,124144737,2,-0.8300000000000001,1.11,188.76,-0.012222559191286564,0.023628966882824898,0.028902946040034294,0.005211425479501486,-0.0053651840426027775,0.05967290699481964,0.5236549377441406,-0.09,0.08,0.17,260.97
1682373332.63938189,124244623,2,-0.8200000000000001,1.12,188.75,-0.009497538208961487,0.02286105789244175,0.029997875913977623,0.006482508033514023,-0.0013711928622797132,0.058641646057367325,0.5248792171478271,-0.09,0.08,0.17,260.97
1682373332.73942494,124344666,2,-0.8300000000000001,1.1300000000000001,188.75,-0.006635333877056837,0.021637925878167152,0.03099394589662552,0.01568293198943138,0.003091235877946019,0.05765291303396225,0.5262351036071777,-0.09,0.08,0.17,260.97
1682373332.83938098,124444622,2,-0.8300000000000001,1.1300000000000001,188.74,-0.004056257661432028,0.02105947956442833,0.031542424112558365,0.012870771810412407,0.008058157749474049,0.05658749118447304,0.527355432510376,-0.09,0.08,0.17,260.97
1682373332.93937993,124544621,2,-0.8300000000000001,1.1300000000000001,188.74,-0.0011496760416775942,0.021363629028201103,0.031504370272159576,0.010338556952774525,0.013232887722551823,0.05557458475232124,0.5283434391021729,-0.09,0.08,0.17,260.97
1682373333.03938293,124644624,2,-0.8300000000000001,1.1400000000000001,188.74,-6.569207471329719e-06,0.02000037021934986,0.032439135015010834,0.010596713051199913,0.01694030873477459,0.054930396378040314,0.5298588275909424,-0.09,0.08,0.16,260.97
1682373333.13942385,124744665,2,-0.8300000000000001,1.1400000000000001,188.74,0.0003138658357784152,0.02032569609582424,0.03322448208928108,0.02129264920949936,0.020459864288568497,0.053645212203264236,0.5319855213165283,-0.09,0.08,0.16,260.97
1682373333.23953199,124844773,2,-0.8300000000000001,1.1500000000000001,188.73,0.0008581769652664661,0.018632344901561737,0.03520648181438446,0.03265582397580147,0.023557648062705994,0.05256928503513336,0.5354502201080322,-0.09,0.08,0.16,260.97
1682373333.33951283,124944754,2,-0.8300000000000001,1.1500000000000001,188.74,0.002305038971826434,0.018977494910359383,0.036821093410253525,0.054482392966747284,0.026749765500426292,0.0513586588203907,0.5403201580047607,-0.09,0.08,0.17,260.97
1682373333.43946195,125044703,2,-0.84,1.1500000000000001,188.74,0.004688604269176722,0.01742621511220932,0.03701933100819588,0.035063233226537704,0.030893171206116676,0.0500243715941906,0.5427019596099854,-0.09,0.08,0.16,260.97
1682373333.53938293,125144624,2,-0.84,1.1500000000000001,188.74,0.006577386986464262,0.01762552559375763,0.036495380103588104,-0.006203596945852041,0.03669362515211105,0.048269547522068024,0.5420138835906982,-0.09,0.08,0.16,260.97
1682373333.63941097,125244652,2,-0.84,1.1500000000000001,188.74,0.008582456968724728,0.017005305737257004,0.03634806349873543,-0.023739879950881004,0.0419028215110302,0.046947646886110306,0.5407476425170898,-0.09,0.08,0.16,260.97
1682373333.73939800,125344639,2,-0.84,1.16,188.74,0.010018899105489254,0.015386569313704967,0.03676161915063858,-0.019493527710437775,0.04701254889369011,0.04576586186885834,0.5398166179656982,-0.09,0.08,0.16,260.97
1682373333.83938599,125444627,2,-0.84,1.16,188.74,0.010972102172672749,0.016120515763759613,0.03746863827109337,-0.012367132119834423,0.05174529179930687,0.04481235146522522,0.5391037464141846,-0.09,0.08,0.16,260.97
1682373333.93938303,125544624,2,-0.85,1.17,188.74,0.011766842566430569,0.015126669779419899,0.037973884493112564,-0.011802944354712963,0.056585878133773804,0.04382404312491417,0.5380675792694092,-0.09,0.08,0.16,260.97
1682373334.03946185,125644703,2,-0.85,1.16,188.74,0.012444271706044674,0.015479735098779202,0.038155920803546906,-0.00545329786837101,0.060981087386608124,0.0431346520781517,0.5381522178649902,-0.09,0.08,0.16,260.97
1682373334.13952184,125744763,2,-0.85,1.16,188.74,0.013449925929307938,0.014588526450097561,0.038438569754362106,0.01766553893685341,0.06541288644075394,0.04229008033871651,0.5398235321044922,-0.09,0.08,0.16,260.97
1682373334.23952699,125844768,2,-0.85,1.16,188.74,0.013855461031198502,0.015414520166814327,0.038614824414253235,0.016159962862730026,0.06989048421382904,0.041764430701732635,0.5408859252929688,-0.09,0.08,0.16,260.97
1682373334.33945394,125944695,2,-0.84,1.16,188.74,0.016466671600937843,0.015223691239953041,0.0398060642182827,0.005141629371792078,0.0750979408621788,0.0411716029047966,0.5409724712371826,-0.09,0.08,0.16,260.97
1682373334.43952799,126044769,2,-0.84,1.17,188.74,0.017821600660681725,0.014822342433035374,0.03952917456626892,-0.011817884631454945,0.0808011144399643,0.040849316865205765,0.5397865772247314,-0.09,0.08,0.16,260.97
1682373334.53941083,126144652,2,-0.85,1.18,188.74,0.02080739103257656,0.016476619988679886,0.039289701730012894,-0.03156018629670143,0.08778174221515656,0.04055366665124893,0.537076473236084,-0.09,0.08,0.16,260.97
1682373334.63938189,126244623,2,-0.85,1.18,188.74,0.02070763148367405,0.015780115500092506,0.038919251412153244,-0.02984374761581421,0.09324011206626892,0.040137309581041336,0.5351736545562744,-0.09,0.08,0.16,260.97
1682373334.73940587,126344647,2,-0.85,1.17,188.74,0.020794440060853958,0.016311349347233772,0.03967568278312683,0.0023679817095398903,0.09729296714067459,0.03920472785830498,0.5360431671142578,-0.09,0.08,0.16,260.97
1682373334.83938289,126444624,2,-0.86,1.17,188.74,0.021477989852428436,0.016282204538583755,0.04054425656795502,0.013828350231051445,0.10158321261405945,0.03840288147330284,0.5366861820220947,-0.09,0.08,0.16,260.97
1682373334.93945193,126544693,2,-0.84,1.17,188.74,0.02275744453072548,0.015556411817669868,0.04026928171515465,0.007595418486744165,0.1065119206905365,0.03744622692465782,0.5370783805847168,-0.09,0.08,0.16,260.97
1682373335.03952289,126644764,2,-0.85,1.17,188.74,0.023945491760969162,0.016648853197693825,0.039722152054309845,0.011313344351947308,0.11132744699716568,0.03723648190498352,0.5383198261260986,-0.09,0.08,0.16,260.97
1682373335.13949704,126744738,2,-0.85,1.18,188.75,0.02485675737261772,0.016747737303376198,0.03923977538943291,0.011741720139980316,0.11642836779356003,0.037784215062856674,0.5390477180480957,-0.09,0.08,0.16,260.97
1682373335.23945689,126844698,2,-0.85,1.18,188.75,0.026247235015034676,0.018524935469031334,0.040452420711517334,0.003361491719260812,0.1218988373875618,0.03856589272618294,0.5391263961791992,-0.09,0.08,0.16,260.97
1682373335.33942389,126944665,2,-0.85,1.18,188.76,0.0277702696621418,0.018817273899912834,0.03984109312295914,-0.0017100616823881865,0.12823732197284698,0.03943832218647003,0.5391921997070312,-0.09,0.08,0.16,260.97
1682373335.43941593,127044657,2,-0.86,1.18,188.76,0.02916526421904564,0.020288173109292984,0.040182389318943024,-0.0005588341737166047,0.13399304449558258,0.03980428725481033,0.5393373966217041,-0.09,0.08,0.16,260.97
1682373335.53938699,127144628,2,-0.86,1.18,188.75,0.030053026974201202,0.020498916506767273,0.04044177010655403,0.0030060296412557364,0.13950476050376892,0.039259109646081924,0.53985595703125,-0.1,0.08,0.16,260.97
1682373335.63938189,127244623,2,-0.85,1.18,188.75,0.02998068369925022,0.021258996799588203,0.03997311368584633,-0.001052973559126258,0.14461839199066162,0.038872987031936646,0.5396676063537598,-0.1,0.08,0.16,260.97
1682373335.73939586,127344637,2,-0.86,1.17,188.76,0.030102623626589775,0.021784016862511635,0.039391111582517624,-0.004185135010629892,0.1496291160583496,0.03816163167357445,0.5395097732543945,-0.1,0.08,0.16,260.97
1682373335.83944893,127444690,2,-0.86,1.17,188.75,0.030934002250432968,0.02102707326412201,0.03877033293247223,-0.013342894613742828,0.15504765510559082,0.03793114423751831,0.5380823612213135,-0.1,0.08,0.16,260.97
1682373335.93952394,127544765,2,-0.86,1.16,188.76,0.031608134508132935,0.022506874054670334,0.03824300691485405,-0.013517164625227451,0.16120541095733643,0.037789106369018555,0.5375387668609619,-0.1,0.08,0.16,260.97
1682373336.03953600,127644777,2,-0.86,1.17,188.76,0.03287569805979729,0.022213799878954887,0.03783838078379631,-0.004652027506381273,0.16707123816013336,0.03809376433491707,0.5371770858764648,-0.1,0.08,0.16,260.97
1682373336.13949299,127744734,2,-0.87,1.17,188.75,0.03258370980620384,0.02345888689160347,0.03691645711660385,0.0001294937974307686,0.17295695841312408,0.03851737827062607,0.5373733043670654,-0.1,0.08,0.16,260.97
1682373336.23938489,127844626,2,-0.87,1.17,188.75,0.03385233134031296,0.023491909727454185,0.03579561784863472,0.003312674118205905,0.17963221669197083,0.03877733647823334,0.5372531414031982,-0.1,0.08,0.16,260.97
1682373336.33941698,127944658,2,-0.87,1.18,188.75,0.03513631597161293,0.02369389869272709,0.03462998941540718,-0.006533076521009207,0.18774233758449554,0.03845013305544853,0.5366811752319336,-0.1,0.08,0.16,260.97
1682373336.43939090,128044632,2,-0.87,1.17,188.75,0.03577037155628204,0.023889761418104172,0.0352114737033844,0.012608043849468231,0.1947147697210312,0.03863931819796562,0.5388336181640625,-0.1,0.08,0.16,260.97
1682373336.53939795,128144639,2,-0.87,1.18,188.75,0.034893300384283066,0.02400795929133892,0.036658480763435364,0.0524117574095726,0.2007128894329071,0.03912923485040665,0.5435781478881836,-0.1,0.08,0.16,260.97
1682373336.63938904,128244630,2,-0.87,1.18,188.75,0.034724071621894836,0.025356026366353035,0.03870268538594246,0.0610770545899868,0.20702366530895233,0.04001185670495033,0.5485942363739014,-0.1,0.08,0.16,260.97
1682373336.73945403,128344695,2,-0.87,1.18,188.75,0.034813158214092255,0.025082586333155632,0.04061536490917206,0.06364943087100983,0.21411728858947754,0.04114502668380737,0.553985595703125,-0.1,0.08,0.16,260.97
1682373336.83950806,128444749,2,-0.87,1.18,188.75,0.03385152667760849,0.026486562564969063,0.042107079178094864,0.06452659517526627,0.22037868201732635,0.042014237493276596,0.5603196620941162,-0.1,0.08,0.16,260.97
1682373336.93950891,128544750,2,-0.87,1.18,188.74,0.03322702273726463,0.025743499398231506,0.04333328828215599,0.07951022684574127,0.2261943817138672,0.04238737374544144,0.5677690505981445,-0.1,0.08,0.16,260.97
1682373337.03948903,128644730,2,-0.87,1.18,188.74,0.03170961141586304,0.026690775528550148,0.04508903622627258,0.07640674710273743,0.23173974454402924,0.04294126108288765,0.5749256610870361,-0.1,0.08,0.16,260.97
1682373337.13942695,128744668,2,-0.87,1.17,188.74,0.029547546058893204,0.025783589109778404,0.04616494104266167,0.0783509686589241,0.23720158636569977,0.043186914175748825,0.5823550224304199,-0.1,0.08,0.16,260.97
1682373337.23941994,128844661,2,-0.87,1.17,188.74,0.027155760675668716,0.0246103685349226,0.0482710637152195,0.07252093404531479,0.24210725724697113,0.04338323697447777,0.5894193649291992,-0.1,0.08,0.16,260.97
1682373337.33938599,128944627,2,-0.88,1.16,188.74,0.024530841037631035,0.024442246183753014,0.05010656267404556,0.07190907001495361,0.2467607706785202,0.04314952343702316,0.5964224338531494,-0.1,0.08,0.16,260.97
1682373337.43938804,129044629,2,-0.88,1.16,188.74,0.021819842979311943,0.02404070273041725,0.05155209079384804,0.06730661541223526,0.2508682310581207,0.043403539806604385,0.6038026809692383,-0.1,0.08,0.16,260.97
1682373337.53938794,129144629,2,-0.88,1.17,188.74,0.0203530415892601,0.024559175595641136,0.053274888545274734,0.08153560757637024,0.25479617714881897,0.04386939853429794,0.6118135452270508,-0.1,0.08,0.16,260.97
1682373337.63946891,129244710,2,-0.89,1.16,188.73,0.018074020743370056,0.024423759430646896,0.053696904331445694,0.06695429235696793,0.25938910245895386,0.04407062008976936,0.6175932884216309,-0.1,0.08,0.16,260.97
1682373337.73950505,129344746,2,-0.89,1.16,188.73,0.015837276354432106,0.023888424038887024,0.05469624698162079,0.04299427568912506,0.26407426595687866,0.044138677418231964,0.6220133304595947,-0.1,0.08,0.16,260.97
1682373337.83952785,129444769,2,-0.89,1.16,188.73,0.013672552071511745,0.02404281497001648,0.055539119988679886,0.04587244242429733,0.26810261607170105,0.04473132640123367,0.62811279296875,-0.1,0.08,0.16,260.97
1682373337.93949103,129544732,2,-0.89,1.16,188.73,0.010350427590310574,0.025208018720149994,0.056873660534620285,0.0681573748588562,0.2711934447288513,0.04584236070513725,0.6349761486053467,-0.1,0.08,0.16,260.97
1682373338.03943205,129644673,2,-0.9,1.16,188.72,0.00867225881665945,0.02567252703011036,0.05854157730937004,0.05944468453526497,0.27531370520591736,0.04665876552462578,0.6400377750396729,-0.1,0.08,0.16,260.97
1682373338.13942504,129744666,2,-0.9,1.16,188.71,0.006515635177493095,0.0251779705286026,0.05949638411402702,0.04012981429696083,0.279866486787796,0.047278255224227905,0.6440794467926025,-0.1,0.08,0.16,260.97
1682373338.23939395,129844635,2,-0.9,1.16,188.71,0.004773947410285473,0.024978118017315865,0.06002587452530861,0.029451662674546242,0.28417620062828064,0.04776943102478981,0.6475203037261963,-0.1,0.08,0.16,260.97
1682373338.33938789,129944629,2,-0.9,1.17,188.70000000000002,0.0027045535389333963,0.02330746315419674,0.058420512825250626,0.01652648113667965,0.28946876525878906,0.04737137258052826,0.6498992443084717,-0.1,0.08,0.16,260.97
1682373338.43939185,130044633,2,-0.91,1.17,188.69,0.0019741826690733433,0.022496357560157776,0.05728893354535103,0.01823979802429676,0.29506298899650574,0.04682524874806404,0.6524615287780762,-0.1,0.08,0.16,260.97
1682373338.53944898,130144690,2,-0.91,1.17,188.68,0.0015809061005711555,0.02127181552350521,0.056548867374658585,0.019481327384710312,0.3017692267894745,0.04564741253852844,0.6547448635101318,-0.1,0.08,0.16,260.97
1682373338.63954306,130244784,2,-0.91,1.17,188.69,0.0002789188001770526,0.020873447880148888,0.05673466622829437,0.030362842604517937,0.30777788162231445,0.04485568404197693,0.6583616733551025,-0.1,0.08,0.16,260.97
1682373338.73955703,130344798,2,-0.91,1.17,188.69,-0.000896013923920691,0.020045330747961998,0.05961371213197708,0.05539572983980179,0.31362470984458923,0.044160373508930206,0.6635828018188477,-0.1,0.08,0.16,260.97
1682373338.83950305,130444744,2,-0.91,1.17,188.68,-0.00032609666232019663,0.01889326237142086,0.060936089605093,0.06261657178401947,0.31927481293678284,0.04378213360905647,0.6694025993347168,-0.1,0.08,0.16,260.97
1682373338.93943596,130544677,2,-0.91,1.18,188.70000000000002,-0.0036896311212331057,0.02186223305761814,0.0632842555642128,0.07142426818609238,0.32538774609565735,0.04354546219110489,0.6758513450622559,-0.1,0.08,0.16,260.97
1682373339.03942490,130644666,2,-0.91,1.18,188.69,-0.0029317764565348625,0.022631339728832245,0.062413230538368225,0.06522320955991745,0.33014190196990967,0.04391258582472801,0.6818220615386963,-0.1,0.08,0.16,260.97
1682373339.13940096,130744642,2,-0.9500000000000001,1.16,188.66,0.003537990152835846,0.02797299064695835,0.0631411075592041,0.0451192669570446,0.33709806203842163,0.04223349690437317,0.6859259605407715,-0.1,0.08,0.16,260.97
1682373339.23940206,130844643,2,-0.91,1.19,188.75,-0.0007048656698316336,0.01537330448627472,0.060469403862953186,0.03282475098967552,0.34327298402786255,0.04165692627429962,0.6897165775299072,-0.1,0.08,0.16,260.97
1682373339.33939695,130944638,2,-0.93,1.1500000000000001,188.65,0.016985975205898285,0.05344289913773537,0.07447938621044159,0.04758012294769287,0.34885287284851074,0.04189753159880638,0.693631649017334,-0.1,0.08,0.16,260.97
1682373339.43946791,131044709,2,-1.0,1.1300000000000001,188.64000000000001,0.006625896319746971,0.04347245395183563,0.049676910042762756,0.03249351680278778,0.3551808297634125,0.04208267107605934,0.6976449489593506,-0.1,0.08,0.16,260.97
1682373339.53955293,131144794,2,-0.9500000000000001,0.66,188.63,-0.044697657227516174,0.028735293075442314,-0.24486906826496124,-0.24722552299499512,0.3591701090335846,0.04476821422576904,0.6885685920715332,-0.1,0.08,0.16,260.97
1682373339.63950086,131244742,2,0.33,0.17,188.62,-0.044767528772354126,0.0308703500777483,-0.5420564413070679,-0.5628622770309448,0.36192211508750916,0.047613292932510376,0.6433882713317871,-0.1,0.08,0.16,260.97
1682373339.73950601,131344747,2,1.0,0.29,188.52,-0.06655602902173996,0.06127336993813515,-0.5866644978523254,-0.6823446154594421,0.36419257521629333,0.051022205501794815,0.5750577449798584,-0.1,0.08,0.16,260.97
1682373339.83954191,131444783,2,0.41000000000000003,0.42,188.37,-0.090628482401371,0.05421332269906998,-0.6415209174156189,-0.7925247550010681,0.36385032534599304,0.053934913128614426,0.4965248107910156,-0.1,0.08,0.16,260.97
1682373339.93942094,131544662,2,0.08,0.72,188.17000000000002,-0.10179103910923004,0.04238370805978775,-0.6639068126678467,-0.8876430988311768,0.36263543367385864,0.05427267402410507,0.41063833236694336,-0.1,0.08,0.16,260.97
1682373340.03939295,131644634,2,-0.46,1.02,187.98,-0.11199008673429489,0.048948269337415695,-0.6966527700424194,-0.8684666156768799,0.3599949777126312,0.05671731010079384,0.3286261558532715,-0.1,0.08,0.16,260.97
1682373340.13940287,131744644,2,-0.71,1.36,187.82,-0.11347147822380066,0.060474686324596405,-0.6977863907814026,-0.7906321287155151,0.3577035069465637,0.06172426417469978,0.2505791187286377,-0.1,0.08,0.16,260.97
1682373340.23939085,131844632,2,-0.62,1.61,187.68,-0.12311600893735886,0.0825008675456047,-0.6604479551315308,-0.7118502855300903,0.35500356554985046,0.07166138291358948,0.17720413208007812,-0.1,0.08,0.16,260.97
1682373340.33944893,131944690,2,-0.37,1.7,187.59,-0.11873864382505417,0.08631808310747147,-0.6207755208015442,-0.6711149215698242,0.35344552993774414,0.08830898255109787,0.10700785368680954,-0.1,0.08,0.16,260.97
1682373340.43954682,132044788,2,0.24,1.6400000000000001,187.51,-0.11372017115354538,0.09578514099121094,-0.5914111137390137,-0.6697148084640503,0.3524051606655121,0.10375206172466278,0.038160912692546844,-0.1,0.08,0.16,260.97
1682373340.53950787,132144749,2,0.67,1.6400000000000001,187.45000000000002,-0.10936850309371948,0.11514908075332642,-0.5867007970809937,-0.7281445860862732,0.35287338495254517,0.1188233345746994,-0.034860022366046906,-0.1,0.08,0.16,260.97
1682373340.63949704,132244738,2,0.9500000000000001,1.62,187.38,-0.10086341947317123,0.10952788591384888,-0.5586352944374084,-0.7228334546089172,0.3530398905277252,0.13227811455726624,-0.10540509968996048,-0.1,0.08,0.16,260.97
1682373340.73952794,132344769,2,1.11,1.57,187.31,-0.09802422672510147,0.10299427807331085,-0.5317805409431458,-0.6756966710090637,0.3541458249092102,0.1429927498102188,-0.17155051231384277,-0.1,0.08,0.16,260.97
1682373340.83943295,132444674,2,0.8200000000000001,1.3800000000000001,187.26,-0.10143652558326721,0.10754307359457016,-0.4913223385810852,-0.6123515963554382,0.3546478748321533,0.15227583050727844,-0.233536958694458,-0.1,0.08,0.16,260.97
1682373340.93938994,132544631,2,0.61,1.3900000000000001,187.21,-0.0924738198518753,0.11300582438707352,-0.47285225987434387,-0.5601490139961243,0.3559253215789795,0.15940828621387482,-0.2910102605819702,-0.1,0.08,0.16,260.97
1682373341.03941488,132644656,2,0.5,1.44,187.17000000000002,-0.09583189338445663,0.08855684101581573,-0.4790222644805908,-0.5450039505958557,0.3541276156902313,0.1644504815340042,-0.3455284833908081,-0.1,0.08,0.16,260.97
1682373341.13939500,132744636,2,0.52,1.67,187.14000000000001,-0.09272903203964233,0.08947400003671646,-0.4675254821777344,-0.5186240077018738,0.349921315908432,0.16664426028728485,-0.398482084274292,-0.1,0.08,0.16,260.97
1682373341.23945403,132844695,2,0.64,1.8800000000000001,187.09,-0.08793536573648453,0.07737310230731964,-0.47315680980682373,-0.5093060731887817,0.3452847898006439,0.17047972977161407,-0.44875943660736084,-0.1,0.08,0.16,260.97
1682373341.33952284,132944764,2,0.67,2.0100000000000002,187.06,-0.0853349044919014,0.08056259155273438,-0.49235275387763977,-0.5054280161857605,0.3413296043872833,0.17624953389167786,-0.4970742464065552,-0.1,0.08,0.16,260.97
1682373341.43950891,133044750,2,0.99,2.11,187.0,-0.08287199586629868,0.08593008667230606,-0.48968204855918884,-0.4993911385536194,0.336595743894577,0.18112961947917938,-0.5458759069442749,-0.1,0.08,0.16,260.97
1682373341.53951788,133144759,2,1.01,2.04,186.95000000000002,-0.07360173761844635,0.08536717295646667,-0.478151798248291,-0.4723621606826782,0.3314090371131897,0.1853744089603424,-0.5954712629318237,-0.1,0.08,0.16,260.97
1682373341.63943982,133244681,2,0.98,2.05,186.87,-0.06343492865562439,0.09344960749149323,-0.5139456391334534,-0.5107704997062683,0.32927483320236206,0.18990693986415863,-0.645540714263916,-0.1,0.08,0.16,260.97
1682373341.73943305,133344674,2,0.91,1.95,186.79,-0.04968065395951271,0.0562140978872776,-0.5439470410346985,-0.5371118187904358,0.3312256336212158,0.19444209337234497,-0.6976085901260376,-0.1,0.08,0.16,260.97
1682373341.83940005,133444641,2,0.8300000000000001,1.79,186.71,-0.06358470022678375,0.06003819778561592,-0.5320165753364563,-0.5346905589103699,0.32813403010368347,0.19779004156589508,-0.7510687112808228,-0.1,0.08,0.16,260.97
1682373341.93939495,133544636,2,0.88,1.87,186.66,-0.06234429031610489,0.06842169910669327,-0.5725917220115662,-0.5758267641067505,0.3199259638786316,0.1988963484764099,-0.8073543906211853,-0.1,0.08,0.16,260.97
1682373342.03939605,133644637,2,0.8200000000000001,2.21,186.6,-0.05536140501499176,0.09020110219717026,-0.5822097063064575,-0.5878279209136963,0.3120102286338806,0.20103827118873596,-0.8645573854446411,-0.1,0.09,0.16,260.97
1682373342.13945889,133744700,2,0.6,2.5500000000000003,186.6,-0.054428718984127045,0.05652632564306259,-0.6251558661460876,-0.6274012923240662,0.30495360493659973,0.20418907701969147,-0.9248321056365967,-0.1,0.09,0.16,260.97
1682373342.23953795,133844779,2,0.43,2.83,186.65,-0.054258186370134354,0.053193993866443634,-0.5788849592208862,-0.6058024764060974,0.29935383796691895,0.2045367956161499,-0.9872491359710693,-0.1,0.09,0.16,260.97
1682373342.33950090,133944742,2,0.21,2.89,186.70000000000002,-0.040129952132701874,0.06520767509937286,-0.624983549118042,-0.6676555275917053,0.29490557312965393,0.20365703105926514,-1.0533169507980347,-0.1,0.09,0.16,260.97
1682373342.43950987,134044751,2,0.25,2.81,186.78,-0.029488934203982353,0.0678253099322319,-0.6269399523735046,-0.710063636302948,0.2962086796760559,0.20451870560646057,-1.1236168146133423,-0.1,0.09,0.16,260.97
1682373342.53952599,134144767,2,0.35000000000000003,2.61,186.87,-0.005907838698476553,0.05351956933736801,-0.6350492238998413,-0.733341634273529,0.3016270101070404,0.20726408064365387,-1.1948673725128174,-0.1,0.09,0.16,260.97
1682373342.63942790,134244669,2,0.64,2.2800000000000002,186.95000000000002,-0.012004373595118523,0.05648881942033768,-0.6461583375930786,-0.7615562677383423,0.30697596073150635,0.21045345067977905,-1.2678682804107666,-0.1,0.09,0.16,260.97
1682373342.73940086,134344642,2,0.87,2.11,187.03,-0.006157230585813522,0.06367060542106628,-0.6377584338188171,-0.7635231018066406,0.31434938311576843,0.2129850536584854,-1.342410922050476,-0.1,0.09,0.16,260.97
1682373342.83939695,134444638,2,0.96,1.97,187.11,-0.0011049945605918765,0.0619443878531456,-0.6447014808654785,-0.7512654662132263,0.3195059895515442,0.21461382508277893,-1.4148931503295898,-0.1,0.09,0.16,260.97
1682373342.93939185,134544633,2,0.8200000000000001,2.09,187.21,-0.009721573442220688,0.042585425078868866,-0.6084727644920349,-0.6864748597145081,0.32279327511787415,0.21428288519382477,-1.485060453414917,-0.1,0.09,0.16,260.97
1682373343.03946900,134644710,2,0.67,2.3000000000000003,187.31,-0.009220631793141365,0.058854326605796814,-0.5908265113830566,-0.6799945831298828,0.3258046507835388,0.21503205597400665,-1.5567069053649902,-0.1,0.09,0.16,260.97
1682373343.13949585,134744737,2,0.59,2.41,187.4,-0.002293740166351199,0.04577573016285896,-0.6034475564956665,-0.7140650749206543,0.3289973735809326,0.21731024980545044,-1.6280317306518555,-0.1,0.09,0.16,260.97
1682373343.23950887,134844750,2,0.77,2.33,187.51,0.0052804891020059586,0.029761308804154396,-0.6113264560699463,-0.7237727642059326,0.33189696073532104,0.21533514559268951,-1.6987884044647217,-0.1,0.09,0.16,260.97
1682373343.33950996,134944751,2,0.8300000000000001,2.2600000000000002,187.62,0.0005911146872676909,0.03288640081882477,-0.600698709487915,-0.6969568133354187,0.3348518908023834,0.20785656571388245,-1.7671808004379272,-0.1,0.09,0.16,260.97
1682373343.43945503,135044696,2,0.53,2.24,187.76,-0.004004984628409147,0.025632495060563087,-0.5596491694450378,-0.6598820090293884,0.33701083064079285,0.20311807096004486,-1.83645761013031,-0.1,0.09,0.16,260.97
1682373343.53942585,135144667,2,0.39,2.36,187.89000000000001,0.004981531761586666,0.03789548948407173,-0.5977783203125,-0.7190113663673401,0.3398490846157074,0.1979326754808426,-1.9069641828536987,-0.1,0.09,0.16,260.97
1682373343.63939095,135244632,2,0.24,2.43,188.03,0.01126377284526825,0.02201596274971962,-0.5780009031295776,-0.7207459211349487,0.3422154486179352,0.19484387338161469,-1.9785972833633423,-0.1,0.09,0.16,260.97
1682373343.73940682,135344648,2,0.22,2.47,188.19,0.006112316623330116,0.04794204607605934,-0.5918993949890137,-0.7380008697509766,0.3446018099784851,0.19290278851985931,-2.049619436264038,-0.1,0.09,0.16,260.97
1682373343.83939695,135444638,2,0.26,2.41,188.51,0.0018115498824045062,0.062339965254068375,-0.5743201375007629,-0.713679313659668,0.34784379601478577,0.1913614720106125,-2.1204750537872314,-0.1,0.09,0.16,260.97
1682373343.93946290,135544704,2,0.3,2.37,188.61,0.007410446181893349,0.05641791224479675,-0.5717130303382874,-0.711161196231842,0.35298630595207214,0.18958516418933868,-2.1917221546173096,-0.1,0.09,0.16,260.97
1682373344.03949285,135644734,2,0.21,2.33,188.68,0.008560719899833202,0.038186341524124146,-0.5590943098068237,-0.7041446566581726,0.35694968700408936,0.18825095891952515,-2.2615816593170166,-0.1,0.09,0.16,260.97
1682373344.13951087,135744752,2,0.14,2.25,188.78,0.008500981144607067,0.05350695550441742,-0.5574870109558105,-0.6792834401130676,0.3597939610481262,0.18694595992565155,-2.328911066055298,-0.1,0.09,0.16,260.97
1682373344.23947406,135844715,2,0.16,2.29,188.91,0.010310002602636814,0.04186024144291878,-0.5636467933654785,-0.6713687777519226,0.361833781003952,0.18711796402931213,-2.3951497077941895,-0.1,0.09,0.16,260.97
1682373344.33943987,135944681,2,0.12,2.29,189.08,0.008097491227090359,0.0697285458445549,-0.5624142289161682,-0.6502039432525635,0.36267712712287903,0.1875527799129486,-2.4583425521850586,-0.1,0.09,0.16,260.97
1682373344.43943596,136044677,2,0.15,2.2600000000000002,189.26,0.001373529201373458,0.04819932207465172,-0.534687876701355,-0.6016477942466736,0.3642726242542267,0.18812459707260132,-2.518468141555786,-0.1,0.09,0.16,260.97
1682373344.53939104,136144632,2,0.38,2.18,189.45000000000002,0.0018610911210998893,0.06292777508497238,-0.540740966796875,-0.5925567746162415,0.3670785129070282,0.18790137767791748,-2.578011989593506,-0.1,0.09,0.16,260.97
1682373344.63939095,136244632,2,0.56,2.05,189.61,0.00028102827491238713,0.07830042392015457,-0.5193085670471191,-0.5811101198196411,0.3688919246196747,0.18919193744659424,-2.6376402378082275,-0.1,0.09,0.16,260.97
1682373344.73940682,136344648,2,0.85,2.08,189.71,-0.008350729010999203,0.06288488954305649,-0.5326104760169983,-0.5900476574897766,0.36991891264915466,0.19138097763061523,-2.6971747875213623,-0.1,0.09,0.16,260.97
1682373344.83946800,136444709,2,1.17,2.19,189.74,-0.01094000693410635,0.07371731102466583,-0.5348207354545593,-0.5868703722953796,0.370050311088562,0.19348305463790894,-2.7549779415130615,-0.1,0.09,0.16,260.97
1682373344.93954587,136544787,2,1.37,2.32,189.81,-0.005383629351854324,0.05147739127278328,-0.5411271452903748,-0.5834909081459045,0.36928591132164,0.19431626796722412,-2.813599109649658,-0.1,0.09,0.16,260.97
1682373345.03952098,136644762,2,1.76,2.4,189.89000000000001,-0.0001634098734939471,0.04345837980508804,-0.5483201146125793,-0.5838545560836792,0.36740657687187195,0.1941155195236206,-2.8701679706573486,-0.1,0.09,0.16,260.97
1682373345.13949490,136744736,2,1.77,2.48,190.05,0.0013552748132497072,0.023305043578147888,-0.5247756242752075,-0.5229030251502991,0.36440038681030273,0.1917448192834854,-2.9243319034576416,-0.1,0.09,0.16,260.97
1682373345.23939085,136844632,2,1.72,2.66,190.20000000000002,0.006838270928710699,0.01782703958451748,-0.5310662388801575,-0.5255004167556763,0.36478161811828613,0.18519094586372375,-2.978687047958374,-0.1,0.09,0.16,260.97
1682373345.33942604,136944667,2,1.6500000000000001,2.65,190.36,0.016958892345428467,-0.02014261856675148,-0.5455729365348816,-0.5507563352584839,0.36821484565734863,0.1736033707857132,-3.0353777408599854,-0.1,0.09,0.16,260.97
1682373345.43939495,137044636,2,1.29,2.39,190.42000000000002,0.02514311857521534,-0.034445032477378845,-0.5580846071243286,-0.5845133066177368,0.3715231716632843,0.16217400133609772,-3.092705488204956,-0.1,0.09,0.16,260.97
1682373345.53939390,137144635,2,1.21,2.2,190.38,0.03353167697787285,-0.05995460972189903,-0.5622966885566711,-0.5807355642318726,0.374818354845047,0.15059898793697357,-3.150547504425049,-0.1,0.09,0.16,260.97
1682373345.63939095,137244632,2,1.11,1.97,190.28,0.017666688188910484,-0.07906336337327957,-0.5268828868865967,-0.5406883955001831,0.37753430008888245,0.13920046389102936,-3.2060813903808594,-0.1,0.09,0.16,260.97
1682373345.73947883,137344720,2,1.0,1.9000000000000001,190.15,0.013395186513662338,-0.07702992856502533,-0.5092415809631348,-0.5147740840911865,0.37936460971832275,0.12804043292999268,-3.261073589324951,-0.1,0.09,0.16,260.97
1682373345.83954501,137444786,2,0.9400000000000001,2.04,190.02,0.0075304824858903885,-0.09678347408771515,-0.4801555573940277,-0.5182793140411377,0.3770048916339874,0.11477760225534439,-3.3161280155181885,-0.1,0.09,0.16,260.97
1682373345.93954682,137544788,2,0.78,2.11,189.9,-0.002672569127753377,-0.10173876583576202,-0.4606185555458069,-0.5150789618492126,0.3713674545288086,0.10045962780714035,-3.367877960205078,-0.1,0.09,0.16,260.97
1682373346.03947186,137644713,2,0.55,2.6,189.79,-0.007384029682725668,-0.09692461788654327,-0.3934642970561981,-0.46755945682525635,0.3651053011417389,0.08701767027378082,-3.4173460006713867,-0.1,0.09,0.16,260.97
1682373346.13951802,137744759,2,0.41000000000000003,3.0100000000000002,189.62,-0.019702747464179993,-0.08639039844274521,-0.3263431489467621,-0.3583545386791229,0.35844314098358154,0.07842928171157837,-3.4563701152801514,-0.1,0.09,0.16,260.97
1682373346.23942184,137844663,2,0.38,3.23,189.51,-0.01988784782588482,-0.09987086802721024,-0.28396645188331604,-0.29225441813468933,0.35399556159973145,0.07075753062963486,-3.487276315689087,-0.1,0.09,0.16,260.97
1682373346.33939791,137944639,2,0.45,3.2,189.44,-0.006703288294374943,-0.08767320215702057,-0.192494198679924,-0.16839377582073212,0.35285648703575134,0.06368417292833328,-3.509122848510742,-0.1,0.09,0.16,260.97
1682373346.43939805,138044639,2,0.37,2.91,189.36,-0.011924142949283123,-0.0657089501619339,-0.13427844643592834,-0.13401371240615845,0.35343658924102783,0.05552264302968979,-3.5265274047851562,-0.1,0.09,0.16,260.97
1682373346.53939104,138144632,2,0.15,2.66,189.37,0.0021109250374138355,-0.0800229087471962,-0.04889757186174393,-0.06248060241341591,0.3566359579563141,0.04472058266401291,-3.537628650665283,-0.1,0.09,0.16,260.97
1682373346.63946605,138244707,2,-0.33,2.5,189.34,-0.00968619529157877,-0.047398027032613754,-0.005868260283023119,-0.003831843612715602,0.35977423191070557,0.035763658583164215,-3.539762258529663,-0.1,0.09,0.16,260.97
1682373346.73955894,138344800,2,-0.85,2.61,189.37,-0.009341399185359478,-0.05067246034741402,0.05944753438234329,0.09963185340166092,0.3630550801753998,0.028918132185935974,-3.534590721130371,-0.1,0.09,0.16,260.97
1682373346.83950686,138444748,2,-1.27,2.68,189.35,-0.018421076238155365,-0.007073278073221445,0.06207519769668579,0.09446147084236145,0.3663000166416168,0.024113690480589867,-3.525851011276245,-0.1,0.09,0.16,260.97
1682373346.93946600,138544707,2,-1.56,2.4,189.37,-0.01616887003183365,-0.004885556176304817,0.09902128577232361,0.13837413489818573,0.3693747818470001,0.02230246178805828,-3.5133869647979736,-0.1,0.09,0.16,260.97
1682373347.03945303,138644694,2,-1.36,1.84,189.4,-0.03494691476225853,0.006656873971223831,0.11489973217248917,0.13041120767593384,0.37108293175697327,0.022769303992390633,-3.502290725708008,-0.1,0.09,0.16,260.97
1682373347.13942385,138744665,2,-1.28,1.06,189.34,-0.05957060679793358,0.06681650876998901,0.10518327355384827,0.08812689036130905,0.3744843006134033,0.02616906352341175,-3.493377923965454,-0.1,0.09,0.16,260.97
1682373347.23939300,138844634,2,-1.3,0.21,189.22,-0.08305376023054123,0.05481104925274849,0.11846360564231873,0.07617621123790741,0.3744039237499237,0.031568288803100586,-3.4862418174743652,-0.1,0.09,0.16,260.97
1682373347.33940005,138944641,2,-1.37,-0.55,188.82,-0.13713879883289337,0.08847153931856155,0.069337397813797,0.028802838176488876,0.3707094192504883,0.03824164345860481,-3.4804816246032715,-0.1,0.09,0.16,260.97
1682373347.43939400,139044635,2,-1.59,-1.16,188.07,-0.1903904527425766,0.1148761436343193,0.0478823259472847,0.005053908564150333,0.36074960231781006,0.04846320301294327,-3.4772422313690186,-0.1,0.09,0.16,260.97
1682373347.53944397,139144685,2,-1.83,-1.3800000000000001,186.83,-0.24871553480625153,0.1409735232591629,0.029279248788952827,-0.01103210262954235,0.3446839153766632,0.06287364661693573,-3.4758923053741455,-0.1,0.09,0.16,260.97
1682373347.63950801,139244749,2,-1.97,-1.59,185.09,-0.3119247853755951,0.16707271337509155,0.04165869951248169,0.0007054286543279886,0.3216244876384735,0.08181922882795334,-3.4749152660369873,-0.1,0.09,0.16,260.97
1682373347.73951387,139344755,2,-1.75,-1.6400000000000001,182.73,-0.38346824049949646,0.192027747631073,0.04908446967601776,0.03826359659433365,0.29182708263397217,0.1069534495472908,-3.471993923187256,-0.1,0.09,0.16,260.97
1682373347.83946896,139444710,2,-1.04,-1.81,179.98,-0.44474613666534424,0.20649589598178864,0.08031481504440308,0.0760502740740776,0.2569989860057831,0.13647954165935516,-3.469491958618164,-0.1,0.09,0.16,260.97
1682373347.93951988,139544761,2,-0.16,-1.82,176.88,-0.4986964464187622,0.24120022356510162,0.03435686603188515,0.028532708063721657,0.21896784007549286,0.17158940434455872,-3.4661617279052734,-0.1,0.09,0.16,260.97
1682373348.03945303,139644694,2,0.49,-1.6,173.78,-0.5522692203521729,0.24872420728206635,0.043335072696208954,0.04632362350821495,0.17316491901874542,0.20653767883777618,-3.4619197845458984,-0.1,0.09,0.16,260.97
1682373348.13939786,139744639,2,0.96,-0.92,170.5,-0.6020190119743347,0.25706952810287476,0.03933098539710045,0.06489908695220947,0.12756170332431793,0.24646109342575073,-3.455457925796509,-0.1,0.09,0.16,260.97
1682373348.23938990,139844631,2,1.18,-0.17,167.29,-0.6421809196472168,0.26097556948661804,0.03294912353157997,0.053639158606529236,0.07742290198802948,0.285971075296402,-3.4499638080596924,-0.1,0.09,0.16,260.97
1682373348.33939505,139944636,2,1.24,0.42,164.03,-0.6817251443862915,0.254127562046051,0.0271266121417284,0.027490360662341118,0.025252562016248703,0.32588815689086914,-3.4467873573303223,-0.1,0.09,0.16,260.97
1682373348.43945885,140044700,2,1.21,0.97,160.91,-0.6936056017875671,0.23950687050819397,0.0459107831120491,0.014951451681554317,-0.02753097377717495,0.3641176223754883,-3.4470431804656982,-0.1,0.09,0.16,260.97
1682373348.53953385,140144775,2,1.22,1.35,157.91,-0.6971909403800964,0.2451847493648529,0.0158471018075943,-0.043163660913705826,-0.07768305391073227,0.4012766182422638,-3.450037717819214,-0.1,0.09,0.16,260.97
1682373348.63951087,140244752,2,1.28,1.68,155.22,-0.7010786533355713,0.23253878951072693,-0.011654049158096313,-0.08466725796461105,-0.12871551513671875,0.4375993311405182,-3.455922842025757,-0.1,0.09,0.16,260.97
1682373348.73950601,140344747,2,1.18,2.22,152.87,-0.6974292397499084,0.23056720197200775,-0.014426575042307377,-0.08798003941774368,-0.17982180416584015,0.4726308286190033,-3.462242364883423,-0.1,0.09,0.16,260.97
1682373348.83943796,140444679,2,0.99,2.65,150.86,-0.7085879445075989,0.19571691751480103,-0.03584740683436394,-0.09666715562343597,-0.23255227506160736,0.5080574750900269,-3.4675674438476562,-0.1,0.09,0.16,260.97
1682373348.93943501,140544676,2,0.74,2.86,149.11,-0.692638635635376,0.19815532863140106,0.0006293447222560644,-0.05914423614740372,-0.2867572605609894,0.5429832339286804,-3.473686456680298,-0.1,0.09,0.16,260.97
1682373349.03939605,140644637,2,0.59,2.88,147.70000000000002,-0.6941808462142944,0.17078126966953278,0.023326106369495392,-0.03244771435856819,-0.3403959274291992,0.5761703252792358,-3.4772191047668457,-0.1,0.09,0.16,260.97
1682373349.13939285,140744634,2,0.5700000000000001,2.7,146.6,-0.6831458210945129,0.18119694292545319,0.0400271899998188,0.0061165099032223225,-0.3939324915409088,0.6073229312896729,-3.478076219558716,-0.1,0.09,0.16,260.97
1682373349.23939586,140844637,2,0.52,2.38,145.84,-0.6649178862571716,0.17263466119766235,0.04085085913538933,0.00963129848241806,-0.45146623253822327,0.6344237327575684,-3.4782519340515137,-0.1,0.09,0.16,260.97
1682373349.33944988,140944691,2,0.43,2.2,145.34,-0.6857254505157471,0.13762085139751434,0.045616913586854935,0.019337942823767662,-0.5096815824508667,0.6609642505645752,-3.4777486324310303,-0.1,0.09,0.16,260.97
1682373349.43951392,141044755,2,0.36,2.13,145.05,-0.6934976577758789,0.12248573452234268,0.05533621832728386,0.04995477572083473,-0.5714032649993896,0.6848639249801636,-3.474205255508423,-0.1,0.09,0.16,260.97
1682373349.53951097,141144752,2,0.3,2.06,144.95000000000002,-0.6744235157966614,0.14071378111839294,0.04060253128409386,0.0746084675192833,-0.6376386880874634,0.7073049545288086,-3.4668190479278564,-0.1,0.09,0.16,260.97
1682373349.63951302,141244754,2,0.02,2.17,145.06,-0.6877936720848083,0.12117093056440353,0.042826373130083084,0.07805229723453522,-0.7050612568855286,0.7278867363929749,-3.459756851196289,-0.1,0.09,0.16,260.97
1682373349.73951387,141344755,2,-0.28,2.19,145.36,-0.6862313151359558,0.1346169412136078,0.04502281919121742,0.06615681946277618,-0.7726662158966064,0.7482790350914001,-3.453082799911499,-0.1,0.09,0.16,260.97
1682373349.83942699,141444668,2,-0.36,2.11,145.84,-0.6769438982009888,0.13761262595653534,0.040925055742263794,0.05907376483082771,-0.8413686156272888,0.767180860042572,-3.4464221000671387,-0.1,0.09,0.16,260.97
1682373349.93939590,141544637,2,-0.54,2.05,146.46,-0.6890336871147156,0.13282209634780884,0.05183633044362068,0.08195463567972183,-0.9107407331466675,0.7860338091850281,-3.4392125606536865,-0.1,0.09,0.16,260.97
1682373350.03940582,141644647,2,-0.61,2.11,147.21,-0.6763861775398254,0.1441558450460434,0.05484090745449066,0.08307500928640366,-0.9792892336845398,0.8042964339256287,-3.4322125911712646,-0.1,0.09,0.16,260.97
1682373350.13939595,141744637,2,-0.7000000000000001,2.17,148.1,-0.6726834774017334,0.1430484801530838,0.016824685037136078,0.04471350461244583,-1.0459394454956055,0.8232429027557373,-3.4254038333892822,-0.1,0.09,0.16,260.97
1682373350.23945403,141844695,2,-0.52,2.16,149.06,-0.6797037124633789,0.1465609222650528,0.03299972787499428,0.06346497684717178,-1.113635778427124,0.8417914509773254,-3.417523145675659,-0.1,0.09,0.16,260.97
1682373350.33950090,141944742,2,-0.52,2.04,150.1,-0.6626372933387756,0.1725625991821289,0.05001946911215782,0.10342760384082794,-1.1817030906677246,0.8600982427597046,-3.409304141998291,-0.1,0.09,0.16,260.97
1682373350.43950987,142044751,2,-0.72,2.02,151.21,-0.6702715754508972,0.17423909902572632,0.046913791447877884,0.0952126532793045,-1.2508660554885864,0.8777859210968018,-3.4009950160980225,-0.1,0.09,0.16,260.97
1682373350.53950286,142144744,2,-0.86,2.02,152.35,-0.6728071570396423,0.17465654015541077,0.016998227685689926,0.07846148312091827,-1.3212811946868896,0.8946329951286316,-3.3921401500701904,-0.1,0.09,0.16,260.97
1682373350.63943601,142244677,2,-1.03,2.0,153.53,-0.6576326489448547,0.19950279593467712,0.005962770897895098,0.043999798595905304,-1.391996145248413,0.9130675196647644,-3.386051654815674,-0.1,0.09,0.16,260.97
1682373350.73943400,142344675,2,-1.1500000000000001,2.08,154.69,-0.6550329923629761,0.22155971825122833,0.04755387455224991,0.06771150231361389,-1.462488055229187,0.9331849813461304,-3.3815975189208984,-0.1,0.09,0.16,260.97
1682373350.83939099,142444632,2,-1.18,2.02,155.88,-0.6572846174240112,0.2336891144514084,0.01586318202316761,0.026195568963885307,-1.5329294204711914,0.9551305174827576,-3.3779585361480713,-0.1,0.09,0.16,260.97
1682373350.93939686,142544638,2,-1.25,1.95,157.06,-0.6604887843132019,0.22265057265758514,0.00713358772918582,0.033330224454402924,-1.6029263734817505,0.9791381359100342,-3.3731014728546143,-0.1,0.09,0.16,260.97
1682373351.03939199,142644633,2,-0.98,1.92,158.20000000000002,-0.6547716856002808,0.2587406039237976,0.020934388041496277,0.06438712030649185,-1.6714816093444824,1.0034128427505493,-3.3667421340942383,-0.1,0.09,0.16,260.97
1682373351.13945198,142744693,2,-0.8300000000000001,1.82,159.29,-0.6424394249916077,0.28231653571128845,0.011741416528820992,0.07281399518251419,-1.7387605905532837,1.0287715196609497,-3.3604891300201416,-0.1,0.09,0.16,260.97
1682373351.23951101,142844752,2,-0.64,1.69,160.27,-0.6526972651481628,0.29801803827285767,0.012000839225947857,0.04431283846497536,-1.80624520778656,1.0557931661605835,-3.35760498046875,-0.1,0.09,0.16,260.97
1682373351.33949804,142944739,2,-0.44,1.67,161.13,-0.6532022356987,0.3102557063102722,0.000831045035738498,0.005056652240455151,-1.8748003244400024,1.0849523544311523,-3.3567447662353516,-0.1,0.09,0.16,260.97
