timestamp,TimeUS,C,Q1,Q2,Q3,Q4
1682373323.93939304,115544634,2,-0.07969687134027481,-0.008468802087008953,-0.007739056833088398,0.9967531561851501
1682373324.03938985,115644631,2,-0.07959555089473724,-0.008452404290437698,-0.0077147637493908405,0.9967615604400635
1682373324.13944197,115744683,2,-0.07951650023460388,-0.008441688492894173,-0.007806728128343821,0.9967672228813171
1682373324.23951793,115844759,2,-0.07944823801517487,-0.008424175903201103,-0.0077982209622859955,0.9967728853225708
1682373324.33951592,115944757,2,-0.07935165613889694,-0.008455321192741394,-0.007808276917785406,0.9967802166938782
1682373324.43950295,116044744,2,-0.07939163595438004,-0.008412093855440617,-0.007758711464703083,0.9967778325080872
1682373324.53942800,116144669,2,-0.07931438088417053,-0.008344383910298347,-0.007715295068919659,0.9967848658561707
1682373324.63941598,116244657,2,-0.07925274968147278,-0.008384356275200844,-0.007738160435110331,0.996789276599884
1682373324.73941302,116344654,2,-0.07920967042446136,-0.008393979631364346,-0.0077234720811247826,0.996792733669281
1682373324.83939385,116444635,2,-0.07916092872619629,-0.00841288547962904,-0.007714988198131323,0.9967964887619019
1682373324.93938398,116544625,2,-0.07903211563825607,-0.008394882082939148,-0.00776799488812685,0.9968064427375793
1682373325.03945589,116644697,2,-0.07898217439651489,-0.00837673433125019,-0.007730976678431034,0.9968108534812927
1682373325.13953090,116744772,2,-0.07889395952224731,-0.008385621011257172,-0.007722816430032253,0.9968178272247314
1682373325.23952198,116844763,2,-0.07884135842323303,-0.008392608724534512,-0.007702928502112627,0.9968220591545105
1682373325.33946085,116944702,2,-0.07886140793561935,-0.008400041610002518,-0.0077281068079173565,0.9968202710151672
1682373325.43951702,117044758,2,-0.07876512408256531,-0.008408160880208015,-0.007734040264040232,0.9968277215957642
1682373325.53942895,117144670,2,-0.07870860397815704,-0.008439327590167522,-0.007758349180221558,0.9968317747116089
1682373325.63938403,117244625,2,-0.07872863858938217,-0.008486643433570862,-0.007806276902556419,0.9968293905258179
1682373325.73941088,117344652,2,-0.07868626713752747,-0.008471949025988579,-0.007845508866012096,0.996832549571991
1682373325.83939004,117444631,2,-0.07864873856306076,-0.008490277454257011,-0.007825464941561222,0.9968355298042297
1682373325.93943191,117544673,2,-0.07857827097177505,-0.008425802923738956,-0.007846098393201828,0.9968414902687073
1682373326.03950906,117644750,2,-0.078464075922966,-0.008362924680113792,-0.007852821610867977,0.9968509078025818
1682373326.13951492,117744756,2,-0.07839646935462952,-0.008379423059523106,-0.007822257466614246,0.9968563318252563
1682373326.23945999,117844701,2,-0.07842716574668884,-0.008335553109645844,-0.007791916839778423,0.9968545436859131
1682373326.33943796,117944679,2,-0.07839729636907578,-0.008389915339648724,-0.007819578051567078,0.9968562126159668
1682373326.43942404,118044665,2,-0.07831946015357971,-0.008362682536244392,-0.00786271970719099,0.9968622326850891
1682373326.53938603,118144627,2,-0.07830800861120224,-0.008355912752449512,-0.00790033396333456,0.9968628883361816
1682373326.63938594,118244627,2,-0.07828421145677567,-0.008362200111150742,-0.00801291223615408,0.9968637824058533
1682373326.73940206,118344643,2,-0.07837652415037155,-0.008427178487181664,-0.008001046255230904,0.9968560934066772
1682373326.83945489,118444696,2,-0.07837718725204468,-0.008399532176554203,-0.00803532637655735,0.9968560338020325
1682373326.93953896,118544780,2,-0.07809724658727646,-0.008362945169210434,-0.007999099791049957,0.9968785643577576
1682373327.03949499,118644736,2,-0.07809387892484665,-0.008413007482886314,-0.008163558319211006,0.9968770742416382
1682373327.13948703,118744728,2,-0.07843022793531418,-0.008316091261804104,-0.007979611866176128,0.9968529939651489
1682373327.23938084,118844622,2,-0.07771871984004974,-0.008353534154593945,-0.008093126118183136,0.9969074726104736
1682373327.33941889,118944660,2,-0.07818351686000824,-0.008515770547091961,-0.008296897634863853,0.9968680739402771
1682373327.43938398,119044625,2,-0.07791568338871002,-0.008156093768775463,-0.007984645664691925,0.9968945980072021
1682373327.53938103,119144622,2,-0.07807830721139908,-0.008570324629545212,-0.008473167195916176,0.9968743920326233
1682373327.63939190,119244633,2,-0.07774216681718826,-0.008211137726902962,-0.007860434241592884,0.9969087243080139
1682373327.73947191,119344713,2,-0.07775863260030746,-0.00830914918333292,-0.008526052348315716,0.9969011545181274
1682373327.83949685,119444738,2,-0.0778154730796814,-0.00862893182784319,-0.007928771898150444,0.996898889541626
1682373327.93953586,119544777,2,-0.07754601538181305,-0.008324732072651386,-0.008446087129414082,0.996918261051178
1682373328.03945684,119644698,2,-0.07758427411317825,-0.00864876713603735,-0.008112696930766106,0.9969152808189392
1682373328.13943887,119744680,2,-0.07741457223892212,-0.008472372777760029,-0.008368488401174545,0.9969278573989868
1682373328.23941398,119844655,2,-0.07743531465530396,-0.008463296107947826,-0.008377988822758198,0.9969262480735779
1682373328.33938384,119944625,2,-0.07751939445734024,-0.008625298738479614,-0.008302857168018818,0.9969189763069153
1682373328.43939590,120044637,2,-0.07734118402004242,-0.008451675064861774,-0.008534563705325127,0.996932327747345
1682373328.53938103,120144622,2,-0.07738274335861206,-0.00863742921501398,-0.008208316750824451,0.9969302415847778
1682373328.63946605,120244707,2,-0.077342189848423,-0.008563320152461529,-0.008580834604799747,0.9969308972358704
1682373328.73954487,120344786,2,-0.07729137688875198,-0.008561619557440281,-0.00820920616388321,0.9969379901885986
1682373328.83954692,120444788,2,-0.0773601308465004,-0.008608033880591393,-0.008634514175355434,0.9969286322593689
1682373328.93946195,120544703,2,-0.07732132822275162,-0.008507364429533482,-0.008416697382926941,0.9969344139099121
1682373329.03938484,120644626,2,-0.07732460647821426,-0.008586324751377106,-0.008582664653658867,0.9969320297241211
1682373329.13941789,120744659,2,-0.07727034389972687,-0.008587023243308067,-0.008569777943193913,0.9969363808631897
1682373329.23938203,120844623,2,-0.07725056260824203,-0.008572210557758808,-0.008472390472888947,0.9969388842582703
1682373329.33938789,120944629,2,-0.07718241214752197,-0.008599119260907173,-0.008643599227070808,0.9969424605369568
1682373329.43938494,121044626,2,-0.07713117450475693,-0.008560461923480034,-0.00849765446037054,0.9969480037689209
1682373329.53945684,121144698,2,-0.07716775685548782,-0.008696004748344421,-0.008749091066420078,0.9969418048858643
1682373329.63954306,121244784,2,-0.07711697369813919,-0.00872628390789032,-0.00847031269222498,0.9969478845596313
1682373329.73950100,121344742,2,-0.07714550197124481,-0.008829180151224136,-0.008711800910532475,0.9969426989555359
1682373329.83945894,121444700,2,-0.07714879512786865,-0.0089189438149333,-0.008539010770618916,0.9969431161880493
1682373329.93938184,121544623,2,-0.07704769819974899,-0.008943313732743263,-0.008518367074429989,0.9969509243965149
1682373330.03941584,121644657,2,-0.07708004117012024,-0.009029541164636612,-0.008433220908045769,0.9969483613967896
1682373330.13938403,121744625,2,-0.07704723626375198,-0.009056628681719303,-0.008357519283890724,0.9969512820243835
1682373330.23938990,121844631,2,-0.07701697945594788,-0.00903908722102642,-0.008387897163629532,0.996953547000885
1682373330.33938694,121944628,2,-0.07699544727802277,-0.009034748189151287,-0.008254613727331161,0.9969563484191895
1682373330.43944192,122044683,2,-0.07693969458341599,-0.00899764895439148,-0.008361360989511013,0.9969601035118103
1682373330.53951001,122144751,2,-0.07687590271234512,-0.00899712648242712,-0.008213808760046959,0.9969662427902222
1682373330.63951683,122244758,2,-0.07697319984436035,-0.008932364173233509,-0.008279643952846527,0.9969587922096252
1682373330.73949885,122344740,2,-0.07695385068655014,-0.008942940272390842,-0.008279013447463512,0.9969601631164551
1682373330.83938193,122444623,2,-0.07685638219118118,-0.008897563442587852,-0.008219506591558456,0.9969685673713684
1682373330.93941402,122544655,2,-0.07683227211236954,-0.00885434728115797,-0.008275954984128475,0.9969703555107117
1682373331.03938389,122644625,2,-0.07682016491889954,-0.008913260884582996,-0.008138881996273994,0.9969719052314758
1682373331.13938999,122744631,2,-0.07677894830703735,-0.008966355584561825,-0.008178042247891426,0.9969742894172668
1682373331.23938298,122844624,2,-0.07680965214967728,-0.008993213064968586,-0.008130277507007122,0.9969720840454102
1682373331.33943486,122944676,2,-0.07676999270915985,-0.008990252390503883,-0.008132323622703552,0.9969751238822937
1682373331.43952203,123044763,2,-0.07668329030275345,-0.008998697623610497,-0.008113567717373371,0.9969818592071533
1682373331.53949499,123144736,2,-0.07669442892074585,-0.009026284329593182,-0.00812819879502058,0.9969806671142578
1682373331.63948488,123244726,2,-0.07668391615152359,-0.009037678129971027,-0.008194558322429657,0.9969807863235474
1682373331.73943686,123344678,2,-0.07670612633228302,-0.009042819030582905,-0.008093642070889473,0.9969798922538757
1682373331.83942604,123444667,2,-0.07672727853059769,-0.009053219109773636,-0.008153761737048626,0.996977686882019
1682373331.93938303,123544624,2,-0.07667911052703857,-0.009062244556844234,-0.008059666492044926,0.9969820380210876
1682373332.03938484,123644626,2,-0.07666188478469849,-0.009064717218279839,-0.008144932799041271,0.9969826936721802
1682373332.13939095,123744632,2,-0.07663599401712418,-0.00905231200158596,-0.00808101985603571,0.9969853162765503
1682373332.23942804,123844669,2,-0.07661768049001694,-0.009093851782381535,-0.008130980655550957,0.996985912322998
1682373332.33949089,123944732,2,-0.07655591517686844,-0.009095435030758381,-0.008080923929810524,0.9969910383224487
1682373332.43949986,124044741,2,-0.07654500007629395,-0.009096212685108185,-0.008029159158468246,0.996992290019989
1682373332.53949594,124144737,2,-0.07647953182458878,-0.009143802337348461,-0.008026573807001114,0.9969969391822815
1682373332.63938189,124244623,2,-0.076423779129982,-0.00921893585473299,-0.007926320657134056,0.9970012903213501
1682373332.73942494,124344666,2,-0.07640732824802399,-0.009279717691242695,-0.00801748689264059,0.9970012903213501
1682373332.83938098,124444622,2,-0.07633255422115326,-0.009292880073189735,-0.00798512902110815,0.9970071315765381
1682373332.93937993,124544621,2,-0.07634809613227844,-0.009356280788779259,-0.008003908209502697,0.9970052242279053
1682373333.03938293,124644624,2,-0.07629788666963577,-0.009365135803818703,-0.008024659007787704,0.9970088005065918
1682373333.13942385,124744665,2,-0.07628800719976425,-0.009433639235794544,-0.008038277737796307,0.9970088005065918
1682373333.23953199,124844773,2,-0.07622072100639343,-0.009467405267059803,-0.008020788431167603,0.9970137476921082
1682373333.33951283,124944754,2,-0.07627052068710327,-0.009464245289564133,-0.007993943989276886,0.9970101714134216
1682373333.43946195,125044703,2,-0.07628993690013885,-0.009481584653258324,-0.008110092021524906,0.9970076084136963
1682373333.53938293,125144624,2,-0.07629017531871796,-0.009473314508795738,-0.008104396052658558,0.9970077276229858
1682373333.63941097,125244652,2,-0.07629723101854324,-0.009492119774222374,-0.008107141591608524,0.9970069527626038
1682373333.73939800,125344639,2,-0.07634133100509644,-0.009531890042126179,-0.008139798417687416,0.9970029592514038
1682373333.83938599,125444627,2,-0.07630909979343414,-0.009577011689543724,-0.008163637481629848,0.9970048069953918
1682373333.93938303,125544624,2,-0.07630183547735214,-0.009637314826250076,-0.008191196247935295,0.9970045685768127
1682373334.03946185,125644703,2,-0.07630235701799393,-0.009592710994184017,-0.008197691291570663,0.9970048666000366
1682373334.13952184,125744763,2,-0.07629597932100296,-0.009561851620674133,-0.008244751952588558,0.99700528383255
1682373334.23952699,125844768,2,-0.07631534337997437,-0.00957693625241518,-0.008172434754669666,0.9970042705535889
1682373334.33945394,125944695,2,-0.07628040760755539,-0.009611274115741253,-0.008171062916517258,0.9970065951347351
1682373334.43952799,126044769,2,-0.07629024982452393,-0.00966319628059864,-0.008152324706315994,0.9970055222511292
1682373334.53941083,126144652,2,-0.07632007449865341,-0.009701634757220745,-0.008216840215027332,0.9970023036003113
1682373334.63938189,126244623,2,-0.07632725685834885,-0.009719480760395527,-0.008254298008978367,0.9970012903213501
1682373334.73940587,126344647,2,-0.07631146162748337,-0.009663945063948631,-0.008259588852524757,0.9970029592514038
1682373334.83938289,126444624,2,-0.07634934782981873,-0.009672003798186779,-0.008274056948721409,0.9969998598098755
1682373334.93945193,126544693,2,-0.07632838934659958,-0.009685044176876545,-0.008179347030818462,0.997002124786377
1682373335.03952289,126644764,2,-0.07635229080915451,-0.009681262075901031,-0.008224998600780964,0.996999979019165
1682373335.13949704,126744738,2,-0.07639104127883911,-0.009699715301394463,-0.008233660832047462,0.9969967603683472
1682373335.23945689,126844698,2,-0.07639260590076447,-0.00971074029803276,-0.008258864283561707,0.9969963431358337
1682373335.33942389,126944665,2,-0.07644312083721161,-0.009713954292237759,-0.008262241259217262,0.9969924092292786
1682373335.43941593,127044657,2,-0.07644868642091751,-0.009735282510519028,-0.008274608291685581,0.9969916343688965
1682373335.53938699,127144628,2,-0.07643882930278778,-0.009722680784761906,-0.008300279267132282,0.996992290019989
1682373335.63938189,127244623,2,-0.07642921805381775,-0.009706503711640835,-0.008260834030807018,0.9969935417175293
1682373335.73939586,127344637,2,-0.07646950334310532,-0.009685710072517395,-0.008319925516843796,0.9969901442527771
1682373335.83944893,127444690,2,-0.07643657177686691,-0.009648826904594898,-0.008303821086883545,0.9969931840896606
1682373335.93952394,127544765,2,-0.07646937668323517,-0.009599661454558372,-0.008342933841049671,0.9969907999038696
1682373336.03953600,127644777,2,-0.07645691931247711,-0.009636692702770233,-0.008331703022122383,0.9969915151596069
1682373336.13949299,127744734,2,-0.07642907649278641,-0.009656883776187897,-0.008407477289438248,0.996992826461792
1682373336.23938489,127844626,2,-0.07643339037895203,-0.009679232724010944,-0.00838560238480568,0.9969924688339233
1682373336.33941698,127944658,2,-0.07643070816993713,-0.009689044207334518,-0.008364630863070488,0.9969927072525024
1682373336.43939090,128044632,2,-0.07643705606460571,-0.009673982858657837,-0.008392330259084702,0.9969921708106995
1682373336.53939795,128144639,2,-0.07643593847751617,-0.009688794612884521,-0.008369550108909607,0.996992290019989
1682373336.63938904,128244630,2,-0.07643599808216095,-0.009688972495496273,-0.008403590880334377,0.9969919919967651
1682373336.73945403,128344695,2,-0.07641899585723877,-0.009704574011266232,-0.008405606262385845,0.9969931244850159
1682373336.83950806,128444749,2,-0.0763721689581871,-0.009706112556159496,-0.00841608364135027,0.9969966411590576
1682373336.93950891,128544750,2,-0.07635026425123215,-0.009686698205769062,-0.008399766869843006,0.9969986081123352
1682373337.03948903,128644730,2,-0.07632634788751602,-0.009708902798593044,-0.008371044881641865,0.9970004558563232
1682373337.13942695,128744668,2,-0.07631401717662811,-0.009669006802141666,-0.008389625698328018,0.9970016479492188
1682373337.23941994,128844661,2,-0.07631567120552063,-0.009652364067733288,-0.008433549664914608,0.9970012903213501
1682373337.33938599,128944627,2,-0.07629622519016266,-0.009587985463440418,-0.008473902009427547,0.9970030784606934
1682373337.43938804,129044629,2,-0.07627245038747787,-0.009590857662260532,-0.008457580581307411,0.9970049858093262
1682373337.53938794,129144629,2,-0.07630185037851334,-0.009590019471943378,-0.008506455458700657,0.997002363204956
1682373337.63946891,129244710,2,-0.07624349743127823,-0.009571908041834831,-0.008523046039044857,0.9970068335533142
1682373337.73950505,129344746,2,-0.07625474780797958,-0.009538737125694752,-0.008558985777199268,0.9970059990882874
1682373337.83952785,129444769,2,-0.07622477412223816,-0.00953490100800991,-0.008593766018748283,0.9970080256462097
1682373337.93949103,129544732,2,-0.07619212567806244,-0.009514077566564083,-0.008579890243709087,0.9970108270645142
1682373338.03943205,129644673,2,-0.07613763958215714,-0.00950271263718605,-0.008648095652461052,0.9970145225524902
1682373338.13942504,129744666,2,-0.07605022192001343,-0.009535389021039009,-0.008645633235573769,0.9970209002494812
1682373338.23939395,129844635,2,-0.07601743191480637,-0.009566476568579674,-0.008630264550447464,0.9970232248306274
1682373338.33938789,129944629,2,-0.0759744718670845,-0.009580941870808601,-0.008661850355565548,0.9970260858535767
1682373338.43939185,130044633,2,-0.07589226961135864,-0.009590057656168938,-0.008695813827216625,0.9970319867134094
1682373338.53944898,130144690,2,-0.0758192390203476,-0.009595789946615696,-0.008761568926274776,0.9970369338989258
1682373338.63954306,130244784,2,-0.07585269957780838,-0.009613796137273312,-0.008749587461352348,0.9970343112945557
1682373338.73955703,130344798,2,-0.075872503221035,-0.009598609991371632,-0.00873743835836649,0.9970330595970154
1682373338.83950305,130444744,2,-0.07582126557826996,-0.00962615292519331,-0.008699537254869938,0.9970369935035706
1682373338.93943596,130544677,2,-0.07592526078224182,-0.00966856349259615,-0.008761169388890266,0.997028112411499
1682373339.03942490,130644666,2,-0.07590055465698242,-0.009723015129566193,-0.008748132735490799,0.9970296025276184
1682373339.13940096,130744642,2,-0.07558522373437881,-0.009488411247730255,-0.009083771146833897,0.9970528483390808
1682373339.23940206,130844643,2,-0.076377272605896,-0.009755939245223999,-0.008711686357855797,0.9969931840896606
1682373339.33939695,130944638,2,-0.07555323839187622,-0.00941893458366394,-0.008914393372833729,0.9970574378967285
1682373339.43946791,131044709,2,-0.07546553015708923,-0.009233597666025162,-0.009531358256936073,0.9970601201057434
1682373339.53955293,131144794,2,-0.07528894394636154,-0.0051737078465521336,-0.008708261884748936,0.9971103072166443
1682373339.63950086,131244742,2,-0.07515379786491394,-0.001751914736814797,0.00282281800173223,0.9971663951873779
1682373339.73950601,131344747,2,-0.07425697147846222,-0.0032263267785310745,0.00853572878986597,0.9971973896026611
1682373339.83954191,131444783,2,-0.07301654666662216,-0.003999658394604921,0.003314604749903083,0.9973171949386597
1682373339.93942094,131544662,2,-0.07131365686655045,-0.006370511371642351,0.0002915614750236273,0.9974335432052612
1682373340.03939295,131644634,2,-0.06964681297540665,-0.008629996329545975,-0.004642359912395477,0.9975236058235168
1682373340.13940287,131744644,2,-0.06828061491250992,-0.01141602173447609,-0.00701412558555603,0.9975761771202087
1682373340.23939085,131844632,2,-0.06705854833126068,-0.01368713565170765,-0.006359589286148548,0.9976348876953125
1682373340.33944893,131944690,2,-0.06626832485198975,-0.014594336040318012,-0.004277242813259363,0.9976859092712402
1682373340.43954682,132044788,2,-0.06551212072372437,-0.014477331191301346,0.001205853302963078,0.9977459907531738
1682373340.53950787,132144749,2,-0.0649029016494751,-0.014698338694870472,0.004972199909389019,0.9977709650993347
1682373340.63949704,132244738,2,-0.06431413441896439,-0.014706282876431942,0.007434261962771416,0.9977936148643494
1682373340.73952794,132344769,2,-0.0636880099773407,-0.01435356866568327,0.008791892789304256,0.9978278875350952
1682373340.83943295,132444674,2,-0.06330084800720215,-0.012524725869297981,0.006416126154363155,0.9978952407836914
1682373340.93938994,132544631,2,-0.06285252422094345,-0.012503533624112606,0.004552355967462063,0.997934103012085
1682373341.03941488,132644656,2,-0.06253369152545929,-0.012815902009606361,0.0035710709635168314,0.9979541897773743
1682373341.13939500,132744636,2,-0.062240153551101685,-0.014832076616585255,0.0036473481450229883,0.9979442954063416
1682373341.23945403,132844695,2,-0.06179692596197128,-0.016796361654996872,0.004576786421239376,0.9979369044303894
1682373341.33952284,132944764,2,-0.061498530209064484,-0.01791669800877571,0.004796735476702452,0.9979348182678223
1682373341.43950891,133044750,2,-0.06091834977269173,-0.01894550584256649,0.007511906325817108,0.9979346394538879
1682373341.53951788,133144759,2,-0.060459379106760025,-0.018355198204517365,0.007758158724755049,0.9979717135429382
1682373341.63943982,133244681,2,-0.059777308255434036,-0.01841023378074169,0.007543803192675114,0.998013436794281
1682373341.73943305,133344674,2,-0.05910639092326164,-0.017458967864513397,0.00695689395070076,0.9980747699737549
1682373341.83940005,133444641,2,-0.05847294628620148,-0.016037655994296074,0.006341921165585518,0.9981400370597839
1682373341.93939495,133544636,2,-0.057973261922597885,-0.016777200624346733,0.006741632241755724,0.9981544017791748
1682373342.03939605,133644637,2,-0.05742473155260086,-0.019685007631778717,0.006099047139286995,0.9981371164321899
1682373342.13945889,133744700,2,-0.0574617013335228,-0.022531630471348763,0.004026997834444046,0.9980853199958801
1682373342.23953795,133844779,2,-0.05788883566856384,-0.02496061846613884,0.002385095227509737,0.9980080723762512
1682373342.33950090,133944742,2,-0.058424413204193115,-0.02534150891005993,0.00037006966886110604,0.9979700446128845
1682373342.43950987,134044751,2,-0.0590912327170372,-0.024689648300409317,0.0007726739859208465,0.9979469180107117
1682373342.53952599,134144767,2,-0.05987789109349251,-0.0229683555662632,0.001711274846456945,0.997939944267273
1682373342.63942790,134244669,2,-0.06052110716700554,-0.02024051733314991,0.004385500214993954,0.9979520440101624
1682373342.73940086,134344642,2,-0.061212871223688126,-0.018865155056118965,0.006476375740021467,0.9979254007339478
1682373342.83939695,134444638,2,-0.06185581535100937,-0.01774252951145172,0.007320285774767399,0.9979005455970764
1682373342.93939185,134544633,2,-0.06278323382139206,-0.018703440204262733,0.006015627179294825,0.997833788394928
1682373343.03946900,134644710,2,-0.06362822651863098,-0.020445412024855614,0.004558995366096497,0.9977537989616394
1682373343.13949585,134744737,2,-0.06448923051357269,-0.02137591876089573,0.003777868812903762,0.9976822733879089
1682373343.23950887,134844750,2,-0.06542453169822693,-0.02076730877161026,0.005395981948822737,0.997626781463623
1682373343.33950996,134944751,2,-0.06630949676036835,-0.020184839144349098,0.005991636775434017,0.9975769519805908
1682373343.43945503,135044696,2,-0.06756116449832916,-0.01989961974322796,0.0033611988183110952,0.9975110292434692
1682373343.53942585,135144667,2,-0.06873109191656113,-0.02082381397485733,0.002042821841314435,0.9974157810211182
1682373343.63939095,135244632,2,-0.07004181295633316,-0.021344846114516258,0.000673088594339788,0.9973154664039612
1682373343.73940682,135344648,2,-0.07138815522193909,-0.021667130291461945,0.0004378230369184166,0.9972131252288818
1682373343.83939695,135444638,2,-0.07415802776813507,-0.02119944803416729,0.0007319667492993176,0.9970209002494812
1682373343.93946290,135544704,2,-0.07504819333553314,-0.020883215591311455,0.0010804221965372562,0.9969606399536133
1682373344.03949285,135644734,2,-0.0756935402750969,-0.020439893007278442,0.00035773179843090475,0.9969215393066406
1682373344.13951087,135744752,2,-0.0765422061085701,-0.019731851294636726,-0.00026368265389464796,0.9968710541725159
1682373344.23947406,135844715,2,-0.07764101028442383,-0.020073192194104195,-0.00012553759734146297,0.9967792630195618
1682373344.33943987,135944681,2,-0.07912527024745941,-0.02006612904369831,-0.0004799880844075233,0.9966625571250916
1682373344.43943596,136044677,2,-0.08070988208055496,-0.019775673747062683,-0.000206008116947487,0.996541440486908
1682373344.53939104,136144632,2,-0.08232585340738297,-0.019239770248532295,0.0017839476931840181,0.9964181184768677
1682373344.63939095,136244632,2,-0.08370581269264221,-0.01832353137433529,0.0034225285053253174,0.996316134929657
1682373344.73940682,136344648,2,-0.08454948663711548,-0.018800565972924232,0.005900411866605282,0.9962244033813477
1682373344.83946800,136444709,2,-0.0847407802939415,-0.019977185875177383,0.008565764874219894,0.996165931224823
1682373344.93954587,136544787,2,-0.0853077694773674,-0.021262655034661293,0.010254798457026482,0.9960749745368958
1682373345.03952098,136644762,2,-0.08588961511850357,-0.022193556651473045,0.01352754607796669,0.9959656000137329
1682373345.13949490,136744736,2,-0.0873088464140892,-0.022928744554519653,0.013541091233491898,0.9958253502845764
1682373345.23939085,136844632,2,-0.08854424208402634,-0.02450317144393921,0.0129325482994318,0.9956868290901184
1682373345.33942604,136944667,2,-0.08992484211921692,-0.024387743324041367,0.012245678342878819,0.9955745935440063
1682373345.43939495,137044636,2,-0.0905844047665596,-0.02184111252427101,0.009339884854853153,0.99560546875
1682373345.53939390,137144635,2,-0.09027782082557678,-0.020113259553909302,0.008816538378596306,0.9956744909286499
1682373345.63939095,137244632,2,-0.08946100622415543,-0.018049025908112526,0.008124365471303463,0.9957936406135559
1682373345.73947883,137344720,2,-0.08835925906896591,-0.017298033460974693,0.007258990779519081,0.9959120154380798
1682373345.83954501,137444786,2,-0.08720969408750534,-0.01848629303276539,0.006642351392656565,0.9959962964057922
1682373345.93954682,137544788,2,-0.08615580201148987,-0.019010845571756363,0.005186712369322777,0.9960867762565613
1682373346.03947186,137644713,2,-0.08526065945625305,-0.023088254034519196,0.0029144363943487406,0.9960868954658508
1682373346.13951802,137744759,2,-0.0837949737906456,-0.026529841125011444,0.0013585862470790744,0.9961288571357727
1682373346.23942184,137844663,2,-0.08281777799129486,-0.028391579166054726,0.001046338235028088,0.9961596727371216
1682373346.33939791,137944639,2,-0.08217951655387878,-0.028210783377289772,0.0016256278613582253,0.9962168335914612
1682373346.43939805,138044639,2,-0.08156578242778778,-0.02563895657658577,0.0012043154565617442,0.9963374137878418
1682373346.53939104,138144632,2,-0.08168935030698776,-0.02326166070997715,-0.0005850862362422049,0.9963861703872681
1682373346.63946605,138244707,2,-0.08151140809059143,-0.021534301340579987,-0.0046643358655273914,0.9964288473129272
1682373346.73955894,138344800,2,-0.08186815679073334,-0.02209712378680706,-0.009318232536315918,0.9963545799255371
1682373346.83950686,138444748,2,-0.08180532604455948,-0.022422146052122116,-0.013004082255065441,0.9963111877441406
1682373346.93946600,138544707,2,-0.08193791657686234,-0.019788965582847595,-0.015339989215135574,0.9963228702545166
1682373347.03945303,138644694,2,-0.08211664110422134,-0.015071222558617592,-0.013213246129453182,0.9964211583137512
1682373347.13942385,138744665,2,-0.08155588060617447,-0.00838939007371664,-0.011950862593948841,0.9965618252754211
1682373347.23939300,138844634,2,-0.0804014727473259,-0.0009282412938773632,-0.011536273173987865,0.996695339679718
1682373347.33940005,138944641,2,-0.07691248506307602,0.005776387173682451,-0.01158920582383871,0.9969537854194641
1682373347.43939400,139044635,2,-0.07025909423828125,0.011108826845884323,-0.013179716654121876,0.9973798394203186
1682373347.53944397,139144685,2,-0.059436678886413574,0.012975367717444897,-0.015222142450511456,0.9980316758155823
1682373347.63950801,139244749,2,-0.04422803595662117,0.014663668349385262,-0.0165569968521595,0.9987766146659851
1682373347.73951387,139344755,2,-0.023672103881835938,0.014726351015269756,-0.01495023537427187,0.999499499797821
1682373347.83946896,139444710,2,0.00025668024318292737,0.015863407403230667,-0.009096669033169746,0.9998327493667603
1682373347.93951988,139544761,2,0.027202462777495384,0.015884999185800552,-0.00185695372056216,0.9995020031929016
1682373348.03945303,139644694,2,0.05414269119501114,0.014179777354001999,0.0035641260910779238,0.9984261393547058
1682373348.13939786,139744639,2,0.08270639181137085,0.008740649558603764,0.007755253463983536,0.9965054392814636
1682373348.23938990,139844631,2,0.11059905588626862,0.0027041067369282246,0.010134791024029255,0.9938097596168518
1682373348.33939505,139944636,2,0.13892032206058502,-0.0021493216045200825,0.011297623626887798,0.990236759185791
1682373348.43945885,140044700,2,0.16588705778121948,-0.006655119825154543,0.011867428198456764,0.9860509037971497
1682373348.53953385,140144775,2,0.19164134562015533,-0.009553185664117336,0.012743504717946053,0.9813358187675476
1682373348.63951087,140244752,2,0.2146805375814438,-0.011937960051000118,0.014092867262661457,0.976509690284729
1682373348.73950601,140344747,2,0.23468713462352753,-0.01644655130803585,0.014624947682023048,0.9718217849731445
1682373348.83943796,140444679,2,0.25167086720466614,-0.020272957161068916,0.014226643368601799,0.9674959182739258
1682373348.93943501,140544676,2,0.2663029730319977,-0.022373784333467484,0.012920698150992393,0.9635430574417114
1682373349.03939605,140644637,2,0.2781282365322113,-0.022730493918061256,0.012003845535218716,0.9601999521255493
1682373349.13939285,140744634,2,0.2873076796531677,-0.021210769191384315,0.011561373248696327,0.9575336575508118
1682373349.23939586,140844637,2,0.29367125034332275,-0.018568817526102066,0.010516554117202759,0.9556682705879211
1682373349.33944988,140944691,2,0.29786011576652527,-0.017247017472982407,0.009339225478470325,0.9544080495834351
1682373349.43951392,141044755,2,0.30023321509361267,-0.016823509708046913,0.00863894447684288,0.95367830991745
1682373349.53951097,141144752,2,0.30108025670051575,-0.016401300206780434,0.007976312190294266,0.9534243941307068
1682373349.63951302,141244754,2,0.3001213073730469,-0.018039174377918243,0.0058738430961966515,0.9537123441696167
1682373349.73951387,141344755,2,0.29752543568611145,-0.019030766561627388,0.0032939468510448933,0.9545184969902039
1682373349.83942699,141444668,2,0.293547123670578,-0.018584823235869408,0.0023583630099892616,0.9557610154151917
1682373349.93939590,141544637,2,0.2883811593055725,-0.01853165403008461,0.000607938680332154,0.9573361277580261
1682373350.03940582,141644647,2,0.2820376455783844,-0.019200019538402557,2.9610109777422622e-05,0.9592111706733704
1682373350.13939595,141744637,2,0.27460595965385437,-0.019970262423157692,-0.0006557119777426124,0.9613491892814636
1682373350.23945403,141844695,2,0.2665412724018097,-0.01938609778881073,0.0006564989453181624,0.9636282920837402
1682373350.33950090,141944742,2,0.25777533650398254,-0.018381554633378983,0.00020885712001472712,0.9660300016403198
1682373350.43950987,142044751,2,0.2484131008386612,-0.018650168552994728,-0.0017284011701121926,0.9684730768203735
1682373350.53950286,142144744,2,0.2387196123600006,-0.018945252522826195,-0.003074598964303732,0.9708988666534424
1682373350.63943601,142244677,2,0.22867485880851746,-0.019146159291267395,-0.004815417341887951,0.9733026623725891
1682373350.73943400,142344675,2,0.21877510845661163,-0.0199537742882967,-0.005877773743122816,0.975553572177887
1682373350.83939099,142444632,2,0.2086927890777588,-0.01944657601416111,-0.0064348578453063965,0.9777666926383972
1682373350.93939686,142544638,2,0.19857855141162872,-0.018921276554465294,-0.0073032621294260025,0.9798750877380371
1682373351.03939199,142644633,2,0.18888969719409943,-0.018146894872188568,-0.005295286420732737,0.9818163514137268
1682373351.13945198,142744693,2,0.17958465218544006,-0.01696469634771347,-0.004292398225516081,0.983586847782135
1682373351.23951101,142844752,2,0.17120927572250366,-0.015561406500637531,-0.002966246334835887,0.9851073026657104
1682373351.33949804,142944739,2,0.16377992928028107,-0.015027633868157864,-0.0014781472273170948,0.9863813519477844
1682373351.43946505,143044706,2,0.1575881540775299,-0.015306037850677967,-0.0007050794665701687,0.9873860478401184
1682373351.53953695,143144778,2,0.15285742282867432,-0.01617574691772461,0.0010518042836338282,0.9881153106689453
1682373351.63942003,143244661,2,0.14940719306468964,-0.01628577895462513,0.0020088553428649902,0.9886395931243896
1682373351.73940206,143344643,2,0.14722847938537598,-0.016165070235729218,0.0027229965198785067,0.9889666438102722
1682373351.83939505,143444636,2,0.14615638554096222,-0.01601768471300602,0.00277742650359869,0.9891279339790344
1682373351.93939090,143544632,2,0.1462477147579193,-0.016549667343497276,0.0020539085380733013,0.9891074299812317
1682373352.03945184,143644693,2,0.14697541296482086,-0.01697305217385292,0.0014850811567157507,0.9889934062957764
1682373352.13951898,143744760,2,0.14859314262866974,-0.017254265025258064,0.0008578824927099049,0.9887474775314331
1682373352.23950887,143844750,2,0.15063655376434326,-0.017049329355359077,0.0005552568472921848,0.9884420037269592
1682373352.33946204,143944703,2,0.1532156765460968,-0.016278093680739403,-0.0002907975867856294,0.9880586266517639
1682373352.43952799,144044769,2,0.15592549741268158,-0.01583721861243248,-0.0008785832324065268,0.987641453742981
1682373352.53942800,144144669,2,0.1588389128446579,-0.015218338929116726,-0.00143075839150697,0.9871861934661865
1682373352.63939095,144244632,2,0.16206508874893188,-0.01463044248521328,-0.0009554630960337818,0.9866711497306824
1682373352.73940086,144344642,2,0.16554246842861176,-0.014417015016078949,-0.00016498214972671121,0.9860972762107849
1682373352.83940291,144444644,2,0.16905954480171204,-0.014380442909896374,0.0005182590102776885,0.9855008125305176
1682373352.93945193,144544693,2,0.1727571338415146,-0.014841771684587002,0.0006298141670413315,0.9848524332046509
1682373353.03951192,144644753,2,0.17652858793735504,-0.015395132824778557,0.0001316585548920557,0.9841750860214233
1682373353.13952804,144744769,2,0.18050023913383484,-0.01593971438705921,-0.0004792213439941406,0.9834456443786621
1682373353.23949790,144844739,2,0.18397390842437744,-0.01602337509393692,-0.0006953085539862514,0.9828002452850342
1682373353.33951783,144944759,2,0.18751224875450134,-0.015863558277487755,-0.0015622961800545454,0.9821329116821289
1682373353.43942404,145044665,2,0.19065868854522705,-0.015920588746666908,-0.0020689761731773615,0.9815251231193542
1682373353.53940105,145144642,2,0.1937112659215927,-0.016116412356495857,-0.0025275712832808495,0.9809229373931885
1682373353.63939691,145244638,2,0.1961749643087387,-0.016365421935915947,-0.0023272386752068996,0.9804295897483826
1682373353.73940206,145344643,2,0.19843564927577972,-0.01719973422586918,-0.0017880668165162206,0.9799613356590271
1682373353.83945799,145444699,2,0.20020268857479095,-0.016826212406158447,-0.0010595401981845498,0.9796094298362732
1682373353.93954301,145544784,2,0.20162060856819153,-0.01687225140631199,-0.00012344085553195328,0.979318380355835
1682373354.03954387,145644785,2,0.20275016129016876,-0.016502872109413147,0.00013041854253970087,0.9790914058685303
1682373354.13951087,145744752,2,0.20352576673030853,-0.01619712822139263,-0.00017749621474649757,0.9789355993270874
1682373354.23951888,145844760,2,0.20430059731006622,-0.016602644696831703,-0.0023264209739863873,0.9787646532058716
1682373354.33942199,145944663,2,0.2044980823993683,-0.015745889395475388,-0.004422787576913834,0.978730320930481
1682373354.43940091,146044642,2,0.20481489598751068,-0.015979168936610222,-0.004949545953422785,0.9786577820777893
1682373354.53939104,146144632,2,0.20514704287052155,-0.016298990696668625,-0.004433079622685909,0.978585422039032
1682373354.63939691,146244638,2,0.20510774850845337,-0.01671167090535164,-0.002188414800912142,0.9785942435264587
1682373354.73945785,146344699,2,0.20524156093597412,-0.01753167249262333,-0.001988345989957452,0.9785522818565369
1682373354.83954191,146444783,2,0.20516833662986755,-0.017284315079450607,-0.0026311043184250593,0.9785705208778381
1682373354.93954301,146544784,2,0.20493850111961365,-0.01727839559316635,-0.002769740764051676,0.9786183834075928
1682373355.03947306,146644714,2,0.2046985626220703,-0.017549853771924973,-0.002994079841300845,0.9786631464958191
1682373355.13944197,146744683,2,0.20396867394447327,-0.01787855476140976,-0.0027312925085425377,0.9788103103637695
1682373355.23942399,146844665,2,0.20317262411117554,-0.017502233386039734,-0.002394661772996187,0.9789835810661316
1682373355.33939195,146944633,2,0.20224951207637787,-0.016956249251961708,-0.0025266779121011496,0.9791839718818665
1682373355.43939805,147044639,2,0.2013145536184311,-0.016450848430395126,-0.0015671326545998454,0.9793872237205505
1682373355.53940201,147144643,2,0.20026364922523499,-0.015818772837519646,-0.002227765042334795,0.9796118140220642
1682373355.63944983,147244691,2,0.19942830502986908,-0.017140809446573257,-0.0034912435803562403,0.9797562956809998
1682373355.73954701,147344788,2,0.1983974277973175,-0.017644820734858513,-0.003920994233340025,0.9799549579620361
1682373355.83951783,147444759,2,0.197800412774086,-0.017510060220956802,-0.003823337145149708,0.9800784587860107
1682373355.93946290,147544704,2,0.1969446986913681,-0.01715657487511635,-0.004119179677218199,0.9802558422088623
1682373356.03952694,147644768,2,0.19665884971618652,-0.01613524742424488,-0.003314041765406728,0.9803336262702942
1682373356.13943291,147744674,2,0.19629040360450745,-0.015171410515904427,-0.0021105813793838024,0.9804261326789856
1682373356.23939204,147844633,2,0.19623462855815887,-0.014980495907366276,-0.0010266656754538417,0.9804419875144958
1682373356.33938885,147944630,2,0.19617128372192383,-0.015440402552485466,-0.0006762836128473282,0.9804478287696838
1682373356.43939590,148044637,2,0.19660767912864685,-0.015302764251828194,6.214753375388682e-05,0.9803628325462341
1682373356.53945684,148144698,2,0.19702951610088348,-0.014591540209949017,-0.0003368998586665839,0.9802889227867126
1682373356.63953185,148244773,2,0.19771221280097961,-0.014461755752563477,-0.00047101001837290823,0.9801533222198486
1682373356.73954988,148344791,2,0.19797924160957336,-0.014562469907104969,4.330342198954895e-05,0.9800980091094971
1682373356.83949399,148444735,2,0.1986614316701889,-0.014602100476622581,0.001833560992963612,0.9799576997756958
1682373356.93952394,148544765,2,0.19912853837013245,-0.015358522534370422,0.002494113752618432,0.9798498153686523
1682373357.03942704,148644668,2,0.1996755301952362,-0.016357526183128357,0.0034722364507615566,0.9797194004058838
1682373357.13939404,148744635,2,0.19978593289852142,-0.016902681440114975,0.004343313165009022,0.9796841144561768
1682373357.23940587,148844647,2,0.20001618564128876,-0.018105575814843178,0.004847449716180563,0.9796133041381836
1682373357.33939099,148944632,2,0.20019328594207764,-0.018003590404987335,0.005245932377874851,0.9795769453048706
1682373357.43946004,149044701,2,0.20028062164783478,-0.016338350251317024,0.004769664257764816,0.9795907139778137
1682373357.53950787,149144749,2,0.20033584535121918,-0.015505945309996605,0.003811545204371214,0.9795971512794495
1682373357.63950396,149244745,2,0.20011688768863678,-0.014652143232524395,0.0029581247363239527,0.9796580076217651
1682373357.73948002,149344721,2,0.1998589187860489,-0.01451503112912178,0.0027751761954277754,0.9797132611274719
1682373357.83950996,149444751,2,0.19936873018741608,-0.014713980257511139,0.003717609215527773,0.9798070192337036
1682373357.93942094,149544662,2,0.1989666372537613,-0.015032055787742138,0.004034795798361301,0.9798826575279236
1682373358.03940296,149644644,2,0.19858667254447937,-0.015063222497701645,0.0046577355824410915,0.9799565076828003
1682373358.13939786,149744639,2,0.19845198094844818,-0.014589698985219002,0.0041624377481639385,0.9799931645393372
1682373358.23939490,149844636,2,0.19840510189533234,-0.013315198011696339,0.004190140403807163,0.9800207018852234
1682373358.33946395,149944705,2,0.19862790405750275,-0.012413623742759228,0.00463987747207284,0.9799853563308716
1682373358.43949986,150044741,2,0.19891396164894104,-0.012753870338201523,0.005468553863465786,0.9799187183380127
1682373358.53949785,150144739,2,0.19928078353405,-0.012984897010028362,0.0051483940333127975,0.9798429012298584
1682373358.63951087,150244752,2,0.19995492696762085,-0.012639142572879791,0.00532607501372695,0.9797090888023376
1682373358.73952889,150344770,2,0.20070259273052216,-0.012390407733619213,0.006208841688930988,0.9795541763305664
1682373358.83942890,150444670,2,0.20147769153118134,-0.012808284722268581,0.007157518528401852,0.9793832302093506
1682373358.93938994,150544631,2,0.2022768259048462,-0.013182297348976135,0.007481261622160673,0.9792110919952393
1682373359.03939891,150644640,2,0.203023761510849,-0.013979154638946056,0.006572238635271788,0.979051947593689
1682373359.13940096,150744642,2,0.20372509956359863,-0.014376305043697357,0.005892293062061071,0.9789048433303833
1682373359.23947692,150844718,2,0.20438705384731293,-0.015242584981024265,0.005782241467386484,0.9787544012069702
1682373359.33954000,150944781,2,0.2050503045320511,-0.01692531444132328,0.005544743034988642,0.9785893559455872
1682373359.43949795,151044739,2,0.20565395057201385,-0.017615843564271927,0.005217062775045633,0.9784523248672485
1682373359.53950596,151144747,2,0.20611540973186493,-0.017574233934283257,0.005169740412384272,0.9783561825752258
1682373359.63952303,151244764,2,0.20681248605251312,-0.017715994268655777,0.004624491091817617,0.9782092571258545
1682373359.73943186,151344673,2,0.20724248886108398,-0.017973696812987328,0.005148356314748526,0.9781109094619751
1682373359.83939791,151444639,2,0.20757266879081726,-0.018131347373127937,0.004933012183755636,0.9780390858650208
1682373359.93939996,151544641,2,0.20773349702358246,-0.018656250089406967,0.004630597308278084,0.9779965877532959
1682373360.03939986,151644641,2,0.2077164500951767,-0.01853351481258869,0.0052044265903532505,0.9779996275901794
1682373360.13946199,151744703,2,0.2075788676738739,-0.018500693142414093,0.004854779224842787,0.9780312776565552
1682373360.23950195,151844743,2,0.20735131204128265,-0.016450265422463417,0.004608760122209787,0.9781173467636108
1682373360.33950186,151944743,2,0.20743641257286072,-0.014931587502360344,0.004646678455173969,0.9781234860420227
1682373360.43946695,152044708,2,0.2073221206665039,-0.014984196051955223,0.004337751306593418,0.978148341178894
1682373360.53951097,152144752,2,0.2071223258972168,-0.015448465943336487,0.0040335035882890224,0.9781847596168518
1682373360.63942695,152244668,2,0.2070651352405548,-0.016421586275100708,0.0034027029760181904,0.978183388710022
1682373360.73940802,152344649,2,0.2066299170255661,-0.01701536402106285,0.0027818684466183186,0.978267252445221
1682373360.83939195,152444633,2,0.20660194754600525,-0.015875020995736122,0.003432809840887785,0.9782902598381042
1682373360.93938994,152544631,2,0.2065044790506363,-0.014865047298371792,0.0030654233414679766,0.9783279299736023
1682373361.03945184,152644693,2,0.20632430911064148,-0.015344084240496159,0.004090667236596346,0.978354811668396
1682373361.13951182,152744753,2,0.2062886357307434,-0.016147784888744354,0.0049027749337255955,0.9783456325531006
1682373361.23950601,152844747,2,0.20585937798023224,-0.017524780705571175,0.005062031093984842,0.9784115552902222
1682373361.33949804,152944739,2,0.20562013983726501,-0.018380306661128998,0.004928737413138151,0.9784468412399292
1682373361.43953204,153044773,2,0.20502643287181854,-0.019116148352622986,0.003355226945132017,0.9785639643669128
1682373361.53943086,153144672,2,0.2042129933834076,-0.019305864349007607,0.0026372128631919622,0.9787325263023376
1682373361.63938999,153244631,2,0.2033969759941101,-0.019787272438406944,0.0024003542494028807,0.9788934588432312
1682373361.73940206,153344643,2,0.202161967754364,-0.019427960738539696,0.0027490579523146152,0.9791555404663086
1682373361.83940387,153444645,2,0.20100514590740204,-0.01850825920701027,0.004932049661874771,0.9794028997421265
1682373361.93945384,153544695,2,0.19976620376110077,-0.01816839538514614,0.005378305912017822,0.9796603918075562
1682373362.03950000,153644741,2,0.19847430288791656,-0.01884448155760765,0.005682311486452818,0.9799084663391113
1682373362.13951588,153744757,2,0.1972304731607437,-0.01921013370156288,0.005475353449583054,0.9801536202430725
1682373362.23947096,153844712,2,0.19609537720680237,-0.019736703485250473,0.005653577856719494,0.9803698658943176
1682373362.33952785,153944769,2,0.19526799023151398,-0.019352534785866737,0.006234853528439999,0.9805391430854797
1682373362.43943000,154044671,2,0.19464121758937836,-0.01785460114479065,0.0057205199263989925,0.9806953072547913
1682373362.53939104,154144632,2,0.19425973296165466,-0.016928957775235176,0.005528087727725506,0.9807884693145752
1682373362.63939095,154244632,2,0.19396120309829712,-0.016473663970828056,0.005118142813444138,0.9808574914932251
1682373362.73940301,154344644,2,0.19427615404129028,-0.01639585569500923,0.004080648999661207,0.9808013439178467
1682373362.83945584,154444697,2,0.1943756639957428,-0.016316041350364685,0.004168839659541845,0.9807826280593872
1682373362.93948388,154544725,2,0.1948884129524231,-0.016917776316404343,0.0043801781721413136,0.9806697368621826
1682373363.03949690,154644738,2,0.19497397541999817,-0.018101105466485023,0.004419998731464148,0.980631411075592
1682373363.13946986,154744711,2,0.1955021619796753,-0.01866830326616764,0.0046758647076785564,0.980514407157898
1682373363.23953295,154844774,2,0.1958337426185608,-0.018964197486639023,0.004399043507874012,0.9804438352584839
1682373363.33942199,154944663,2,0.19634807109832764,-0.01905914396047592,0.00394078204408288,0.9803410768508911
1682373363.43939686,155044638,2,0.19692882895469666,-0.018007976934313774,0.004540084395557642,0.9802418947219849
1682373363.53939986,155144641,2,0.19768677651882172,-0.016321973875164986,0.0048192269168794155,0.9801174998283386
1682373363.63939786,155244639,2,0.19889786839485168,-0.01492283120751381,0.006152002606540918,0.9798873066902161
1682373363.73947096,155344712,2,0.20012164115905762,-0.013610436581075191,0.005662818439304829,0.979660153388977
1682373363.83950996,155444751,2,0.20161567628383636,-0.015032566152513027,0.004230936523526907,0.9793401956558228
1682373363.93952799,155544769,2,0.20278887450695038,-0.017538612708449364,0.0022075450979173183,0.9790629148483276
1682373364.03950500,155644746,2,0.20406140387058258,-0.01882912591099739,6.727648724336177e-05,0.9787769913673401
1682373364.13951182,155744753,2,0.20515203475952148,-0.0197231974452734,-0.001426331466063857,0.9785303473472595
1682373364.23942399,155844665,2,0.20621860027313232,-0.019013945013284683,-0.0017352869035676122,0.9783196449279785
1682373364.33939195,155944633,2,0.20750631392002106,-0.017777657136321068,-0.001482489169575274,0.9780709743499756
1682373364.43940187,156044643,2,0.20828266441822052,-0.016830598935484886,1.3867904272046871e-05,0.9779238700866699
1682373364.53939104,156144632,2,0.2089253067970276,-0.016421563923358917,0.00019972944573964924,0.9777936935424805
1682373364.63946986,156244711,2,0.2092052698135376,-0.01780533976852894,0.0002369209105381742,0.9777095913887024
1682373364.73952103,156344762,2,0.20932018756866455,-0.01963653601706028,-0.00036193738924339414,0.9776499271392822
1682373364.83950305,156444744,2,0.20930039882659912,-0.019580798223614693,-0.0013317266711965203,0.9776543974876404
1682373364.93946505,156544706,2,0.20895279943943024,-0.018402503803372383,-0.0011287957895547152,0.9777519106864929
1682373365.03943992,156644681,2,0.20826254785060883,-0.017373742535710335,-0.0017130982596427202,0.9779171347618103
1682373365.13942289,156744664,2,0.20784862339496613,-0.017038775607943535,-0.002025764901190996,0.9780104756355286
1682373365.23940086,156844642,2,0.20716659724712372,-0.017724402248859406,-0.002166848862543702,0.9781426787376404
1682373365.33939600,156944637,2,0.20612365007400513,-0.01806672103703022,-0.0012460439465939999,0.9783583879470825
1682373365.43939900,157044640,2,0.20549564063549042,-0.018252843990921974,-4.2366544221295044e-05,0.9784877896308899
1682373365.53947902,157144720,2,0.2043469399213791,-0.01845628395676613,-0.0010569656733423471,0.97872394323349
1682373365.63950396,157244745,2,0.20334576070308685,-0.017468445003032684,-0.001246997038833797,0.9789503812789917
1682373365.73950982,157344751,2,0.2023891657590866,-0.016511617228388786,-0.0011123178992420435,0.9791653156280518
1682373365.83949685,157444738,2,0.20103468000888824,-0.01582683064043522,-0.0005898399977013469,0.9794560670852661
1682373365.93951797,157544759,2,0.20005571842193604,-0.015949079766869545,0.0001954027102328837,0.9796546697616577
1682373366.03942490,157644666,2,0.19871008396148682,-0.01665494218468666,0.0005709718680009246,0.9799166321754456
1682373366.13939691,157744638,2,0.19761718809604645,-0.01678416132926941,0.0005554332747124135,0.980135440826416
1682373366.23939204,157844633,2,0.19623394310474396,-0.017732147127389908,0.0009715671767480671,0.9803962707519531
1682373366.33939195,157944633,2,0.19505572319030762,-0.018554702401161194,0.0021313978359103203,0.9806143045425415
1682373366.43945003,158044691,2,0.1936841756105423,-0.018720634281635284,0.0018525357590988278,0.9808835387229919
1682373366.53950000,158144741,2,0.19256383180618286,-0.018039043992757797,0.001674672239460051,0.9811171889305115
1682373366.63952088,158244762,2,0.19101132452487946,-0.016408465802669525,0.0009374729706905782,0.9814502596855164
1682373366.73948693,158344728,2,0.18996505439281464,-0.01542720291763544,0.0008109724731184542,0.9816693067550659
1682373366.83943892,158444680,2,0.18864522874355316,-0.014149256981909275,0.0017538352403789759,0.981941819190979
1682373366.93942785,158544669,2,0.18780066072940826,-0.013019807636737823,0.002468353370204568,0.982117772102356
1682373367.03939104,158644632,2,0.18708480894565582,-0.012228074483573437,0.003074377542361617,0.9822628498077393
1682373367.13939500,158744636,2,0.18681587278842926,-0.011858344078063965,0.003974518738687038,0.9823153614997864
1682373367.23939991,158844641,2,0.18645073473453522,-0.012060064822435379,0.0046789743937551975,0.982379138469696
1682373367.33944702,158944688,2,0.18650944530963898,-0.012597481720149517,0.00484769232571125,0.9823604226112366
1682373367.43953896,159044780,2,0.18663279712200165,-0.012016787193715572,0.004896382335573435,0.9823440313339233
1682373367.53950906,159144750,2,0.18669770658016205,-0.011933130212128162,0.004321744199842215,0.9823354482650757
1682373367.63950300,159244744,2,0.1870153695344925,-0.012552624568343163,0.003897949354723096,0.9822690486907959
1682373367.73952484,159344766,2,0.18722712993621826,-0.013009228743612766,0.002971392823383212,0.9822260141372681
1682373367.83942699,159444668,2,0.18742258846759796,-0.014541531912982464,0.004155907779932022,0.9821629524230957
1682373367.93939400,159544635,2,0.18763820827007294,-0.01514885202050209,0.004810458514839411,0.9821096062660217
1682373368.03939104,159644632,2,0.1876009851694107,-0.015972984954714775,0.0052656009793281555,0.982101321220398
1682373368.13940287,159744644,2,0.18779554963111877,-0.01628890074789524,0.005605964455753565,0.9820570349693298
1682373368.23945785,159844699,2,0.18772833049297333,-0.01563035324215889,0.005134277045726776,0.9820832014083862
1682373368.33950901,159944750,2,0.18791453540325165,-0.016412444412708282,0.004747268743813038,0.9820367693901062
1682373368.43950605,160044747,2,0.18802635371685028,-0.01751638576388359,0.005263352766633034,0.9819936752319336
1682373368.53946590,160144707,2,0.18838484585285187,-0.018385227769613266,0.005979269742965698,0.9819049835205078
1682373368.63951802,160244759,2,0.18880264461040497,-0.019023431465029716,0.007602010853588581,0.9818013310432434
1682373368.73943806,160344679,2,0.18944226205348969,-0.019785089418292046,0.008605260401964188,0.9816547632217407
1682373368.83939385,160444635,2,0.19015656411647797,-0.020410964265465736,0.00797645840793848,0.9815091490745544
1682373368.93939495,160544636,2,0.19122648239135742,-0.02086632512509823,0.007806376554071903,0.9812930822372437
1682373369.03939104,160644632,2,0.19237716495990753,-0.020252246409654617,0.00815571378916502,0.9810781478881836
1682373369.13945293,160744694,2,0.19362595677375793,-0.019298836588859558,0.008351978845894337,0.9808500409126282
1682373369.23953891,160844780,2,0.19512027502059937,-0.017504217103123665,0.009195112623274326,0.9805799722671509
1682373369.33952188,160944763,2,0.19653891026973724,-0.016096657142043114,0.00842993427067995,0.9803276658058167
1682373369.43949699,161044738,2,0.19795359671115875,-0.014815512113273144,0.009716928005218506,0.9800512790679932
1682373369.53952885,161144770,2,0.19932401180267334,-0.014979423955082893,0.008758139796555042,0.9797800183296204
1682373369.63942599,161244667,2,0.20039880275726318,-0.01617315039038658,0.00753251975402236,0.9795519709587097
1682373369.73940992,161344651,2,0.20121310651302338,-0.017044002190232277,0.006382332649081945,0.9793784022331238
1682373369.83939600,161444637,2,0.20186038315296173,-0.018404310569167137,0.004002204164862633,0.9792332053184509
1682373369.93940592,161544647,2,0.202312633395195,-0.01987968385219574,0.00263788434676826,0.9791156649589539
1682373370.03946090,161644702,2,0.20251409709453583,-0.019026190042495728,0.001746844733133912,0.9790929555892944
1682373370.13949704,161744738,2,0.20263028144836426,-0.018897073343396187,0.0014954874059185386,0.9790717959403992
1682373370.23951292,161844754,2,0.202450692653656,-0.018425200134515762,0.001671008998528123,0.9791176915168762
1682373370.33946300,161944704,2,0.2022421658039093,-0.017170939594507217,0.0027129915542900562,0.9791812300682068
1682373370.43943906,162044680,2,0.20209428668022156,-0.016856202855706215,0.0034419249277561903,0.9792149662971497
1682373370.53942585,162144667,2,0.2014843374490738,-0.016568467020988464,0.0041776481084525585,0.9793426990509033
1682373370.63939095,162244632,2,0.20100124180316925,-0.01728309690952301,0.004919940605759621,0.9794261455535889
1682373370.73940587,162344647,2,0.20040537416934967,-0.02006855234503746,0.006540317554026842,0.9794856905937195
1682373370.83939791,162444639,2,0.19942927360534668,-0.02476261369884014,0.008057345636188984,0.9795661568641663
1682373370.93946099,162544702,2,0.19818581640720367,-0.03136846423149109,0.009649933315813541,0.9796148538589478
1682373371.03949904,162644740,2,0.19702725112438202,-0.03750177100300789,0.010419163852930069,0.9796251058578491
1682373371.13950586,162744747,2,0.19579438865184784,-0.04313823953270912,0.01055335532873869,0.9796388745307922
1682373371.23950100,162844742,2,0.19440315663814545,-0.04816746711730957,0.012655050493776798,0.9796566367149353
1682373371.33951497,162944756,2,0.19321079552173615,-0.05258721485733986,0.013922011479735374,0.9796480536460876
1682373371.43942404,163044665,2,0.19218552112579346,-0.055354490876197815,0.015339894220232964,0.9796761274337769
1682373371.53939700,163144638,2,0.19143620133399963,-0.05617062374949455,0.015727318823337555,0.9797702431678772
1682373371.63939095,163244632,2,0.19104839861392975,-0.0551985539495945,0.015232651494443417,0.9799090027809143
1682373371.73940682,163344648,2,0.19065044820308685,-0.05223843827843666,0.014789676293730736,0.9801555275917053
1682373371.83945704,163444698,2,0.19085824489593506,-0.04827321320772171,0.01369902677834034,0.9803342223167419
1682373371.93953586,163544777,2,0.1913459151983261,-0.04191426560282707,0.011598614044487476,0.9805586934089661
1682373372.03954482,163644786,2,0.19252043962478638,-0.03395748883485794,0.010506628081202507,0.980648934841156
1682373372.13950706,163744748,2,0.19380402565002441,-0.027092404663562775,0.007914107292890549,0.9806341528892517
1682373372.23943901,163844680,2,0.19536489248275757,-0.02193267084658146,0.006151779554784298,0.9804660677909851
1682373372.33942699,163944668,2,0.1970832347869873,-0.01769479550421238,0.004908296745270491,0.9802147746086121
1682373372.43940592,164044647,2,0.19876280426979065,-0.014954676851630211,0.003282171906903386,0.9799280166625977
1682373372.53939295,164144634,2,0.20041508972644806,-0.015241977758705616,0.0013956634793430567,0.9795914888381958
1682373372.63938999,164244631,2,0.2008969485759735,-0.019262883812189102,-0.003255323274061084,0.9794175624847412
1682373372.73947883,164344720,2,0.20080788433551788,-0.02220098301768303,-0.0043646590784192085,0.9793693423271179
1682373372.83955503,164444796,2,0.2008914053440094,-0.023475807160139084,-0.0014029137091711164,0.9793311953544617
1682373372.93955088,164544792,2,0.20063729584217072,-0.02476276457309723,0.0019348268397152424,0.9793506860733032
1682373373.03946996,164644711,2,0.20013996958732605,-0.024576295167207718,0.005576085764914751,0.9794431328773499
1682373373.13952684,164744768,2,0.1997414231300354,-0.024922052398324013,0.006987833417952061,0.9795067310333252
1682373373.23942900,164844670,2,0.19944503903388977,-0.02513210102915764,0.00681237643584609,0.9795629978179932
1682373373.33939099,164944632,2,0.19867344200611115,-0.024766741320490837,0.00588160939514637,0.9797351360321045
1682373373.43939900,165044640,2,0.1977928727865219,-0.024056123569607735,0.004377578850835562,0.979938805103302
1682373373.53939486,165144636,2,0.19684194028377533,-0.023297782987356186,0.0036681692581623793,0.9801515340805054
1682373373.63945484,165244696,2,0.19523657858371735,-0.023255590349435806,0.0038014622405171394,0.9804730415344238
1682373373.73950505,165344746,2,0.19376204907894135,-0.023939134553074837,0.004725162871181965,0.9807450771331787
1682373373.83955193,165444793,2,0.19182154536247253,-0.02527640573680401,0.0046493313275277615,0.9810932874679565
1682373373.93950987,165544751,2,0.19009384512901306,-0.02554231882095337,0.005190464202314615,0.9814198613166809
1682373374.03951788,165644759,2,0.18827305734157562,-0.02529381588101387,0.004891068674623966,0.9817788004875183
1682373374.13943291,165744674,2,0.18689203262329102,-0.02365339919924736,0.005587049759924412,0.9820797443389893
1682373374.23939204,165844633,2,0.18529558181762695,-0.02234596572816372,0.004807663150131702,0.9824169874191284
1682373374.33939004,165944631,2,0.18417997658252716,-0.021127423271536827,0.004208239261060953,0.9826564192771912
1682373374.43939900,166044640,2,0.18322968482971191,-0.020456071943044662,0.003936522640287876,0.9828494191169739
1682373374.53946185,166144703,2,0.1826905459165573,-0.02117283083498478,0.0031755161471664906,0.9829373359680176
1682373374.63947582,166244717,2,0.1825447529554367,-0.021317314356565475,0.002399328863248229,0.982963502407074
1682373374.73951101,166344752,2,0.18240126967430115,-0.02125709503889084,0.0014799596974626184,0.9829932451248169
1682373374.83950591,166444747,2,0.18266989290714264,-0.02033519372344017,0.0008296968298964202,0.9829636216163635
1682373374.93943906,166544680,2,0.1829243153333664,-0.020294567570090294,-0.001035127672366798,0.9829169511795044
1682373375.03942394,166644665,2,0.1832001656293869,-0.01974727399647236,-0.0015266633126884699,0.9828761219978333
1682373375.13939404,166744635,2,0.1831998974084854,-0.020427575334906578,-0.001050194026902318,0.9828628897666931
1682373375.23939800,166844639,2,0.18322783708572388,-0.020863141864538193,0.0007413032581098378,0.9828487634658813
1682373375.33939600,166944637,2,0.18352948129177094,-0.020418556407094002,0.0019328567432239652,0.9828002452850342
1682373375.43945193,167044693,2,0.18370020389556885,-0.019276734441518784,0.0032568892929702997,0.9827879071235657
1682373375.53953791,167144779,2,0.18388454616069794,-0.018390832468867302,0.005028144922107458,0.9827629327774048
1682373375.63951898,167244760,2,0.18426865339279175,-0.01686789281666279,0.006291449069976807,0.9827110171318054
1682373375.73947597,167344717,2,0.1845836043357849,-0.01601320132613182,0.007123713381588459,0.9826605319976807
1682373375.83951902,167444760,2,0.18519458174705505,-0.01688496395945549,0.007572910748422146,0.9825276136398315
1682373375.93943691,167544678,2,0.18563735485076904,-0.01826213300228119,0.007381174247711897,0.9824208617210388
1682373376.03939199,167644633,2,0.1862102895975113,-0.019407635554671288,0.006956958677619696,0.9822936058044434
1682373376.13939786,167744639,2,0.1867007166147232,-0.01918400451540947,0.007252478506416082,0.9822027087211609
