timestamp,TimeUS,DesRoll,Roll,DesPitch,Pitch,DesYaw,Yaw,ErrRP,ErrYaw,AEKF
1679661711.47918391,459572105,0.0,-0.87,0.0,-0.29,343.91,343.92,0.0,0.09,3
1679661711.57907009,459671991,0.0,-0.87,0.0,-0.29,343.91,343.92,0.0,0.08,3
1679661711.67904687,459771968,0.0,-0.87,0.0,-0.29,343.91,343.92,0.0,0.07,3
1679661711.77906203,459871983,0.0,-0.87,0.0,-0.29,343.91,343.93,0.0,0.06,3
1679661711.87907100,459971992,0.0,-0.87,0.0,-0.3,343.91,343.94,0.0,0.07,3
1679661711.97911096,460072032,0.0,-0.87,0.0,-0.3,343.91,343.94,0.0,0.06,3
1679661712.07905889,460171980,0.0,-0.86,0.0,-0.3,343.91,343.94,0.0,0.06,3
1679661712.17898107,460271902,0.0,-0.86,0.0,-0.31,343.91,343.94,0.0,0.05,3
1679661712.27904892,460371970,0.0,-0.86,0.0,-0.31,343.91,343.95,0.0,0.05,3
1679661712.37936687,460472288,0.0,-0.86,0.0,-0.31,343.91,343.94,0.0,0.05,3
1679661712.47886801,460571789,0.0,-0.86,0.0,-0.31,343.91,343.94,0.0,0.08,3
1679661712.57885909,460671780,0.0,-0.86,0.0,-0.31,343.91,343.95,0.0,0.08,3
1679661712.67912388,460772045,0.0,-0.86,0.0,-0.31,343.91,343.97,0.0,0.09,3
1679661712.77912498,460872046,0.0,-0.86,0.0,-0.31,343.91,343.97,0.0,0.08,3
1679661712.87921309,460972134,0.0,-0.87,0.0,-0.31,343.91,343.97,0.0,0.07,3
1679661712.97912002,461072041,0.0,-0.86,0.0,-0.31,343.91,343.97,0.0,0.06,3
1679661713.07910705,461172028,0.0,-0.87,0.0,-0.31,343.91,343.97,0.0,0.05,3
1679661713.17873907,461271660,0.0,-0.87,0.0,-0.32,343.91,343.96,0.0,0.07,3
1679661713.27897596,461371897,0.0,-0.86,0.0,-0.31,343.91,343.96,0.01,0.07,3
1679661713.37888503,461471806,0.0,-0.86,0.0,-0.31,343.91,343.96,0.01,0.05,3
1679661713.47886992,461571791,0.0,-0.86,0.0,-0.31,343.94,343.95,0.01,0.07,3
1679661713.57889390,461671815,0.0,-0.87,0.0,-0.31,343.94,343.95,0.01,0.08,3
1679661713.67918992,461772111,0.0,-0.87,0.0,-0.31,343.96,343.97,0.01,0.07,3
1679661713.77920699,461872128,0.0,-0.87,0.0,-0.32,343.97,343.98,0.01,0.07,3
1679661713.87884402,461971765,0.0,-0.87,0.0,-0.32,343.99,344.0,0.01,0.06,3
1679661713.97875309,462071674,0.0,-0.87,0.0,-0.32,344.0,344.01,0.01,0.07,3
1679661714.07875800,462171679,0.0,-0.87,0.0,-0.32,344.0,344.02,0.01,0.07,3
1679661714.17885303,462271774,0.0,-0.87,0.0,-0.32,344.0,344.04,0.01,0.06,3
1679661714.27893686,462371858,0.0,-0.87,0.0,-0.32,344.0,344.05,0.01,0.05,3
1679661714.37918210,462472103,0.0,-0.87,0.0,-0.32,344.0,344.05,0.01,0.05,3
1679661714.47920799,462572129,0.0,-0.87,0.0,-0.32,344.0,344.07,0.01,0.05,3
1679661714.57892203,462671843,0.0,-0.87,0.0,-0.32,344.0,344.1,0.01,0.05,3
1679661714.67912793,462772049,0.0,-0.87,0.0,-0.32,344.0,344.06,0.01,0.04,3
1679661714.77907705,462871998,0.0,-0.85,0.0,-0.32,344.0,344.07,0.01,0.04,3
1679661714.87898207,462971903,0.0,-0.78,0.0,-0.31,344.0,344.08,0.01,0.04,3
1679661714.97907209,463071993,0.0,-0.85,0.0,-0.29,344.0,344.06,0.01,0.08,3
1679661715.07939887,463172320,0.0,-0.79,0.0,-0.3,344.0,344.08,0.01,0.08,3
1679661715.17913198,463272053,0.0,-0.8300000000000001,0.0,-0.29,344.0,344.09000000000003,0.01,0.07,3
1679661715.27921009,463372131,0.0,-0.78,0.0,-0.29,344.0,344.04,0.01,0.06,3
1679661715.37930703,463472228,0.0,-0.81,0.0,-0.3,344.0,344.04,0.01,0.11,3
1679661715.47892594,463571847,0.0,-0.81,0.0,-0.3,344.0,344.04,0.01,0.11,3
1679661715.57899594,463671917,0.0,-0.81,0.0,-0.28,344.0,344.01,0.01,0.11,3
1679661715.67884088,463771762,0.0,-0.84,0.0,-0.28,344.0,344.05,0.01,0.09,3
1679661715.77875209,463871673,0.0,-0.78,0.0,-0.25,344.0,344.08,0.01,0.16,3
1679661715.87878203,463971703,0.0,-0.81,0.0,-0.12,344.0,344.09000000000003,0.01,0.14,3
1679661715.97915697,464072078,0.0,-0.55,0.0,0.18,344.0,344.18,0.01,0.13,3
1679661716.07916188,464172083,0.0,0.08,0.0,0.23,344.0,344.2,0.01,0.12,3
1679661716.17912698,464272048,0.0,1.03,-0.37,-0.26,344.0,344.18,0.01,0.11,3
1679661716.27924991,464372171,0.0,1.12,-0.71,-0.81,344.0,344.12,0.01,0.11,3
1679661716.37893200,464471853,0.0,0.74,-0.62,-1.0,344.0,344.03000000000003,0.01,0.16,3
1679661716.47923303,464572154,0.0,0.04,-0.32,-0.36,344.0,343.97,0.01,0.21,3
1679661716.57912207,464672043,0.0,-0.47000000000000003,-0.16,0.6,344.0,343.89,0.01,0.19,3
1679661716.67912292,464772044,-0.21,-0.4,-0.08,1.04,344.0,343.8,0.01,0.24,3
1679661716.77908993,464872011,-0.4,-0.26,-0.04,0.9400000000000001,344.0,343.68,0.01,0.22,3
1679661716.87916207,464972083,-0.2,-0.28,-0.22,0.74,344.0,343.57,0.01,0.18,3
1679661716.97917891,465072100,-0.1,-0.02,-0.73,0.19,344.0,343.46,0.01,0.17,3
1679661717.07944202,465172363,-0.05,0.38,-0.75,-0.85,344.0,343.41,0.02,0.18,3
1679661717.17941594,465272337,-0.02,0.45,-0.38,-0.98,344.0,343.38,0.02,0.16,3
1679661717.27899504,465371916,-0.01,0.27,-0.43,-0.18,344.0,343.38,0.02,0.14,3
1679661717.37897706,465471898,0.0,0.18,-0.75,0.08,344.0,343.40000000000003,0.02,0.18,3
1679661717.47898388,465571905,0.0,0.27,-0.38,0.11,344.0,343.44,0.02,0.21,3
1679661717.57879901,465671720,0.0,0.33,-0.22,0.91,344.0,343.49,0.02,0.17,3
1679661717.67877698,465771698,0.0,0.52,-0.34,1.35,344.0,343.54,0.02,0.18,3
1679661717.77885509,465871776,0.0,0.84,-0.61,0.88,344.0,343.64,0.02,0.21,3
1679661717.87889910,465971820,0.0,0.9500000000000001,-1.21,0.18,343.97,343.7,0.02,0.2,3
1679661717.97918892,466072110,0.0,1.0,-2.05,-0.76,343.32,343.71,0.02,0.2,3
1679661718.07921791,466172139,0.0,1.0,-2.33,-2.15,342.1,343.64,0.01,0.2,3
1679661718.17893004,466271851,0.45,1.68,1.79,1.67,174.18,176.93,0.01,0.2,3
1679661718.27921104,466372132,0.23,0.9400000000000001,0.32,-0.07,173.05,176.14000000000001,0.02,0.17,3
1679661718.37908792,466472009,0.11,0.03,0.05,-2.64,172.75,174.79,0.02,0.2,3
1679661718.47899294,466571914,0.06,-0.31,-0.02,-3.2,172.75,173.49,0.03,0.17,3
1679661718.57895589,466671877,0.03,-0.25,-0.01,-2.18,172.97,172.39000000000001,0.03,0.2,3
1679661718.67942309,466772344,0.01,-0.17,0.0,-0.97,173.1,171.37,0.04,0.22,3
1679661718.77934694,466872268,0.0,0.03,0.0,0.01,173.1,170.71,0.04,0.27,3
1679661718.87892509,466971846,0.0,0.23,0.0,0.79,173.1,170.44,0.04,0.31,3
1679661718.97894192,467071863,0.0,0.36,0.0,0.96,173.1,170.71,0.04,0.31,3
1679661719.07891798,467171839,0.0,0.09,0.0,0.9500000000000001,173.1,170.97,0.04,0.33,3
1679661719.17894888,467271870,0.0,-0.09,0.0,0.93,173.1,171.35,0.04,0.35000000000000003,3
1679661719.27888203,467371803,0.0,-0.21,0.0,0.84,173.1,171.64000000000001,0.04,0.35000000000000003,3
1679661719.37911391,467472035,0.0,-0.38,0.0,0.86,173.1,171.95000000000002,0.04,0.35000000000000003,3
1679661719.47877693,467571698,0.0,-0.33,0.0,0.76,173.1,172.11,0.04,0.36,3
1679661719.57891107,467671832,0.0,-0.26,0.0,0.64,173.1,172.24,0.04,0.37,3
1679661719.67888999,467771811,0.0,-0.25,0.0,0.55,173.1,172.31,0.04,0.37,3
1679661719.77889991,467871821,0.0,-0.13,0.0,0.63,173.1,172.36,0.04,0.37,3
1679661719.87894297,467971864,0.0,-0.04,0.13,0.5700000000000001,173.1,172.39000000000001,0.03,0.39,3
1679661719.97892094,468071842,0.0,0.19,0.55,0.5700000000000001,173.1,172.45000000000002,0.03,0.42,3
1679661720.07922196,468172143,0.0,0.32,1.01,1.05,173.1,172.55,0.03,0.42,3
1679661720.17885995,468271781,0.0,0.37,1.09,1.6500000000000001,173.1,172.66,0.03,0.43,3
1679661720.27903390,468371955,-0.06,0.45,0.86,1.74,173.1,172.77,0.03,0.46,3
1679661720.37894988,468471871,-0.13,0.22,0.86,1.31,173.1,172.89000000000001,0.03,0.47000000000000003,3
1679661720.47904110,468571962,-0.06,0.06,1.3800000000000001,1.17,173.1,173.03,0.03,0.46,3
1679661720.57904792,468671969,-0.32,-0.08,2.07,1.9000000000000001,173.1,173.12,0.03,0.44,3
1679661720.67907095,468771992,-0.97,-0.58,1.95,2.75,173.1,173.06,0.04,0.45,3
1679661720.77907801,468871999,-2.32,-1.78,1.45,2.66,173.1,172.96,0.04,0.48,3
1679661720.87909794,468972019,-4.07,-3.5,0.76,1.69,173.1,172.9,0.04,0.48,3
1679661720.97936201,469072283,-3.85,-5.62,0.38,0.67,173.1,172.87,0.04,0.47000000000000003,3
1679661721.07885003,469171771,-1.97,-5.5200000000000005,0.19,0.15,173.1,172.83,0.04,0.43,3
1679661721.17874599,469271667,-1.0,-2.42,0.1,0.05,173.1,172.63,0.04,0.43,3
1679661721.27884388,469371765,-0.51,-0.01,0.05,0.05,173.1,172.38,0.03,0.41000000000000003,3
1679661721.37887406,469471795,-0.24,0.73,0.1,0.12,173.1,172.06,0.03,0.39,3
1679661721.47889805,469571819,-0.1,0.4,0.49,0.3,173.1,171.67000000000002,0.04,0.44,3
1679661721.57889199,469671813,-0.05,0.23,1.49,0.93,173.1,171.36,0.04,0.47000000000000003,3
1679661721.67902994,469771951,-0.02,0.18,2.05,2.13,173.1,171.20000000000002,0.03,0.5,3
1679661721.77892804,469871849,-0.01,0.1,2.56,2.85,173.1,171.20000000000002,0.03,0.54,3
1679661721.87924194,469972163,0.0,0.28,3.11,3.22,173.1,171.36,0.04,0.55,3
1679661721.97885704,470071778,0.74,0.21,3.45,3.62,173.1,171.63,0.04,0.55,3
1679661722.07912397,470172045,1.49,0.91,3.5500000000000003,3.68,173.1,171.94,0.03,0.55,3
1679661722.17910004,470272021,1.93,1.72,3.86,3.38,173.1,172.23,0.03,0.5700000000000001,3
1679661722.27922392,470372145,2.35,2.33,4.03,3.45,173.1,172.49,0.03,0.55,3
1679661722.37916303,470472084,2.0100000000000002,2.5300000000000002,4.0,3.44,173.1,172.68,0.03,0.5700000000000001,3
1679661722.47917891,470572100,1.05,1.78,4.16,3.0700000000000003,173.1,172.77,0.03,0.58,3
1679661722.57920408,470672125,0.53,0.44,4.1,3.0300000000000002,173.1,172.86,0.03,0.56,3
1679661722.67919898,470772120,0.27,-0.5,3.37,2.92,173.1,172.91,0.02,0.5700000000000001,3
1679661722.77940989,470872331,0.14,-0.59,3.0300000000000002,2.08,173.1,172.96,0.02,0.59,3
1679661722.87920594,470972127,0.65,-0.51,2.84,1.51,173.1,172.96,0.04,0.5700000000000001,3
1679661722.97914100,471072062,1.81,0.44,2.25,1.56,173.1,172.92000000000002,0.04,0.54,3
1679661723.07909894,471172020,2.36,2.09,1.7,1.09,173.1,172.82,0.04,0.56,3
1679661723.17916107,471272082,2.64,3.17,1.52,0.41000000000000003,173.1,172.67000000000002,0.04,0.58,3
1679661723.27918291,471372104,2.75,3.35,1.35,0.34,173.1,172.55,0.04,0.6,3
1679661723.37912703,471472048,2.5,3.19,1.12,0.43,173.1,172.51,0.04,0.63,3
1679661723.47920609,471572127,2.22,2.56,0.86,0.24,173.1,172.53,0.03,0.67,3
1679661723.57918596,471672107,2.0300000000000002,1.9100000000000001,0.73,0.0,173.1,172.66,0.03,0.6900000000000001,3
1679661723.67922497,471772146,1.93,1.6,0.6,-0.04,173.1,172.87,0.04,0.7000000000000001,3
1679661723.77892709,471871848,1.8800000000000001,1.36,0.54,0.05,173.1,173.1,0.04,0.7000000000000001,3
1679661723.87901902,471971940,1.85,1.04,0.46,0.15,173.1,173.28,0.04,0.7000000000000001,3
1679661723.97904587,472071967,1.6500000000000001,0.77,0.31,0.08,173.1,173.44,0.04,0.71,3
1679661724.07903194,472171953,0.92,0.75,0.24,0.0,173.1,173.5,0.04,0.71,3
1679661724.17905903,472271980,0.47000000000000003,0.06,0.12,0.07,173.1,173.54,0.04,0.7000000000000001,3
1679661724.27909708,472372018,0.24,-0.52,0.06,0.0,173.1,173.55,0.03,0.7000000000000001,3
1679661724.37908602,472472007,0.12,-0.61,0.03,-0.1,173.1,173.49,0.03,0.7000000000000001,3
1679661724.47909403,472572015,0.06,-0.63,0.01,-0.17,173.1,173.47,0.03,0.7000000000000001,3
1679661724.57935786,472672279,0.03,-0.64,0.0,-0.21,173.1,173.41,0.03,0.7000000000000001,3
1679661724.67887402,472771795,0.01,-0.56,0.0,-0.24,173.1,173.35,0.03,0.7000000000000001,3
1679661724.77875209,472871673,0.0,-0.35000000000000003,0.0,-0.37,173.1,173.31,0.03,0.7000000000000001,3
1679661724.87878203,472971703,0.0,-0.08,0.0,-0.42,173.1,173.27,0.02,0.7000000000000001,3
1679661724.97889590,473071817,0.08,0.0,-0.01,-0.58,178.22,178.39000000000001,0.02,0.68,3
1679661725.07889104,473171812,0.04,0.18,0.0,-0.62,178.22,177.66,0.02,0.6900000000000001,3
1679661725.17888403,473271805,0.02,0.15,0.0,-0.52,178.22,176.82,0.02,0.68,3
1679661725.27922702,473372148,0.01,0.05,0.0,-0.42,178.22,176.44,0.02,0.71,3
1679661725.37892199,473471843,0.0,0.04,0.0,-0.27,178.22,176.74,0.02,0.71,3
1679661725.47902703,473571948,0.0,-0.01,0.0,-0.19,178.22,177.56,0.02,0.74,3
1679661725.57886600,473671787,0.0,-0.17,0.0,0.0,178.22,178.66,0.02,0.75,3
1679661725.67879701,473771718,0.0,-0.32,0.0,0.07,178.22,179.8,0.02,0.75,3
1679661725.77882910,473871750,0.0,-0.2,0.0,0.07,178.22,180.78,0.02,0.76,3
1679661725.87898898,473971910,0.0,-0.2,0.0,0.19,178.22,181.49,0.02,0.76,3
1679661725.97890091,474071822,0.0,-0.28,0.0,0.11,178.22,181.95000000000002,0.02,0.77,3
1679661726.07912803,474172049,0.0,-0.38,0.0,0.06,178.22,182.22,0.02,0.76,3
1679661726.17919397,474272115,0.0,-0.37,0.0,0.0,178.22,182.19,0.02,0.76,3
1679661726.27954006,474372461,0.0,-0.42,0.0,-0.04,178.22,181.83,0.02,0.73,3
1679661726.37925792,474472179,0.0,-0.42,0.0,-0.13,178.22,181.24,0.02,0.72,3
1679661726.47918892,474572110,0.0,-0.27,-0.45,-0.27,178.22,180.46,0.02,0.72,3
1679661726.57910490,474672026,0.0,-0.27,-1.36,-0.84,178.22,179.59,0.02,0.73,3
1679661726.67910290,474772024,0.0,-0.19,-2.4,-2.05,178.22,178.75,0.02,0.75,3
1679661726.77916098,474872082,0.0,0.06,-2.27,-3.11,178.22,178.14000000000001,0.02,0.76,3
1679661726.87914991,474972071,0.2,0.06,-1.54,-3.0300000000000002,178.22,177.75,0.02,0.74,3
1679661726.97941399,475072335,0.9500000000000001,0.46,-0.78,-1.83,178.22,177.54,0.02,0.73,3
1679661727.07893205,475171853,1.34,1.27,-0.4,-0.66,178.22,177.35,0.02,0.76,3
1679661727.17909193,475272013,1.54,1.85,-0.2,-0.24,178.22,177.25,0.02,0.79,3
1679661727.27945995,475372381,1.6500000000000001,2.0100000000000002,-0.1,-0.17,178.22,177.44,0.02,0.81,3
1679661727.37907887,475472000,1.56,1.96,-0.33,-0.11,178.22,177.81,0.02,0.8200000000000001,3
1679661727.47898602,475571907,1.35,1.9000000000000001,-1.21,-0.49,178.22,178.29,0.02,0.84,3
1679661727.57904291,475671964,1.25,1.43,-1.77,-1.68,178.22,178.81,0.02,0.85,3
1679661727.67903209,475771953,1.25,1.05,-2.2600000000000002,-2.65,178.22,179.36,0.02,0.85,3
1679661727.77904987,475871971,1.25,0.93,-2.45,-3.09,178.22,179.81,0.02,0.84,3
1679661727.87938309,475972304,1.24,0.87,-2.5,-3.16,178.22,180.15,0.02,0.85,3
1679661727.97906089,476071982,1.27,0.81,-2.32,-3.0,178.22,180.4,0.02,0.84,3
1679661728.07894206,476171863,1.26,0.88,-2.08,-2.64,178.22,180.55,0.02,0.8300000000000001,3
1679661728.17896605,476271887,1.26,1.01,-2.0100000000000002,-2.2600000000000002,178.22,180.67000000000002,0.02,0.85,3
1679661728.27918386,476372105,1.24,0.9500000000000001,-2.06,-2.13,178.22,180.8,0.02,0.86,3
1679661728.37875795,476471679,1.2,1.05,-2.09,-2.23,178.22,180.98,0.02,0.86,3
1679661728.47877598,476571697,0.91,1.22,-1.9000000000000001,-2.17,178.22,181.20000000000002,0.02,0.86,3
1679661728.57886887,476671790,0.46,0.92,-1.29,-1.79,178.22,181.37,0.02,0.86,3
1679661728.67889094,476771812,0.23,0.49,-0.66,-0.97,178.22,181.39000000000001,0.02,0.87,3
1679661728.77911806,476872039,0.12,0.32,-0.33,-0.06,178.22,181.18,0.02,0.88,3
1679661728.87920189,476972123,0.06,0.33,-0.17,0.3,178.22,180.86,0.02,0.89,3
1679661728.97924709,477072168,0.03,0.23,-0.46,0.31,178.22,180.4,0.02,0.9,3
1679661729.07921195,477172133,0.01,0.28,-1.19,-0.22,178.22,179.87,0.02,0.91,3
1679661729.17883897,477271760,0.0,0.22,-1.72,-1.44,178.22,179.25,0.02,0.92,3
1679661729.27895188,477371873,0.0,0.29,-1.76,-2.37,178.22,178.73,0.02,0.91,3
1679661729.37878394,477471705,0.0,0.39,-1.57,-2.3000000000000003,178.22,178.23,0.02,0.91,3
1679661729.47887993,477571801,0.0,0.39,-1.12,-1.76,178.22,177.82,0.01,0.92,3
1679661729.57892203,477671843,0.0,0.3,-0.59,-1.0,178.22,177.42000000000002,0.01,0.9400000000000001,3
1679661729.67912602,477772047,0.0,0.21,-0.32,-0.23,178.22,177.0,0.01,0.9500000000000001,3
1679661729.77920794,477872129,0.0,0.16,-0.39,0.05,178.22,176.67000000000002,0.01,0.96,3
1679661729.87922287,477972144,0.0,0.17,-0.44,-0.18,178.22,176.42000000000002,0.01,0.96,3
1679661729.97923088,478072152,0.0,-0.04,-0.26,-0.46,178.22,176.3,0.01,0.96,3
1679661730.07898998,478171911,0.0,0.0,-0.13,-0.36,178.22,176.47,0.01,0.97,3
1679661730.17910504,478272026,0.0,-0.15,-0.06,-0.09,178.22,176.72,0.01,0.97,3
1679661730.27912402,478372045,0.0,-0.22,-0.03,0.04,178.22,176.84,0.01,0.98,3
1679661730.37916398,478472085,0.0,-0.25,-0.01,0.1,178.22,176.84,0.01,0.98,3
1679661730.47916102,478572082,0.0,-0.2,-0.02,0.03,178.22,176.78,0.01,0.98,3
1679661730.57941198,478672333,0.0,-0.2,-0.5,-0.09,178.22,176.68,0.01,0.98,3
1679661730.67920804,478772129,0.0,-0.25,-1.1500000000000001,-0.78,178.22,176.61,0.01,0.99,3
1679661730.77917004,478872091,0.0,-0.17,-1.28,-1.71,178.22,176.56,0.01,0.99,3
1679661730.87922001,478972141,0.0,-0.24,-1.26,-1.8,178.22,176.49,0.01,0.99,3
1679661730.97883797,479071759,0.0,-0.24,-1.24,-1.45,178.22,176.4,0.01,0.99,3
1679661731.07899594,479171917,0.0,-0.25,-0.93,-1.17,178.22,176.22,0.01,0.99,3
1679661731.17902589,479271947,0.0,-0.34,-0.73,-0.66,178.22,176.06,0.01,0.99,3
1679661731.27916193,479372083,0.0,-0.34,-1.1,-0.28,178.22,175.85,0.02,0.99,3
1679661731.37905908,479471980,0.0,-0.29,-1.61,-0.73,178.22,175.74,0.02,0.99,3
1679661731.47936487,479572286,0.0,-0.09,-1.05,-1.55,178.22,175.69,0.01,0.99,3
1679661731.57918286,479672104,0.0,0.2,-0.53,-1.06,178.22,175.66,0.01,0.99,3
1679661731.67891598,479771837,0.0,0.15,-0.27,0.01,178.22,175.73,0.01,0.99,3
1679661731.77894592,479871867,0.0,-0.03,-0.13,0.46,178.22,176.02,0.01,0.98,3
1679661731.87883902,479971760,0.0,-0.33,-0.07,0.35000000000000003,178.22,176.44,0.01,0.99,3
1679661731.97876096,480071682,0.0,-0.33,-0.03,0.33,178.22,176.78,0.01,0.99,3
1679661732.07877994,480171701,0.0,-0.23,-0.01,0.28,178.22,177.11,0.01,0.99,3
1679661732.17924309,480272164,0.0,0.07,0.0,0.2,178.22,177.34,0.01,0.99,3
1679661732.27893591,480371857,0.0,0.03,0.0,0.16,178.22,177.47,0.01,0.99,3
1679661732.37890697,480471828,0.0,0.2,0.0,0.1,178.22,177.63,0.01,0.99,3
1679661732.47893095,480571852,0.0,0.12,0.0,0.05,178.22,177.71,0.01,0.99,3
1679661732.57892609,480671847,0.93,0.24,0.0,0.02,178.22,177.81,0.01,0.99,3
1679661732.67894006,480771861,1.83,1.11,0.0,0.05,178.22,178.01,0.01,0.99,3
1679661732.77884197,480871763,2.25,2.41,0.0,0.08,178.22,178.38,0.01,0.99,3
1679661732.87877393,480971695,2.32,2.92,0.0,0.2,178.22,178.76,0.01,0.99,3
1679661732.97878003,481071701,1.99,2.82,0.0,0.23,178.22,179.19,0.01,0.99,3
1679661733.07917094,481172092,1.59,1.95,0.0,0.16,178.22,179.63,0.02,0.99,3
1679661733.17888904,481271810,1.16,1.22,0.0,0.09,178.22,179.93,0.02,0.99,3
1679661733.27922893,481372150,0.59,0.52,0.0,0.05,178.22,180.23,0.02,0.99,3
1679661733.37920189,481472123,0.3,-0.1,0.0,0.03,178.22,180.46,0.02,0.99,3
1679661733.47919989,481572121,0.15,-0.36,0.0,0.0,178.22,180.8,0.02,0.99,3
1679661733.57923102,481672152,0.07,-0.34,0.0,-0.07,178.22,181.16,0.02,0.99,3
1679661733.67917299,481772094,0.04,-0.32,0.0,-0.18,178.22,181.67000000000002,0.02,0.99,3
1679661733.77912688,481872048,0.02,-0.11,0.0,-0.24,178.22,182.22,0.02,0.99,3
1679661733.87909603,481972017,0.01,0.01,0.0,-0.25,178.22,182.87,0.02,0.99,3
1679661733.97945809,482072379,0.0,-0.01,0.0,-0.24,178.22,183.46,0.02,0.99,3
1679661734.07913804,482172059,0.0,0.06,0.0,-0.27,178.22,183.95000000000002,0.02,0.99,3
1679661734.17912698,482272048,0.0,0.04,0.0,-0.36,178.22,184.3,0.02,0.99,3
1679661734.27935791,482372279,0.0,0.08,0.0,-0.48,178.22,184.46,0.02,0.99,3
1679661734.37909603,482472017,0.0,0.03,0.0,-0.41000000000000003,178.22,184.51,0.02,0.99,3
1679661734.47911692,482572038,0.0,0.12,0.0,-0.43,178.22,184.47,0.01,0.99,3
1679661734.57907009,482671991,0.0,0.16,0.0,-0.52,178.22,184.29,0.01,0.99,3
1679661734.67898798,482771909,0.0,0.24,0.0,-0.61,178.22,184.06,0.02,0.98,3
1679661734.77901697,482871938,0.0,0.26,0.0,-0.5,178.22,183.70000000000002,0.02,0.97,3
1679661734.87938404,482972305,0.0,0.25,0.0,-0.3,178.22,183.08,0.02,0.98,3
1679661734.97913408,483072055,0.0,0.44,0.0,-0.15,178.22,182.26,0.02,0.97,3
1679661735.07911801,483172039,0.0,0.41000000000000003,-0.36,-0.04,178.22,181.35,0.02,0.97,3
1679661735.17917991,483272101,0.0,0.38,-0.39,-0.32,178.22,180.28,0.02,0.9500000000000001,3
1679661735.27900100,483371922,0.0,0.37,-0.2,-0.42,178.22,179.22,0.02,0.9400000000000001,3
1679661735.37896490,483471886,0.0,0.27,-0.1,-0.13,178.3,178.11,0.02,0.9500000000000001,3
1679661735.47884202,483571763,0.0,0.18,-0.05,-0.02,178.91,177.23,0.02,0.93,3
1679661735.57875299,483671674,-0.01,-0.05,-0.02,-0.08,179.09,176.64000000000001,0.02,0.91,3
1679661735.67878008,483771701,0.0,-0.09,0.04,0.02,179.09,176.13,0.02,0.9,3
1679661735.77914596,483872067,0.0,0.02,0.5,0.37,179.09,175.72,0.02,0.9,3
1679661735.87913394,483972055,0.0,-0.13,1.53,1.29,179.09,175.38,0.02,0.91,3
1679661735.97888303,484071804,0.0,-0.33,2.22,2.64,179.09,175.26,0.02,0.9,3
1679661736.07891989,484171841,0.0,-0.37,2.67,3.69,179.09,175.33,0.02,0.89,3
1679661736.17892098,484271842,0.0,-0.49,2.42,4.0200000000000005,179.09,175.54,0.02,0.87,3
1679661736.27902699,484371948,0.0,-0.43,2.18,3.5700000000000003,179.09,175.63,0.02,0.86,3
1679661736.37889791,484471819,0.0,-0.06,1.93,2.99,178.85,175.6,0.02,0.87,3
1679661736.47877002,484571691,0.0,0.07,1.75,2.62,177.81,175.57,0.04,0.89,3
1679661736.57877707,484671698,0.0,0.1,1.86,2.46,176.96,175.59,0.04,0.88,3
1679661736.67916393,484772085,0.0,0.16,2.0,2.54,176.87,175.69,0.04,0.89,3
1679661736.77914190,484872063,-0.36,0.11,2.14,2.7,176.84,175.97,0.04,0.89,3
1679661736.87890005,484971821,-0.67,-0.29,2.5100000000000002,2.79,176.53,176.41,0.04,0.88,3
1679661736.97912002,485072041,-0.78,-0.9500000000000001,2.86,3.13,176.24,176.86,0.04,0.89,3
1679661737.07910609,485172027,-0.86,-1.19,3.0500000000000003,3.58,175.96,177.31,0.04,0.9,3
1679661737.17918205,485272103,-0.85,-1.37,3.15,3.79,175.37,177.72,0.04,0.91,3
1679661737.27917695,485372098,-0.8,-1.26,3.2,3.81,174.24,178.04,0.05,0.91,3
1679661737.37936306,485472284,-0.78,-1.0,3.19,3.7800000000000002,172.23,178.15,0.05,0.92,3
1679661737.47876692,485571688,-0.79,-0.74,3.2,3.7,169.76,177.94,0.05,0.93,3
1679661737.57915187,485672073,-0.89,-0.33,3.16,3.56,167.57,177.36,0.05,0.93,3
1679661737.67913389,485772055,-1.02,-0.17,2.98,3.3000000000000003,165.77,176.55,0.06,0.9400000000000001,3
1679661737.77919698,485872118,-1.3,-0.08,1.96,2.81,164.85,175.66,0.06,0.9400000000000001,3
1679661737.87920189,485972123,-1.62,-0.52,1.0,1.41,164.81,174.93,0.06,0.93,3
1679661737.97919202,486072113,-1.8900000000000001,-1.1,0.51,0.0,165.65,174.32,0.06,0.92,3
1679661738.07922101,486172142,-2.7,-1.55,0.26,-0.51,167.37,173.78,0.06,0.92,3
1679661738.17918205,486272103,-3.31,-2.43,0.13,-0.5,169.38,173.41,0.06,0.92,3
1679661738.27942896,486372350,-3.59,-3.47,0.06,-0.53,170.6,173.29,0.05,0.92,3
1679661738.37880397,486471725,-3.77,-3.95,0.03,-0.66,171.14000000000001,173.24,0.05,0.9,3
1679661738.47895694,486571878,-3.77,-3.79,0.01,-0.75,171.16,173.16,0.05,0.89,3
1679661738.57889390,486671815,-3.77,-3.9,0.0,-0.63,171.16,172.95000000000002,0.05,0.9,3
1679661738.67888594,486771807,-3.81,-3.7600000000000002,0.0,-0.5,171.16,172.77,0.06,0.9,3
1679661738.77889991,486871821,-4.08,-3.71,0.0,-0.43,171.21,172.61,0.06,0.88,3
1679661738.87890506,486971826,-4.42,-3.8200000000000003,0.0,-0.35000000000000003,171.88,172.46,0.07,0.88,3
1679661738.97900605,487071927,-4.34,-4.08,0.0,-0.22,172.41,172.41,0.07,0.87,3
1679661739.07887197,487171793,-3.54,-3.79,0.0,-0.12,172.41,172.5,0.07,0.86,3
1679661739.17904305,487271964,-1.95,-2.47,0.0,-0.05,172.41,172.57,0.07,0.87,3
1679661739.27913499,487372056,-0.99,-0.37,0.0,-0.11,172.41,172.67000000000002,0.08,0.8300000000000001,3
1679661739.37914300,487472064,-1.19,0.84,0.0,-0.22,172.41,172.8,0.08,0.81,3
1679661739.47913408,487572055,-1.54,0.48,0.0,-0.46,172.41,172.9,0.06,0.81,3
1679661739.57889390,487671815,-1.7,-0.66,0.0,-0.81,172.41,172.95000000000002,0.06,0.79,3
1679661739.67891788,487771839,-1.69,-1.17,0.0,-1.11,172.41,173.05,0.06,0.77,3
1679661739.77890491,487871826,-1.7,-1.47,0.0,-1.16,172.41,173.1,0.06,0.77,3
1679661739.87900686,487971928,-1.74,-1.47,0.0,-1.05,172.41,173.13,0.05,0.77,3
1679661739.97886610,488071787,-1.67,-1.55,0.0,-0.98,172.41,173.16,0.05,0.77,3
1679661740.07912493,488172046,-1.51,-1.53,0.0,-0.86,172.41,173.19,0.04,0.76,3
1679661740.17907310,488271994,-0.88,-1.3800000000000001,0.0,-0.88,172.41,173.24,0.04,0.76,3
1679661740.27923989,488372161,-0.45,-0.8,0.0,-0.98,172.41,173.31,0.04,0.76,3
1679661740.37915492,488472076,-0.23,-0.16,0.0,-1.1,172.41,173.41,0.04,0.76,3
1679661740.47909999,488572021,-0.11,-0.06,0.0,-1.19,172.41,173.53,0.04,0.76,3
1679661740.57924891,488672170,-0.06,0.04,0.0,-1.09,172.41,173.65,0.04,0.75,3
1679661740.67911100,488772032,-0.03,0.13,0.0,-1.01,172.41,173.79,0.04,0.73,3
1679661740.77913904,488872060,-0.01,0.25,0.0,-1.04,172.41,173.83,0.04,0.72,3
1679661740.87909794,488972019,0.58,0.24,0.0,-1.0,172.41,173.81,0.03,0.73,3
1679661740.97934294,489072264,0.9,0.8,-0.35000000000000003,-1.03,172.41,173.78,0.03,0.73,3
1679661741.07910395,489172025,0.89,1.4000000000000001,-0.76,-1.3900000000000001,172.41,173.75,0.03,0.72,3
1679661741.17914987,489272071,0.73,1.1400000000000001,-0.86,-1.95,172.41,173.68,0.03,0.6900000000000001,3
1679661741.27919793,489372119,0.38,0.65,-0.89,-2.11,172.41,173.57,0.02,0.68,3
1679661741.37911296,489472034,0.19,0.06,-1.71,-2.0,172.41,173.35,0.02,0.66,3
1679661741.47918797,489572109,0.1,-0.34,-2.47,-2.7800000000000002,172.41,173.1,0.02,0.65,3
1679661741.57918191,489672103,0.06,-0.44,-3.09,-3.93,172.41,172.8,0.02,0.66,3
1679661741.67922497,489772146,0.73,-0.38,-3.89,-4.58,172.41,172.49,0.03,0.66,3
1679661741.77887988,489871801,1.21,0.48,-4.8100000000000005,-5.25,172.41,172.23,0.03,0.65,3
1679661741.87875509,489971676,1.87,1.47,-4.76,-6.07,172.41,172.03,0.03,0.58,3
1679661741.97877693,490071698,2.6,2.08,-4.93,-5.86,172.41,171.79,0.03,0.58,3
1679661742.07883906,490171760,3.14,3.21,-5.53,-5.48,172.41,171.64000000000001,0.05,0.5700000000000001,3
1679661742.17888093,490271802,3.45,4.01,-5.73,-5.91,172.41,171.45000000000002,0.05,0.52,3
1679661742.27894092,490371862,3.65,4.24,-5.8100000000000005,-6.16,172.41,171.27,0.06,0.49,3
1679661742.37892103,490471842,3.79,4.44,-5.91,-6.01,172.41,171.07,0.06,0.49,3
1679661742.47894096,490571862,3.85,4.33,-6.0200000000000005,-5.84,172.45000000000002,170.87,0.07,0.47000000000000003,3
1679661742.57921886,490672140,3.98,4.45,-6.07,-5.67,172.94,170.66,0.07,0.4,3
1679661742.67899799,490771919,4.11,4.4,-6.2,-5.41,173.98,170.62,0.08,0.37,3
1679661742.77876091,490871682,4.18,4.5,-6.19,-5.21,174.84,170.62,0.08,0.34,3
1679661742.87880301,490971724,4.21,4.72,-6.25,-5.13,175.14000000000001,170.79,0.09,0.35000000000000003,3
1679661742.97884798,491071769,4.23,4.69,-6.22,-5.1000000000000005,175.14000000000001,170.9,0.09,0.32,3
1679661743.07888603,491171807,4.24,4.64,-6.03,-5.0600000000000005,175.14000000000001,171.08,0.1,0.31,3
1679661743.17890286,491271824,4.03,4.33,-5.0200000000000005,-4.84,175.14000000000001,171.27,0.1,0.33,3
1679661743.27900887,491371930,3.59,4.05,-3.45,-3.72,175.14000000000001,171.64000000000001,0.1,0.35000000000000003,3
1679661743.37893200,491471853,3.36,3.34,-2.45,-1.8,175.14000000000001,172.13,0.1,0.39,3
1679661743.47922087,491572142,3.38,2.88,-1.42,-0.38,175.14000000000001,172.70000000000002,0.09,0.35000000000000003,3
1679661743.57886696,491671788,3.71,3.09,-0.72,0.52,175.14000000000001,173.28,0.09,0.32,3
1679661743.67898703,491771908,4.05,3.65,-0.37,1.19,175.14000000000001,173.79,0.08,0.35000000000000003,3
1679661743.77903008,491871951,4.4,4.17,-0.18,1.31,175.14000000000001,174.19,0.08,0.36,3
1679661743.87905288,491971974,4.64,4.58,-0.28,1.24,175.14000000000001,174.52,0.08,0.37,3
1679661743.97912002,492072041,4.76,5.05,-0.86,0.8300000000000001,175.14000000000001,174.74,0.08,0.37,3
1679661744.07909298,492172014,4.74,5.12,-2.39,-0.27,175.14000000000001,174.86,0.08,0.35000000000000003,3
1679661744.17921090,492272132,4.69,4.98,-3.49,-2.24,175.14000000000001,174.82,0.08,0.34,3
1679661744.27924609,492372167,4.5600000000000005,4.83,-4.25,-3.89,175.14000000000001,174.75,0.08,0.35000000000000003,3
1679661744.37924099,492472162,4.49,4.5,-4.38,-4.69,175.14000000000001,174.70000000000002,0.08,0.38,3
1679661744.47918606,492572107,4.45,4.15,-4.11,-4.6000000000000005,175.14000000000001,174.74,0.09,0.39,3
1679661744.57904100,492671962,4.32,3.99,-3.95,-3.89,175.14000000000001,174.9,0.09,0.38,3
1679661744.67909694,492772018,3.8000000000000003,3.77,-3.58,-3.19,175.14000000000001,175.13,0.09,0.39,3
1679661744.77924800,492872169,2.72,3.11,-2.31,-2.33,175.14000000000001,175.41,0.09,0.35000000000000003,3
1679661744.87915587,492972077,2.04,1.82,-1.56,-0.72,175.14000000000001,175.71,0.09,0.4,3
1679661744.97942400,493072345,1.3800000000000001,0.92,-1.01,0.49,175.14000000000001,175.94,0.09,0.41000000000000003,3
1679661745.07919788,493172119,0.8200000000000001,0.22,-0.56,0.92,175.14000000000001,176.17000000000002,0.08,0.43,3
1679661745.17892003,493271841,0.48,-0.1,-0.28,1.11,175.14000000000001,176.33,0.08,0.46,3
1679661745.27904105,493371962,0.46,-0.06,-0.19,1.2,175.14000000000001,176.47,0.07,0.52,3
1679661745.37884498,493471766,0.45,0.22,-0.29,1.04,175.14000000000001,176.64000000000001,0.07,0.53,3
1679661745.47875309,493571674,0.43,0.36,-1.09,0.56,175.14000000000001,176.77,0.07,0.51,3
1679661745.57877398,493671695,0.4,0.5700000000000001,-1.6500000000000001,-0.48,175.14000000000001,176.81,0.07,0.51,3
1679661745.67884994,493771771,0.42,0.49,-1.76,-1.3900000000000001,175.14000000000001,176.81,0.06,0.5,3
1679661745.77887988,493871801,0.41000000000000003,0.54,-1.8900000000000001,-1.5,175.14000000000001,176.68,0.06,0.47000000000000003,3
1679661745.87912393,493972045,0.22,0.42,-1.85,-1.53,175.14000000000001,176.45000000000002,0.05,0.47000000000000003,3
1679661745.97920394,494072125,0.11,0.09,-1.2,-1.37,175.14000000000001,176.13,0.05,0.47000000000000003,3
1679661746.07893300,494171854,0.05,0.0,-0.61,-0.45,175.14000000000001,175.82,0.05,0.47000000000000003,3
1679661746.17896390,494271885,0.03,-0.21,-0.31,0.51,175.14000000000001,175.47,0.05,0.48,3
1679661746.27888799,494371809,0.01,-0.43,-0.16,0.76,175.14000000000001,175.18,0.05,0.44,3
1679661746.37876010,494471681,0.0,-0.4,-0.08,0.75,175.14000000000001,174.89000000000001,0.05,0.43,3
1679661746.47880292,494571724,0.0,-0.31,-0.04,0.6900000000000001,175.14000000000001,174.63,0.04,0.43,3
1679661746.57915902,494672080,0.0,-0.32,-0.02,0.5,175.41,174.42000000000002,0.04,0.41000000000000003,3
1679661746.67916799,494772089,0.0,-0.22,-0.01,0.33,175.9,174.28,0.04,0.42,3
1679661746.77907109,494871992,0.0,-0.11,0.0,0.21,176.0,174.27,0.04,0.39,3
1679661746.87926102,494972182,0.0,0.0,0.0,0.23,176.0,174.33,0.03,0.38,3
1679661746.97907495,495071996,0.0,-0.06,0.0,0.26,176.0,174.34,0.03,0.38,3
1679661747.07912302,495172044,-0.06,0.09,0.0,0.3,176.0,174.41,0.03,0.35000000000000003,3
1679661747.17906904,495271990,-0.38,-0.05,0.0,0.26,176.0,174.49,0.03,0.36,3
1679661747.27903700,495371958,-0.25,-0.48,0.0,0.26,176.0,174.56,0.03,0.34,3
1679661747.37893105,495471852,-0.12,-0.59,0.0,0.17,176.0,174.63,0.03,0.3,3
1679661747.47941804,495572339,-0.06,-0.47000000000000003,0.0,0.12,176.0,174.69,0.03,0.29,3
1679661747.57914495,495672066,-0.03,-0.23,0.0,0.09,176.0,174.79,0.03,0.31,3
1679661747.67912388,495772045,-0.01,-0.15,0.1,0.12,176.0,174.84,0.03,0.27,3
1679661747.77920389,495872125,0.0,-0.04,0.38,0.33,176.0,174.92000000000002,0.03,0.27,3
1679661747.87920094,495972122,-0.16,-0.03,0.29,0.78,176.0,174.99,0.03,0.27,3
1679661747.97923994,496072161,-0.96,-0.13,0.32,0.72,176.0,175.1,0.03,0.25,3
1679661748.07917905,496172100,-2.08,-1.16,0.45,0.64,176.0,175.17000000000002,0.02,0.27,3
1679661748.17909408,496272015,-4.13,-2.75,0.29,0.67,176.0,175.25,0.02,0.26,3
1679661748.27884388,496371765,-5.17,-5.2,0.18,0.46,176.0,175.36,0.02,0.3,3
1679661748.37886095,496471782,-5.08,-6.53,0.44,0.15,176.0,175.49,0.02,0.34,3
1679661748.47888494,496571806,-4.8500000000000005,-6.18,0.86,0.45,176.0,175.6,0.03,0.36,3
1679661748.57890391,496671825,-4.59,-5.14,1.26,1.1500000000000001,176.0,175.68,0.03,0.41000000000000003,3
1679661748.67890787,496771829,-4.17,-4.4,1.85,1.73,176.0,175.76,0.04,0.43,3
1679661748.77891397,496871835,-3.48,-3.73,2.0,2.46,176.0,175.81,0.04,0.45,3
1679661748.87896395,496971885,-2.75,-2.67,1.31,2.86,176.0,175.85,0.06,0.47000000000000003,3
1679661748.97896409,497071885,-1.6500000000000001,-1.7,0.68,1.78,176.0,175.92000000000002,0.06,0.41000000000000003,3
1679661749.07913089,497172052,-0.84,-0.47000000000000003,0.35000000000000003,0.47000000000000003,176.0,175.87,0.07,0.38,3
1679661749.17876601,497271687,-0.43,0.63,0.17,-0.04,176.0,175.70000000000002,0.07,0.4,3
1679661749.27889991,497371821,-0.22,0.98,0.09,-0.14,176.0,175.46,0.05,0.35000000000000003,3
1679661749.37888789,497471809,-0.11,0.79,0.04,-0.19,176.0,175.21,0.05,0.31,3
1679661749.47890401,497571825,-0.07,0.61,0.02,-0.23,176.0,174.93,0.04,0.31,3
1679661749.57891703,497671838,-0.63,0.36,0.01,-0.15,176.0,174.65,0.04,0.26,3
1679661749.67891097,497771832,-1.62,-0.32,0.16,-0.15,176.0,174.41,0.05,0.27,3
1679661749.77894592,497871867,-1.7,-1.61,0.47000000000000003,0.03,176.0,174.18,0.05,0.27,3
1679661749.87886000,497971781,-1.67,-1.99,1.44,0.54,176.0,174.0,0.04,0.26,3
1679661749.97877502,498071696,-1.85,-1.49,2.46,1.75,176.0,173.84,0.04,0.27,3
1679661750.07877588,498171697,-1.9000000000000001,-1.48,3.06,3.0500000000000003,176.0,173.73,0.04,0.29,3
1679661750.17916799,498272089,-2.06,-1.7,3.14,3.7,176.0,173.68,0.04,0.28,3
1679661750.27924490,498372166,-2.32,-1.98,2.96,3.44,176.0,173.68,0.05,0.25,3
1679661750.37907100,498471992,-2.41,-2.12,2.72,2.87,176.0,173.73,0.05,0.28,3
1679661750.47909403,498572015,-2.5,-2.37,2.39,2.31,176.0,173.73,0.05,0.3,3
1679661750.57909203,498672013,-2.36,-2.43,2.18,1.82,176.0,173.78,0.05,0.28,3
1679661750.67911386,498772035,-1.53,-2.27,1.49,1.5,176.0,173.83,0.06,0.28,3
1679661750.77906990,498871991,-0.78,-1.3900000000000001,0.76,0.67,176.0,173.89000000000001,0.06,0.3,3
1679661750.87900400,498971925,-0.4,-0.17,0.39,-0.42,176.0,173.93,0.06,0.29,3
1679661750.97904301,499071964,-0.2,0.6,0.19,-0.9,176.0,173.96,0.06,0.3,3
1679661751.07955503,499172476,-0.1,0.52,0.1,-0.79,176.0,173.99,0.05,0.29,3
1679661751.17890096,499271822,-0.05,0.37,0.05,-0.59,176.0,174.05,0.05,0.25,3
1679661751.27922106,499372142,-0.02,0.2,0.02,-0.4,176.0,174.03,0.05,0.24,3
1679661751.37919497,499472116,-0.01,-0.01,0.01,-0.22,176.0,174.03,0.05,0.23,3
1679661751.47919607,499572117,0.0,-0.13,0.0,-0.16,176.0,174.03,0.05,0.23,3
1679661751.57922888,499672150,0.0,-0.3,0.0,-0.26,176.0,174.04,0.05,0.25,3
1679661751.67912793,499772049,0.0,-0.33,0.0,-0.31,176.0,174.08,0.04,0.24,3
1679661751.77911305,499872034,0.0,-0.33,0.0,-0.37,176.0,174.13,0.04,0.24,3
1679661751.87910295,499972024,0.0,-0.27,0.0,-0.37,176.0,174.18,0.03,0.23,3
1679661751.97945094,500072372,0.0,-0.08,0.11,-0.25,176.0,174.24,0.03,0.23,3
1679661752.07888794,500171809,0.0,-0.12,0.05,0.0,176.0,174.28,0.03,0.25,3
1679661752.17888308,500271804,0.0,-0.19,0.33,0.07,176.0,174.34,0.03,0.23,3
1679661752.27895093,500371872,0.0,-0.19,0.81,0.41000000000000003,176.0,174.39000000000001,0.03,0.24,3
1679661752.37892890,500471850,0.0,-0.19,1.1,1.17,176.0,174.46,0.03,0.25,3
1679661752.47899389,500571915,0.0,-0.13,1.01,1.59,176.0,174.48,0.02,0.21,3
1679661752.57884908,500671770,0.0,-0.23,0.54,1.25,176.0,174.52,0.02,0.24,3
1679661752.67875195,500771673,0.0,-0.29,0.27,0.56,176.0,174.54,0.02,0.25,3
1679661752.77877402,500871695,0.0,-0.3,0.14,0.05,176.0,174.56,0.02,0.26,3
1679661752.87916207,500972083,0.0,-0.3,0.07,-0.1,176.0,174.59,0.02,0.27,3
1679661752.97891498,501071836,0.0,-0.27,0.03,-0.19,176.0,174.59,0.02,0.25,3
1679661753.07889199,501171813,0.0,-0.25,0.01,-0.23,176.0,174.63,0.02,0.24,3
1679661753.17899299,501271914,0.0,-0.21,0.0,-0.17,176.0,174.6,0.02,0.27,3
1679661753.27899694,501371918,0.0,-0.17,0.0,-0.1,176.0,174.59,0.02,0.31,3
1679661753.37899995,501471921,0.0,-0.1,0.0,-0.09,176.0,174.6,0.02,0.32,3
1679661753.47885990,501571781,0.0,0.03,0.0,-0.13,175.96,174.62,0.02,0.32,3
1679661753.57875204,501671673,0.0,0.05,0.01,-0.2,175.88,174.64000000000001,0.02,0.3,3
1679661753.67877603,501771697,-0.11,0.03,0.05,-0.18,175.88,174.62,0.02,0.28,3
1679661753.77914310,501872064,-0.31,0.04,0.13,-0.13,175.88,174.59,0.02,0.27,3
1679661753.87914491,501972066,-0.46,-0.19,0.25,-0.02,175.86,174.54,0.02,0.27,3
1679661753.97912097,502072042,-0.7000000000000001,-0.39,0.35000000000000003,0.14,175.67000000000002,174.47,0.02,0.27,3
1679661754.07919407,502172115,-0.99,-0.68,0.36,0.25,175.53,174.38,0.02,0.27,3
1679661754.17909002,502272011,-1.1300000000000001,-0.85,0.31,0.27,175.53,174.28,0.02,0.27,3
1679661754.27922392,502372145,-1.28,-1.06,0.18,0.24,175.20000000000002,174.19,0.02,0.28,3
1679661754.37909508,502472016,-1.3,-1.2,0.09,0.09,174.21,174.04,0.02,0.28,3
1679661754.47898507,502571906,-1.19,-1.09,0.04,0.03,173.22,173.72,0.02,0.26,3
1679661754.57892799,502671849,-0.87,-0.99,0.02,0.0,172.21,173.22,0.02,0.26,3
1679661754.67937303,502772294,-0.5700000000000001,-0.52,0.01,0.0,170.66,172.55,0.03,0.28,3
1679661754.77913594,502872057,-0.63,-0.13,0.0,-0.05,169.38,171.69,0.03,0.3,3
1679661754.87918210,502972103,-0.9,-0.13,0.0,0.02,168.97,170.64000000000001,0.03,0.28,3
1679661754.97920394,503072125,-1.44,-0.62,0.0,0.12,168.97,169.64000000000001,0.03,0.26,3
1679661755.07920194,503172123,-2.61,-1.62,0.0,0.11,168.97,168.74,0.04,0.23,3
1679661755.17923498,503272156,-3.45,-3.0300000000000002,0.0,0.03,168.97,167.91,0.04,0.2,3
1679661755.27932000,503372241,-2.75,-4.25,0.0,-0.09,168.97,167.14000000000001,0.04,0.17,3
1679661755.37903690,503471958,-1.4000000000000001,-3.5300000000000002,0.0,-0.23,168.97,166.43,0.04,0.17,3
1679661755.47909403,503572015,-0.71,-1.19,0.0,-0.15,168.97,165.82,0.05,0.16,3
1679661755.57915092,503672072,-0.36,0.35000000000000003,0.0,-0.18,168.97,165.28,0.05,0.18,3
1679661755.67913103,503772052,-0.18,0.61,0.0,-0.22,168.97,164.85,0.06,0.16,3
1679661755.77939796,503872319,-0.09,0.51,0.0,-0.18,168.97,164.49,0.06,0.15,3
1679661755.87918901,503972110,-0.04,0.36,0.0,-0.13,168.97,164.22,0.06,0.16,3
1679661755.97894287,504071864,-0.02,0.18,0.0,-0.13,169.11,164.04,0.06,0.13,3
1679661756.07895088,504171872,-0.01,0.15,0.0,-0.11,169.23,163.94,0.05,0.11,3
1679661756.17883992,504271761,0.0,0.17,0.0,-0.09,169.35,163.94,0.05,0.13,3
1679661756.27879500,504371716,0.66,0.18,0.0,-0.06,169.32,164.03,0.04,0.14,3
1679661756.37877297,504471694,2.0300000000000002,0.99,0.0,0.1,169.06,164.12,0.04,0.11,3
1679661756.47884297,504571764,3.08,2.75,0.0,0.24,168.46,164.22,0.03,0.13,3
1679661756.57888889,504671810,3.86,4.14,0.0,0.29,167.05,164.26,0.03,0.11,3
1679661756.67911696,504772038,3.98,5.03,0.0,0.17,166.06,164.09,0.03,0.11,3
1679661756.77918506,504872106,3.21,4.92,0.0,0.0,165.88,163.83,0.03,0.13,3
1679661756.87893605,504971857,2.21,3.56,0.0,-0.09,165.88,163.64000000000001,0.04,0.13,3
1679661756.97896194,505071883,1.69,1.9000000000000001,0.0,-0.23,165.38,163.54,0.04,0.15,3
1679661757.07883906,505171760,0.98,0.9500000000000001,0.0,-0.27,164.93,163.39000000000001,0.05,0.16,3
1679661757.17875600,505271677,0.5,0.35000000000000003,0.0,-0.25,164.93,163.16,0.05,0.15,3
1679661757.27885890,505371780,0.25,-0.19,0.0,-0.23,164.9,162.97,0.05,0.14,3
1679661757.37890887,505471830,0.13,-0.34,0.0,-0.17,164.26,162.86,0.05,0.11,3
1679661757.47888589,505571807,0.06,-0.18,0.0,-0.15,162.74,162.62,0.05,0.1,3
1679661757.57912087,505672042,0.03,-0.05,0.0,-0.21,161.25,162.19,0.05,0.09,3
1679661757.67919087,505772112,0.01,0.12,0.0,-0.19,160.63,161.52,0.05,0.09,3
1679661757.77908206,505872003,0.0,0.05,0.0,-0.16,160.62,160.9,0.05,0.08,3
1679661757.87917805,505972099,0.42,0.17,0.0,-0.16,160.62,160.41,0.05,0.1,3
1679661757.97907090,506071992,1.47,0.73,0.0,-0.12,160.62,159.98,0.05,0.1,3
1679661758.07899690,506171918,2.0,2.05,0.0,-0.14,160.62,159.6,0.04,0.1,3
1679661758.17902493,506271946,2.22,2.84,0.0,-0.11,160.62,159.24,0.04,0.09,3
1679661758.27944493,506372366,2.07,2.94,0.0,-0.13,160.62,158.95000000000002,0.04,0.08,3
1679661758.37916398,506472085,1.53,2.57,0.0,-0.12,160.62,158.74,0.04,0.12,3
1679661758.47919703,506572118,1.16,1.48,0.0,-0.13,160.62,158.55,0.04,0.15,3
1679661758.57921195,506672133,1.27,0.8300000000000001,0.0,-0.09,160.51,158.43,0.04,0.14,3
1679661758.67919397,506772115,1.92,0.91,0.0,-0.04,159.96,158.33,0.04,0.14,3
1679661758.77925110,506872172,2.27,1.78,0.0,0.06,159.26,158.16,0.04,0.15,3
1679661758.87918210,506972103,2.47,2.23,0.0,0.08,158.78,157.86,0.03,0.13,3
1679661758.97943306,507072354,2.57,2.59,0.0,0.03,158.12,157.56,0.03,0.13,3
1679661759.07908988,507172011,2.62,2.71,-0.03,-0.01,157.26,157.23,0.03,0.13,3
1679661759.17915106,507272072,2.64,2.71,-0.09,-0.11,156.14000000000001,156.79,0.03,0.15,3
1679661759.27925992,507372181,2.65,2.8000000000000003,-0.12,-0.26,154.3,156.23,0.03,0.15,3
1679661759.37891006,507471831,2.66,2.73,-0.17,-0.43,152.36,155.44,0.03,0.15,3
1679661759.47903490,507571956,2.56,2.77,-0.1,-0.48,150.65,154.37,0.03,0.18,3
1679661759.57892609,507671847,2.2600000000000002,2.61,-0.05,-0.48,149.76,153.17000000000002,0.03,0.19,3
1679661759.67895103,507771872,1.69,2.37,-0.02,-0.29,149.65,151.98,0.03,0.19,3
1679661759.77883601,507871757,0.93,1.5,-0.01,-0.17,149.65,150.93,0.03,0.24,3
1679661759.87911105,507972032,0.54,0.61,0.0,-0.09,149.65,149.98,0.03,0.24,3
1679661759.97913694,508072058,0.28,0.05,0.0,-0.1,149.68,149.13,0.03,0.27,3
1679661760.07917190,508172093,0.14,-0.07,0.0,-0.16,149.69,148.38,0.03,0.29,3
1679661760.17914295,508272064,0.07,-0.03,0.0,-0.14,149.69,147.75,0.03,0.27,3
1679661760.27893901,508371860,0.03,0.15,0.0,0.0,149.69,147.25,0.03,0.3,3
1679661760.37893105,508471852,0.01,0.36,0.0,0.13,149.69,146.88,0.03,0.29,3
1679661760.47891688,508571838,0.0,0.56,0.0,0.09,149.69,146.64000000000001,0.04,0.3,3
1679661760.57923508,508672156,0.0,0.86,0.0,0.0,149.69,146.49,0.04,0.31,3
1679661760.67883301,508771754,0.0,0.9,0.0,-0.1,149.69,146.42000000000002,0.04,0.34,3
1679661760.77875495,508871676,0.44,0.86,0.0,-0.17,149.62,146.43,0.04,0.35000000000000003,3
1679661760.87883091,508971752,1.4000000000000001,1.47,0.0,-0.07,148.84,146.48,0.03,0.35000000000000003,3
1679661760.97916508,509072086,1.93,2.67,0.0,0.07,147.83,146.49,0.03,0.37,3
1679661761.07915902,509172080,2.36,3.69,0.0,0.2,146.66,146.38,0.04,0.37,3
1679661761.17907906,509272000,2.41,3.88,0.0,0.21,144.99,146.09,0.04,0.39,3
1679661761.27920103,509372122,2.2800000000000002,3.58,0.0,0.19,143.17000000000002,145.55,0.04,0.42,3
1679661761.37910795,509472029,2.0300000000000002,3.0100000000000002,0.0,0.13,141.59,144.77,0.04,0.45,3
1679661761.47913098,509572052,2.38,2.23,0.0,0.07,140.54,143.73,0.04,0.45,3
1679661761.57942200,509672343,2.47,2.07,0.0,-0.01,139.55,142.59,0.04,0.46,3
1679661761.67898703,509771908,1.97,2.27,0.0,-0.01,139.38,141.44,0.05,0.48,3
1679661761.77892995,509871851,1.57,1.69,0.0,0.17,139.38,140.3,0.05,0.46,3
1679661761.87940907,509972330,1.3900000000000001,0.89,0.0,0.24,139.38,139.31,0.05,0.48,3
1679661761.97915602,510072077,1.34,0.48,0.0,0.28,139.38,138.42000000000002,0.05,0.49,3
1679661762.07922196,510172143,1.6400000000000001,0.73,0.0,0.3,139.38,137.65,0.04,0.49,3
1679661762.17919803,510272119,2.42,1.19,0.0,0.25,139.38,136.96,0.04,0.52,3
1679661762.27924490,510372166,2.9,2.14,0.0,0.26,139.38,136.39000000000001,0.03,0.52,3
1679661762.37923002,510472151,3.6,3.11,0.0,0.24,139.38,135.9,0.03,0.53,3
1679661762.47918391,510572105,4.39,3.71,0.0,0.28,139.38,135.53,0.03,0.55,3
1679661762.57945395,510672375,4.5200000000000005,4.42,0.0,0.41000000000000003,139.38,135.21,0.03,0.5700000000000001,3
1679661762.67912602,510772047,4.53,4.86,0.0,0.35000000000000003,139.38,135.0,0.03,0.58,3
1679661762.77915096,510872072,4.23,4.58,0.0,0.19,139.38,134.81,0.03,0.6,3
1679661762.87914801,510972069,3.77,4.09,0.0,0.06,139.38,134.71,0.05,0.59,3
1679661762.97889805,511071819,3.29,3.38,0.0,-0.01,139.38,134.63,0.05,0.59,3
1679661763.07892609,511171847,3.02,2.73,0.0,-0.08,139.38,134.65,0.06,0.58,3
1679661763.17892003,511271841,2.89,2.39,0.0,-0.08,139.38,134.73,0.06,0.5700000000000001,3
1679661763.27903104,511371952,2.82,2.36,0.0,-0.05,139.38,134.83,0.06,0.56,3
1679661763.37883997,511471761,2.86,2.29,0.0,-0.1,139.37,134.96,0.06,0.55,3
1679661763.47876000,511571681,2.99,2.35,0.0,-0.08,139.01,135.12,0.06,0.54,3
1679661763.57881808,511671739,3.06,2.83,0.0,-0.05,138.18,135.25,0.06,0.54,3
1679661763.67926908,511772190,3.09,2.89,0.0,-0.08,137.46,135.23,0.06,0.52,3
1679661763.77913904,511872060,3.11,2.98,0.0,-0.05,137.03,135.19,0.06,0.51,3
1679661763.87889791,511971819,3.12,2.77,0.0,-0.04,136.96,135.2,0.05,0.5,3
1679661763.97893596,512071857,3.12,2.85,0.0,0.0,136.42000000000002,135.3,0.05,0.5,3
1679661764.07892799,512171849,3.1,2.52,0.0,0.11,135.43,135.35,0.06,0.51,3
1679661764.17894006,512271861,3.04,2.41,0.0,0.2,134.65,135.25,0.06,0.49,3
1679661764.27890205,512371823,3.0100000000000002,2.29,0.0,0.37,134.14000000000001,134.99,0.06,0.46,3
1679661764.37876606,512471687,2.9,2.2800000000000002,0.0,0.48,133.67000000000002,134.69,0.06,0.45,3
1679661764.47876906,512571690,2.71,2.09,0.0,0.66,133.34,134.32,0.06,0.46,3
1679661764.57917809,512672099,2.37,1.76,0.0,0.8200000000000001,133.33,133.98,0.06,0.45,3
1679661764.67914796,512772069,1.87,1.41,0.0,0.92,133.33,133.66,0.06,0.45,3
1679661764.77907205,512871993,1.43,0.8200000000000001,0.0,1.02,133.33,133.4,0.06,0.47000000000000003,3
1679661764.87910509,512972026,0.8200000000000001,0.44,0.0,0.98,133.33,133.15,0.06,0.47000000000000003,3
1679661764.97916603,513072087,0.41000000000000003,-0.21,0.0,0.85,133.33,132.92000000000002,0.06,0.45,3
1679661765.07912803,513172049,0.26,-0.6,0.0,0.68,133.33,132.72,0.05,0.45,3
1679661765.17908406,513272005,0.34,-0.54,0.0,0.51,133.33,132.58,0.05,0.44,3
1679661765.27939391,513372315,0.7000000000000001,-0.38,0.0,0.41000000000000003,133.33,132.46,0.05,0.44,3
1679661765.37877798,513471699,1.12,0.42,0.0,0.37,133.33,132.4,0.05,0.44,3
1679661765.47916794,513572089,1.53,1.05,0.0,0.31,133.33,132.37,0.04,0.44,3
1679661765.57915306,513672074,1.48,1.53,0.0,0.36,133.33,132.4,0.04,0.45,3
1679661765.67912388,513772045,1.22,1.6,0.0,0.45,133.33,132.44,0.04,0.46,3
1679661765.77927709,513872198,0.8200000000000001,1.24,0.0,0.42,133.33,132.51,0.04,0.47000000000000003,3
1679661765.87918806,513972109,0.42,0.7000000000000001,0.0,0.35000000000000003,133.33,132.58,0.04,0.49,3
1679661765.97923899,514072160,0.21,0.14,0.0,0.22,133.33,132.66,0.04,0.48,3
1679661766.07919002,514172111,0.1,-0.23,0.0,0.16,133.33,132.7,0.04,0.45,3
1679661766.17939806,514272319,0.05,-0.18,0.0,0.23,133.33,132.74,0.04,0.45,3
1679661766.27885699,514371778,0.02,-0.05,0.0,0.3,133.33,132.83,0.04,0.47000000000000003,3
1679661766.37885499,514471776,0.01,-0.1,0.0,0.3,133.33,132.92000000000002,0.04,0.44,3
1679661766.47887993,514571801,0.0,-0.19,0.0,0.33,133.33,133.0,0.03,0.44,3
1679661766.57889509,514671816,0.0,-0.19,0.0,0.36,133.33,133.14000000000001,0.03,0.42,3
1679661766.67891192,514771833,0.0,-0.33,0.0,0.4,133.33,133.25,0.03,0.41000000000000003,3
1679661766.77890491,514871826,0.0,-0.36,0.0,0.33,133.33,133.35,0.03,0.4,3
1679661766.87898898,514971910,0.0,-0.44,0.0,0.15,133.33,133.45,0.03,0.4,3
1679661766.97895002,515071871,0.0,-0.47000000000000003,0.0,0.14,133.33,133.5,0.03,0.4,3
1679661767.07911706,515172038,0.0,-0.45,0.0,0.13,133.33,133.53,0.03,0.39,3
1679661767.17876697,515271688,0.0,-0.5,0.0,0.12,133.33,133.51,0.03,0.4,3
1679661767.27890301,515371824,0.0,-0.44,0.0,0.14,133.33,133.51,0.02,0.37,3
1679661767.37888694,515471808,0.0,-0.33,0.0,0.17,133.33,133.47,0.02,0.37,3
1679661767.47889209,515571813,0.0,-0.15,0.0,0.17,133.33,133.4,0.02,0.36,3
1679661767.57893991,515671861,0.0,-0.23,0.0,0.2,133.37,133.37,0.02,0.36,3
1679661767.67892790,515771849,0.0,0.13,0.0,0.2,133.39000000000001,133.3,0.02,0.36,3
1679661767.77923703,515872158,0.0,0.04,0.0,0.09,133.4,133.2,0.02,0.36,3
1679661767.87902308,515971944,0.0,-0.04,0.0,0.04,133.41,133.09,0.03,0.36,3
1679661767.97912002,516072041,0.0,-0.29,0.0,-0.08,133.41,132.88,0.03,0.35000000000000003,3
1679661768.07907104,516171992,0.0,-1.07,0.0,-0.22,133.41,132.78,0.03,0.35000000000000003,3
1679661768.17907310,516271994,0.0,-8.56,0.0,-0.25,133.41,132.62,0.03,0.34,3
1679661768.27916598,516372087,0.0,-20.37,0.0,-0.02,133.41,132.28,0.02,0.27,3
1679661768.37937188,516472293,0.0,-29.73,0.0,-0.17,133.41,132.12,0.02,0.24,3
1679661768.47920108,516572122,0.0,-28.830000000000002,0.0,-0.36,133.41,132.01,0.09,0.31,3
1679661768.57920003,516672121,0.0,-19.73,0.0,-0.45,133.41,132.14000000000001,0.09,0.37,3
1679661768.67923093,516772152,0.0,-11.22,0.0,-0.54,133.41,132.29,0.17,0.45,3
1679661768.77886701,516871788,0.0,-4.86,0.0,-0.52,133.41,132.43,0.17,0.44,3
1679661768.87876391,516971685,0.0,-0.67,0.0,-0.34,133.41,132.58,0.25,0.41000000000000003,3
1679661768.97883606,517071757,0.0,1.19,0.0,-0.19,133.41,132.78,0.25,0.4,3
1679661769.07887197,517171793,0.0,1.68,0.0,-0.14,133.41,133.03,0.23,0.42,3
1679661769.17890000,517271821,0.0,1.8900000000000001,0.0,-0.13,133.41,133.27,0.23,0.41000000000000003,3
1679661769.27922201,517372143,0.0,1.8,0.0,-0.11,133.41,133.5,0.2,0.42,3
1679661769.37919903,517472120,0.0,1.67,0.0,-0.13,133.41,133.7,0.2,0.43,3
1679661769.47921109,517572132,0.0,1.44,0.0,-0.19,133.41,133.87,0.2,0.43,3
1679661769.57926106,517672182,0.0,1.3,0.0,-0.21,133.41,133.98,0.2,0.44,3
1679661769.67888403,517771805,0.0,-2.32,0.0,-0.17,133.41,134.14000000000001,0.2,0.45,3
1679661769.77915001,517872071,0.0,-11.66,0.0,-0.2,133.41,134.16,0.2,0.37,3
1679661769.87915087,517972072,0.0,-22.32,0.0,-0.29,133.41,134.24,0.17,0.3,3
1679661769.97941804,518072339,0.0,-27.44,0.0,-0.58,133.41,134.27,0.17,0.32,3
1679661770.07915187,518172073,0.0,-21.650000000000002,0.0,-0.8,133.41,134.51,0.18,0.36,3
1679661770.17941499,518272336,0.0,-11.76,0.0,-0.84,133.41,134.73,0.18,0.43,3
1679661770.27952909,518372450,-0.06,-4.76,0.17,-0.52,145.20000000000002,146.94,0.23,0.48,3
1679661770.37920809,518472129,-0.03,0.07,0.08,-0.52,144.13,147.03,0.23,0.39,3
1679661770.47923589,518572157,-0.01,2.57,0.04,-0.58,142.19,146.94,0.27,0.38,3
1679661770.57916808,518672089,0.0,3.39,0.02,-0.52,139.38,146.54,0.27,0.39,3
1679661770.67915487,518772076,0.0,3.24,0.01,-0.41000000000000003,136.85,145.65,0.23,0.42,3
1679661770.77909994,518872021,0.0,2.89,0.0,-0.35000000000000003,135.2,144.37,0.23,0.43,3
1679661770.87946010,518972381,0.84,3.86,0.1,-0.34,304.95,314.28000000000003,0.23,0.44,3
1679661770.97916102,519072082,0.43,3.08,0.05,-0.17,302.44,312.61,0.23,0.46,3
1679661771.07918596,519172107,0.21,2.15,0.02,-0.05,299.05,310.55,0.23,0.49,3
1679661771.17919397,519272115,0.11,1.47,0.01,0.0,294.78000000000003,308.09000000000003,0.23,0.51,3
1679661771.27924895,519372170,0.05,1.44,0.0,0.26,289.63,305.21,0.22,0.52,3
1679661771.37921500,519472136,0.02,1.5,0.0,0.45,283.73,301.8,0.22,0.55,3
1679661771.47918200,519572103,0.01,1.52,0.0,0.54,277.73,297.91,0.21,0.54,3
1679661771.57914305,519672064,0.0,1.6400000000000001,0.0,0.6,271.73,293.65000000000003,0.21,0.56,3
1679661771.67907691,519771998,0.0,1.56,0.0,0.5700000000000001,265.76,289.02,0.2,0.59,3
1679661771.77944493,519872366,0.0,1.61,0.0,0.65,260.43,284.06,0.2,0.62,3
1679661771.87892604,519971847,0.1,1.25,0.0,0.75,255.98000000000002,278.99,0.19,0.65,3
1679661771.97891808,520071839,0.88,1.21,0.0,0.8200000000000001,252.41,273.73,0.19,0.7000000000000001,3
1679661772.07902694,520171948,0.66,1.69,0.0,0.61,249.72,268.62,0.17,0.74,3
1679661772.17893195,520271853,0.33,1.49,0.0,0.84,247.91,263.63,0.17,0.78,3
1679661772.27904296,520371964,0.17,0.71,0.0,1.31,246.98000000000002,258.73,0.15,0.8200000000000001,3
1679661772.37885809,520471779,0.08,-0.17,0.0,1.41,246.94,254.04,0.15,0.85,3
1679661772.47876287,520571684,0.04,-0.42,0.0,1.1500000000000001,247.77,249.79,0.15,0.88,3
1679661772.57877898,520671700,0.02,-0.5,0.0,0.74,249.48000000000002,245.97,0.15,0.9,3
1679661772.67915702,520772078,0.01,-0.6,0.0,0.17,252.07,242.92000000000002,0.13,0.92,3
1679661772.77914906,520872070,0.0,-0.24,0.0,-0.34,255.54,240.81,0.13,0.93,3
1679661772.87891889,520971840,0.0,-0.07,0.0,-0.51,259.89,239.58,0.12,0.9400000000000001,3
1679661772.97892690,521071848,0.0,0.01,0.0,-0.61,265.08,239.15,0.12,0.9500000000000001,3
1679661773.07893395,521171855,0.0,0.22,0.0,-0.59,266.03000000000003,239.26,0.12,0.96,3
1679661773.17899108,521271912,0.0,0.27,0.0,-0.41000000000000003,266.59000000000003,239.87,0.12,0.97,3
1679661773.27897596,521371897,0.0,0.05,1.16,-0.09,267.55,240.87,0.1,0.97,3
1679661773.37876892,521471690,-0.03,-0.42,3.2800000000000002,1.37,268.58,241.89000000000001,0.1,0.97,3
1679661773.47880006,521571721,-0.03,-1.69,4.44,4.16,269.61,242.92000000000002,0.09,0.97,3
1679661773.57916498,521672086,-0.01,-2.6,5.44,5.62,270.07,244.03,0.09,0.97,3
1679661773.67913604,521772057,0.0,-2.63,6.0,5.94,270.07,245.20000000000002,0.09,0.98,3
1679661773.77912998,521872051,0.0,-2.61,4.38,6.26,270.12,246.39000000000001,0.09,0.96,3
1679661773.87921405,521972135,0.22,-1.6,2.61,4.32,270.82,247.85,0.1,0.96,3
1679661773.97892189,522071843,2.54,0.02,1.34,1.36,271.18,249.45000000000002,0.1,0.96,3
1679661774.07900691,522171928,5.39,3.41,1.02,0.37,270.81,251.1,0.13,0.9500000000000001,3
1679661774.17894387,522271865,4.8,7.08,1.34,1.46,270.78000000000003,252.84,0.13,0.9400000000000001,3
1679661774.27890587,522371827,4.48,7.1000000000000005,1.71,2.0,270.78000000000003,254.58,0.13,0.9500000000000001,3
1679661774.37877989,522471701,2.54,4.49,2.73,2.04,270.78000000000003,256.3,0.13,0.9500000000000001,3
1679661774.47916698,522572088,1.29,1.3900000000000001,3.95,2.64,270.78000000000003,258.02,0.13,0.9500000000000001,3
1679661774.57914591,522672067,0.66,-1.1,4.98,3.95,270.78000000000003,259.75,0.13,0.9400000000000001,3
1679661774.67912388,522772045,0.33,-1.9000000000000001,5.68,5.1000000000000005,270.78000000000003,261.47,0.14,0.93,3
1679661774.77919292,522872114,0.37,-1.71,6.390000000000001,5.8100000000000005,270.78000000000003,263.19,0.14,0.91,3
1679661774.87893295,522971854,1.17,-1.02,5.98,6.46,270.78000000000003,264.88,0.14,0.89,3
1679661774.97903609,523071957,2.45,0.52,4.91,6.01,270.78000000000003,266.55,0.14,0.86,3
1679661775.07908797,523172009,3.62,2.82,4.05,4.22,270.78000000000003,268.1,0.14,0.85,3
1679661775.17898297,523271904,4.46,4.7700000000000005,2.98,2.66,270.77,269.51,0.14,0.8300000000000001,3
1679661775.27908206,523372003,4.88,5.66,2.56,1.41,270.62,270.75,0.13,0.8200000000000001,3
1679661775.37955594,523472477,4.92,5.7700000000000005,2.86,0.79,270.55,271.86,0.13,0.8200000000000001,3
1679661775.47915387,523572075,4.92,5.21,3.18,1.27,270.55,272.84000000000003,0.13,0.81,3
1679661775.57892799,523671849,4.97,4.74,3.41,2.16,270.55,273.61,0.13,0.8,3
1679661775.67919588,523772117,4.82,4.48,3.4,2.61,270.55,274.18,0.14,0.8,3
1679661775.77920508,523872126,4.13,4.11,2.99,2.6,270.55,274.54,0.14,0.79,3
1679661775.87923598,523972157,3.27,3.25,1.8900000000000001,1.92,270.55,274.75,0.15,0.78,3
1679661775.97918105,524072102,2.82,2.08,1.35,0.61,270.55,274.81,0.15,0.77,3
1679661776.07939196,524172313,2.4,1.25,1.1500000000000001,-0.27,270.55,274.79,0.14,0.74,3
1679661776.17877197,524271693,1.92,1.02,1.21,-0.26,270.55,274.69,0.14,0.73,3
1679661776.27901292,524371934,1.6500000000000001,0.66,1.48,0.08,270.55,274.5,0.13,0.71,3
1679661776.37888002,524471801,1.7,0.47000000000000003,1.71,0.58,270.55,274.23,0.13,0.71,3
1679661776.47890496,524571826,2.36,0.65,1.83,1.1300000000000001,270.55,273.92,0.11,0.71,3
1679661776.57890987,524671831,3.11,1.84,1.93,1.49,270.75,273.55,0.11,0.6900000000000001,3
1679661776.67891407,524771835,3.42,2.87,1.87,1.6300000000000001,271.77,273.22,0.09,0.68,3
1679661776.77893901,524871860,3.36,3.43,1.72,1.6500000000000001,273.63,273.02,0.09,0.6900000000000001,3
1679661776.87885499,524971776,3.02,3.31,1.83,1.57,275.44,273.13,0.08,0.68,3
1679661776.97912598,525072047,2.86,2.99,2.2600000000000002,1.84,276.99,273.49,0.08,0.67,3
1679661777.07877588,525171697,2.68,2.58,2.61,2.41,278.54,274.05,0.08,0.67,3
1679661777.17884707,525271768,2.59,2.22,2.83,2.96,280.0,274.72,0.08,0.66,3
1679661777.27893305,525371854,3.15,1.9100000000000001,2.52,3.13,280.73,275.58,0.07,0.66,3
1679661777.37889409,525471815,3.69,2.54,2.45,2.86,280.78000000000003,276.40000000000003,0.07,0.66,3
1679661777.47892499,525571846,3.96,3.5700000000000003,2.41,2.62,280.78000000000003,277.1,0.06,0.65,3
1679661777.57891607,525671837,4.13,3.9,2.2800000000000002,2.41,280.78000000000003,277.77,0.06,0.64,3
1679661777.67894602,525771867,4.12,3.7800000000000002,2.08,2.17,280.78000000000003,278.40000000000003,0.06,0.64,3
1679661777.77883697,525871758,4.01,3.67,2.27,1.8800000000000001,280.78000000000003,279.0,0.06,0.65,3
1679661777.87912393,525972045,4.05,3.44,2.7800000000000002,2.24,280.85,279.61,0.06,0.62,3
1679661777.97877598,526071697,4.26,3.23,3.17,2.94,281.63,280.17,0.06,0.61,3
1679661778.07903790,526171959,4.4,3.31,3.42,3.65,283.3,280.83,0.07,0.61,3
1679661778.17903709,526271958,4.73,3.5500000000000003,3.79,4.0600000000000005,285.66,281.7,0.07,0.6,3
1679661778.27909803,526372019,5.16,3.86,4.3500000000000005,4.5600000000000005,287.39,282.89,0.07,0.58,3
1679661778.37924290,526472164,5.44,4.53,4.65,5.1000000000000005,288.24,284.22,0.07,0.56,3
1679661778.47909498,526572016,5.5,5.29,4.72,5.38,288.33,285.44,0.06,0.55,3
1679661778.57935786,526672279,5.05,5.24,4.67,5.16,288.33,286.48,0.06,0.53,3
1679661778.67884898,526771770,3.87,4.83,4.12,4.79,288.33,287.41,0.07,0.5,3
1679661778.77875590,526871677,3.0100000000000002,3.41,3.84,3.92,288.33,288.23,0.07,0.48,3
1679661778.87876701,526971688,2.33,2.0100000000000002,3.75,3.13,288.33,288.97,0.08,0.47000000000000003,3
1679661778.97888398,527071805,1.72,1.18,3.85,2.96,288.33,289.66,0.08,0.44,3
1679661779.07889295,527171814,1.49,0.65,3.86,3.12,288.33,290.2,0.08,0.4,3
1679661779.17918205,527272103,1.43,0.5,3.99,3.44,288.33,290.64,0.08,0.4,3
1679661779.27925491,527372176,1.53,0.89,4.44,3.59,288.33,290.96,0.07,0.39,3
1679661779.37889910,527471820,1.6,0.91,4.57,3.86,288.33,291.18,0.07,0.37,3
1679661779.47925687,527572178,1.56,1.12,4.38,4.09,288.33,291.28000000000003,0.06,0.36,3
1679661779.57919097,527672112,1.43,1.4000000000000001,4.19,3.8000000000000003,288.33,291.3,0.06,0.34,3
1679661779.67925406,527772175,1.02,1.19,4.43,3.4,288.34000000000003,291.21,0.05,0.32,3
1679661779.77909303,527872014,0.59,0.93,4.64,3.43,288.64,291.07,0.05,0.3,3
1679661779.87946701,527972388,0.3,0.47000000000000003,4.95,3.91,289.21,290.86,0.05,0.28,3
1679661779.97967100,528072592,0.15,0.1,5.48,4.41,290.44,290.71,0.05,0.29,3
1679661780.07910609,528172027,0.07,-0.47000000000000003,5.8500000000000005,5.0600000000000005,292.13,290.71,0.04,0.27,3
1679661780.17916989,528272091,0.04,-0.5,5.69,5.49,293.86,290.97,0.04,0.25,3
1679661780.27933192,528372253,0.02,-0.8300000000000001,5.05,5.0600000000000005,295.96,291.54,0.04,0.25,3
1679661780.37923098,528472152,0.0,-0.6,3.5500000000000003,4.14,298.46,292.42,0.04,0.24,3
1679661780.47926998,528572191,0.0,-0.06,1.81,2.46,301.44,293.65000000000003,0.05,0.23,3
1679661780.57924604,528672167,0.0,0.62,0.92,0.32,304.32,295.23,0.05,0.23,3
1679661780.67910099,528772022,0.0,1.1400000000000001,0.47000000000000003,-0.8,306.63,297.1,0.05,0.19,3
1679661780.77943301,528872354,0.0,1.12,0.24,-0.8200000000000001,308.06,299.08,0.05,0.19,3
1679661780.87926006,528972181,0.12,0.85,0.38,-0.84,308.61,301.14,0.05,0.18,3
1679661780.97889900,529071820,0.54,0.4,0.74,-0.54,308.53000000000003,303.15000000000003,0.05,0.18,3
1679661781.07891393,529171835,1.01,0.0,1.16,0.28,308.08,305.09000000000003,0.06,0.15,3
1679661781.17892289,529271844,1.33,-0.26,2.05,1.09,308.0,306.87,0.06,0.13,3
1679661781.27905107,529371972,1.69,-0.71,2.2800000000000002,2.06,308.0,308.57,0.06,0.12,3
1679661781.37886906,529471790,2.2800000000000002,-0.56,1.72,2.37,308.0,310.1,0.06,0.11,3
1679661781.47877288,529571694,2.62,-0.46,1.47,1.61,308.0,311.41,0.06,0.09,3
1679661781.57881594,529671737,3.08,0.29,1.19,1.05,308.0,312.42,0.06,0.09,3
1679661781.67917204,529772093,3.63,1.41,0.68,1.22,308.0,313.19,0.07,0.1,3
1679661781.77914405,529872065,4.96,2.48,0.45,0.9400000000000001,308.0,313.75,0.07,0.08,3
1679661781.87907290,529971994,6.33,4.33,0.26,0.59,308.0,314.12,0.07,0.07,3
1679661781.97909808,530072019,6.78,6.3100000000000005,0.13,0.17,308.0,314.27,0.07,0.06,3
1679661782.07908988,530172011,6.640000000000001,6.93,0.06,-0.27,308.0,314.25,0.07,0.07,3
1679661782.17917800,530272099,6.11,6.32,0.03,-0.4,308.08,314.02,0.07,0.05,3
1679661782.27918792,530372109,5.42,5.62,0.01,-0.14,308.78000000000003,313.7,0.07,0.05,3
1679661782.37900400,530471925,4.63,4.83,0.0,0.15,309.79,313.44,0.07,0.06,3
1679661782.47903895,530571960,3.89,4.05,0.01,0.36,311.26,313.17,0.08,0.05,3
1679661782.57950497,530672426,3.48,3.09,0.0,0.23,313.61,313.03000000000003,0.08,0.05,3
1679661782.67915201,530772073,2.33,2.73,0.34,0.02,316.72,313.24,0.07,0.04,3
1679661782.77889705,530871818,1.51,1.99,0.63,0.29,319.77,313.95,0.07,0.05,3
1679661782.87893105,530971852,1.1400000000000001,1.1300000000000001,0.73,0.78,322.23,315.1,0.06,0.06,3
1679661782.97894502,531071866,0.8,0.46,0.78,1.36,323.8,316.44,0.06,0.05,3
