timestamp,TimeUS,I,Status,GMS,GWk,NSats,HDop,Lat,Lng,Alt,Spd,GCrs,VZ,Yaw,U
1679661711.59899998,459691921,0,3,477729599,2254,15,0.68,42.688721699999995,-84.49157129999999,260.72,0.01835756003856659,119.35774230957031,0.04500000178813934,0.0,1
1679661711.79923105,459892152,0,3,477729799,2254,15,0.68,42.688721699999995,-84.49157129999999,260.72,0.011661904864013195,329.0362548828125,-0.0010000000474974513,0.0,1
1679661711.99852610,460091447,0,3,477729999,2254,15,0.68,42.688721699999995,-84.49157129999999,260.72,0.026627056300640106,55.71311950683594,0.026000000536441803,0.0,1
1679661712.19864202,460291563,0,3,477730199,2254,15,0.68,42.688721799999996,-84.4915712,260.72,0.008944272063672543,63.4349479675293,0.005000000353902578,0.0,1
1679661712.39868498,460491606,0,3,477730399,2254,15,0.68,42.688721799999996,-84.4915712,260.72,0.012529964558780193,118.6104507446289,0.017000000923871994,0.0,1
1679661712.59870410,460691625,0,3,477730599,2254,15,0.68,42.688721799999996,-84.4915712,260.72,0.01702938787639141,3.3664605617523193,-0.013000000268220901,0.0,1
1679661712.79851294,460891434,0,3,477730799,2254,15,0.68,42.6887219,-84.4915712,260.72,0.021023796871304512,25.346174240112305,-0.07800000160932541,0.0,1
1679661712.99857903,461091500,0,3,477730999,2254,15,0.68,42.6887219,-84.4915711,260.72,0.04531004652380943,67.9637680053711,-0.04700000211596489,0.0,1
1679661713.19866109,461291582,0,3,477731199,2254,15,0.68,42.6887219,-84.4915711,260.72,0.018384777009487152,202.38014221191406,0.020000001415610313,0.0,1
1679661713.39891505,461491836,0,3,477731399,2254,15,0.68,42.6887219,-84.4915711,260.72,0.004242640919983387,315.0,-0.06200000271201134,0.0,1
1679661713.59858799,461691509,0,3,477731599,2254,15,0.68,42.688722,-84.4915711,260.73,0.01612451672554016,209.74488830566406,-0.06300000101327896,0.0,1
1679661713.79870701,461891628,0,3,477731799,2254,15,0.68,42.688722,-84.4915711,260.73,0.013892444781959057,300.2564392089844,0.014000000432133675,0.0,1
1679661713.99905205,462091973,0,3,477731999,2254,15,0.68,42.688722,-84.4915711,260.73,0.002828427357599139,45.0,-0.0560000017285347,0.0,1
1679661714.19868588,462291607,0,3,477732199,2254,15,0.68,42.6887221,-84.4915711,260.73,0.032557643949985504,10.619654655456543,-0.02500000037252903,0.0,1
1679661714.39892697,462491848,0,3,477732399,2254,15,0.68,42.6887221,-84.4915711,260.75,0.009999999776482582,306.8699035644531,0.01900000125169754,0.0,1
1679661714.59884405,462691765,0,3,477732599,2254,15,0.68,42.6887221,-84.4915712,260.73,0.015811389312148094,161.56504821777344,-0.08800000697374344,0.0,1
1679661714.79877996,462891701,0,3,477732799,2254,15,0.68,42.6887221,-84.4915712,260.73,0.01345362514257431,228.01278686523438,0.017000000923871994,0.0,1
1679661714.99888897,463091810,0,3,477732999,2254,15,0.68,42.6887221,-84.4915712,260.74,0.020615529268980026,14.036242485046387,-0.003000000026077032,0.0,1
1679661715.19892287,463291844,0,3,477733199,2254,15,0.68,42.6887222,-84.4915712,260.73,0.01702938787639141,319.7636413574219,-0.03400000184774399,0.0,1
1679661715.37903190,463471953,0,3,477733399,2254,15,0.68,42.6887222,-84.4915712,260.73,0.004242640919983387,135.0,0.026000000536441803,0.0,1
1679661715.59911799,463692039,0,3,477733599,2254,15,0.68,42.6887222,-84.4915712,260.73,0.0036055513191968203,303.6900634765625,0.018000001087784767,0.0,1
1679661715.79869294,463891614,0,3,477733799,2254,15,0.68,42.688722299999995,-84.4915712,260.72,0.030083218589425087,285.42218017578125,0.03800000250339508,0.0,1
1679661715.99871802,464091639,0,3,477733999,2254,15,0.68,42.6887222,-84.49157129999999,260.72,0.0450998917222023,176.18592834472656,-0.032999999821186066,0.0,1
1679661716.21855187,464311473,0,3,477734199,2254,15,0.68,42.6887221,-84.4915712,260.77,0.11569356173276901,165.48329162597656,-0.6310000419616699,0.0,1
1679661716.39853787,464491459,0,3,477734399,2254,15,0.68,42.6887219,-84.4915712,260.93,0.11860860884189606,174.19326782226562,-0.8050000667572021,0.0,1
1679661716.59857893,464691500,0,3,477734599,2254,15,0.68,42.688721699999995,-84.4915711,261.05,0.1078239381313324,151.77122497558594,-0.5210000276565552,0.0,1
1679661716.79884505,464891766,0,3,477734799,2254,15,0.68,42.6887216,-84.491571,261.14,0.054203324019908905,119.87598419189453,-0.2980000078678131,0.0,1
1679661716.99889588,465091817,0,3,477734999,2254,15,0.68,42.6887216,-84.4915709,261.19,0.020591260865330696,299.0545959472656,-0.23800000548362732,0.0,1
1679661717.19885898,465291780,0,3,477735199,2254,15,0.68,42.6887216,-84.4915709,261.21,0.018384777009487152,67.61985778808594,-0.09400000423192978,0.0,1
1679661717.39899993,465491921,0,3,477735399,2254,15,0.68,42.6887216,-84.4915709,261.23,0.0462709479033947,173.79653930664062,0.049000002443790436,0.0,1
1679661717.59867406,465691595,0,3,477735599,2254,15,0.68,42.6887215,-84.4915709,261.23,0.03206244111061096,183.5763397216797,0.03800000250339508,0.0,1
1679661717.79873395,465891655,0,3,477735799,2254,15,0.68,42.6887214,-84.49157079999999,261.22,0.05119570344686508,167.5925750732422,-0.11800000816583633,0.0,1
1679661717.99872589,466091647,0,3,477735999,2254,15,0.68,42.6887213,-84.49157079999999,261.27,0.09832599014043808,175.3331298828125,-0.2939999997615814,0.0,1
1679661718.19857597,466291497,0,3,477736199,2254,15,0.68,42.688721199999996,-84.4915707,261.33,0.06850548088550568,33.690067291259766,-0.26100000739097595,0.0,1
1679661718.39857507,466491496,0,3,477736399,2254,15,0.68,42.6887213,-84.4915705,261.42,0.09100550413131714,89.37039947509766,-0.6060000061988831,0.0,1
1679661718.59870791,466691629,0,3,477736599,2254,15,0.68,42.6887215,-84.4915702,261.5,0.2679253816604614,34.04593276977539,-0.18200001120567322,0.0,1
1679661718.79874492,466891666,0,3,477736799,2254,15,0.68,42.6887219,-84.4915699,261.57,0.25930678844451904,18.434947967529297,-0.4650000333786011,0.0,1
1679661718.99899697,467091918,0,3,477736999,2254,15,0.68,42.688722399999996,-84.49156959999999,261.64,0.3763681948184967,15.882662773132324,-0.26100000739097595,0.0,1
1679661719.19851804,467291439,0,3,477737199,2254,15,0.68,42.688722899999995,-84.4915694,261.71,0.23352088034152985,16.4172306060791,-0.4180000126361847,0.0,1
1679661719.39881897,467491740,0,3,477737399,2254,15,0.68,42.6887234,-84.49156909999999,261.83,0.35892200469970703,18.182544708251953,-0.534000039100647,0.0,1
1679661719.59909701,467692018,0,3,477737599,2254,15,0.68,42.688724099999995,-84.49156889999999,261.94,0.39580047130584717,12.104866981506348,-0.5860000252723694,0.0,1
1679661719.81853890,467911460,0,3,477737799,2254,15,0.68,42.688724699999995,-84.4915686,262.11,0.3668242394924164,18.434947967529297,-0.6450000405311584,0.0,1
1679661719.99901891,468091940,0,3,477737999,2254,15,0.68,42.688725399999996,-84.49156839999999,262.25,0.355629026889801,5.486156463623047,-0.6550000309944153,0.0,1
1679661720.19880199,468291723,0,3,477738199,2254,15,0.68,42.688725999999996,-84.4915683,262.35,0.39448830485343933,12.59182071685791,-0.5760000348091125,0.0,1
1679661720.39889407,468491815,0,3,477738399,2254,15,0.68,42.688726599999995,-84.49156789999999,262.5,0.3835635781288147,28.83696746826172,-0.5490000247955322,0.0,1
1679661720.59890699,468691828,0,3,477738599,2254,15,0.68,42.688727199999995,-84.4915676,262.56,0.34439805150032043,5.164304256439209,-0.2680000066757202,0.0,1
1679661720.79896498,468891886,0,3,477738799,2254,15,0.68,42.6887277,-84.4915676,262.63,0.27655741572380066,10.416028022766113,-0.30400002002716064,0.0,1
1679661720.99877787,469091699,0,3,477738999,2254,15,0.68,42.6887282,-84.4915675,262.69,0.31072819232940674,349.9920349121094,-0.1810000091791153,0.0,1
1679661721.19915104,469292072,0,3,477739199,2254,15,0.68,42.6887287,-84.49156769999999,262.73,0.2708357572555542,339.6915588378906,-0.07000000029802322,0.0,1
1679661721.39871287,469491634,0,3,477739399,2254,15,0.68,42.6887292,-84.4915681,262.74,0.43387213349342346,327.5186767578125,0.03800000250339508,0.0,1
1679661721.59872794,469691649,0,3,477739599,2254,15,0.68,42.6887298,-84.4915688,262.7,0.4577903747558594,324.78240966796875,0.17100000381469727,0.0,1
1679661721.79853201,469891453,0,3,477739799,2254,15,0.68,42.6887304,-84.4915693,262.67,0.37106606364250183,324.2110290527344,0.16900001466274261,0.0,1
1679661721.99859810,470091519,0,3,477739999,2254,15,0.68,42.688730899999996,-84.4915699,262.63,0.3800329267978668,322.3762512207031,0.06300000101327896,0.0,1
1679661722.19889998,470291821,0,3,477740199,2254,15,0.68,42.6887313,-84.4915705,262.61,0.28092172741889954,317.163818359375,0.026000000536441803,0.0,1
1679661722.39894104,470491862,0,3,477740399,2254,15,0.68,42.688731499999996,-84.4915709,262.63,0.17844048142433167,305.649658203125,-0.11000000685453415,0.0,1
1679661722.59885192,470691773,0,3,477740599,2254,15,0.68,42.6887317,-84.4915712,262.66,0.1366930902004242,318.26202392578125,-0.23200000822544098,0.0,1
1679661722.79871702,470891638,0,3,477740799,2254,15,0.68,42.6887316,-84.49157149999999,262.74,0.17682760953903198,223.6251678466797,-0.4190000295639038,0.0,1
1679661722.99904799,471091969,0,3,477740999,2254,15,0.68,42.688731399999995,-84.4915717,262.87,0.13720788061618805,226.1811981201172,-0.6770000457763672,0.0,1
1679661723.19889092,471291812,0,3,477741199,2254,15,0.68,42.6887313,-84.4915719,262.98,0.048836465924978256,222.5104522705078,-0.6200000047683716,0.0,1
1679661723.39873195,471491653,0,3,477741399,2254,15,0.68,42.6887312,-84.49157199999999,263.11,0.028844410553574562,326.3099365234375,-0.5600000023841858,0.0,1
1679661723.59853387,471691455,0,3,477741599,2254,15,0.68,42.6887312,-84.49157199999999,263.21,0.033837851136922836,145.84030151367188,-0.4930000305175781,0.0,1
1679661723.79859495,471891516,0,3,477741799,2254,15,0.68,42.688731,-84.4915719,263.3,0.1651090681552887,155.2975616455078,-0.3540000021457672,0.0,1
1679661723.99890590,472091827,0,3,477741999,2254,15,0.68,42.6887307,-84.4915717,263.36,0.18527008593082428,146.22415161132812,-0.27400001883506775,0.0,1
1679661724.19901109,472291932,0,3,477742199,2254,15,0.68,42.6887305,-84.49157149999999,263.41,0.13462913036346436,148.67129516601562,-0.21900001168251038,0.0,1
1679661724.39866090,472491582,0,3,477742399,2254,15,0.68,42.688730299999996,-84.49157129999999,263.45,0.13505925238132477,134.70001220703125,-0.1420000046491623,0.0,1
1679661724.59853697,472691458,0,3,477742599,2254,15,0.68,42.6887301,-84.4915711,263.48,0.11670904606580734,160.47825622558594,0.023000001907348633,0.0,1
1679661724.79886198,472891783,0,3,477742799,2254,15,0.68,42.6887299,-84.4915711,263.48,0.13700000941753387,180.0,-0.02800000086426735,0.0,1
1679661724.99870586,473091627,0,3,477742999,2254,15,0.68,42.688729599999995,-84.4915711,263.49,0.15585893392562866,188.85797119140625,0.06800000369548798,0.0,1
1679661725.19891906,473291840,0,3,477743199,2254,15,0.68,42.6887293,-84.4915711,263.47,0.18309834599494934,181.8778839111328,0.08000000566244125,0.0,1
1679661725.39885998,473491781,0,3,477743399,2254,15,0.68,42.688728999999995,-84.4915712,263.45,0.1945379227399826,197.03778076171875,0.13500000536441803,0.0,1
1679661725.59858799,473691509,0,3,477743599,2254,15,0.68,42.6887287,-84.49157129999999,263.43,0.21554119884967804,188.80679321289062,0.10600000619888306,0.0,1
1679661725.79885006,473891771,0,3,477743799,2254,15,0.68,42.6887283,-84.4915714,263.4,0.1886928826570511,202.76002502441406,0.18000000715255737,0.0,1
1679661725.99888706,474091808,0,3,477743999,2254,15,0.68,42.688728,-84.4915716,263.37,0.27167996764183044,201.37062072753906,0.20400001108646393,0.0,1
1679661726.19885993,474291781,0,3,477744199,2254,15,0.68,42.6887275,-84.4915719,263.31,0.3198624551296234,203.1986083984375,0.20800000429153442,0.0,1
1679661726.39899206,474491913,0,3,477744399,2254,15,0.68,42.688727,-84.4915721,263.28000000000003,0.3232738971710205,197.08970642089844,0.2680000066757202,0.0,1
1679661726.59868002,474691601,0,3,477744599,2254,15,0.68,42.6887264,-84.4915724,263.24,0.3611675798892975,204.3651885986328,0.22500000894069672,0.0,1
1679661726.79872489,474891646,0,3,477744799,2254,15,0.68,42.6887258,-84.4915728,263.21,0.354509562253952,210.3262481689453,0.11100000888109207,0.0,1
1679661726.99872708,475091648,0,3,477744999,2254,15,0.68,42.6887253,-84.49157319999999,263.19,0.30857741832733154,206.56504821777344,0.10100000351667404,0.0,1
1679661727.19857788,475291499,0,3,477745199,2254,15,0.68,42.6887249,-84.4915735,263.19,0.26237377524375916,213.8112030029297,0.08400000631809235,0.0,1
1679661727.39877796,475491699,0,3,477745399,2254,15,0.68,42.6887245,-84.4915738,263.19,0.3231872618198395,214.91941833496094,0.10500000417232513,0.0,1
1679661727.59887600,475691797,0,3,477745599,2254,15,0.68,42.688724099999995,-84.491574,263.19,0.2714885175228119,192.5517120361328,-0.018000001087784767,0.0,1
1679661727.79873300,475891654,0,3,477745799,2254,15,0.68,42.6887237,-84.4915741,263.2,0.25660282373428345,193.9821014404297,0.04800000041723251,0.0,1
1679661727.99866986,476091591,0,3,477745999,2254,15,0.68,42.6887233,-84.4915742,263.22,0.2065260410308838,190.60263061523438,-0.010000000707805157,0.0,1
1679661728.19876099,476291682,0,3,477746199,2254,15,0.68,42.688722999999996,-84.4915743,263.23,0.1326386034488678,185.6246337890625,-0.029000001028180122,0.0,1
1679661728.39896488,476491886,0,3,477746399,2254,15,0.68,42.6887227,-84.4915743,263.25,0.0870976448059082,167.3998260498047,-0.10900000482797623,0.0,1
1679661728.59890699,476691828,0,3,477746599,2254,15,0.68,42.6887226,-84.4915742,263.26,0.08297590166330338,130.60130310058594,-0.09400000423192978,0.0,1
1679661728.79893804,476891859,0,3,477746799,2254,15,0.68,42.6887225,-84.4915741,263.28000000000003,0.052430909126996994,124.9024887084961,-0.06599999964237213,0.0,1
1679661728.99886107,477091782,0,3,477746999,2254,15,0.68,42.688722399999996,-84.491574,263.3,0.07021395862102509,116.20011901855469,-0.1080000028014183,0.0,1
1679661729.19878006,477291701,0,3,477747199,2254,15,0.68,42.688722299999995,-84.4915738,263.32,0.05860034376382828,126.67434692382812,-0.08400000631809235,0.0,1
1679661729.39889598,477491817,0,3,477747399,2254,15,0.68,42.6887222,-84.49157369999999,263.34000000000003,0.0684470608830452,101.80242919921875,-0.0020000000949949026,0.0,1
1679661729.59885788,477691779,0,3,477747599,2254,15,0.68,42.6887222,-84.4915736,263.36,0.0824621170759201,67.16634368896484,0.02800000086426735,0.0,1
1679661729.79886103,477891782,0,3,477747799,2254,15,0.68,42.688722299999995,-84.4915734,263.37,0.09577056765556335,61.294044494628906,-0.029000001028180122,0.0,1
1679661729.99871397,478091635,0,3,477747999,2254,15,0.68,42.688722299999995,-84.49157319999999,263.4,0.053037725389003754,44.2360954284668,-0.07800000160932541,0.0,1
1679661730.19903088,478291952,0,3,477748199,2254,15,0.68,42.688722299999995,-84.4915731,263.41,0.0652533546090126,74.89889526367188,-0.05900000408291817,0.0,1
1679661730.39872193,478491643,0,3,477748399,2254,15,0.68,42.688722399999996,-84.491573,263.43,0.07789736986160278,48.122127532958984,-0.03400000184774399,0.0,1
1679661730.59872603,478691647,0,3,477748599,2254,15,0.68,42.688722399999996,-84.4915729,263.43,0.03478505462408066,71.56504821777344,-0.0690000057220459,0.0,1
1679661730.79853702,478891458,0,3,477748799,2254,15,0.68,42.688722399999996,-84.4915729,263.46,0.056293874979019165,12.308014869689941,-0.027000000700354576,0.0,1
1679661730.99860692,479091528,0,3,477748999,2254,15,0.68,42.6887225,-84.4915729,263.46,0.051478154957294464,352.1846923828125,0.046000003814697266,0.0,1
1679661731.19889188,479291813,0,3,477749199,2254,15,0.68,42.6887226,-84.4915729,263.47,0.13618002831935883,357.0535583496094,0.023000001907348633,0.0,1
1679661731.39875007,479491671,0,3,477749399,2254,15,0.68,42.6887228,-84.4915729,263.47,0.14261838793754578,345.3791198730469,0.02800000086426735,0.0,1
1679661731.59865999,479691581,0,3,477749599,2254,15,0.68,42.6887231,-84.491573,263.49,0.19405412673950195,346.8947448730469,0.10600000619888306,0.0,1
1679661731.79875588,479891677,0,3,477749799,2254,15,0.68,42.6887234,-84.491573,263.48,0.15192104876041412,343.95098876953125,0.014000000432133675,0.0,1
1679661732.01985598,480112777,0,3,477749999,2254,15,0.68,42.6887237,-84.4915731,263.48,0.2213820368051529,342.3835144042969,0.009000000543892384,0.0,1
1679661732.19891000,480291831,0,3,477750199,2254,15,0.68,42.688724099999995,-84.4915733,263.48,0.18480801582336426,339.40765380859375,0.04700000211596489,0.0,1
1679661732.39891410,480491835,0,3,477750399,2254,15,0.68,42.6887244,-84.4915734,263.48,0.1850675642490387,345.2879638671875,0.0950000062584877,0.0,1
1679661732.59899092,480691912,0,3,477750599,2254,15,0.68,42.688724699999995,-84.4915735,263.48,0.25576552748680115,347.8113708496094,0.09100000560283661,0.0,1
1679661732.79859400,480891515,0,3,477750799,2254,15,0.68,42.6887252,-84.4915735,263.47,0.23621179163455963,357.57366943359375,0.04500000178813934,0.0,1
1679661732.99884510,481091766,0,3,477750999,2254,15,0.68,42.6887256,-84.4915735,263.46,0.2287903130054474,4.763641834259033,0.05400000140070915,0.0,1
1679661733.19886589,481291787,0,3,477751199,2254,15,0.68,42.688725999999996,-84.4915733,263.44,0.26576682925224304,28.300752639770508,0.015000000596046448,0.0,1
1679661733.39896393,481491885,0,3,477751399,2254,15,0.68,42.6887264,-84.4915729,263.45,0.29226189851760864,28.84514808654785,0.10600000619888306,0.0,1
1679661733.59874797,481691669,0,3,477751599,2254,15,0.68,42.6887268,-84.49157249999999,263.44,0.30463093519210815,29.9315128326416,0.023000001907348633,0.0,1
1679661733.79869604,481891617,0,3,477751799,2254,15,0.68,42.6887273,-84.4915722,263.42,0.31330814957618713,22.718334197998047,-0.03400000184774399,0.0,1
1679661733.99874306,482091664,0,3,477751999,2254,15,0.68,42.688727899999996,-84.4915719,263.44,0.3430481255054474,20.653785705566406,0.08800000697374344,0.0,1
1679661734.19872403,482291645,0,3,477752199,2254,15,0.68,42.688728499999996,-84.4915716,263.44,0.37916356325149536,18.769447326660156,0.036000002175569534,0.0,1
1679661734.39853191,482491453,0,3,477752399,2254,15,0.68,42.688729099999996,-84.49157129999999,263.45,0.3687302768230438,18.828052520751953,-0.08100000023841858,0.0,1
1679661734.59859705,482691518,0,3,477752599,2254,15,0.68,42.688729699999996,-84.4915709,263.48,0.4369279444217682,26.50640296936035,-0.020000001415610313,0.0,1
1679661734.79869103,482891612,0,3,477752799,2254,15,0.68,42.6887305,-84.4915705,263.49,0.5079094767570496,17.65012550354004,-0.023000001907348633,0.0,1
1679661734.99873710,483091658,0,3,477752999,2254,15,0.68,42.688731399999995,-84.49157009999999,263.49,0.537062406539917,19.582059860229492,-0.039000000804662704,0.0,1
1679661735.19865704,483291578,0,3,477753199,2254,15,0.68,42.6887323,-84.49156959999999,263.49,0.5348682403564453,26.660863876342773,-0.0010000000474974513,0.0,1
1679661735.39875889,483491680,0,3,477753399,2254,15,0.68,42.6887332,-84.491569,263.51,0.5517463088035583,20.142803192138672,0.026000000536441803,0.0,1
1679661735.59885287,483691774,0,3,477753599,2254,15,0.68,42.6887342,-84.4915685,263.52,0.65299391746521,23.463579177856445,-0.06700000166893005,0.0,1
1679661735.79888391,483891805,0,3,477753799,2254,15,0.68,42.688735199999996,-84.49156789999999,263.54,0.6272711157798767,19.850440979003906,-0.08400000631809235,0.0,1
1679661735.99893594,484091857,0,3,477753999,2254,15,0.68,42.688736299999995,-84.4915674,263.56,0.6403077840805054,16.793521881103516,0.058000002056360245,0.0,1
1679661736.21857190,484311493,0,3,477754199,2254,15,0.68,42.6887373,-84.4915669,263.56,0.5807762145996094,22.900650024414062,-0.009000000543892384,0.0,1
1679661736.39857793,484491499,0,3,477754399,2254,15,0.68,42.688738199999996,-84.4915663,263.56,0.4816606938838959,29.06615447998047,-0.03700000047683716,0.0,1
1679661736.59882593,484691747,0,3,477754599,2254,15,0.68,42.6887389,-84.4915657,263.57,0.47140005230903625,36.89420700073242,0.04100000113248825,0.0,1
1679661736.79893708,484891858,0,3,477754799,2254,15,0.68,42.6887395,-84.4915649,263.56,0.4428916573524475,48.75322341918945,0.007000000216066837,0.0,1
1679661736.99899507,485091916,0,3,477754999,2254,15,0.68,42.688739899999995,-84.49156409999999,263.56,0.3806231915950775,53.76234436035156,0.02800000086426735,0.0,1
1679661737.19853401,485291455,0,3,477755199,2254,15,0.68,42.6887403,-84.4915633,263.56,0.3739090859889984,62.612571716308594,-0.024000000208616257,0.0,1
1679661737.39868689,485491608,0,3,477755399,2254,15,0.68,42.6887404,-84.4915626,263.56,0.30907928943634033,78.61734771728516,0.013000000268220901,0.0,1
1679661737.59889388,485691815,0,3,477755599,2254,15,0.68,42.6887404,-84.4915618,263.56,0.30537354946136475,97.14828491210938,0.0,0.0,1
1679661737.79891586,485891837,0,3,477755799,2254,15,0.68,42.6887402,-84.49156099999999,263.56,0.38396355509757996,109.47313690185547,-0.03100000135600567,0.0,1
1679661737.99853492,486091456,0,3,477755999,2254,15,0.68,42.688739999999996,-84.4915601,263.57,0.3758005201816559,113.35873413085938,0.06700000166893005,0.0,1
1679661738.19856906,486291490,0,3,477756199,2254,15,0.68,42.6887396,-84.4915592,263.57,0.4287213683128357,125.50660705566406,0.0820000022649765,0.0,1
1679661738.39871097,486491632,0,3,477756399,2254,15,0.68,42.6887392,-84.4915584,263.58,0.3923175036907196,128.2720489501953,0.0020000000949949026,0.0,1
1679661738.59891796,486691839,0,3,477756599,2254,15,0.68,42.688738699999995,-84.4915578,263.58,0.31120413541793823,142.83551025390625,0.03200000151991844,0.0,1
1679661738.79892993,486891851,0,3,477756799,2254,15,0.68,42.688738199999996,-84.4915575,263.57,0.24556873738765717,167.77487182617188,0.014000000432133675,0.0,1
1679661738.99871802,487091639,0,3,477756999,2254,15,0.68,42.6887377,-84.49155739999999,263.57,0.2824924886226654,185.89222717285156,0.03500000014901161,0.0,1
1679661739.19880509,487291726,0,3,477757199,2254,15,0.68,42.6887371,-84.4915576,263.56,0.3600499927997589,203.57472229003906,0.07100000232458115,0.0,1
1679661739.39885306,487491774,0,3,477757399,2254,15,0.68,42.6887365,-84.49155789999999,263.55,0.4061329960823059,197.1857147216797,0.07400000095367432,0.0,1
1679661739.59887099,487691792,0,3,477757599,2254,15,0.68,42.688735699999995,-84.4915582,263.55,0.5049277544021606,200.15760803222656,0.12700000405311584,0.0,1
1679661739.79853201,487891453,0,3,477757799,2254,15,0.68,42.6887348,-84.49155859999999,263.54,0.4636992812156677,202.30621337890625,0.052000001072883606,0.0,1
1679661739.99878693,488091708,0,3,477757999,2254,15,0.68,42.688734,-84.49155909999999,263.54,0.5356165170669556,202.73507690429688,0.11700000613927841,0.0,1
1679661740.19888401,488291805,0,3,477758199,2254,15,0.68,42.688733,-84.4915597,263.53000000000003,0.6100786924362183,205.64100646972656,0.026000000536441803,0.0,1
1679661740.39892697,488491848,0,3,477758399,2254,15,0.68,42.6887319,-84.4915604,263.54,0.6498200297355652,206.99880981445312,0.07700000703334808,0.0,1
1679661740.59899497,488691916,0,3,477758599,2254,15,0.68,42.688730799999995,-84.49156119999999,263.53000000000003,0.7390351891517639,210.312255859375,0.02200000174343586,0.0,1
1679661740.79853487,488891456,0,3,477758799,2254,15,0.68,42.6887295,-84.4915621,263.54,0.7755056619644165,206.00335693359375,-0.018000001087784767,0.0,1
1679661740.99870586,489091627,0,3,477758999,2254,15,0.68,42.6887282,-84.491563,263.55,0.847023069858551,206.5045623779297,0.015000000596046448,0.0,1
1679661741.19889688,489291818,0,3,477759199,2254,15,0.68,42.6887267,-84.4915639,263.55,0.8716524839401245,206.06532287597656,0.0430000014603138,0.0,1
1679661741.41972589,489512647,0,3,477759399,2254,15,0.68,42.6887252,-84.4915649,263.57,0.9212600588798523,206.56504821777344,-0.020000001415610313,0.0,1
1679661741.61889291,489711814,0,3,477759599,2254,15,0.68,42.6887238,-84.49156599999999,263.58,0.8978981971740723,212.7697296142578,-0.03500000014901161,0.0,1
1679661741.79858994,489891511,0,3,477759799,2254,15,0.68,42.688722399999996,-84.49156719999999,263.59000000000003,0.9140552878379822,215.5158233642578,-0.009000000543892384,0.0,1
1679661741.99888897,490091810,0,3,477759999,2254,15,0.68,42.688721099999995,-84.4915686,263.61,0.8835638165473938,223.30319213867188,-0.032999999821186066,0.0,1
1679661742.19891310,490291834,0,3,477760199,2254,15,0.68,42.688719899999995,-84.49157,263.62,0.8185902833938599,221.92999267578125,-0.06400000303983688,0.0,1
1679661742.39885902,490491780,0,3,477760399,2254,15,0.68,42.6887189,-84.49157129999999,263.62,0.7228146195411682,229.5448760986328,-0.01600000075995922,0.0,1
1679661742.59870505,490691626,0,3,477760599,2254,15,0.68,42.688718099999996,-84.4915726,263.63,0.6194779872894287,237.5926513671875,-0.0430000014603138,0.0,1
1679661742.79904008,490891961,0,3,477760799,2254,15,0.68,42.6887176,-84.49157389999999,263.64,0.5250838398933411,244.26455688476562,-0.0820000022649765,0.0,1
1679661742.99890089,491091822,0,3,477760999,2254,15,0.68,42.6887173,-84.491575,263.65,0.49204984307289124,262.6439208984375,-0.03700000047683716,0.0,1
1679661743.19874096,491291662,0,3,477761199,2254,15,0.68,42.6887172,-84.4915761,263.66,0.41687527298927307,266.2864990234375,-0.0560000017285347,0.0,1
1679661743.39885688,491491778,0,3,477761399,2254,15,0.68,42.6887172,-84.49157699999999,263.67,0.3896216154098511,277.81817626953125,0.02500000037252903,0.0,1
1679661743.59877396,491691695,0,3,477761599,2254,15,0.68,42.6887172,-84.4915779,263.67,0.3621947467327118,277.61553955078125,-0.01600000075995922,0.0,1
1679661743.79890990,491891831,0,3,477761799,2254,15,0.68,42.6887173,-84.49157869999999,263.66,0.26315397024154663,271.9599304199219,0.09600000083446503,0.0,1
1679661743.99874306,492091664,0,3,477761999,2254,15,0.68,42.6887172,-84.49157919999999,263.65,0.21784627437591553,247.31944274902344,0.0820000022649765,0.0,1
1679661744.19865704,492291578,0,3,477762199,2254,15,0.68,42.688717,-84.4915796,263.64,0.13929107785224915,240.30615234375,0.036000002175569534,0.0,1
1679661744.39875388,492491675,0,3,477762399,2254,15,0.68,42.688716899999996,-84.4915797,263.63,0.04560701921582222,164.744873046875,0.08700000494718552,0.0,1
1679661744.59867096,492691592,0,3,477762599,2254,15,0.68,42.688717,-84.4915795,263.61,0.0990353524684906,43.36342239379883,0.10700000822544098,0.0,1
1679661744.79874206,492891663,0,3,477762799,2254,15,0.68,42.6887172,-84.49157919999999,263.59000000000003,0.2193855196237564,33.47276306152344,0.05300000309944153,0.0,1
1679661744.99872398,493091645,0,3,477762999,2254,15,0.68,42.688717499999996,-84.4915788,263.57,0.2352743148803711,41.208831787109375,0.1850000023841858,0.0,1
1679661745.19859004,493291511,0,3,477763199,2254,15,0.68,42.6887178,-84.4915784,263.56,0.2715768814086914,34.80189514160156,0.1550000011920929,0.0,1
1679661745.39856291,493491484,0,3,477763399,2254,15,0.68,42.6887182,-84.49157799999999,263.55,0.216379314661026,44.625518798828125,0.13700000941753387,0.0,1
1679661745.59884405,493691765,0,3,477763599,2254,15,0.68,42.6887185,-84.4915776,263.53000000000003,0.2292117029428482,43.23217010498047,0.09800000488758087,0.0,1
1679661745.79889488,493891816,0,3,477763799,2254,15,0.68,42.6887188,-84.4915772,263.52,0.2121744602918625,46.1457633972168,0.11700000613927841,0.0,1
1679661745.99881887,494091740,0,3,477763999,2254,15,0.68,42.6887191,-84.4915767,263.51,0.2736000716686249,36.8280143737793,0.13199999928474426,0.0,1
1679661746.21866989,494311591,0,3,477764199,2254,15,0.68,42.6887195,-84.4915762,263.5,0.3295239210128784,44.508201599121094,0.11500000208616257,0.0,1
1679661746.39885092,494491772,0,3,477764399,2254,15,0.68,42.688719999999996,-84.4915757,263.5,0.3210483193397522,30.718900680541992,0.04100000113248825,0.0,1
1679661746.59891701,494691838,0,3,477764599,2254,15,0.68,42.6887204,-84.4915753,263.51,0.29651644825935364,32.88615798950195,0.04400000348687172,0.0,1
1679661746.79893303,494891854,0,3,477764799,2254,15,0.68,42.6887209,-84.4915748,263.51,0.31040942668914795,34.765193939208984,-0.009000000543892384,0.0,1
1679661746.99885702,495091778,0,3,477764999,2254,15,0.68,42.6887213,-84.49157439999999,263.51,0.2742006778717041,36.99526596069336,-0.06599999964237213,0.0,1
1679661747.19857907,495291500,0,3,477765199,2254,15,0.68,42.688721699999995,-84.49157389999999,263.54,0.3818075656890869,37.23005294799805,-0.04700000211596489,0.0,1
1679661747.39868808,495491609,0,3,477765399,2254,15,0.68,42.688722299999995,-84.4915734,263.55,0.3448159098625183,34.84227752685547,0.0430000014603138,0.0,1
1679661747.59873605,495691657,0,3,477765599,2254,15,0.68,42.6887228,-84.4915728,263.56,0.4038861393928528,34.713096618652344,0.03800000250339508,0.0,1
1679661747.79894400,495891865,0,3,477765799,2254,15,0.68,42.6887234,-84.4915722,263.56,0.44354933500289917,39.14398193359375,-0.04500000178813934,0.0,1
1679661747.99854398,496091465,0,3,477765999,2254,14,0.68,42.688724,-84.49157149999999,263.58,0.49127793312072754,39.88023376464844,-0.04100000113248825,0.0,1
1679661748.19866991,496291591,0,3,477766199,2254,15,0.68,42.688724699999995,-84.4915707,263.6,0.4974032938480377,36.66255569458008,0.004000000189989805,0.0,1
1679661748.39873099,496491652,0,3,477766399,2254,15,0.68,42.6887253,-84.49157009999999,263.62,0.393686443567276,32.236785888671875,-0.11500000208616257,0.0,1
1679661748.59872508,496691646,0,3,477766599,2254,15,0.68,42.6887259,-84.4915697,263.65,0.3715696632862091,14.33543586730957,-0.11500000208616257,0.0,1
1679661748.79852390,496891445,0,3,477766799,2254,15,0.68,42.6887265,-84.49156959999999,263.66,0.339328795671463,354.9278564453125,-0.0820000022649765,0.0,1
1679661748.99873900,497091660,0,3,477766999,2254,15,0.68,42.6887271,-84.4915697,263.69,0.3005628287792206,347.11968994140625,-0.10300000756978989,0.0,1
1679661749.19881892,497291740,0,3,477767199,2254,15,0.68,42.6887276,-84.4915699,263.71,0.3037976324558258,353.7639465332031,-0.07200000435113907,0.0,1
1679661749.39896488,497491886,0,3,477767399,2254,15,0.68,42.6887281,-84.4915699,263.73,0.32856810092926025,352.83172607421875,0.02200000174343586,0.0,1
1679661749.59894705,497691868,0,3,477767599,2254,15,0.68,42.6887287,-84.4915699,263.74,0.36590301990509033,7.222127914428711,0.0,0.0,1
1679661749.79876304,497891684,0,3,477767799,2254,15,0.68,42.6887294,-84.4915697,263.75,0.3755422830581665,5.194428443908691,-0.027000000700354576,0.0,1
1679661749.99886990,498091791,0,3,477767999,2254,15,0.68,42.6887301,-84.4915695,263.75,0.42715921998023987,13.125313758850098,0.018000001087784767,0.0,1
1679661750.19887900,498291800,0,3,477768199,2254,15,0.68,42.688730799999995,-84.4915693,263.75,0.3473327159881592,7.9434709548950195,0.0,0.0,1
1679661750.39892793,498491849,0,3,477768399,2254,15,0.68,42.6887313,-84.4915692,263.76,0.2830159068107605,0.6073529124259949,0.05300000309944153,0.0,1
1679661750.59856701,498691488,0,3,477768599,2254,15,0.68,42.6887317,-84.4915692,263.74,0.2148418128490448,354.9263000488281,0.018000001087784767,0.0,1
1679661750.79859805,498891519,0,3,477768799,2254,14,0.68,42.688731999999995,-84.4915692,263.73,0.17831432819366455,336.88580322265625,0.05300000309944153,0.0,1
1679661750.99870110,499091622,0,3,477768999,2254,14,0.68,42.6887324,-84.4915693,263.73,0.23873835802078247,344.4501953125,0.03500000014901161,0.0,1
1679661751.19871688,499291638,0,3,477769199,2254,14,0.68,42.6887328,-84.4915695,263.72,0.2207849770784378,342.8782043457031,0.052000001072883606,0.0,1
1679661751.39899302,499491914,0,3,477769399,2254,14,0.68,42.6887332,-84.4915695,263.7,0.27872925996780396,353.6144104003906,0.08100000023841858,0.0,1
1679661751.59854388,499691465,0,3,477769599,2254,14,0.72,42.6887337,-84.49156959999999,263.68,0.3026714622974396,351.0667419433594,0.0560000017285347,0.0,1
1679661751.79868603,499891607,0,3,477769799,2254,14,0.72,42.6887342,-84.4915697,263.68,0.3265593647956848,349.4126892089844,0.05400000140070915,0.0,1
1679661751.99872208,500091643,0,3,477769999,2254,14,0.72,42.6887348,-84.4915698,263.68,0.35691037774086,350.4848937988281,0.13300000131130219,0.0,1
1679661752.19872093,500291642,0,3,477770199,2254,14,0.72,42.6887353,-84.49157,263.67,0.3495153784751892,346.59991455078125,-0.00800000037997961,0.0,1
1679661752.39886093,500491782,0,3,477770399,2254,14,0.72,42.6887359,-84.49157009999999,263.67,0.3607228994369507,349.7803955078125,0.11500000208616257,0.0,1
1679661752.59856296,500691484,0,3,477770599,2254,14,0.72,42.6887365,-84.49157029999999,263.65,0.34830018877983093,345.36529541015625,0.0560000017285347,0.0,1
1679661752.79883099,500891752,0,3,477770799,2254,15,0.72,42.6887371,-84.4915705,263.66,0.3191567063331604,342.8708801269531,0.07900000363588333,0.0,1
1679661752.99887395,501091795,0,3,477770999,2254,15,0.72,42.688737599999996,-84.4915707,263.65,0.32540592551231384,341.17529296875,0.003000000026077032,0.0,1
1679661753.19896293,501291884,0,3,477771199,2254,15,0.72,42.688738099999995,-84.491571,263.66,0.33253270387649536,335.6701354980469,-0.06800000369548798,0.0,1
1679661753.39876604,501491687,0,3,477771399,2254,15,0.72,42.6887386,-84.49157129999999,263.7,0.3293584883213043,339.7493591308594,-0.10700000822544098,0.0,1
1679661753.59895587,501691877,0,3,477771599,2254,14,0.72,42.6887391,-84.4915716,263.72,0.3569776117801666,334.79888916015625,-0.19600000977516174,0.0,1
1679661753.79889107,501891812,0,3,477771799,2254,14,0.72,42.6887397,-84.49157199999999,263.75,0.35121646523475647,323.6847839355469,-0.1420000046491623,0.0,1
1679661753.99891996,502091841,0,3,477771999,2254,14,0.72,42.6887402,-84.49157249999999,263.81,0.3796063959598541,323.462158203125,-0.12800000607967377,0.0,1
1679661754.19885087,502291772,0,3,477772199,2254,14,0.72,42.6887407,-84.4915731,263.84000000000003,0.40107980370521545,321.9871826171875,-0.164000004529953,0.0,1
1679661754.39861393,502491535,0,3,477772399,2254,14,0.72,42.688741199999996,-84.49157369999999,263.88,0.3710862696170807,308.1051940917969,-0.2370000183582306,0.0,1
1679661754.59869599,502691617,0,3,477772599,2254,14,0.72,42.6887416,-84.49157439999999,263.93,0.4336646497249603,310.0423889160156,-0.13100001215934753,0.0,1
1679661754.79873109,502891652,0,3,477772799,2254,14,0.72,42.6887421,-84.4915754,263.94,0.48847928643226624,305.837646484375,-0.23500001430511475,0.0,1
1679661754.99866986,503091591,0,3,477772999,2254,14,0.72,42.6887425,-84.4915764,264.0,0.488111674785614,286.9128723144531,-0.2670000195503235,0.0,1
1679661755.19876194,503291683,0,3,477773199,2254,14,0.72,42.6887428,-84.4915776,264.05,0.5187726616859436,296.81201171875,-0.12300000339746475,0.0,1
1679661755.39869809,503491619,0,3,477773399,2254,14,0.72,42.6887432,-84.4915789,264.08,0.6368830800056458,288.4918518066406,-0.13500000536441803,0.0,1
1679661755.59872198,503691643,0,3,477773599,2254,14,0.72,42.6887435,-84.4915805,264.11,0.7042648792266846,287.9461364746094,-0.10700000822544098,0.0,1
1679661755.79873204,503891653,0,3,477773799,2254,14,0.72,42.6887438,-84.49158229999999,264.14,0.7896157503128052,277.4220275878906,-0.1380000114440918,0.0,1
1679661755.99853802,504091459,0,3,477773999,2254,14,0.72,42.6887439,-84.49158419999999,264.18,0.798972487449646,276.3956298828125,-0.1900000125169754,0.0,1
1679661756.19857907,504291500,0,3,477774199,2254,14,0.72,42.6887441,-84.4915862,264.21,0.8641603589057922,276.84539794921875,-0.09000000357627869,0.0,1
1679661756.39883590,504491757,0,3,477774399,2254,14,0.72,42.688744299999996,-84.4915884,264.21,0.9071063995361328,277.66558837890625,-0.052000001072883606,0.0,1
1679661756.59888506,504691806,0,3,477774599,2254,14,0.72,42.6887445,-84.4915906,264.22,0.8804028034210205,274.2340087890625,0.02500000037252903,0.0,1
1679661756.79880190,504891723,0,3,477774799,2254,14,0.72,42.6887446,-84.49159259999999,264.22,0.7976046204566956,281.3522033691406,0.04000000283122063,0.0,1
1679661756.99871087,505091632,0,3,477774999,2254,14,0.72,42.688744899999996,-84.4915944,264.21,0.7389736175537109,279.424072265625,-0.005000000353902578,0.0,1
1679661757.19902301,505291944,0,3,477775199,2254,14,0.72,42.688745,-84.49159619999999,264.2,0.7498053312301636,273.97674560546875,-0.015000000596046448,0.0,1
1679661757.39890790,505491829,0,3,477775399,2254,14,0.72,42.6887451,-84.49159809999999,264.2,0.821575403213501,274.53778076171875,0.07100000232458115,0.0,1
1679661757.59893107,505691852,0,3,477775599,2254,14,0.72,42.6887453,-84.4916002,264.18,0.8761330246925354,275.56744384765625,0.12700000405311584,0.0,1
1679661757.79899192,505891913,0,3,477775799,2254,14,0.72,42.688745399999995,-84.49160239999999,264.18,0.930776059627533,272.3398132324219,0.0560000017285347,0.0,1
1679661757.99860191,506091523,0,3,477775999,2254,14,0.72,42.688745399999995,-84.4916047,264.19,0.9767011404037476,267.8289794921875,0.13199999928474426,0.0,1
1679661758.21994209,506312863,0,3,477776199,2254,14,0.72,42.688745399999995,-84.491607,264.16,0.9671427011489868,272.7854919433594,0.01600000075995922,0.0,1
1679661758.39874887,506491670,0,3,477776399,2254,14,0.72,42.688745399999995,-84.4916094,264.16,1.0221331119537354,266.29779052734375,-0.0020000000949949026,0.0,1
1679661758.59896708,506691888,0,3,477776599,2254,14,0.72,42.6887453,-84.4916119,264.16,1.0107526779174805,267.7886962890625,-0.015000000596046448,0.0,1
1679661758.79853606,506891457,0,3,477776799,2254,14,0.72,42.6887453,-84.4916143,264.17,1.0198652744293213,267.6398010253906,-0.07400000095367432,0.0,1
1679661758.99869299,507091614,0,3,477776999,2254,14,0.72,42.6887452,-84.4916168,264.19,1.0278180837631226,267.7138671875,-0.20200000703334808,0.0,1
1679661759.19871902,507291640,0,3,477777199,2254,14,0.72,42.6887451,-84.49161939999999,264.23,1.0611729621887207,265.56817626953125,-0.16700001060962677,0.0,1
1679661759.39872789,507491649,0,3,477777399,2254,14,0.72,42.688744899999996,-84.49162179999999,264.27,0.9885530471801758,265.88134765625,-0.1469999998807907,0.0,1
1679661759.59853792,507691459,0,3,477777599,2254,15,0.68,42.688744799999995,-84.49162419999999,264.32,0.9750375151634216,266.2953796386719,-0.30100002884864807,0.0,1
1679661759.79872298,507891644,0,3,477777799,2254,14,0.68,42.6887447,-84.49162659999999,264.37,0.9543018937110901,268.55889892578125,-0.2970000207424164,0.0,1
1679661759.99886608,508091787,0,3,477777999,2254,14,0.68,42.6887446,-84.4916289,264.43,1.0070253610610962,265.55767822265625,-0.24900001287460327,0.0,1
1679661760.19888401,508291805,0,3,477778199,2254,15,0.68,42.6887445,-84.4916315,264.49,1.0830166339874268,263.957763671875,-0.21000000834465027,0.0,1
1679661760.39894605,508491867,0,3,477778399,2254,15,0.68,42.688744299999996,-84.4916342,264.56,1.163732886314392,263.83380126953125,-0.39400002360343933,0.0,1
1679661760.59875607,508691677,0,3,477778599,2254,15,0.68,42.688744,-84.491637,264.62,1.220272183418274,262.56048583984375,-0.18800000846385956,0.0,1
1679661760.79886389,508891785,0,3,477778799,2254,15,0.68,42.688743699999996,-84.4916399,264.65,1.17775559425354,260.61767578125,-0.19200000166893005,0.0,1
1679661760.99891400,509091835,0,3,477778999,2254,15,0.68,42.6887432,-84.4916429,264.71,1.3048268556594849,259.2670593261719,-0.18800000846385956,0.0,1
1679661761.19912505,509292046,0,3,477779199,2254,15,0.68,42.6887428,-84.4916459,264.75,1.2210962772369385,259.334228515625,-0.19200000166893005,0.0,1
1679661761.39852691,509491448,0,3,477779399,2254,15,0.68,42.6887425,-84.4916488,264.79,1.1309540271759033,261.6621398925781,-0.1380000114440918,0.0,1
1679661761.59858799,509691509,0,3,477779599,2254,15,0.68,42.6887421,-84.4916515,264.82,1.136909008026123,259.8168640136719,-0.10000000149011612,0.0,1
1679661761.79870892,509891630,0,3,477779799,2254,15,0.68,42.6887417,-84.4916542,264.83,1.1034492254257202,260.4010925292969,-0.058000002056360245,0.0,1
1679661761.99877310,510091694,0,3,477779999,2254,15,0.68,42.6887414,-84.4916569,264.84000000000003,1.1254589557647705,259.608642578125,0.023000001907348633,0.0,1
1679661762.19896507,510291886,0,3,477780199,2254,15,0.68,42.688741,-84.49165959999999,264.81,1.1686592102050781,259.7477722167969,0.052000001072883606,0.0,1
1679661762.39854407,510491465,0,3,477780399,2254,15,0.68,42.688740599999996,-84.4916624,264.8,1.115143895149231,259.0931396484375,0.1550000011920929,0.0,1
1679661762.59869599,510691617,0,3,477780599,2254,15,0.68,42.6887402,-84.49166509999999,264.77,1.1204004287719727,260.1845703125,0.2070000171661377,0.0,1
1679661762.79872394,510891645,0,3,477780799,2254,15,0.68,42.688739899999995,-84.4916676,264.73,0.9877652525901794,261.14801025390625,0.15300001204013824,0.0,1
1679661762.99873400,511091655,0,3,477780999,2254,15,0.68,42.6887396,-84.49166989999999,264.73,0.9272497296333313,261.06591796875,0.1120000034570694,0.0,1
1679661763.19853091,511291452,0,3,477781199,2254,15,0.68,42.688739399999996,-84.4916722,264.73,0.9201592803001404,266.0740966796875,0.07000000029802322,0.0,1
1679661763.39858699,511491508,0,3,477781399,2254,15,0.68,42.688739299999995,-84.4916743,264.73,0.8426464796066284,267.7555847167969,-0.027000000700354576,0.0,1
1679661763.59884691,511691768,0,3,477781599,2254,15,0.68,42.6887392,-84.4916763,264.74,0.8000006675720215,267.134033203125,-0.0820000022649765,0.0,1
1679661763.79887295,511891794,0,3,477781799,2254,15,0.68,42.6887391,-84.49167829999999,264.78000000000003,0.7770643830299377,269.26263427734375,-0.16200000047683716,0.0,1
1679661763.99912786,512092049,0,3,477781999,2254,15,0.68,42.6887392,-84.4916801,264.82,0.7408064007759094,275.8106384277344,-0.21400001645088196,0.0,1
1679661764.19875598,512291677,0,3,477782199,2254,15,0.68,42.688739299999995,-84.4916819,264.86,0.6820095777511597,275.38458251953125,-0.17400000989437103,0.0,1
1679661764.39886308,512491784,0,3,477782399,2254,15,0.68,42.6887395,-84.4916835,264.9,0.6583168506622314,286.865966796875,-0.22800001502037048,0.0,1
1679661764.59889007,512691811,0,3,477782599,2254,15,0.68,42.6887397,-84.4916849,264.96,0.529759407043457,282.0947570800781,-0.20800000429153442,0.0,1
1679661764.79892993,512891851,0,3,477782799,2254,15,0.68,42.688739899999995,-84.49168619999999,265.0,0.4991242587566376,280.97222900390625,-0.20400001108646393,0.0,1
1679661764.99858189,513091503,0,3,477782999,2254,15,0.68,42.6887401,-84.49168739999999,265.05,0.477956086397171,293.29302978515625,-0.2330000102519989,0.0,1
1679661765.19859099,513291512,0,3,477783199,2254,15,0.68,42.6887403,-84.4916885,265.08,0.4332297444343567,283.07391357421875,-0.21300001442432404,0.0,1
1679661765.39870310,513491624,0,3,477783399,2254,15,0.68,42.6887405,-84.4916896,265.12,0.4464101195335388,280.4541015625,-0.08400000631809235,0.0,1
1679661765.59892702,513691848,0,3,477783599,2254,15,0.68,42.688740599999996,-84.4916906,265.16,0.4067284166812897,287.4548645019531,-0.11400000751018524,0.0,1
1679661765.79867101,513891592,0,3,477783799,2254,15,0.68,42.6887408,-84.4916915,265.16,0.355584055185318,290.0657043457031,-0.10400000214576721,0.0,1
1679661765.99854398,514091465,0,3,477783999,2254,15,0.68,42.688741,-84.4916923,265.19,0.29396939277648926,294.73431396484375,-0.036000002175569534,0.0,1
1679661766.21899104,514311912,0,3,477784199,2254,15,0.68,42.688741199999996,-84.491693,265.19,0.3109244406223297,304.2522888183594,0.027000000700354576,0.0,1
1679661766.39890504,514491826,0,3,477784399,2254,15,0.68,42.6887415,-84.49169359999999,265.2,0.2578565776348114,308.06988525390625,-0.007000000216066837,0.0,1
1679661766.59873295,514691654,0,3,477784599,2254,15,0.68,42.688741799999995,-84.49169409999999,265.2,0.24403484165668488,316.49432373046875,0.049000002443790436,0.0,1
1679661766.79878807,514891709,0,3,477784799,2254,15,0.68,42.6887421,-84.4916945,265.19,0.22366046905517578,324.4623107910156,0.06800000369548798,0.0,1
1679661766.99873495,515091656,0,3,477784999,2254,15,0.68,42.688742399999995,-84.4916947,265.17,0.20941825211048126,331.4768981933594,0.0860000029206276,0.0,1
1679661767.19881797,515291739,0,3,477785199,2254,15,0.68,42.6887427,-84.4916949,265.16,0.18848077952861786,344.9315185546875,0.1080000028014183,0.0,1
1679661767.39894199,515491863,0,3,477785399,2254,15,0.68,42.688742999999995,-84.49169499999999,265.14,0.2213255763053894,356.8919677734375,0.03800000250339508,0.0,1
1679661767.59901190,515691933,0,3,477785599,2254,15,0.68,42.6887434,-84.49169499999999,265.12,0.23635779321193695,3.1529366970062256,0.13600000739097595,0.0,1
1679661767.79877901,515891700,0,3,477785799,2254,15,0.68,42.6887438,-84.4916949,265.1,0.26914122700691223,19.310136795043945,0.15200001001358032,0.0,1
1679661768.01872087,516111642,0,3,477785999,2254,15,0.68,42.688744299999996,-84.4916947,265.09000000000003,0.30836668610572815,24.320934295654297,0.03500000014901161,0.0,1
1679661768.19871593,516291637,0,3,477786199,2254,15,0.68,42.688744799999995,-84.4916944,265.09000000000003,0.28622543811798096,26.117435455322266,-0.05700000375509262,0.0,1
1679661768.39873910,516491660,0,3,477786399,2254,15,0.68,42.688744799999995,-84.4916946,265.09000000000003,0.3035275936126709,234.79150390625,0.10600000619888306,0.0,1
1679661768.59858704,516691508,0,3,477786599,2254,15,0.68,42.688744199999995,-84.4916959,265.11,0.8742888569831848,237.09152221679688,-0.3360000252723694,0.0,1
1679661768.79859805,516891519,0,3,477786799,2254,15,0.68,42.688742999999995,-84.4916983,265.16,1.4652140140533447,233.38037109375,-0.11600000411272049,0.0,1
1679661768.99890995,517091831,0,3,477786999,2254,15,0.68,42.6887413,-84.4917012,265.18,1.5506805181503296,232.54629516601562,-0.07300000637769699,0.0,1
1679661769.19874191,517291663,0,3,477787199,2254,15,0.68,42.6887396,-84.4917042,265.21,1.494706153869629,232.44776916503906,0.004000000189989805,0.0,1
1679661769.39867687,517491598,0,3,477787399,2254,15,0.68,42.688738099999995,-84.49170699999999,265.21,1.3548730611801147,234.28042602539062,0.06700000166893005,0.0,1
1679661769.59856796,517691489,0,3,477787599,2254,15,0.68,42.6887366,-84.4917095,265.19,1.2213209867477417,231.81642150878906,0.017000000923871994,0.0,1
1679661769.79887509,517891796,0,3,477787799,2254,15,0.68,42.688735199999996,-84.4917119,265.19,1.3169001340866089,229.7432098388672,0.05000000074505806,0.0,1
1679661769.99887896,518091800,0,3,477787999,2254,15,0.68,42.688733299999996,-84.4917148,265.2,1.7495194673538208,228.3365478515625,0.023000001907348633,0.0,1
1679661770.19887209,518291793,0,3,477788199,2254,15,0.68,42.6887311,-84.4917186,265.19,2.176405429840088,234.23585510253906,-0.16200000047683716,0.0,1
1679661770.39887905,518491800,0,3,477788399,2254,15,0.68,42.688728399999995,-84.4917234,265.22,2.728872537612915,231.68121337890625,-0.2330000102519989,0.0,1
1679661770.59882998,518691751,0,3,477788599,2254,15,0.68,42.688725399999996,-84.4917286,265.26,2.652921676635742,232.58152770996094,-0.07800000160932541,0.0,1
1679661770.79871106,518891632,0,3,477788799,2254,15,0.68,42.6887225,-84.49173359999999,265.28000000000003,2.508950710296631,231.11550903320312,-0.046000003814697266,0.0,1
1679661770.99875903,519091680,0,3,477788999,2254,15,0.68,42.6887198,-84.4917383,265.27,2.3374528884887695,232.00247192382812,0.07900000363588333,0.0,1
1679661771.19896007,519291881,0,3,477789199,2254,15,0.68,42.6887173,-84.4917427,265.24,2.2400894165039062,232.61856079101562,0.2770000100135803,0.0,1
1679661771.39877605,519491697,0,3,477789399,2254,15,0.68,42.6887148,-84.49174699999999,265.17,2.1441233158111572,233.74472045898438,0.24000000953674316,0.0,1
1679661771.59867096,519691592,0,3,477789599,2254,15,0.68,42.688712599999995,-84.4917512,265.14,2.0324695110321045,233.60369873046875,0.22500000894069672,0.0,1
1679661771.79871488,519891636,0,3,477789799,2254,15,0.68,42.6887104,-84.49175509999999,265.11,1.9084752798080444,234.1028594970703,0.23400001227855682,0.0,1
1679661771.99873209,520091653,0,3,477789999,2254,15,0.68,42.688708399999996,-84.4917589,265.06,1.8423032760620117,235.593994140625,0.16900001466274261,0.0,1
1679661772.19884706,520291768,0,3,477790199,2254,15,0.68,42.688706499999995,-84.4917626,265.02,1.7906159162521362,234.01968383789062,0.2590000033378601,0.0,1
1679661772.39859891,520491520,0,3,477790399,2254,15,0.68,42.6887045,-84.49176609999999,265.0,1.6960549354553223,232.13687133789062,0.1550000011920929,0.0,1
1679661772.59886098,520691782,0,3,477790599,2254,15,0.68,42.6887026,-84.4917694,264.97,1.7152708768844604,231.10543823242188,0.09400000423192978,0.0,1
1679661772.79890609,520891827,0,3,477790799,2254,15,0.68,42.6887006,-84.4917727,264.95,1.7284241914749146,229.7402801513672,0.2150000035762787,0.0,1
1679661772.99920106,521092122,0,3,477790999,2254,15,0.68,42.6886984,-84.49177569999999,264.92,1.6658324003219604,223.46762084960938,0.22200001776218414,0.0,1
1679661773.19853997,521291461,0,3,477791199,2254,15,0.68,42.688696199999995,-84.49177859999999,264.85,1.6599713563919067,223.7551727294922,0.21800000965595245,0.0,1
1679661773.39870000,521491621,0,3,477791399,2254,15,0.68,42.688694,-84.4917815,264.79,1.697973370552063,222.49388122558594,0.3320000171661377,0.0,1
1679661773.59871101,521691632,0,3,477791599,2254,15,0.68,42.6886917,-84.4917842,264.72,1.5773662328720093,218.87538146972656,0.5200000405311584,0.0,1
1679661773.79873800,521891659,0,3,477791799,2254,15,0.68,42.6886894,-84.4917864,264.65,1.4871785640716553,212.08706665039062,0.2800000011920929,0.0,1
1679661774.01860309,522111524,0,3,477791999,2254,15,0.68,42.688687,-84.4917881,264.6,1.4924322366714478,203.07762145996094,0.17400000989437103,0.0,1
1679661774.19860196,522291523,0,3,477792199,2254,15,0.68,42.6886848,-84.4917895,264.57,1.234827995300293,204.90478515625,0.2410000115633011,0.0,1
1679661774.39890194,522491823,0,3,477792399,2254,15,0.68,42.6886827,-84.49179079999999,264.51,1.2445224523544312,203.18650817871094,0.23600001633167267,0.0,1
1679661774.59904695,522691968,0,3,477792599,2254,15,0.68,42.6886807,-84.49179199999999,264.46,1.0781781673431396,202.23561096191406,0.22100001573562622,0.0,1
1679661774.79899287,522891914,0,3,477792799,2254,15,0.68,42.688679,-84.4917929,264.42,0.9212237000465393,197.8252410888672,0.28200000524520874,0.0,1
1679661774.99912596,523092047,0,3,477792999,2254,15,0.68,42.688677399999996,-84.49179339999999,264.38,0.937107264995575,187.54212951660156,0.25200000405311584,0.0,1
1679661775.19868588,523291607,0,3,477793199,2254,15,0.68,42.6886757,-84.4917936,264.33,0.8460147976875305,180.33863830566406,0.07700000703334808,0.0,1
1679661775.39871001,523491631,0,3,477793399,2254,15,0.68,42.6886742,-84.4917935,264.31,0.7962412238121033,168.40780639648438,0.13700000941753387,0.0,1
1679661775.59872293,523691644,0,3,477793599,2254,15,0.68,42.688673,-84.491793,264.29,0.6142523884773254,156.89938354492188,0.09300000220537186,0.0,1
1679661775.79852700,523891448,0,3,477793799,2254,15,0.68,42.6886722,-84.4917925,264.28000000000003,0.4145021140575409,141.85829162597656,0.055000003427267075,0.0,1
1679661775.99858999,524091511,0,3,477793999,2254,15,0.68,42.6886716,-84.4917918,264.29,0.44902676343917847,135.45114135742188,-0.03100000135600567,0.0,1
1679661776.21911788,524312039,0,3,477794199,2254,15,0.68,42.688671199999995,-84.49179099999999,264.33,0.3808726966381073,109.95738983154297,-0.23600001633167267,0.0,1
1679661776.39895105,524491872,0,3,477794399,2254,15,0.68,42.6886709,-84.4917902,264.37,0.3971461057662964,115.98436737060547,-0.18300001323223114,0.0,1
1679661776.59900188,524691923,0,3,477794599,2254,15,0.68,42.688670599999995,-84.4917894,264.4,0.3816084563732147,111.52259063720703,-0.2200000137090683,0.0,1
1679661776.79854894,524891470,0,3,477794799,2254,15,0.68,42.6886703,-84.4917885,264.46,0.39812061190605164,101.5921630859375,-0.2980000078678131,0.0,1
1679661776.99882197,525091743,0,3,477794999,2254,15,0.68,42.6886702,-84.4917876,264.5,0.38190314173698425,97.06918334960938,-0.1850000023841858,0.0,1
1679661777.19906998,525291991,0,3,477795199,2254,15,0.68,42.6886702,-84.4917866,264.57,0.45720019936561584,83.2169418334961,-0.3230000138282776,0.0,1
1679661777.39892507,525491846,0,3,477795399,2254,15,0.68,42.6886703,-84.4917854,264.63,0.5300717353820801,81.319580078125,-0.23600001633167267,0.0,1
1679661777.59858489,525691506,0,3,477795599,2254,15,0.68,42.6886705,-84.49178409999999,264.69,0.6549481153488159,70.92875671386719,-0.3790000081062317,0.0,1
1679661777.79878807,525891709,0,3,477795799,2254,15,0.68,42.688671,-84.4917825,264.74,0.7529177069664001,64.93253326416016,-0.12200000882148743,0.0,1
1679661777.99893808,526091859,0,3,477795999,2254,15,0.68,42.6886715,-84.49178069999999,264.79,0.8613896369934082,67.18569946289062,-0.15200001001358032,0.0,1
1679661778.19917297,526292094,0,3,477796199,2254,15,0.68,42.6886721,-84.4917787,264.82,0.9595338106155396,64.77027130126953,-0.14500001072883606,0.0,1
1679661778.39866710,526491588,0,3,477796399,2254,15,0.68,42.6886729,-84.4917765,264.84000000000003,1.090500831604004,62.35402297973633,-0.15200001001358032,0.0,1
1679661778.59854507,526691466,0,3,477796599,2254,15,0.68,42.6886739,-84.49177399999999,264.85,1.2558523416519165,62.802433013916016,-0.08800000697374344,0.0,1
1679661778.79897308,526891894,0,3,477796799,2254,15,0.68,42.688674999999996,-84.491771,264.88,1.4278392791748047,62.19660186767578,0.005000000353902578,0.0,1
1679661778.99869800,527091619,0,3,477796999,2254,15,0.68,42.688676199999996,-84.49176779999999,264.89,1.554525375366211,63.64922332763672,-0.027000000700354576,0.0,1
1679661779.19871593,527291637,0,3,477797199,2254,15,0.68,42.688677399999996,-84.4917643,264.91,1.6494354009628296,64.92644500732422,-0.007000000216066837,0.0,1
1679661779.39857888,527491500,0,3,477797399,2254,15,0.68,42.688678599999996,-84.49176059999999,264.91,1.6697380542755127,65.96782684326172,-0.02800000086426735,0.0,1
1679661779.59860587,527691527,0,3,477797599,2254,15,0.68,42.688679799999996,-84.49175679999999,264.9,1.7441092729568481,67.7288589477539,0.1510000079870224,0.0,1
1679661779.79873610,527891657,0,3,477797799,2254,15,0.68,42.688680999999995,-84.4917528,264.88,1.7846348285675049,68.81266021728516,0.1120000034570694,0.0,1
1679661779.99875307,528091674,0,3,477797999,2254,15,0.68,42.6886821,-84.4917486,264.87,1.8600434064865112,69.74319458007812,0.20900000631809235,0.0,1
1679661780.19900990,528291931,0,3,477798199,2254,15,0.68,42.6886832,-84.4917442,264.85,1.977874994277954,72.85680389404297,0.13500000536441803,0.0,1
1679661780.39854598,528491467,0,3,477798399,2254,15,0.68,42.6886842,-84.4917395,264.82,1.9765489101409912,75.31692504882812,0.08100000023841858,0.0,1
1679661780.59881687,528691738,0,3,477798599,2254,15,0.68,42.688685,-84.4917349,264.83,1.9801708459854126,76.56729125976562,0.04200000315904617,0.0,1
1679661780.79884887,528891770,0,3,477798799,2254,15,0.68,42.688685799999995,-84.4917303,264.82,1.9023464918136597,76.65773010253906,0.12300000339746475,0.0,1
1679661780.99909997,529092021,0,3,477798999,2254,15,0.68,42.6886866,-84.49172589999999,264.79,1.8200496435165405,77.3687515258789,0.2540000081062317,0.0,1
1679661781.21887994,529311801,0,3,477799199,2254,15,0.68,42.6886872,-84.49172159999999,264.75,1.8156840801239014,78.30636596679688,0.14800000190734863,0.0,1
1679661781.39860392,529491525,0,3,477799399,2254,15,0.68,42.6886878,-84.49171729999999,264.72,1.7725249528884888,79.00703430175781,0.14800000190734863,0.0,1
1679661781.61903787,529711959,0,3,477799599,2254,15,0.68,42.6886884,-84.49171319999999,264.72,1.6759538650512695,77.94583129882812,0.08300000429153442,0.0,1
1679661781.79874086,529891662,0,3,477799799,2254,15,0.68,42.688689,-84.4917092,264.72,1.687584400177002,78.55023956298828,0.052000001072883606,0.0,1
1679661781.99866891,530091590,0,3,477799999,2254,15,0.68,42.6886897,-84.49170509999999,264.71,1.7683285474777222,75.89302825927734,0.0860000029206276,0.0,1
1679661782.19875693,530291678,0,3,477800199,2254,15,0.68,42.6886906,-84.4917009,264.7,1.8398141860961914,71.62413024902344,0.09600000083446503,0.0,1
1679661782.41936302,530512284,0,3,477800399,2254,15,0.68,42.6886918,-84.4916966,264.68,1.9347997903823853,68.56702423095703,0.10100000351667404,0.0,1
1679661782.59869909,530691620,0,3,477800599,2254,15,0.68,42.688693099999995,-84.4916922,264.66,1.9482672214508057,66.30326080322266,0.09300000220537186,0.0,1
1679661782.79874396,530891665,0,3,477800799,2254,15,0.68,42.6886946,-84.4916878,264.66,1.9870675802230835,64.0023422241211,0.05300000309944153,0.0,1
1679661782.99859500,531091516,0,3,477800999,2254,15,0.68,42.6886961,-84.4916835,264.66,1.9458338022232056,63.27692413330078,0.05900000408291817,0.0,1
1679661783.19859505,531291516,0,3,477801199,2254,15,0.68,42.6886977,-84.4916794,264.67,1.8908549547195435,63.082611083984375,-0.05900000408291817,0.0,1
1679661783.39888692,531491808,0,3,477801399,2254,15,0.68,42.688699199999995,-84.4916752,264.69,1.8731164932250977,64.2420654296875,0.018000001087784767,0.0,1
1679661783.59892702,531691848,0,3,477801599,2254,15,0.68,42.6887006,-84.49167109999999,264.68,1.864280104637146,64.45208740234375,0.10600000619888306,0.0,1
1679661783.79900694,531891928,0,3,477801799,2254,15,0.68,42.6887021,-84.4916669,264.67,1.9012714624404907,65.34903717041016,0.07500000298023224,0.0,1
1679661783.99912691,532092048,0,3,477801999,2254,15,0.68,42.688703499999995,-84.49166269999999,264.67,1.871660828590393,66.54415130615234,0.25699999928474426,0.0,1
1679661784.19866300,532291584,0,3,477802199,2254,15,0.68,42.6887048,-84.49165839999999,264.62,1.8888444900512695,66.8691177368164,0.19300000369548798,0.0,1
1679661784.39884496,532491766,0,3,477802399,2254,15,0.68,42.6887061,-84.49165409999999,264.58,1.8954814672470093,69.46163940429688,0.27300000190734863,0.0,1
1679661784.61853695,532711458,0,3,477802599,2254,15,0.68,42.6887073,-84.4916497,264.53000000000003,1.935977816581726,69.46820068359375,0.23200000822544098,0.0,1
1679661784.79877901,532891700,0,3,477802799,2254,15,0.68,42.6887085,-84.4916452,264.5,1.9447941780090332,73.01856231689453,0.22100001573562622,0.0,1
1679661784.99873710,533091658,0,3,477802999,2254,15,0.68,42.688709599999996,-84.4916408,264.49,1.843796730041504,69.85493469238281,0.04800000041723251,0.0,1
1679661785.19883490,533291756,0,3,477803199,2254,15,0.68,42.6887107,-84.49163659999999,264.46,1.7788662910461426,71.00483703613281,0.12000000476837158,0.0,1
1679661785.39889097,533491812,0,3,477803399,2254,15,0.68,42.6887117,-84.4916325,264.45,1.7587836980819702,70.12265014648438,-0.00800000037997961,0.0,1
1679661785.59885097,533691772,0,3,477803599,2254,15,0.68,42.6887128,-84.4916284,264.47,1.7556403875350952,69.73806762695312,-0.049000002443790436,0.0,1
1679661785.79897904,533891900,0,3,477803799,2254,15,0.68,42.688714,-84.49162439999999,264.49,1.7693418264389038,69.10663604736328,-0.12000000476837158,0.0,1
1679661785.99868894,534091610,0,3,477803999,2254,15,0.68,42.688715099999996,-84.4916203,264.52,1.7892037630081177,68.52564239501953,-0.1770000010728836,0.0,1
1679661786.21872997,534311651,0,3,477804199,2254,15,0.68,42.688716299999996,-84.4916164,264.57,1.6835347414016724,67.91419982910156,-0.22300000488758087,0.0,1
1679661786.39872193,534491643,0,3,477804399,2254,15,0.68,42.6887174,-84.4916125,264.63,1.743936538696289,68.71717071533203,-0.1860000044107437,0.0,1
1679661786.59853292,534691454,0,3,477804599,2254,15,0.68,42.6887186,-84.49160859999999,264.69,1.6458706855773926,68.65756225585938,-0.24800001084804535,0.0,1
1679661786.79859304,534891514,0,3,477804799,2254,15,0.68,42.6887196,-84.49160479999999,264.75,1.6569592952728271,73.0523452758789,-0.31800001859664917,0.0,1
1679661786.99871492,535091636,0,3,477804999,2254,15,0.68,42.6887204,-84.4916009,264.82,1.5873513221740723,74.28267669677734,-0.22700001299381256,0.0,1
1679661787.19877100,535291692,0,3,477805199,2254,15,0.68,42.688721,-84.4915973,264.89,1.4470343589782715,79.32682800292969,-0.15400001406669617,0.0,1
1679661787.39901090,535491932,0,3,477805399,2254,15,0.68,42.6887215,-84.4915939,264.93,1.361524224281311,79.33380889892578,-0.04100000113248825,0.0,1
1679661787.59852600,535691447,0,3,477805599,2254,15,0.68,42.688722,-84.4915907,264.92,1.321247935295105,79.71066284179688,0.0560000017285347,0.0,1
1679661787.79881597,535891737,0,3,477805799,2254,15,0.68,42.688722299999995,-84.4915876,264.91,1.2569820880889893,83.1463623046875,0.2240000069141388,0.0,1
1679661787.99885988,536091781,0,3,477805999,2254,15,0.68,42.6887225,-84.4915845,264.87,1.2615392208099365,86.36416625976562,0.17500001192092896,0.0,1
1679661788.19886708,536291788,0,3,477806199,2254,15,0.68,42.6887227,-84.4915815,264.84000000000003,1.222427487373352,86.3885726928711,0.2750000059604645,0.0,1
1679661788.39879489,536491716,0,3,477806399,2254,15,0.68,42.6887227,-84.4915785,264.78000000000003,1.1716829538345337,91.95639038085938,0.2770000100135803,0.0,1
