timestamp,TimeUS,Lat,Lng,Alt,RelHomeAlt,RelOriginAlt
1679661711.47939992,459572321,42.6887225,-84.4915717,264.1300048828125,0.0009552445262670517,2.4109551906585693
1679661711.57929897,459672220,42.6887225,-84.4915717,264.1300048828125,4.019401967525482e-05,2.4100401401519775
1679661711.67923903,459772160,42.6887225,-84.4915717,264.1199951171875,-0.001990417018532753,2.4080095291137695
1679661711.77925205,459872173,42.6887225,-84.4915717,264.1199951171875,-0.0037933383136987686,2.4062066078186035
1679661711.87927699,459972198,42.6887225,-84.4915717,264.1199951171875,-0.0050784144550561905,2.404921531677246
1679661711.97930408,460072225,42.6887225,-84.4915717,264.1199951171875,-0.006301978603005409,2.403697967529297
1679661712.07925701,460172178,42.6887225,-84.4915717,264.1199951171875,-0.008216241374611855,2.4017837047576904
1679661712.17921996,460272141,42.6887225,-84.4915717,264.1199951171875,-0.00979791022837162,2.4002020359039307
1679661712.27928901,460372210,42.6887226,-84.4915716,264.1099853515625,-0.010937312617897987,2.3990626335144043
1679661712.37960386,460472525,42.6887226,-84.4915716,264.1099853515625,-0.011800864711403847,2.3981990814208984
1679661712.47905397,460571975,42.6887226,-84.4915716,264.1099853515625,-0.012913325801491737,2.3970866203308105
1679661712.57904100,460671962,42.6887226,-84.4915716,264.1099853515625,-0.013155797496438026,2.3968441486358643
1679661712.67935109,460772272,42.6887226,-84.4915716,264.1099853515625,-0.012894729152321815,2.3971052169799805
1679661712.77931595,460872237,42.6887226,-84.4915716,264.1099853515625,-0.012403348460793495,2.397596597671509
1679661712.87936306,460972284,42.6887227,-84.4915716,264.1199951171875,-0.008756259456276894,2.4012436866760254
1679661712.97931409,461072235,42.6887227,-84.4915716,264.1199951171875,-0.006237844005227089,2.403762102127075
1679661713.07934308,461172264,42.6887227,-84.49157149999999,264.1199951171875,-0.0032499823719263077,2.406749963760376
1679661713.17891788,461271839,42.6887228,-84.49157149999999,264.1199951171875,-0.0016294512897729874,2.4083704948425293
1679661713.27923894,461372160,42.6887228,-84.49157149999999,264.1199951171875,-0.0007196459919214249,2.409280300140381
1679661713.37909293,461472014,42.6887228,-84.49157149999999,264.1199951171875,-0.00012908317148685455,2.4098708629608154
1679661713.47905803,461571979,42.6887228,-84.49157149999999,264.1300048828125,0.002408405765891075,2.4124083518981934
1679661713.57907987,461672001,42.6887228,-84.49157149999999,264.1300048828125,0.004987379536032677,2.414987325668335
1679661713.67934394,461772265,42.6887228,-84.49157149999999,264.1300048828125,0.008790632709860802,2.418790578842163
1679661713.77935791,461872279,42.6887228,-84.49157149999999,264.1399841308594,0.011479755863547325,2.4214797019958496
1679661713.87908697,461972008,42.6887228,-84.49157149999999,264.1399841308594,0.012577435001730919,2.422577381134033
1679661713.97899389,462071915,42.6887228,-84.49157149999999,264.1399841308594,0.01247229240834713,2.4224722385406494
1679661714.07893395,462171855,42.688722899999995,-84.49157149999999,264.1399841308594,0.01446356438100338,2.4244635105133057
1679661714.17902899,462271950,42.688722899999995,-84.49157149999999,264.1399841308594,0.01665177009999752,2.4266517162323
1679661714.27913499,462372056,42.688722899999995,-84.49157149999999,264.1399841308594,0.018912455067038536,2.428912401199341
1679661714.37940001,462472321,42.688722899999995,-84.49157149999999,264.1499938964844,0.020708462223410606,2.430708408355713
1679661714.47939396,462572315,42.688722899999995,-84.49157149999999,264.1499938964844,0.020810505375266075,2.4308104515075684
1679661714.57910299,462672024,42.688722999999996,-84.49157149999999,264.1399841308594,0.019803902134299278,2.4298038482666016
1679661714.67932606,462772247,42.688722999999996,-84.49157149999999,264.1499938964844,0.02210392616689205,2.4321038722991943
1679661714.77927208,462872193,42.688722999999996,-84.49157149999999,264.1499938964844,0.0244459118694067,2.434445858001709
1679661714.87927794,462972199,42.688722999999996,-84.49157149999999,264.1499938964844,0.024605175480246544,2.434605121612549
1679661714.97931600,463072237,42.688722999999996,-84.49157149999999,264.1499938964844,0.023404261097311974,2.4334042072296143
1679661715.07961106,463172532,42.688722999999996,-84.49157149999999,264.1499938964844,0.021179815754294395,2.4311797618865967
1679661715.17935896,463272280,42.688722999999996,-84.49157149999999,264.1399841308594,0.01859392784535885,2.428593873977661
1679661715.27941990,463372341,42.6887231,-84.49157149999999,264.1399841308594,0.017113348469138145,2.4271132946014404
1679661715.37957692,463472498,42.6887231,-84.49157149999999,264.1399841308594,0.01519288681447506,2.4251928329467773
1679661715.47911692,463572038,42.6887231,-84.4915716,264.1399841308594,0.010979792103171349,2.4209797382354736
1679661715.57918096,463672102,42.6887231,-84.4915716,264.1300048828125,0.006965538486838341,2.4169654846191406
1679661715.67908192,463772003,42.6887231,-84.4915716,264.1300048828125,0.002434631809592247,2.4124345779418945
1679661715.77898598,463871907,42.6887232,-84.4915716,264.1199951171875,-0.002165893092751503,2.407834053039551
1679661715.87904692,463971968,42.6887231,-84.4915716,264.1199951171875,-0.007469991222023964,2.4025299549102783
1679661715.97941089,464072332,42.6887231,-84.4915716,264.1199951171875,-0.0043192896991968155,2.4056806564331055
1679661716.07944989,464172371,42.6887231,-84.4915716,264.1499938964844,0.028279682621359825,2.438279628753662
1679661716.17938399,464272305,42.688722999999996,-84.4915716,264.2099914550781,0.08908500522375107,2.499084949493408
1679661716.27942801,464372349,42.688722999999996,-84.4915716,264.2900085449219,0.16833938658237457,2.5783393383026123
1679661716.37911987,464472041,42.688722999999996,-84.4915716,264.3699951171875,0.24395550787448883,2.6539554595947266
1679661716.47937894,464572300,42.688722999999996,-84.49157149999999,264.42999267578125,0.3085578978061676,2.718557834625244
1679661716.57931805,464672239,42.688722899999995,-84.49157149999999,264.489990234375,0.36140599846839905,2.7714059352874756
1679661716.67934895,464772270,42.6887228,-84.49157149999999,264.5299987792969,0.4012064039707184,2.811206340789795
1679661716.77931809,464872239,42.6887227,-84.49157149999999,264.55999755859375,0.4338487684726715,2.843848705291748
1679661716.87941194,464972333,42.6887226,-84.4915714,264.5799865722656,0.45320287346839905,2.8632028102874756
1679661716.97938991,465072311,42.6887225,-84.4915714,264.5899963378906,0.46587935090065,2.8758792877197266
1679661717.07968998,465172611,42.688722399999996,-84.4915714,264.6000061035156,0.472555547952652,2.8825554847717285
1679661717.17964506,465272566,42.688722399999996,-84.4915714,264.6000061035156,0.47570863366127014,2.8857085704803467
1679661717.27918100,465372102,42.688722399999996,-84.4915714,264.6000061035156,0.47252240777015686,2.8825223445892334
1679661717.37918806,465472109,42.688722399999996,-84.4915714,264.5899963378906,0.4664670526981354,2.876466989517212
1679661717.47921801,465572139,42.688722399999996,-84.4915714,264.5799865722656,0.45657697319984436,2.866576910018921
1679661717.57904696,465671968,42.688722399999996,-84.4915714,264.57000732421875,0.4496239721775055,2.859623908996582
1679661717.67903590,465771957,42.688722299999995,-84.4915714,264.57000732421875,0.44726982712745667,2.857269763946533
1679661717.77903509,465871956,42.688722299999995,-84.4915714,264.5799865722656,0.45050564408302307,2.8605055809020996
1679661717.87910509,465972026,42.6887222,-84.49157129999999,264.5899963378906,0.4662860929965973,2.876286029815674
1679661717.97940397,466072325,42.6887222,-84.49157129999999,264.6099853515625,0.4880634844303131,2.8980634212493896
1679661718.07940197,466172323,42.6887222,-84.4915712,264.6399841308594,0.5194610357284546,2.9294610023498535
1679661718.17911887,466272040,42.6887222,-84.4915712,264.67999267578125,0.5531717538833618,2.9631717205047607
1679661718.27935505,466372276,42.6887221,-84.4915712,264.7099914550781,0.5847941637039185,2.9947941303253174
1679661718.37928510,466472206,42.6887221,-84.4915711,264.739990234375,0.6122657060623169,3.022265672683716
1679661718.47922802,466572149,42.6887219,-84.4915711,264.7699890136719,0.6435374021530151,3.053537368774414
1679661718.57925296,466672174,42.6887216,-84.491571,264.79998779296875,0.6767665147781372,3.086766481399536
1679661718.67962003,466772541,42.6887214,-84.49157079999999,264.8299865722656,0.7020775079727173,3.112077474594116
1679661718.77961493,466872536,42.688721,-84.4915706,264.8500061035156,0.7249151468276978,3.1349151134490967
1679661718.87911201,466972033,42.6887208,-84.4915704,264.8800048828125,0.7531222105026245,3.1631221771240234
1679661718.97912002,467072041,42.688720599999996,-84.4915702,264.9100036621094,0.782157301902771,3.19215726852417
1679661719.07910705,467172028,42.688720499999995,-84.49157,264.92999267578125,0.8099426031112671,3.219942569732666
1679661719.17912602,467272047,42.688720599999996,-84.4915698,264.9700012207031,0.8406189680099487,3.2506189346313477
1679661719.27911901,467372040,42.6887207,-84.49156959999999,265.0,0.8797503709793091,3.289750337600708
1679661719.37935901,467472280,42.6887209,-84.4915695,265.04998779296875,0.9246653318405151,3.334665298461914
1679661719.47903609,467571957,42.6887213,-84.4915693,265.1000061035156,0.975385308265686,3.385385274887085
1679661719.57916999,467672091,42.688721699999995,-84.49156909999999,265.1499938964844,1.0291162729263306,3.4391162395477295
1679661719.67906809,467771989,42.688722,-84.491569,265.2099914550781,1.089072585105896,3.499072551727295
1679661719.77908301,467872004,42.6887225,-84.4915688,265.2799987792969,1.1524454355239868,3.5624454021453857
1679661719.87912488,467972046,42.688722999999996,-84.4915686,265.3399963378906,1.2148267030715942,3.624826669692993
1679661719.97910094,468072022,42.688723499999995,-84.49156839999999,265.3999938964844,1.2750147581100464,3.6850147247314453
1679661720.07936907,468172290,42.688724099999995,-84.4915683,265.4599914550781,1.3309446573257446,3.7409446239471436
1679661720.17908692,468272008,42.6887246,-84.4915681,265.5099792480469,1.3814486265182495,3.7914485931396484
1679661720.27935410,468372275,42.6887252,-84.491568,265.54998779296875,1.426737666130066,3.836737632751465
1679661720.37926698,468472188,42.6887257,-84.49156789999999,265.5899963378906,1.4662834405899048,3.8762834072113037
1679661720.47936797,468572289,42.6887262,-84.4915678,265.6300048828125,1.502855658531189,3.912855625152588
1679661720.57928801,468672209,42.6887267,-84.4915676,265.6600036621094,1.5358470678329468,3.9458470344543457
1679661720.67926908,468772190,42.688727199999995,-84.4915674,265.69000244140625,1.5622128248214722,3.972212791442871
1679661720.77926493,468872186,42.6887277,-84.4915673,265.7099914550781,1.5854862928390503,3.995486259460449
1679661720.87930202,468972223,42.6887282,-84.4915671,265.72998046875,1.6033567190170288,4.013356685638428
1679661720.97951198,469072433,42.6887287,-84.4915668,265.739990234375,1.6166366338729858,4.026636600494385
1679661721.07909203,469172013,42.688729099999996,-84.49156649999999,265.75,1.627506136894226,4.037506103515625
1679661721.17898893,469271910,42.6887295,-84.4915662,265.7599792480469,1.6373995542526245,4.047399520874023
1679661721.27908492,469372006,42.6887298,-84.4915659,265.7699890136719,1.6418999433517456,4.0518999099731445
1679661721.37907410,469471995,42.6887301,-84.4915657,265.7599792480469,1.6393297910690308,4.04932975769043
1679661721.47911406,469572035,42.6887304,-84.4915657,265.75,1.6291497945785522,4.039149761199951
1679661721.57907891,469672000,42.6887307,-84.49156579999999,265.739990234375,1.6156038045883179,4.025603771209717
1679661721.67925406,469772175,42.688730899999996,-84.4915661,265.7200012207031,1.5987242460250854,4.008724212646484
1679661721.77910995,469872031,42.6887313,-84.4915664,265.7099914550781,1.5833808183670044,3.9933807849884033
1679661721.87939405,469972315,42.6887316,-84.4915668,265.6999816894531,1.5716122388839722,3.981612205505371
1679661721.97910595,470072027,42.688731999999995,-84.49156719999999,265.69000244140625,1.5634757280349731,3.973475694656372
1679661722.07935596,470172277,42.6887323,-84.4915676,265.69000244140625,1.5637823343276978,3.9737823009490967
1679661722.17934108,470272262,42.6887328,-84.4915681,265.6999816894531,1.5720101594924927,3.9820101261138916
1679661722.27944207,470372363,42.6887331,-84.4915688,265.7099914550781,1.5885637998580933,3.998563766479492
1679661722.37939095,470472312,42.6887336,-84.4915692,265.739990234375,1.6112388372421265,4.021238803863525
1679661722.47938991,470572311,42.6887338,-84.4915698,265.7699890136719,1.6401609182357788,4.050160884857178
1679661722.57938194,470672303,42.6887342,-84.4915704,265.79998779296875,1.6744107007980347,4.084410667419434
1679661722.67935109,470772272,42.6887344,-84.4915709,265.8399963378906,1.7163113355636597,4.126311302185059
1679661722.77958894,470872510,42.6887347,-84.4915714,265.8899841308594,1.7612026929855347,4.171202659606934
1679661722.87936187,470972283,42.6887347,-84.4915718,265.94000244140625,1.812404990196228,4.222404956817627
1679661722.97939205,471072313,42.6887349,-84.4915721,266.0,1.870217204093933,4.280217170715332
1679661723.07935405,471172275,42.6887348,-84.4915724,266.05999755859375,1.937120795249939,4.347120761871338
1679661723.17939496,471272316,42.6887348,-84.49157269999999,266.1300048828125,2.002725601196289,4.412725448608398
1679661723.27947903,471372400,42.6887346,-84.491573,266.19000244140625,2.067045211791992,4.477045059204102
1679661723.37939405,471472315,42.688734499999995,-84.4915733,266.25,2.124837875366211,4.53483772277832
1679661723.47938704,471572308,42.6887342,-84.4915736,266.29998779296875,2.176884174346924,4.586884021759033
1679661723.57933998,471672261,42.6887341,-84.49157389999999,266.3500061035156,2.2237396240234375,4.633739471435547
1679661723.67936993,471772291,42.688733899999995,-84.4915742,266.3899841308594,2.2669448852539062,4.676944732666016
1679661723.77923298,471872154,42.6887337,-84.49157439999999,266.42999267578125,2.3094654083251953,4.719465255737305
1679661723.87926602,471972187,42.6887334,-84.4915745,266.4700012207031,2.348994731903076,4.7589945793151855
1679661723.97929907,472072220,42.6887332,-84.4915747,266.5099792480469,2.384596347808838,4.794596195220947
1679661724.07926607,472172187,42.6887329,-84.49157459999999,266.5400085449219,2.4152894020080566,4.825289249420166
1679661724.17930603,472272227,42.688732699999996,-84.49157459999999,266.57000732421875,2.4409232139587402,4.85092306137085
1679661724.27935600,472372277,42.6887323,-84.4915745,266.5899963378906,2.4622106552124023,4.872210502624512
1679661724.37928391,472472205,42.688732099999996,-84.4915745,266.6099853515625,2.480517864227295,4.890517711639404
1679661724.47928691,472572208,42.6887318,-84.4915743,266.6199951171875,2.494075298309326,4.9040751457214355
1679661724.57950091,472672422,42.6887316,-84.4915741,266.6300048828125,2.5033750534057617,4.913374900817871
1679661724.67910910,472772030,42.688731399999995,-84.49157389999999,266.6300048828125,2.506295680999756,4.916295528411865
1679661724.77899694,472871918,42.6887312,-84.49157369999999,266.6300048828125,2.505697727203369,4.9156975746154785
1679661724.87905002,472971971,42.688730899999996,-84.4915734,266.6300048828125,2.502808094024658,4.912807941436768
1679661724.97915602,473072077,42.6887307,-84.4915733,266.6199951171875,2.4970145225524902,4.9070143699646
1679661725.07907009,473171991,42.6887304,-84.4915731,266.6099853515625,2.4884157180786133,4.898415565490723
1679661725.17906499,473271986,42.6887301,-84.4915729,266.6099853515625,2.4804372787475586,4.890437126159668
1679661725.27940989,473372331,42.6887298,-84.4915728,266.6000061035156,2.472416400909424,4.882416248321533
1679661725.37911987,473472041,42.688729599999995,-84.49157269999999,266.5899963378906,2.4631199836730957,4.873119831085205
1679661725.47922206,473572143,42.6887293,-84.4915726,266.5799865722656,2.450596809387207,4.860596656799316
1679661725.57910800,473672029,42.688728999999995,-84.49157249999999,266.55999755859375,2.4363465309143066,4.846346378326416
1679661725.67906499,473771986,42.6887287,-84.49157249999999,266.54998779296875,2.4218173027038574,4.831817150115967
1679661725.77907801,473871999,42.688728399999995,-84.4915724,266.5299987792969,2.4059276580810547,4.815927505493164
1679661725.87926888,473972190,42.6887282,-84.4915724,266.5099792480469,2.388700485229492,4.798700332641602
1679661725.97911906,474072040,42.688727899999996,-84.4915724,266.5,2.371213436126709,4.781213283538818
1679661726.07938194,474172303,42.6887276,-84.4915723,266.47998046875,2.352860450744629,4.762860298156738
1679661726.17937493,474272296,42.6887274,-84.4915723,266.4599914550781,2.3347697257995605,4.74476957321167
1679661726.27977300,474372694,42.6887271,-84.49157249999999,266.44000244140625,2.3162569999694824,4.726256847381592
1679661726.37941694,474472338,42.6887268,-84.49157249999999,266.41998291015625,2.2974095344543457,4.707409381866455
1679661726.47935510,474572276,42.6887264,-84.49157249999999,266.3999938964844,2.2769389152526855,4.686938762664795
1679661726.57934308,474672264,42.6887261,-84.49157249999999,266.3800048828125,2.2589688301086426,4.668968677520752
1679661726.67935300,474772274,42.6887257,-84.4915726,266.3699951171875,2.240903854370117,4.650903701782227
1679661726.77941489,474872336,42.6887253,-84.49157269999999,266.3500061035156,2.22552490234375,4.635524749755859
1679661726.87937498,474972296,42.688724799999996,-84.49157269999999,266.3399963378906,2.2146449089050293,4.624644756317139
1679661726.97969103,475072612,42.6887243,-84.4915728,266.3299865722656,2.205329418182373,4.615329265594482
1679661727.07911110,475172032,42.6887238,-84.491573,266.32000732421875,2.197256088256836,4.607255935668945
1679661727.17928791,475272209,42.6887233,-84.4915731,266.32000732421875,2.1905441284179688,4.600543975830078
1679661727.27964687,475372568,42.688722899999995,-84.4915735,266.30999755859375,2.185973644256592,4.595973491668701
1679661727.37928700,475472208,42.6887225,-84.49157369999999,266.30999755859375,2.182830810546875,4.592830657958984
1679661727.47922301,475572144,42.6887221,-84.491574,266.29998779296875,2.1799798011779785,4.589979648590088
1679661727.57927990,475672201,42.688721799999996,-84.49157439999999,266.29998779296875,2.1785364151000977,4.588536262512207
1679661727.67926788,475772189,42.6887215,-84.4915747,266.30999755859375,2.1812729835510254,4.591272830963135
1679661727.77930307,475872224,42.688721199999996,-84.491575,266.30999755859375,2.1841654777526855,4.594165325164795
1679661727.87964487,475972566,42.6887208,-84.4915752,266.30999755859375,2.182511806488037,4.5925116539001465
1679661727.97929096,476072212,42.6887204,-84.4915755,266.30999755859375,2.18125057220459,4.591250419616699
1679661728.07912397,476172045,42.6887201,-84.49157559999999,266.30999755859375,2.1839261054992676,4.593925952911377
1679661728.17913008,476272051,42.6887197,-84.49157579999999,266.30999755859375,2.1894402503967285,4.599440097808838
1679661728.27933407,476372255,42.6887194,-84.4915759,266.32000732421875,2.1967997550964355,4.606799602508545
1679661728.37901807,476471939,42.6887191,-84.491576,266.3299865722656,2.205089569091797,4.615089416503906
1679661728.47902989,476571951,42.6887189,-84.491576,266.3399963378906,2.2163925170898438,4.626392364501953
1679661728.57904792,476671969,42.688718699999995,-84.4915761,266.3500061035156,2.228978157043457,4.638978004455566
1679661728.67907310,476771994,42.6887186,-84.4915761,266.3699951171875,2.242891311645508,4.652891159057617
1679661728.77937293,476872294,42.6887184,-84.4915761,266.3800048828125,2.2547430992126465,4.664742946624756
1679661728.87939906,476972320,42.6887184,-84.491576,266.3899841308594,2.2632431983947754,4.673243045806885
1679661728.97939491,477072316,42.6887184,-84.4915759,266.3999938964844,2.2713165283203125,4.681316375732422
1679661729.07936096,477172282,42.6887185,-84.49157579999999,266.4100036621094,2.2809906005859375,4.690990447998047
1679661729.17907691,477271998,42.6887185,-84.4915757,266.41998291015625,2.2911720275878906,4.701171875
1679661729.27917790,477372099,42.6887186,-84.4915755,266.42999267578125,2.301769256591797,4.711769104003906
1679661729.37904906,477471970,42.6887186,-84.4915754,266.44000244140625,2.312411308288574,4.722411155700684
1679661729.47907400,477571995,42.6887186,-84.4915752,266.44000244140625,2.3193345069885254,4.729334354400635
1679661729.57912493,477672046,42.6887186,-84.491575,266.4499816894531,2.325867176055908,4.735867023468018
1679661729.67938995,477772311,42.6887186,-84.4915748,266.4599914550781,2.332446575164795,4.742446422576904
1679661729.77939010,477872311,42.6887186,-84.4915747,266.4599914550781,2.3375892639160156,4.747589111328125
1679661729.87937903,477972300,42.688718699999995,-84.4915745,266.4700012207031,2.343201160430908,4.753201007843018
1679661729.97937608,478072297,42.6887188,-84.4915743,266.4700012207031,2.3478589057922363,4.757858753204346
1679661730.07924795,478172169,42.6887189,-84.4915741,266.47998046875,2.3530869483947754,4.763086795806885
1679661730.17933702,478272258,42.688719,-84.491574,266.47998046875,2.3577136993408203,4.76771354675293
1679661730.27937198,478372293,42.6887191,-84.4915738,266.489990234375,2.360297203063965,4.770297050476074
1679661730.37942696,478472348,42.6887192,-84.4915736,266.489990234375,2.3621692657470703,4.77216911315918
1679661730.47947788,478572399,42.6887194,-84.4915734,266.489990234375,2.3634657859802246,4.773465633392334
1679661730.57967210,478672593,42.6887195,-84.4915733,266.489990234375,2.3627820014953613,4.772781848907471
1679661730.67939091,478772312,42.6887196,-84.4915731,266.489990234375,2.3617825508117676,4.771782398223877
1679661730.77933002,478872251,42.6887197,-84.4915729,266.489990234375,2.3607358932495117,4.770735740661621
1679661730.87937093,478972292,42.6887198,-84.4915728,266.489990234375,2.361445903778076,4.7714457511901855
1679661730.97909093,479072012,42.6887198,-84.4915726,266.489990234375,2.3615493774414062,4.771549224853516
1679661731.07928109,479172202,42.688719899999995,-84.49157249999999,266.47998046875,2.3590102195739746,4.769010066986084
1679661731.17926598,479272187,42.688719899999995,-84.4915724,266.47998046875,2.3559422492980957,4.765942096710205
1679661731.27940488,479372326,42.688719999999996,-84.4915723,266.47998046875,2.3523473739624023,4.762347221374512
1679661731.37931895,479472240,42.688719999999996,-84.4915722,266.4700012207031,2.3484458923339844,4.758445739746094
1679661731.47961092,479572532,42.6887202,-84.4915721,266.4700012207031,2.3456692695617676,4.755669116973877
1679661731.57936597,479672287,42.6887202,-84.4915721,266.4700012207031,2.3436455726623535,4.753645420074463
1679661731.67910099,479772022,42.6887204,-84.49157199999999,266.4599914550781,2.3383708000183105,4.74837064743042
1679661731.77912688,479872048,42.6887204,-84.49157199999999,266.4599914550781,2.3320746421813965,4.742074489593506
1679661731.87908697,479972008,42.688720599999996,-84.49157199999999,266.4499816894531,2.3274240493774414,4.737423896789551
1679661731.97900009,480071921,42.6887208,-84.49157199999999,266.4499816894531,2.3220906257629395,4.732090473175049
1679661732.07905507,480171976,42.688721,-84.49157199999999,266.44000244140625,2.3158202171325684,4.725820064544678
1679661732.17947602,480272397,42.688721199999996,-84.4915721,266.42999267578125,2.3085174560546875,4.718517303466797
1679661732.27914405,480372065,42.6887216,-84.4915721,266.42999267578125,2.30045223236084,4.710452079772949
1679661732.37910008,480472021,42.688721699999995,-84.4915722,266.41998291015625,2.2919654846191406,4.70196533203125
1679661732.47911000,480572031,42.688722,-84.4915722,266.4100036621094,2.2833213806152344,4.693321228027344
1679661732.57909989,480672021,42.6887222,-84.4915723,266.3999938964844,2.2749767303466797,4.684976577758789
1679661732.67913008,480772051,42.6887225,-84.4915724,266.3899841308594,2.267056941986084,4.677056789398193
1679661732.77907896,480872000,42.6887228,-84.49157249999999,266.3800048828125,2.259096145629883,4.669095993041992
1679661732.87901688,480971938,42.6887231,-84.49157269999999,266.3800048828125,2.2518277168273926,4.661827564239502
1679661732.97904205,481071963,42.6887234,-84.4915729,266.3699951171875,2.244637966156006,4.654637813568115
1679661733.07942510,481172346,42.6887237,-84.4915731,266.3599853515625,2.2387733459472656,4.648773193359375
1679661733.17908502,481272006,42.688724,-84.49157319999999,266.3599853515625,2.2328953742980957,4.642895221710205
1679661733.27944398,481372365,42.6887243,-84.4915734,266.3500061035156,2.2290749549865723,4.639074802398682
1679661733.37940288,481472324,42.6887245,-84.4915735,266.3500061035156,2.225259304046631,4.63525915145874
1679661733.47934699,481572268,42.688724799999996,-84.4915735,266.3399963378906,2.219864845275879,4.629864692687988
1679661733.57937193,481672293,42.6887251,-84.4915735,266.3399963378906,2.2149195671081543,4.624919414520264
1679661733.67933798,481772259,42.688725399999996,-84.4915734,266.3399963378906,2.2124500274658203,4.62244987487793
1679661733.77934194,481872263,42.6887257,-84.49157319999999,266.3399963378906,2.211226463317871,4.6212263107299805
1679661733.87935090,481972272,42.688725999999996,-84.4915731,266.3399963378906,2.212627410888672,4.622627258300781
1679661733.97965097,482072572,42.6887263,-84.491573,266.3399963378906,2.214158535003662,4.6241583824157715
1679661734.07934904,482172270,42.688726599999995,-84.4915728,266.3399963378906,2.2122716903686523,4.622271537780762
1679661734.17937994,482272301,42.6887269,-84.4915726,266.3399963378906,2.211458206176758,4.621458053588867
1679661734.27960110,482372522,42.688727199999995,-84.4915723,266.3399963378906,2.2119874954223633,4.621987342834473
1679661734.37930799,482472229,42.6887275,-84.4915721,266.3399963378906,2.2172465324401855,4.627246379852295
1679661734.47930503,482572226,42.688727899999996,-84.49157199999999,266.3500061035156,2.228574275970459,4.638574123382568
1679661734.57926488,482672186,42.6887282,-84.4915718,266.3699951171875,2.240478992462158,4.650478839874268
1679661734.67921591,482772137,42.688728499999996,-84.4915716,266.3699951171875,2.2489824295043945,4.658982276916504
1679661734.77924991,482872171,42.6887289,-84.49157129999999,266.3800048828125,2.2540054321289062,4.664005279541016
1679661734.87961793,482972539,42.6887293,-84.4915711,266.3800048828125,2.257861614227295,4.667861461639404
1679661734.97934699,483072268,42.688729599999995,-84.4915709,266.3899841308594,2.261627197265625,4.671627044677734
1679661735.07937598,483172297,42.6887301,-84.4915706,266.3899841308594,2.2638096809387207,4.67380952835083
1679661735.17935705,483272278,42.6887305,-84.4915704,266.3899841308594,2.262722969055176,4.672722816467285
1679661735.27919197,483372113,42.688731,-84.49157009999999,266.3899841308594,2.2616372108459473,4.671637058258057
1679661735.37918210,483472103,42.688731399999995,-84.4915698,266.3899841308594,2.2624950408935547,4.672494888305664
1679661735.47908092,483572002,42.6887319,-84.4915695,266.3899841308594,2.2624425888061523,4.672442436218262
1679661735.57901096,483671932,42.6887324,-84.4915692,266.3899841308594,2.2626094818115234,4.672609329223633
1679661735.67903090,483771952,42.6887329,-84.49156889999999,266.3899841308594,2.2632007598876953,4.673200607299805
1679661735.77938890,483872310,42.6887334,-84.4915686,266.3899841308594,2.2649502754211426,4.674950122833252
1679661735.87935090,483972272,42.688734,-84.4915682,266.3899841308594,2.2691311836242676,4.679131031036377
1679661735.97906303,484071984,42.6887346,-84.49156789999999,266.3999938964844,2.2726449966430664,4.682644844055176
1679661736.07910395,484172025,42.6887353,-84.4915675,266.3999938964844,2.273911952972412,4.6839118003845215
1679661736.17909598,484272017,42.688736,-84.49156719999999,266.3999938964844,2.274048328399658,4.684048175811768
1679661736.27922797,484372149,42.6887368,-84.4915669,266.3999938964844,2.275513172149658,4.685513019561768
1679661736.37915587,484472077,42.688737499999995,-84.4915666,266.3999938964844,2.2761545181274414,4.686154365539551
1679661736.47902489,484571946,42.6887383,-84.4915663,266.3999938964844,2.2782678604125977,4.688267707824707
1679661736.57903194,484671953,42.688739,-84.49156599999999,266.4100036621094,2.281198024749756,4.691197872161865
1679661736.67942095,484772342,42.6887397,-84.4915656,266.4100036621094,2.2853965759277344,4.695396423339844
1679661736.77935100,484872272,42.6887404,-84.4915654,266.4100036621094,2.2886962890625,4.698696136474609
1679661736.87909293,484972014,42.688741,-84.491565,266.41998291015625,2.2908377647399902,4.7008376121521
1679661736.97934890,485072270,42.6887416,-84.4915647,266.41998291015625,2.2927021980285645,4.702702045440674
1679661737.07930088,485172222,42.6887421,-84.4915643,266.41998291015625,2.293884754180908,4.703884601593018
1679661737.17932391,485272245,42.6887427,-84.4915639,266.41998291015625,2.293243408203125,4.703243255615234
1679661737.27933598,485372257,42.688743099999996,-84.4915635,266.41998291015625,2.293663501739502,4.703663349151611
1679661737.37951803,485472439,42.688743599999995,-84.491563,266.41998291015625,2.2948179244995117,4.704817771911621
1679661737.47904706,485571968,42.6887439,-84.4915625,266.41998291015625,2.296334743499756,4.706334590911865
1679661737.57939100,485672312,42.6887444,-84.4915621,266.41998291015625,2.2974395751953125,4.707439422607422
1679661737.67935610,485772277,42.6887446,-84.4915616,266.41998291015625,2.2963762283325195,4.706376075744629
1679661737.77940607,485872327,42.688745,-84.49156119999999,266.41998291015625,2.29270601272583,4.7027058601379395
1679661737.87939405,485972315,42.688745,-84.4915607,266.4100036621094,2.2896575927734375,4.699657440185547
1679661737.97934508,486072266,42.6887452,-84.4915602,266.4100036621094,2.2858829498291016,4.695882797241211
1679661738.07936692,486172288,42.6887451,-84.4915597,266.4100036621094,2.280867576599121,4.6908674240112305
1679661738.17932796,486272249,42.6887451,-84.49155909999999,266.3999938964844,2.2762198448181152,4.686219692230225
1679661738.27957487,486372496,42.688744799999995,-84.4915585,266.3999938964844,2.2713069915771484,4.681306838989258
1679661738.37907290,486471994,42.6887447,-84.4915578,266.3899841308594,2.2666282653808594,4.676628112792969
1679661738.47918892,486572110,42.6887444,-84.4915571,266.3899841308594,2.2622971534729004,4.67229700088501
1679661738.57906699,486671988,42.6887441,-84.4915563,266.3800048828125,2.2588653564453125,4.668865203857422
1679661738.67906904,486771990,42.688743599999995,-84.4915556,266.3800048828125,2.2556052207946777,4.665605068206787
1679661738.77908587,486872007,42.6887433,-84.4915548,266.3800048828125,2.251497745513916,4.661497592926025
1679661738.87910295,486972024,42.6887428,-84.4915542,266.3699951171875,2.2470126152038574,4.657012462615967
1679661738.97919393,487072115,42.688742399999995,-84.4915535,266.3699951171875,2.241910934448242,4.651910781860352
1679661739.07910705,487172028,42.6887419,-84.491553,266.3599853515625,2.2370314598083496,4.647031307220459
1679661739.17935205,487272273,42.6887415,-84.4915525,266.3599853515625,2.2321224212646484,4.642122268676758
1679661739.27937007,487372291,42.688741,-84.4915522,266.3500061035156,2.2247791290283203,4.63477897644043
1679661739.37939501,487472316,42.6887405,-84.49155189999999,266.3399963378906,2.2165164947509766,4.626516342163086
1679661739.47935510,487572276,42.688739899999995,-84.49155189999999,266.3299865722656,2.209589958190918,4.619589805603027
1679661739.57906890,487671990,42.6887395,-84.49155189999999,266.3299865722656,2.203826904296875,4.613826751708984
1679661739.67909694,487772018,42.6887389,-84.49155209999999,266.32000732421875,2.1968464851379395,4.606846332550049
1679661739.77909803,487872019,42.6887383,-84.4915522,266.30999755859375,2.1898603439331055,4.599860191345215
1679661739.87920594,487972127,42.688737599999996,-84.49155239999999,266.30999755859375,2.184671401977539,4.594671249389648
1679661739.97909904,488072020,42.688736999999996,-84.49155259999999,266.30999755859375,2.179995536804199,4.589995384216309
1679661740.07935596,488172277,42.688736299999995,-84.4915529,266.29998779296875,2.1736350059509277,4.583634853363037
1679661740.17930603,488272227,42.6887356,-84.49155309999999,266.2900085449219,2.167390823364258,4.577390670776367
1679661740.27947903,488372400,42.6887349,-84.4915534,266.2900085449219,2.163578987121582,4.573578834533691
1679661740.37937903,488472300,42.6887342,-84.4915537,266.2900085449219,2.160395622253418,4.570395469665527
1679661740.47935987,488572281,42.6887334,-84.4915542,266.2799987792969,2.1563563346862793,4.566356182098389
1679661740.57942390,488672345,42.688732699999996,-84.49155449999999,266.2799987792969,2.1529579162597656,4.562957763671875
1679661740.67931890,488772240,42.6887318,-84.4915552,266.2799987792969,2.1511735916137695,4.561173439025879
1679661740.77932906,488872250,42.6887311,-84.4915556,266.2799987792969,2.1510891914367676,4.561089038848877
1679661740.87930202,488972223,42.688730199999995,-84.4915563,266.2799987792969,2.153244972229004,4.563244819641113
1679661740.97949791,489072419,42.6887294,-84.4915568,266.2799987792969,2.1558332443237305,4.56583309173584
1679661741.07935691,489172278,42.688728499999996,-84.4915576,266.2799987792969,2.1571569442749023,4.567156791687012
1679661741.17938089,489272302,42.6887276,-84.4915582,266.2900085449219,2.1607413291931152,4.570741176605225
1679661741.27939487,489372316,42.688726599999995,-84.491559,266.2900085449219,2.1614160537719727,4.571415901184082
1679661741.37938309,489472304,42.6887257,-84.49155979999999,266.2799987792969,2.1583480834960938,4.568347930908203
1679661741.47937107,489572292,42.688724699999995,-84.4915604,266.2799987792969,2.156527519226074,4.566527366638184
1679661741.57932901,489672250,42.6887237,-84.49156099999999,266.2799987792969,2.15516996383667,4.565169811248779
1679661741.67938089,489772302,42.6887228,-84.49156169999999,266.2799987792969,2.15618896484375,4.566188812255859
1679661741.77912307,489872044,42.688721699999995,-84.49156239999999,266.2799987792969,2.158352851867676,4.568352699279785
1679661741.87902498,489971946,42.688720499999995,-84.4915633,266.2900085449219,2.1605076789855957,4.570507526397705
1679661741.97903895,490071960,42.6887194,-84.491564,266.2900085449219,2.162494659423828,4.5724945068359375
1679661742.07903600,490171957,42.6887182,-84.491565,266.2900085449219,2.163900852203369,4.5739006996154785
1679661742.17905402,490271975,42.6887171,-84.4915659,266.2900085449219,2.164982795715332,4.574982643127441
1679661742.27911687,490372038,42.6887159,-84.49156699999999,266.2900085449219,2.1658639907836914,4.575863838195801
1679661742.37911487,490472036,42.6887148,-84.4915681,266.2900085449219,2.1655259132385254,4.575525760650635
1679661742.47912693,490572048,42.6887137,-84.4915693,266.2900085449219,2.165759563446045,4.575759410858154
1679661742.57936096,490672282,42.688712599999995,-84.4915704,266.2900085449219,2.167985439300537,4.5779852867126465
1679661742.67922807,490772149,42.6887117,-84.4915716,266.29998779296875,2.1711955070495605,4.58119535446167
1679661742.77899289,490871914,42.6887107,-84.49157269999999,266.29998779296875,2.174762725830078,4.5847625732421875
1679661742.87906289,490971984,42.6887099,-84.49157389999999,266.29998779296875,2.1799087524414062,4.589908599853516
1679661742.97904301,491071964,42.6887091,-84.491575,266.30999755859375,2.184030055999756,4.594029903411865
1679661743.07910204,491172023,42.6887085,-84.4915761,266.30999755859375,2.186844825744629,4.596844673156738
1679661743.17908287,491272004,42.6887079,-84.4915772,266.30999755859375,2.189218521118164,4.599218368530273
1679661743.27920103,491372122,42.6887075,-84.4915783,266.32000732421875,2.1926074028015137,4.602607250213623
1679661743.37912393,491472045,42.688707,-84.4915793,266.32000732421875,2.1948299407958984,4.604829788208008
1679661743.47936606,491572287,42.6887068,-84.4915803,266.32000732421875,2.1953115463256836,4.605311393737793
1679661743.57909894,491672020,42.688706599999996,-84.49158129999999,266.32000732421875,2.1938109397888184,4.603810787200928
1679661743.67922306,491772144,42.6887067,-84.4915821,266.32000732421875,2.191622734069824,4.601622581481934
1679661743.77926493,491872186,42.6887067,-84.49158299999999,266.30999755859375,2.1873698234558105,4.59736967086792
1679661743.87936687,491972288,42.688707,-84.4915838,266.30999755859375,2.1810598373413086,4.591059684753418
1679661743.97933698,492072258,42.688707099999995,-84.4915846,266.29998779296875,2.173666477203369,4.5836663246154785
1679661744.07929397,492172215,42.6887075,-84.4915852,266.2900085449219,2.165388584136963,4.575388431549072
1679661744.17939305,492272314,42.6887076,-84.491586,266.2799987792969,2.1575307846069336,4.567530632019043
1679661744.27939987,492372321,42.6887079,-84.4915865,266.2799987792969,2.151602268218994,4.5616021156311035
1679661744.37939405,492472315,42.6887079,-84.49158729999999,266.2699890136719,2.1447834968566895,4.554783344268799
1679661744.47933507,492572256,42.6887081,-84.4915876,266.2599792480469,2.1364526748657227,4.546452522277832
1679661744.57933402,492672255,42.688708,-84.4915882,266.25,2.126736640930176,4.536736488342285
1679661744.67935300,492772274,42.6887081,-84.49158829999999,266.239990234375,2.119232654571533,4.529232501983643
1679661744.77949905,492872420,42.688708,-84.4915887,266.239990234375,2.1120738983154297,4.522073745727539
1679661744.87937808,492972299,42.6887082,-84.4915887,266.239990234375,2.1100401878356934,4.520040035247803
1679661744.97970605,493072627,42.688708299999995,-84.4915889,266.22998046875,2.108044147491455,4.5180439949035645
1679661745.07938695,493172308,42.6887085,-84.4915889,266.22998046875,2.1032609939575195,4.513260841369629
1679661745.17910504,493272026,42.6887087,-84.4915888,266.2200012207031,2.0980324745178223,4.508032321929932
1679661745.27923107,493372152,42.6887092,-84.4915884,266.2200012207031,2.0904765129089355,4.500476360321045
1679661745.37909293,493472014,42.688709599999996,-84.4915882,266.2099914550781,2.0813918113708496,4.491391658782959
1679661745.47899795,493571919,42.688710199999996,-84.49158779999999,266.1999816894531,2.071845531463623,4.481845378875732
1679661745.57903194,493671953,42.6887106,-84.4915874,266.19000244140625,2.0620408058166504,4.47204065322876
1679661745.67902899,493771950,42.6887112,-84.4915869,266.17999267578125,2.052885055541992,4.462884902954102
1679661745.77906990,493871991,42.6887115,-84.4915865,266.16998291015625,2.044586181640625,4.454586029052734
1679661745.87938905,493972310,42.688711999999995,-84.49158589999999,266.1600036621094,2.03542423248291,4.4454240798950195
1679661745.97938704,494072308,42.6887124,-84.49158539999999,266.1499938964844,2.026179790496826,4.4361796379089355
1679661746.07911587,494172037,42.6887129,-84.4915848,266.1399841308594,2.018319606781006,4.428319454193115
1679661746.17912793,494272049,42.688713199999995,-84.4915843,266.1399841308594,2.0113940238952637,4.421393871307373
1679661746.27912498,494372046,42.6887136,-84.4915838,266.1300048828125,2.006239891052246,4.4162397384643555
1679661746.37901187,494471933,42.6887141,-84.4915832,266.1300048828125,2.0015344619750977,4.411534309387207
1679661746.47904801,494571969,42.6887147,-84.4915824,266.1199951171875,1.9973748922348022,4.407374858856201
1679661746.57941389,494672335,42.688715099999996,-84.49158179999999,266.1199951171875,1.993801474571228,4.403801441192627
1679661746.67938900,494772310,42.688715699999996,-84.4915812,266.1199951171875,1.9905842542648315,4.4005842208862305
1679661746.77925992,494872181,42.688716199999995,-84.4915807,266.1099853515625,1.987557291984558,4.397557258605957
1679661746.87948108,494972402,42.6887167,-84.49158,266.1099853515625,1.9863137006759644,4.396313667297363
1679661746.97929096,495072212,42.6887172,-84.4915795,266.1099853515625,1.9861620664596558,4.396162033081055
1679661747.07931805,495172239,42.6887177,-84.4915788,266.1099853515625,1.9893020391464233,4.399302005767822
1679661747.17926002,495272181,42.688718099999996,-84.4915783,266.1199951171875,1.9901098012924194,4.400109767913818
1679661747.27926898,495372190,42.6887186,-84.4915777,266.1199951171875,1.9921544790267944,4.402154445648193
1679661747.37924695,495472168,42.6887191,-84.4915772,266.1199951171875,1.9933570623397827,4.403357028961182
1679661747.47961402,495572535,42.6887196,-84.4915766,266.1199951171875,1.9932883977890015,4.4032883644104
1679661747.57935095,495672272,42.688719999999996,-84.4915761,266.1199951171875,1.9903615713119507,4.40036153793335
1679661747.67938304,495772304,42.688720499999995,-84.4915755,266.1099853515625,1.9883588552474976,4.3983588218688965
1679661747.77938700,495872308,42.688721,-84.491575,266.1099853515625,1.9874299764633179,4.397429943084717
1679661747.87935591,495972277,42.6887215,-84.49157439999999,266.1199951171875,1.990867018699646,4.400866985321045
1679661747.97938991,496072311,42.6887219,-84.49157389999999,266.1199951171875,1.9933890104293823,4.403388977050781
1679661748.07932997,496172251,42.688722399999996,-84.4915733,266.1199951171875,1.9959954023361206,4.4059953689575195
1679661748.17933893,496272260,42.688722899999995,-84.4915728,266.1300048828125,2.0018067359924316,4.411806583404541
1679661748.27909708,496372018,42.6887234,-84.4915721,266.1300048828125,2.007506847381592,4.417506694793701
1679661748.37907195,496471993,42.6887239,-84.49157129999999,266.1399841308594,2.0131444931030273,4.423144340515137
1679661748.47905993,496571981,42.6887245,-84.4915705,266.1399841308594,2.0194945335388184,4.429494380950928
1679661748.57908487,496672006,42.688725,-84.49156959999999,266.1499938964844,2.022984504699707,4.432984352111816
1679661748.67908692,496772008,42.6887255,-84.4915687,266.1499938964844,2.0237674713134766,4.433767318725586
1679661748.77909398,496872015,42.688725999999996,-84.49156789999999,266.1499938964844,2.0220484733581543,4.432048320770264
1679661748.87918591,496972107,42.688726599999995,-84.49156719999999,266.1499938964844,2.021542549133301,4.43154239654541
1679661748.97923398,497072155,42.6887271,-84.49156649999999,266.1499938964844,2.021637439727783,4.431637287139893
1679661749.07936788,497172289,42.6887276,-84.4915661,266.1499938964844,2.022712230682373,4.432712078094482
1679661749.17902803,497271949,42.6887282,-84.4915657,266.1499938964844,2.023298740386963,4.433298587799072
1679661749.27916193,497372083,42.6887286,-84.4915655,266.1499938964844,2.0245919227600098,4.434591770172119
1679661749.37907410,497471995,42.688728999999995,-84.4915654,266.1499938964844,2.025259017944336,4.435258865356445
1679661749.47908807,497572009,42.6887294,-84.4915654,266.1499938964844,2.024141788482666,4.434141635894775
1679661749.57909608,497672017,42.688729699999996,-84.4915654,266.1499938964844,2.022705554962158,4.432705402374268
1679661749.67909098,497772012,42.6887301,-84.4915655,266.1499938964844,2.0201826095581055,4.430182456970215
1679661749.77913308,497872054,42.6887304,-84.4915655,266.1399841308594,2.017335891723633,4.427335739135742
1679661749.87910008,497972021,42.688730799999995,-84.4915656,266.1399841308594,2.0150961875915527,4.425096035003662
1679661749.97902393,498071945,42.6887311,-84.4915655,266.1399841308594,2.012678623199463,4.422678470611572
1679661750.07903695,498171958,42.688731499999996,-84.4915655,266.1300048828125,2.0094962120056152,4.419496059417725
1679661750.17943001,498272351,42.688731999999995,-84.4915654,266.1300048828125,2.0050320625305176,4.415031909942627
1679661750.27949500,498372416,42.6887324,-84.49156529999999,266.1300048828125,2.000314235687256,4.410314083099365
1679661750.37927008,498472191,42.6887329,-84.4915652,266.1199951171875,1.9944218397140503,4.404421806335449
1679661750.47928309,498572204,42.6887334,-84.4915651,266.1099853515625,1.9868639707565308,4.39686393737793
1679661750.57929206,498672213,42.688733899999995,-84.491565,266.1000061035156,1.978798747062683,4.388798713684082
1679661750.67931294,498772234,42.6887343,-84.491565,266.1000061035156,1.9705413579940796,4.3805413246154785
1679661750.77925897,498872180,42.6887347,-84.49156479999999,266.0899963378906,1.9625309705734253,4.372530937194824
1679661750.87929893,498972220,42.688735,-84.4915649,266.0799865722656,1.9551957845687866,4.3651957511901855
1679661750.97930002,499072221,42.6887353,-84.49156479999999,266.07000732421875,1.9474238157272339,4.357423782348633
1679661751.07973790,499172659,42.6887355,-84.491565,266.05999755859375,1.939226508140564,4.349226474761963
1679661751.17911386,499272035,42.688735699999995,-84.491565,266.05999755859375,1.931200385093689,4.341200351715088
1679661751.27943206,499372353,42.688735799999996,-84.49156529999999,266.04998779296875,1.9258078336715698,4.335807800292969
1679661751.37938809,499472309,42.688736,-84.4915654,266.04998779296875,1.9204601049423218,4.330460071563721
1679661751.47934389,499572265,42.688736,-84.4915656,266.0400085449219,1.9149965047836304,4.324996471405029
1679661751.57937002,499672291,42.6887362,-84.49156579999999,266.0299987792969,1.9088190793991089,4.318819046020508
1679661751.67932391,499772245,42.688736299999995,-84.49156599999999,266.0299987792969,1.9022568464279175,4.312256813049316
1679661751.77935195,499872273,42.6887365,-84.4915661,266.0199890136719,1.894898772239685,4.304898738861084
1679661751.87935805,499972279,42.6887366,-84.4915663,266.0099792480469,1.8866242170333862,4.296624183654785
1679661751.97967601,500072597,42.6887367,-84.49156649999999,266.0,1.8772281408309937,4.287228107452393
1679661752.07907009,500171991,42.688736899999995,-84.4915666,265.989990234375,1.8668497800827026,4.276849746704102
1679661752.17906904,500271990,42.6887371,-84.4915668,265.97998046875,1.85675847530365,4.266758441925049
1679661752.27912688,500372048,42.6887373,-84.49156699999999,265.97998046875,1.8503845930099487,4.260384559631348
1679661752.37911606,500472037,42.688737499999995,-84.49156719999999,265.9700012207031,1.8451164960861206,4.2551164627075195
1679661752.47918296,500572104,42.6887377,-84.4915674,265.9599914550781,1.8399876356124878,4.249987602233887
1679661752.57908487,500672006,42.688738,-84.4915676,265.9599914550781,1.8351529836654663,4.245152950286865
1679661752.67900991,500771931,42.688738199999996,-84.49156769999999,265.9599914550781,1.8308671712875366,4.2408671379089355
1679661752.77902508,500871946,42.6887385,-84.4915678,265.9499816894531,1.825886607170105,4.235886573791504
1679661752.87940097,500972322,42.688738799999996,-84.4915681,265.9499816894531,1.821567416191101,4.2315673828125
1679661752.97911596,501072037,42.688739,-84.4915682,265.94000244140625,1.8194979429244995,4.229497909545898
1679661753.07907987,501172001,42.6887392,-84.49156839999999,265.9499816894531,1.8235172033309937,4.233517169952393
1679661753.17922807,501272149,42.6887395,-84.4915686,265.9499816894531,1.8285092115402222,4.238509178161621
1679661753.27919602,501372117,42.6887397,-84.4915688,265.9599914550781,1.8374680280685425,4.247467994689941
1679661753.37919497,501472116,42.688739899999995,-84.491569,265.9700012207031,1.8480466604232788,4.258046627044678
1679661753.47909689,501572018,42.6887401,-84.4915692,265.989990234375,1.8625696897506714,4.27256965637207
1679661753.57901001,501671931,42.6887403,-84.4915694,266.0,1.8795379400253296,4.2895379066467285
1679661753.67902803,501771949,42.6887405,-84.49156959999999,266.0299987792969,1.900354266166687,4.310354232788086
1679661753.77938509,501872306,42.6887407,-84.4915699,266.0400085449219,1.919977068901062,4.329977035522461
1679661753.87936187,501972283,42.6887409,-84.49157009999999,266.05999755859375,1.9370530843734741,4.347053050994873
1679661753.97938108,502072302,42.6887411,-84.4915704,266.0799865722656,1.9525026082992554,4.362502574920654
1679661754.07937598,502172297,42.6887413,-84.4915707,266.0899963378906,1.9667376279830933,4.376737594604492
1679661754.17928505,502272206,42.6887415,-84.4915709,266.1000061035156,1.9797347784042358,4.389734745025635
1679661754.27937508,502372296,42.6887417,-84.4915712,266.1199951171875,1.9943193197250366,4.4043192863464355
1679661754.37929988,502472221,42.6887419,-84.49157149999999,266.1300048828125,2.0092525482177734,4.419252395629883
1679661754.47921801,502572139,42.6887421,-84.4915718,266.1499938964844,2.0274276733398438,4.437427520751953
1679661754.57923889,502672160,42.6887423,-84.49157199999999,266.16998291015625,2.0475568771362305,4.45755672454834
1679661754.67957592,502772497,42.6887425,-84.4915724,266.19000244140625,2.0681509971618652,4.478150844573975
1679661754.77935505,502872276,42.6887428,-84.49157269999999,266.2099914550781,2.0890145301818848,4.499014377593994
1679661754.87940192,502972323,42.6887429,-84.4915731,266.22998046875,2.10927677154541,4.5192766189575195
1679661754.97939301,503072314,42.6887432,-84.4915735,266.25,2.1261391639709473,4.536139011383057
1679661755.07935786,503172279,42.6887433,-84.491574,266.2699890136719,2.142465114593506,4.552464962005615
1679661755.17937708,503272298,42.6887435,-84.49157439999999,266.2799987792969,2.1550498008728027,4.565049648284912
1679661755.27947092,503372392,42.688743699999996,-84.49157489999999,266.2900085449219,2.1650500297546387,4.575049877166748
1679661755.37934589,503472267,42.6887439,-84.4915753,266.29998779296875,2.175232410430908,4.585232257843018
1679661755.47934008,503572261,42.688744,-84.49157579999999,266.30999755859375,2.189161777496338,4.599161624908447
1679661755.57941294,503672334,42.688744199999995,-84.4915762,266.3299865722656,2.2048544883728027,4.614854335784912
1679661755.67934203,503772263,42.6887444,-84.4915769,266.3399963378906,2.219914436340332,4.629914283752441
1679661755.77965403,503872575,42.6887446,-84.49157749999999,266.3599853515625,2.2346506118774414,4.644650459289551
1679661755.87938499,503972306,42.6887447,-84.4915784,266.3800048828125,2.2500085830688477,4.660008430480957
1679661755.97912908,504072050,42.688744799999995,-84.49157919999999,266.3899841308594,2.2649283409118652,4.674928188323975
1679661756.07918787,504172109,42.688744799999995,-84.4915803,266.3999938964844,2.2792038917541504,4.68920373916626
1679661756.17906809,504271989,42.688744899999996,-84.4915812,266.41998291015625,2.289992332458496,4.6999921798706055
1679661756.27910304,504372024,42.688744899999996,-84.4915824,266.41998291015625,2.2977371215820312,4.707736968994141
1679661756.37904596,504471967,42.688745,-84.49158349999999,266.42999267578125,2.3031110763549805,4.71311092376709
1679661756.47902107,504571942,42.688745,-84.4915848,266.42999267578125,2.3061294555664062,4.716129302978516
1679661756.57906294,504671984,42.688745,-84.491586,266.42999267578125,2.3069634437561035,4.716963291168213
1679661756.67936897,504772290,42.688745,-84.4915875,266.42999267578125,2.30745267868042,4.717452526092529
1679661756.77936888,504872290,42.688745,-84.49158899999999,266.42999267578125,2.30765438079834,4.717654228210449
1679661756.87918496,504972106,42.688745,-84.4915906,266.42999267578125,2.305776596069336,4.715776443481445
1679661756.97913289,505072054,42.688745,-84.4915922,266.42999267578125,2.301997184753418,4.711997032165527
1679661757.07907987,505172001,42.688745,-84.4915937,266.41998291015625,2.298995018005371,4.7089948654174805
1679661757.17899108,505271912,42.688745,-84.4915951,266.41998291015625,2.2943596839904785,4.704359531402588
1679661757.27909303,505372014,42.688744899999996,-84.4915965,266.41998291015625,2.290468215942383,4.700468063354492
1679661757.37916994,505472091,42.688745,-84.4915977,266.4100036621094,2.286039352416992,4.696039199829102
1679661757.47910094,505572022,42.688745,-84.491599,266.4100036621094,2.2803735733032227,4.690373420715332
1679661757.57938290,505672304,42.688745,-84.4916001,266.3999938964844,2.2740259170532227,4.684025764465332
1679661757.67937088,505772292,42.688745,-84.4916013,266.3899841308594,2.2663745880126953,4.676374435424805
1679661757.77926993,505872191,42.688745,-84.49160239999999,266.3800048828125,2.2567715644836426,4.666771411895752
1679661757.87933302,505972254,42.688745,-84.49160359999999,266.3699951171875,2.247767448425293,4.657767295837402
1679661757.97926688,506072188,42.688745,-84.49160479999999,266.3599853515625,2.2395901679992676,4.649590015411377
1679661758.07923007,506172151,42.688745,-84.4916061,266.3599853515625,2.231224536895752,4.641224384307861
1679661758.17926502,506272186,42.688745,-84.49160739999999,266.3500061035156,2.2239909172058105,4.63399076461792
1679661758.27964997,506372571,42.688745,-84.4916087,266.3399963378906,2.219900131225586,4.629899978637695
1679661758.37938309,506472304,42.688744899999996,-84.49161,266.3399963378906,2.2179813385009766,4.627981185913086
1679661758.47941089,506572332,42.688744799999995,-84.49161149999999,266.3399963378906,2.219937324523926,4.629937171936035
1679661758.57939100,506672312,42.6887447,-84.49161289999999,266.3500061035156,2.22672176361084,4.636721611022949
1679661758.67934394,506772265,42.6887446,-84.4916143,266.3699951171875,2.241173267364502,4.651173114776611
1679661758.77940798,506872329,42.6887446,-84.49161579999999,266.3800048828125,2.2593889236450195,4.669388771057129
1679661758.87933803,506972259,42.6887445,-84.4916172,266.3999938964844,2.2794389724731445,4.689438819885254
1679661758.97958398,507072505,42.6887444,-84.49161869999999,266.41998291015625,2.2988600730895996,4.708859920501709
1679661759.07934093,507172262,42.688744299999996,-84.4916202,266.4499816894531,2.320631980895996,4.7306318283081055
1679661759.17940593,507272327,42.6887441,-84.4916217,266.4700012207031,2.3440685272216797,4.754068374633789
1679661759.27949905,507372420,42.688744,-84.49162319999999,266.489990234375,2.368885040283203,4.7788848876953125
1679661759.37910509,507472026,42.6887439,-84.4916247,266.5199890136719,2.3936586380004883,4.803658485412598
1679661759.47926402,507572185,42.688743699999996,-84.4916262,266.5400085449219,2.4180808067321777,4.828080654144287
1679661759.57910204,507672023,42.6887435,-84.49162779999999,266.57000732421875,2.4411611557006836,4.851161003112793
1679661759.67912602,507772047,42.6887433,-84.49162919999999,266.5899963378906,2.466970443725586,4.876970291137695
1679661759.77907801,507871999,42.6887432,-84.4916307,266.6199951171875,2.495258331298828,4.9052581787109375
1679661759.87935591,507972277,42.688742999999995,-84.49163209999999,266.6499938964844,2.5279932022094727,4.937993049621582
1679661759.97941494,508072336,42.6887429,-84.4916334,266.69000244140625,2.5620651245117188,4.972064971923828
1679661760.07941508,508172336,42.6887428,-84.49163469999999,266.7200012207031,2.595078945159912,5.0050787925720215
1679661760.17935610,508272277,42.6887427,-84.49163589999999,266.75,2.6247711181640625,5.034770965576172
1679661760.27911687,508372038,42.6887426,-84.49163709999999,266.7799987792969,2.6524109840393066,5.062410831451416
1679661760.37912107,508472042,42.6887425,-84.4916384,266.80999755859375,2.680668830871582,5.090668678283691
1679661760.47909904,508572020,42.6887425,-84.4916396,266.8399963378906,2.7125706672668457,5.122570514678955
1679661760.57937694,508672298,42.688742399999995,-84.4916409,266.8699951171875,2.7447519302368164,5.154751777648926
1679661760.67907691,508771998,42.6887423,-84.4916422,266.8999938964844,2.7730259895324707,5.18302583694458
1679661760.77899408,508871915,42.6887422,-84.4916435,266.91998291015625,2.796973705291748,5.206973552703857
1679661760.87907290,508971994,42.688742,-84.4916449,266.94000244140625,2.815065383911133,5.225065231323242
1679661760.97941303,509072334,42.6887419,-84.4916463,266.9599914550781,2.8312015533447266,5.241201400756836
1679661761.07938409,509172305,42.6887417,-84.4916478,266.9700012207031,2.8466601371765137,5.256659984588623
1679661761.17929101,509272212,42.6887414,-84.4916494,266.97998046875,2.858999252319336,5.268999099731445
1679661761.27938199,509372303,42.688741199999996,-84.49165099999999,266.989990234375,2.8688669204711914,5.278866767883301
1679661761.37931609,509472237,42.6887409,-84.4916527,267.0,2.8768601417541504,5.28685998916626
1679661761.47932792,509572249,42.688740599999996,-84.4916543,267.0099792480469,2.8834056854248047,5.293405532836914
1679661761.57956791,509672489,42.6887403,-84.4916559,267.0099792480469,2.8873186111450195,5.297318458557129
1679661761.67921805,509772139,42.688739999999996,-84.4916575,267.0199890136719,2.8912606239318848,5.301260471343994
1679661761.77924109,509872162,42.6887397,-84.49165909999999,267.0199890136719,2.8954386711120605,5.30543851852417
1679661761.87961507,509972536,42.6887395,-84.4916606,267.0199890136719,2.89815092086792,5.308150768280029
1679661761.97936487,510072286,42.6887392,-84.4916621,267.0199890136719,2.896425247192383,5.306425094604492
1679661762.07943606,510172357,42.688739,-84.4916635,267.0199890136719,2.8922910690307617,5.302290916442871
1679661762.17937994,510272301,42.688738799999996,-84.49166489999999,267.0099792480469,2.8849382400512695,5.294938087463379
1679661762.27939391,510372315,42.6887386,-84.49166629999999,267.0,2.8757009506225586,5.285700798034668
1679661762.37938595,510472307,42.6887384,-84.4916678,266.989990234375,2.864152431488037,5.2741522789001465
1679661762.47933698,510572258,42.688738199999996,-84.4916691,266.97998046875,2.8505187034606934,5.260518550872803
1679661762.57959890,510672520,42.6887379,-84.49167059999999,266.9599914550781,2.8353166580200195,5.245316505432129
1679661762.67937493,510772296,42.688737599999996,-84.4916721,266.94000244140625,2.8182334899902344,5.228233337402344
1679661762.77942491,510872346,42.6887373,-84.4916736,266.92999267578125,2.8012218475341797,5.211221694946289
1679661762.87936592,510972287,42.688736899999995,-84.491675,266.9100036621094,2.785745143890381,5.19574499130249
1679661762.97907805,511071999,42.6887366,-84.4916765,266.8999938964844,2.771444320678711,5.18144416809082
1679661763.07910705,511172028,42.688736299999995,-84.4916779,266.8899841308594,2.760507106781006,5.170506954193115
1679661763.17910290,511272024,42.6887359,-84.4916793,266.8800048828125,2.7529382705688477,5.162938117980957
1679661763.27922487,511372146,42.688735699999995,-84.4916805,266.8800048828125,2.750945568084717,5.160945415496826
1679661763.37909603,511472017,42.6887354,-84.4916818,266.8800048828125,2.752556324005127,5.162556171417236
1679661763.47901487,511571936,42.688735199999996,-84.4916829,266.8800048828125,2.7598886489868164,5.169888496398926
1679661763.57905102,511671972,42.6887349,-84.4916841,266.8999938964844,2.7706618309020996,5.180661678314209
1679661763.67950606,511772427,42.6887348,-84.4916851,266.9100036621094,2.7885823249816895,5.198582172393799
1679661763.77935505,511872276,42.6887346,-84.49168619999999,266.94000244140625,2.8099961280822754,5.219995975494385
1679661763.87908506,511972006,42.688734499999995,-84.4916871,266.9599914550781,2.8359665870666504,5.24596643447876
1679661763.97912192,512072043,42.6887343,-84.4916882,266.989990234375,2.863074779510498,5.273074626922607
1679661764.07911110,512172032,42.6887342,-84.491689,267.0199890136719,2.8923864364624023,5.302386283874512
1679661764.17912889,512272050,42.6887341,-84.49168999999999,267.04998779296875,2.9217638969421387,5.331763744354248
1679661764.27918887,512372110,42.6887341,-84.49169069999999,267.0799865722656,2.950875759124756,5.360875606536865
1679661764.37901807,512471939,42.6887341,-84.4916916,267.1000061035156,2.9793386459350586,5.389338493347168
1679661764.47902703,512571948,42.6887342,-84.4916923,267.1300048828125,3.0091567039489746,5.419156551361084
1679661764.57943106,512672352,42.6887342,-84.49169309999999,267.16998291015625,3.0404305458068848,5.450430393218994
1679661764.67935801,512772279,42.6887344,-84.4916937,267.1999816894531,3.0711402893066406,5.48114013671875
1679661764.77926207,512872183,42.688734499999995,-84.4916944,267.2200012207031,3.0982823371887207,5.50828218460083
1679661764.87933993,512972261,42.6887348,-84.49169479999999,267.25,3.1234536170959473,5.533453464508057
1679661764.97931790,513072239,42.688735,-84.4916954,267.2699890136719,3.146970272064209,5.556970119476318
