timestamp,TimeUS,C,Q1,Q2,Q3,Q4
1679661711.47833896,459571260,2,0.9907200932502747,-0.006725154351443052,-0.00034291433985345066,-0.1357511281967163
1679661711.57834101,459671262,2,0.9907293915748596,-0.006728838663548231,-0.00032076681964099407,-0.13568298518657684
1679661711.67833304,459771254,2,0.9907432794570923,-0.006751696113497019,-0.00033334860927425325,-0.1355803906917572
1679661711.77828693,459871208,2,0.9907534718513489,-0.006768506485968828,-0.0003680599620565772,-0.13550499081611633
1679661711.87829900,459971220,2,0.9907658100128174,-0.0067626433447003365,-0.0003608823171816766,-0.13541501760482788
1679661711.97828507,460071206,2,0.9907795786857605,-0.006807927042245865,-0.0003513502306304872,-0.13531193137168884
1679661712.07828498,460171206,2,0.990775465965271,-0.006753473076969385,-0.0003167548275087029,-0.1353451907634735
1679661712.17829394,460271215,2,0.9907755851745605,-0.006791298743337393,-0.0003388890763744712,-0.13534195721149445
1679661712.27833509,460371256,2,0.9907793998718262,-0.006756916176527739,-0.0003502281033433974,-0.13531598448753357
1679661712.37833500,460471256,2,0.9907804727554321,-0.0067505850456655025,-0.00038591446354985237,-0.13530828058719635
1679661712.47834396,460571265,2,0.9907785654067993,-0.0067681516520679,-0.0004005797381978482,-0.1353214532136917
1679661712.57833505,460671256,2,0.9907913208007812,-0.006821069400757551,-0.00044685916509479284,-0.13522514700889587
1679661712.67828393,460771205,2,0.9908006191253662,-0.006834523286670446,-0.00043880625162273645,-0.1351565271615982
1679661712.77829695,460871218,2,0.9908035397529602,-0.006815052591264248,-0.00048121970030479133,-0.13513566553592682
1679661712.87829590,460971217,2,0.9908026456832886,-0.006798360031098127,-0.000487134006107226,-0.13514310121536255
1679661712.97829509,461071216,2,0.9907958507537842,-0.006801064591854811,-0.00044673614320345223,-0.1351928412914276
1679661713.07831097,461171232,2,0.9907897114753723,-0.006821282673627138,-0.00040859702858142555,-0.13523715734481812
1679661713.17832398,461271245,2,0.9907843470573425,-0.006892132572829723,-0.0003844083403237164,-0.13527272641658783
1679661713.27833605,461371257,2,0.990777313709259,-0.006899742409586906,-0.0003805890155490488,-0.13532403111457825
1679661713.37833691,461471258,2,0.9907742142677307,-0.006922265514731407,-0.00038152263732627034,-0.1353454738855362
1679661713.47833800,461571259,2,0.9907647371292114,-0.006900815758854151,-0.00040647832793183625,-0.13541574776172638
1679661713.57830000,461671221,2,0.9907673001289368,-0.006883302703499794,-0.0003821495338343084,-0.1353980153799057
1679661713.67829490,461771216,2,0.9907769560813904,-0.006930199451744556,-0.0004023209330625832,-0.13532491028308868
1679661713.77830195,461871223,2,0.9907916784286499,-0.0069570159539580345,-0.0004654735676012933,-0.13521558046340942
1679661713.87829399,461971215,2,0.9908077716827393,-0.006977040786296129,-0.0004949625581502914,-0.1350962370634079
1679661713.97829008,462071211,2,0.9908229112625122,-0.00696616992354393,-0.0005134108942002058,-0.13498598337173462
1679661714.07834101,462171262,2,0.9908410310745239,-0.006919289939105511,-0.0005703438655473292,-0.13485495746135712
1679661714.17834902,462271270,2,0.9908499121665955,-0.006883782334625721,-0.0005600859876722097,-0.1347915381193161
1679661714.27834892,462371270,2,0.9908724427223206,-0.006894632708281279,-0.000546091643627733,-0.13462519645690918
1679661714.37833810,462471259,2,0.990874707698822,-0.006863896735012531,-0.000579675892367959,-0.1346101313829422
1679661714.47829795,462571219,2,0.9909023642539978,-0.0069060130044817924,-0.0006277177017182112,-0.13440410792827606
1679661714.57829189,462671213,2,0.9909315705299377,-0.006813551764935255,-0.0006632024305872619,-0.13419318199157715
1679661714.67829490,462771216,2,0.9908837080001831,-0.006742212921380997,-0.0006936507998034358,-0.1345493495464325
1679661714.77829790,462871219,2,0.9908927083015442,-0.006496916990727186,-0.0006457638228312135,-0.13449527323246002
1679661714.87830210,462971223,2,0.9909095168113708,-0.0059841531328856945,-0.000627829460427165,-0.13439522683620453
1679661714.97835493,463071276,2,0.9908853769302368,-0.006632241420447826,-0.0004633912758436054,-0.13454337418079376
1679661715.07834196,463171263,2,0.9909141659736633,-0.006043857894837856,-0.0006625467212870717,-0.1343584954738617
1679661715.17834592,463271267,2,0.9909135699272156,-0.006403337698429823,-0.0005445426213555038,-0.13434657454490662
1679661715.27834296,463371264,2,0.9908511638641357,-0.006007021758705378,-0.0006149098044261336,-0.1348240077495575
1679661715.37829399,463471215,2,0.9908561706542969,-0.006207682657986879,-0.000635514035820961,-0.1347779929637909
1679661715.47829509,463571216,2,0.9908668994903564,-0.006208861246705055,-0.000667059444822371,-0.13469910621643066
1679661715.57831097,463671232,2,0.9908351302146912,-0.006160285789519548,-0.0006232622545212507,-0.13493473827838898
1679661715.67828989,463771211,2,0.9908767342567444,-0.006519583985209465,-0.0005977919790893793,-0.13461236655712128
1679661715.77829504,463871216,2,0.9909223318099976,-0.005827328190207481,-0.0004111742600798607,-0.13430875539779663
1679661715.87835789,463971279,2,0.9909350275993347,-0.005752646364271641,0.0009044812177307904,-0.13421565294265747
1679661715.97834086,464071262,2,0.99103844165802,-0.0036324281245470047,0.0032477951608598232,-0.1334882378578186
1679661716.07835889,464171280,2,0.9910748600959778,0.002483593299984932,0.0028946129605174065,-0.13325203955173492
1679661716.17834306,464271264,2,0.9910032153129578,0.00879830215126276,-0.0026474229525774717,-0.13352252542972565
1679661716.27829409,464371215,2,0.9908983707427979,0.009979717433452606,-0.007703200448304415,-0.13402053713798523
1679661716.37829399,464471215,2,0.9908134937286377,0.006368233356624842,-0.008845205418765545,-0.13479572534561157
1679661716.47830796,464571229,2,0.9907852411270142,0.001296325819566846,-0.002284925663843751,-0.13541659712791443
1679661716.57829905,464671220,2,0.9906878471374512,-0.002422786783427,0.006692195311188698,-0.13596661388874054
1679661716.67830396,464771225,2,0.9905716776847839,-0.0015431002248078585,0.010598024353384972,-0.13657601177692413
1679661716.77835703,464871278,2,0.990429162979126,-0.000413110334193334,0.009491014294326305,-0.13769465684890747
1679661716.87834597,464971267,2,0.9903004765510559,-0.00013299768033903092,0.007737891282886267,-0.13872671127319336
1679661716.97835088,465071272,2,0.9901859760284424,0.0009866375476121902,0.0024724716786295176,-0.13973067700862885
1679661717.07834697,465171268,2,0.9900645017623901,0.003220096928998828,-0.00697613088414073,-0.1404038369655609
1679661717.17829990,465271221,2,0.9900179505348206,0.0038366764783859253,-0.007971417158842087,-0.14066334068775177
1679661717.27829194,465371213,2,0.9900712966918945,0.0035897151101380587,-0.0010788434883579612,-0.14051616191864014
1679661717.37829590,465471217,2,0.9900815486907959,0.0033875524532049894,0.0012871762737631798,-0.140447199344635
1679661717.47829509,465571216,2,0.9901313185691833,0.0034088962711393833,0.0017165708122774959,-0.14009051024913788
1679661717.57833600,465671257,2,0.9901815056800842,0.004977897275239229,0.008248662576079369,-0.13945543766021729
1679661717.67834687,465771268,2,0.9901913404464722,0.00693085789680481,0.01181311346590519,-0.13904517889022827
1679661717.77834797,465871269,2,0.9903217554092407,0.008633741177618504,0.007596692070364952,-0.1383131891489029
1679661717.87835407,465971275,2,0.990405797958374,0.009672154672443867,0.0012100585736334324,-0.13784553110599518
1679661717.97834587,466071267,2,0.9904046654701233,0.009092395193874836,-0.00708443159237504,-0.13771624863147736
1679661718.07829499,466171216,2,0.9901692271232605,0.007231723517179489,-0.019250692799687386,-0.13835455477237701
1679661718.17830300,466271224,2,0.026709111407399178,-0.015290016308426857,0.013956991955637932,0.9994288682937622
1679661718.27829790,466371219,2,0.03314153850078583,-0.0005987891345284879,0.007824938744306564,0.9994198679924011
1679661718.37830305,466471224,2,0.04440180957317352,0.021072154864668846,-0.0009193707956001163,0.9987910389900208
1679661718.47830105,466571222,2,0.05606123059988022,0.025798732414841652,-0.004177394323050976,0.9980852007865906
1679661718.57835388,466671275,2,0.06521924585103989,0.01727629452943802,-0.002836567582562566,0.9977173805236816
1679661718.67836809,466771289,2,0.07441329210996628,0.0070488182827830315,-0.0015137094305828214,0.9972014427185059
1679661718.77834201,466871263,2,0.08009854704141617,-0.001437716418877244,0.001046565594151616,0.9967853426933289
1679661718.87834787,466971269,2,0.08283323049545288,-0.0076814196072518826,0.0032520899549126625,0.9965285062789917
1679661718.97829604,467071217,2,0.08078615367412567,-0.009351263754069805,0.004547830671072006,0.9966772198677063
1679661719.07830310,467171224,2,0.0784321054816246,-0.009355000220239162,0.0032755094580352306,0.9968701601028442
1679661719.17830491,467271226,2,0.07519738376140594,-0.009430118836462498,0.0014057090738788247,0.9971230626106262
1679661719.27830410,467371225,2,0.07259628176689148,-0.009060696698725224,-0.00029241727315820754,0.9973202347755432
1679661719.37829399,467471215,2,0.06990780681371689,-0.009002004750072956,-0.0013055129675194621,0.9975119829177856
1679661719.47834992,467571271,2,0.06851013004779816,-0.00848485343158245,-0.001474136603064835,0.997613251209259
1679661719.57835603,467671277,2,0.0674937441945076,-0.007427060976624489,-0.001216107397340238,0.9976913332939148
1679661719.67834687,467771268,2,0.06701647490262985,-0.006578146945685148,-0.0010999678634107113,0.9977295994758606
1679661719.77833986,467871261,2,0.06650560349225998,-0.007081757299602032,-0.0004988774890080094,0.9977607727050781
1679661719.87830305,467971224,2,0.06632126122713089,-0.0065864990465343,0.0008880862733349204,0.997776210308075
1679661719.97830296,468071224,2,0.06590717285871506,-0.006697442848235369,0.002778075635433197,0.9977993965148926
1679661720.07829094,468171212,2,0.06493014842271805,-0.010504203848540783,0.004240379203110933,0.9978255033493042
1679661720.17829990,468271221,2,0.06390278786420822,-0.015930309891700745,0.005267573054879904,0.9978150725364685
1679661720.27829194,468371213,2,0.0630040392279625,-0.0168349277228117,0.0052957539446651936,0.9978572130203247
1679661720.37834287,468471264,2,0.06220068037509918,-0.013056430965662003,0.004456090275198221,0.997968316078186
1679661720.47835207,468571273,2,0.06106674298644066,-0.012074396014213562,0.002355017000809312,0.9980578422546387
1679661720.57833910,468671260,2,0.060037557035684586,-0.01836737059056759,0.000922385894227773,0.9980266690254211
1679661720.67834806,468771269,2,0.06020573899149895,-0.026215719059109688,-0.0031179951038211584,0.9978368282318115
1679661720.77829003,468871211,2,0.06091541424393654,-0.02611904963850975,-0.013058341108262539,0.9977157115936279
1679661720.87831306,468971234,2,0.06160030514001846,-0.01848583109676838,-0.029120493680238724,0.997504711151123
1679661720.97831202,469071233,2,0.062006719410419464,-0.01061981450766325,-0.04797309637069702,0.9968655705451965
1679661721.07829809,469171219,2,0.06270795315504074,-0.00602077366784215,-0.04665401577949524,0.9969226717948914
1679661721.17829108,469271212,2,0.06446069478988647,-0.0035969787277281284,-0.020179253071546555,0.9977096915245056
1679661721.27834892,469371270,2,0.06671255826950073,-0.002208499237895012,0.0015730408485978842,0.9977685809135437
1679661721.37834692,469471268,2,0.06950446963310242,-0.002489881357178092,0.007259426638484001,0.9975520968437195
1679661721.47834206,469571263,2,0.07280802726745605,-0.004184493329375982,0.005406839773058891,0.9973225593566895
1679661721.57834506,469671266,2,0.07548657804727554,-0.009948437102138996,0.004176311194896698,0.9970884323120117
1679661721.67829800,469771219,2,0.07667652517557144,-0.02033488266170025,0.004223538096994162,0.996839702129364
1679661721.77829409,469871215,2,0.07668270915746689,-0.02695239894092083,0.004300125874578953,0.9966819286346436
1679661721.87830806,469971229,2,0.07527073472738266,-0.03008807823061943,0.00478652399033308,0.9966976046562195
1679661721.97829509,470071216,2,0.07277967035770416,-0.033474333584308624,0.005693627987056971,0.9967698454856873
1679661722.07829690,470171218,2,0.07023269683122635,-0.033599603921175,0.011447645723819733,0.996898889541626
1679661722.17835593,470271277,2,0.06802395731210709,-0.030445683747529984,0.019209468737244606,0.9970340132713318
1679661722.27835894,470371280,2,0.06593170017004013,-0.031027819961309433,0.023125221952795982,0.9970734715461731
1679661722.37835097,470471272,2,0.06453297287225723,-0.0307544507086277,0.024532414972782135,0.9971398115158081
1679661722.47834206,470571263,2,0.0634862557053566,-0.02771228551864624,0.018539851531386375,0.9974255561828613
1679661722.57829595,470671217,2,0.06236180663108826,-0.028314873576164246,0.006009923759847879,0.9976337552070618
1679661722.67829704,470771218,2,0.0617348738014698,-0.027885671705007553,-0.00190199154894799,0.9977011680603027
1679661722.77829289,470871214,2,0.06138656660914421,-0.020304091274738312,-0.003366533201187849,0.9979018568992615
1679661722.87829494,470971216,2,0.06151190772652626,-0.015333984047174454,-0.002447408391162753,0.9979855418205261
1679661722.97829509,471071216,2,0.062068819999694824,-0.015049255453050137,0.005692393984645605,0.9979421496391296
1679661723.07832503,471171246,2,0.06328454613685608,-0.010290832258760929,0.01987134851515293,0.997744619846344
1679661723.17834496,471271266,2,0.06485815346240997,-0.0037065481301397085,0.028882520273327827,0.9974695444107056
1679661723.27834892,471371270,2,0.06595106422901154,-0.002964657498523593,0.030421871691942215,0.9973545670509338
1679661723.37835002,471471271,2,0.06630199402570724,-0.0038638648111373186,0.028682470321655273,0.9973797798156738
1679661723.47830009,471571221,2,0.06608825922012329,-0.002425700891762972,0.0238049179315567,0.9975268244743347
1679661723.57833004,471671251,2,0.06497086584568024,-0.0006310370517894626,0.017424246296286583,0.9977348446846008
1679661723.67828703,471771208,2,0.0631486028432846,-0.0004961243830621243,0.014135967008769512,0.9979038834571838
1679661723.77829599,471871217,2,0.061105549335479736,-0.0013865629443898797,0.012035678140819073,0.9980577826499939
1679661723.87831092,471971232,2,0.05953102186322212,-0.002380262827500701,0.009619663469493389,0.9981772899627686
1679661723.97836304,472071284,2,0.05820690095424652,-0.0020751934498548508,0.008321667090058327,0.9982677102088928
1679661724.07834101,472171262,2,0.057791370898485184,-0.0012979133753105998,0.0071357241831719875,0.9983023405075073
1679661724.17834592,472271267,2,0.05740012973546982,-0.002044747583568096,0.0012043275637552142,0.9983484148979187
1679661724.27834487,472371266,2,0.05740053579211235,-0.0017933270428329706,-0.0038639865815639496,0.9983421564102173
1679661724.37835097,472471272,2,0.05779920145869255,-0.0008781485958024859,-0.004850307479500771,0.9983160495758057
1679661724.47830701,472571228,2,0.03643510490655899,7.701894355705008e-05,0.005469985771924257,-0.9993210434913635
1679661724.57831097,472671232,2,0.03340807557106018,1.2518614312284626e-05,0.0051316162571311,-0.9994286298751831
1679661724.67829609,472771217,2,0.028296837583184242,-0.0002050190669251606,0.004048032686114311,-0.9995913505554199
1679661724.77829909,472871220,2,0.023156683892011642,-0.001107014250010252,0.002286044415086508,-0.9997286200523376
1679661724.87836695,472971288,2,0.01942627504467964,-0.0017526077572256327,0.0003536283620633185,-0.9998096823692322
1679661724.97834492,473071266,2,0.016981707885861397,-0.002497811568900943,-0.0008506900630891323,-0.9998522996902466
1679661725.07834291,473171264,2,0.014288641512393951,-0.0028037114534527063,-0.0019786320626735687,-0.999891996383667
1679661725.17833996,473271261,2,0.01214626058936119,-0.002253687009215355,-0.0022466210648417473,-0.9999211430549622
1679661725.27830100,473371222,2,0.011336896568536758,-0.0011373577872291207,-0.0017654027324169874,-0.9999335408210754
1679661725.37829208,473471213,2,0.013113584369421005,-0.00017257723084185272,-0.0009477169369347394,-0.9999135732650757
1679661725.47831702,473571238,2,0.01698717288672924,0.0006030705408193171,-2.9330531106097624e-05,-0.9998555183410645
1679661725.57830405,473671225,2,0.022314561530947685,0.0017159490380436182,0.0014039812376722693,-0.9997485280036926
1679661725.67829704,473771218,2,0.02789199724793434,0.0021586830262094736,0.0023248246870934963,-0.9996058940887451
1679661725.77835703,473871278,2,0.03287637233734131,0.0021484633907675743,0.002011593896895647,-0.9994550943374634
1679661725.87836194,473971283,2,0.03659835457801819,0.00295458547770977,0.0020158998668193817,-0.9993236660957336
1679661725.97833991,474071261,2,0.039034269750118256,0.0024316771887242794,0.0023286016657948494,-0.9992321729660034
1679661726.07834601,474171267,2,0.040743615478277206,0.0016758160199970007,0.0030632694251835346,-0.9991635084152222
1679661726.17829800,474271219,2,0.04065120592713356,0.0014540862757712603,0.00317687401548028,-0.999167263507843
1679661726.27829504,474371216,2,0.03894950821995735,0.0009675644687376916,0.00313741248100996,-0.9992358088493347
1679661726.37830901,474471230,2,0.0357733815908432,0.00019825685012619942,0.0026874677278101444,-0.9993562698364258
1679661726.47829700,474571218,2,0.03147323802113533,-0.0009168030810542405,0.002420129021629691,-0.9995012283325195
1679661726.57829189,474671213,2,0.026584817096590996,-0.0057526277378201485,0.0021094533149152994,-0.9996277689933777
1679661726.67835307,474771274,2,0.02200581133365631,-0.016210049390792847,0.0013893330469727516,-0.9996254444122314
1679661726.77834892,474871270,2,0.019078895449638367,-0.025508670136332512,-0.0002689251850824803,-0.9994924664497375
1679661726.87834287,474971264,2,0.017750738188624382,-0.024580558761954308,-0.001192897791042924,-0.9995395541191101
1679661726.97834396,475071265,2,0.01755283586680889,-0.01419482845813036,-0.004216531291604042,-0.9997362494468689
1679661727.07830310,475171224,2,0.01770317181944847,-0.003681291826069355,-0.011431136168539524,-0.9997711777687073
1679661727.17829800,475271219,2,0.018246574327349663,0.00019748399790842086,-0.01599164307117462,-0.9997056126594543
1679661727.27830100,475371222,2,0.020774176344275475,0.0008042466943152249,-0.017081912606954575,-0.9996379613876343
1679661727.37831092,475471232,2,0.024540724232792854,0.0016360116424039006,-0.017683707177639008,-0.9995411038398743
1679661727.47830200,475571223,2,0.02944963425397873,-0.0019567557610571384,-0.016450202092528343,-0.9994289875030518
1679661727.57837486,475671296,2,0.03457082808017731,-0.012589438818395138,-0.012735540047287941,-0.9992417693138123
1679661727.67834306,475771264,2,0.03974924609065056,-0.021032730117440224,-0.010100157931447029,-0.9989372491836548
1679661727.77834392,475871265,2,0.043996892869472504,-0.024930153042078018,-0.009308259934186935,-0.9986771941184998
1679661727.87834907,475971270,2,0.04717741534113884,-0.02549930475652218,-0.008833382278680801,-0.9985219240188599
1679661727.97830105,476071222,2,0.04937434569001198,-0.0241763424128294,-0.008553124032914639,-0.9984510540962219
1679661728.07829499,476171216,2,0.050810057669878006,-0.021158261224627495,-0.008790368214249611,-0.9984455108642578
1679661728.17830706,476271228,2,0.051521848887205124,-0.017623964697122574,-0.00910902488976717,-0.9984747767448425
1679661728.27829790,476371219,2,0.052642788738012314,-0.016343867406249046,-0.009739992208778858,-0.9984321594238281
1679661728.37828994,476471211,2,0.05400239676237106,-0.01702282577753067,-0.01067845057696104,-0.9983385801315308
1679661728.47835398,476571275,2,0.056304335594177246,-0.01653643697500229,-0.011667216196656227,-0.9982085227966309
1679661728.57834506,476671266,2,0.058286152780056,-0.013438981026411057,-0.009685023687779903,-0.9981624484062195
1679661728.67834496,476771266,2,0.05901024118065834,-0.00629677576944232,-0.005889778956770897,-0.9982201457023621
1679661728.77834105,476871262,2,0.057481344789266586,0.001400602632202208,-0.0036312376614660025,-0.9983389973640442
1679661728.87833309,476971254,2,0.05510324984788895,0.004637022037059069,-0.0032540273386985064,-0.9984645843505859
1679661728.97830105,477071222,2,0.05137447267770767,0.0049877711571753025,-0.003471018746495247,-0.9986609816551208
1679661729.07830000,477171221,2,0.0470191091299057,0.00030001846607774496,-0.0035756374709308147,-0.9988875389099121
1679661729.17829204,477271213,2,0.04184630513191223,-0.010307303629815578,-0.0035698257852345705,-0.9990645051002502
1679661729.27829289,477371214,2,0.03767471760511398,-0.018213940784335136,-0.003870239481329918,-0.9991165399551392
1679661729.37834597,477471267,2,0.03382733464241028,-0.017857221886515617,-0.0046171098947525024,-0.999257504940033
1679661729.47834396,477571265,2,0.03063732199370861,-0.01304639969021082,-0.004665958695113659,-0.9994345307350159
1679661729.57836008,477671281,2,0.02749258279800415,-0.006365918088704348,-0.003575657494366169,-0.9995953440666199
1679661729.67833996,477771261,2,0.024613508954644203,0.0005905411089770496,-0.002745198318734765,-0.9996930956840515
1679661729.77830005,477871221,2,0.022984232753515244,0.003501530271023512,-0.002280263230204582,-0.9997270703315735
1679661729.87830687,477971228,2,0.02272467128932476,0.0010856394656002522,-0.001703342772088945,-0.9997397065162659
1679661729.97829008,478071211,2,0.024176249280571938,-0.0012862903531640768,-0.0009742502588778734,-0.9997063875198364
1679661730.07830310,478171224,2,0.028126651421189308,3.557247691787779e-05,-0.00018426275346428156,-0.999604344367981
1679661730.17829609,478271217,2,0.032534755766391754,0.002060355618596077,0.0012644142843782902,-0.999467670917511
1679661730.27834201,478371263,2,0.03553491830825806,0.0033449798356741667,0.0016360942972823977,-0.999361515045166
1679661730.37834191,478471263,2,0.037752244621515274,0.00411865022033453,0.0011524882866069674,-0.9992779493331909
1679661730.47835493,478571276,2,0.03983217105269432,0.003921683877706528,0.0007682012510485947,-0.9991983771324158
1679661730.57834101,478671262,2,0.04186784476041794,0.0023815894965082407,0.0008590264478698373,-0.9991199374198914
1679661730.67829800,478771219,2,0.04431471228599548,-0.0033952719531953335,0.0005951958009973168,-0.9990116953849792
1679661730.77829599,478871217,2,0.04753635823726654,-0.011509901843965054,0.0007220418192446232,-0.9988029599189758
1679661730.87829208,478971213,2,0.05122753977775574,-0.01277322880923748,0.0010043345391750336,-0.9986048340797424
1679661730.97829604,479071217,2,0.0546392947435379,-0.009452138096094131,0.0016902234638109803,-0.9984599947929382
1679661731.07830405,479171225,2,0.056674204766750336,-0.007113794330507517,0.001448994386009872,-0.9983663558959961
1679661731.17835999,479271281,2,0.05897348001599312,-0.0027574249543249607,0.0018523469334468246,-0.9982540011405945
1679661731.27835894,479371280,2,0.061436790972948074,0.0008013200131244957,0.002395116025581956,-0.9981077909469604
1679661731.37834287,479471264,2,0.06386828422546387,-0.003220844315364957,0.0018302047392353415,-0.9979514479637146
1679661731.47834206,479571263,2,0.0658458024263382,-0.01049917284399271,-6.729706365149468e-05,-0.9977745413780212
1679661731.57829809,479671219,2,0.06845005601644516,-0.006213770713657141,-0.0016034082509577274,-0.9976339340209961
1679661731.67829299,479771214,2,0.07097775489091873,0.003172939643263817,-0.0005697037559002638,-0.9974727034568787
1679661731.77830100,479871222,2,0.07256411015987396,0.00676890229806304,0.001394185470417142,-0.9973397850990295
1679661731.87830496,479971226,2,0.07370250672101974,0.005959639325737953,0.0026134622748941183,-0.9972590208053589
1679661731.97829294,480071214,2,0.07503697276115417,0.005660397931933403,0.0028089024126529694,-0.9971607327461243
1679661732.07836390,480171285,2,0.07697802782058716,0.0053877877071499825,0.001609067665413022,-0.9970169067382812
1679661732.17835402,480271275,2,0.07903696596622467,0.004736029077321291,0.00010118138743564487,-0.9968604445457458
1679661732.27835298,480371274,2,0.08130130171775818,0.004199144430458546,-0.0008566749165765941,-0.9966803789138794
1679661732.37834597,480471267,2,0.08403687179088593,0.003492517163977027,-0.0014334768056869507,-0.9964554905891418
1679661732.47830009,480571221,2,0.08643230050802231,0.003008298808708787,-0.0012836441164836287,-0.9962523579597473
1679661732.57829499,480671216,2,0.08849760890007019,0.002836585510522127,-0.002075666794553399,-0.9960702061653137
1679661732.67828894,480771210,2,0.09012347459793091,0.003923093434423208,-0.009510486386716366,-0.9958774447441101
1679661732.77829194,480871213,2,0.09210371226072311,0.005532404873520136,-0.021146167069673538,-0.9955095052719116
1679661732.87829304,480971214,2,0.09380790591239929,0.0067739528603851795,-0.025674473494291306,-0.9952361583709717
1679661732.97834492,481071266,2,0.09555573016405106,0.006866199895739555,-0.023511696606874466,-0.9951226711273193
1679661733.07834387,481171265,2,0.09752658009529114,0.005824719090014696,-0.017137831076979637,-0.9950683116912842
1679661733.17833805,481271259,2,0.09926223754882812,0.004513246472924948,-0.010175693780183792,-0.9949990510940552
1679661733.27835488,481371276,2,0.10093509405851364,0.003338984912261367,-0.004212407395243645,-0.9948784708976746
1679661733.37830091,481471222,2,0.10191266983747482,0.002573874779045582,0.0011050202883780003,-0.9947894215583801
1679661733.47830009,481571221,2,0.10308362543582916,0.002349895890802145,0.0033274239394813776,-0.9946643710136414
1679661733.57829690,481671218,2,0.1036435142159462,0.001605162164196372,0.002500229747965932,-0.994610071182251
1679661733.67829990,481771221,2,0.10451947152614594,0.0007500232895836234,0.0014455554774031043,-0.9945214986801147
1679661733.77829194,481871213,2,0.10488419979810715,0.00036473124055191875,0.0007765102782286704,-0.9944840669631958
1679661733.87835002,481971271,2,0.10522882640361786,0.0004518413043115288,-0.00019473431166261435,-0.9944478869438171
1679661733.97834086,482071262,2,0.10483875870704651,0.0005626304191537201,-0.0005434309132397175,-0.9944889545440674
1679661734.07833600,482171257,2,0.10399140417575836,0.0004925407120026648,-0.0008071294287219644,-0.9945777654647827
1679661734.17834496,482271266,2,0.10261180251836777,-0.0003685305709950626,-0.0010561090894043446,-0.9947208762168884
1679661734.27829695,482371218,2,0.10035229474306107,-0.0007571221212856472,-0.0011815258767455816,-0.9949509501457214
1679661734.37828994,482471211,2,0.09737903624773026,-0.0005202142056077719,-0.0012624409282580018,-0.995246410369873
1679661734.47830296,482571224,2,0.09411711990833282,-0.000562303583137691,-0.0018815759103745222,-0.9955592155456543
1679661734.57830691,482671228,2,0.09007542580366135,-0.0011889802990481257,-0.0026471400633454323,-0.9959307312965393
1679661734.67830300,482771224,2,0.08580560982227325,-0.0014989373739808798,-0.0031351379584521055,-0.9963058233261108
1679661734.77835393,482871275,2,0.0811193659901619,-0.0005991738871671259,-0.0031240805983543396,-0.996699333190918
1679661734.87834597,482971267,2,0.07527777552604675,0.0012495858827605844,-0.0033044368028640747,-0.9971563220024109
1679661734.97834301,483071264,2,0.06833817809820175,0.0025533437728881836,-0.004113086499273777,-0.9976504445075989
1679661735.07834005,483171261,2,0.06079956516623497,0.0037009529769420624,-0.004065352957695723,-0.9981348514556885
1679661735.17829990,483271221,2,0.05231242999434471,0.0013627440202981234,-0.0042558046989142895,-0.9986207485198975
1679661735.27829695,483371218,2,0.043915607035160065,0.0005202910397201777,-0.00402497686445713,-0.9990270137786865
1679661735.37829900,483471220,2,0.03550763428211212,0.0032199067063629627,-0.0035887188278138638,-0.9993577599525452
1679661735.47830296,483571224,2,0.028859617188572884,0.004152349196374416,-0.002370517933741212,-0.9995720386505127
1679661735.57831097,483671232,2,0.02463451586663723,0.003735878737643361,-0.001200496219098568,-0.9996888041496277
1679661735.67835593,483771277,2,0.0215647853910923,0.004625609610229731,-0.0011288314126431942,-0.9997560977935791
1679661735.77834105,483871262,2,0.019465459510684013,0.007853385992348194,-0.0009423286537639797,-0.999779224395752
1679661735.87834692,483971268,2,0.018251853063702583,0.015527559444308281,-3.418621781747788e-05,-0.9997128248214722
1679661735.97834706,484071268,2,0.01876787096261978,0.027421781793236732,0.0014791603898629546,-0.9994466304779053
1679661736.07830310,484171224,2,0.02049177512526512,0.03632263094186783,0.0029618199914693832,-0.999125599861145
1679661736.17829490,484271216,2,0.02301785536110401,0.03944086655974388,0.003672973485663533,-0.9989500045776367
1679661736.27829289,484371214,2,0.024525322020053864,0.035400547087192535,0.0028460079338401556,-0.9990682005882263
1679661736.37828803,484471209,2,0.025528747588396072,0.03031240589916706,0.000869935320224613,-0.9992140531539917
1679661736.47830486,484571226,2,0.026453182101249695,0.026938240975141525,-0.00048114158562384546,-0.9992868900299072
1679661736.57835698,484671278,2,0.02749975211918354,0.02545888163149357,-0.0013849076349288225,-0.9992966055870056
1679661736.67837596,484771297,2,0.02882572077214718,0.02594269998371601,-0.0016219635726884007,-0.9992464184761047
1679661736.77834296,484871264,2,0.03154167905449867,0.02739398367702961,-0.0011994638480246067,-0.9991262555122375
1679661736.87834907,484971270,2,0.035918381065130234,0.027901003137230873,0.002847657073289156,-0.9989610910415649
1679661736.97830796,485071229,2,0.04050947725772858,0.030606739223003387,0.008119078353047371,-0.9986772537231445
1679661737.07829404,485171215,2,0.045046042650938034,0.034394215792417526,0.010800785385072231,-0.9983342289924622
1679661737.17829108,485271212,2,0.049025531858205795,0.0360969640314579,0.012357630766928196,-0.9980685114860535
1679661737.27829409,485371215,2,0.05190081521868706,0.03621857985854149,0.01213665772229433,-0.9979214668273926
1679661737.37829804,485471219,2,0.052818551659584045,0.03607103228569031,0.00992571096867323,-0.9979031085968018
1679661737.47834492,485571266,2,0.05062214657664299,0.03558601066470146,0.007174619939178228,-0.9980579018592834
1679661737.57834888,485671270,2,0.04500630125403404,0.03469550609588623,0.0038408872205764055,-0.9983766078948975
1679661737.67835307,485771274,2,0.03727714344859123,0.032652597874403,0.0017826150869950652,-0.9987697601318359
1679661737.77833986,485871261,2,0.02862427942454815,0.028381001204252243,0.0005594765534624457,-0.9991871118545532
1679661737.87831187,485971233,2,0.021768981590867043,0.016114797443151474,0.004278333391994238,-0.9996240139007568
1679661737.97829890,486071220,2,0.015829049050807953,0.003902687691152096,0.009401488117873669,-0.9998229146003723
1679661738.07830095,486171222,2,0.011051432229578495,-0.0005827057175338268,0.013102097436785698,-0.9998528957366943
1679661738.17830300,486271224,2,0.007925175130367279,-0.0006243724492378533,0.021018289029598236,-0.9997474551200867
1679661738.27829599,486371217,2,0.007508434820920229,-0.000812746468000114,0.03043329529464245,-0.999508261680603
1679661738.37835288,486471274,2,0.007626794744282961,-0.0019803817849606276,0.0341913141310215,-0.9993842244148254
1679661738.47835588,486571277,2,0.007549681700766087,-0.002332099014893174,0.03404479846358299,-0.9993890523910522
1679661738.57834387,486671265,2,0.006510338746011257,-0.0015266186092048883,0.03389589861035347,-0.9994029998779297
1679661738.67834187,486771263,2,0.0055447970516979694,-0.00032418331829831004,0.03267630562186241,-0.9994505643844604
1679661738.77829003,486871211,2,0.004557293839752674,0.0004976456984877586,0.03227107971906662,-0.9994686245918274
1679661738.87830806,486971229,2,0.0035991505719721317,0.0011311231646686792,0.0338498130440712,-0.9994198083877563
1679661738.97830391,487071225,2,0.0035106088034808636,0.0023840467911213636,0.03564907982945442,-0.9993553757667542
1679661739.07830405,487171225,2,0.004707891959697008,0.0032713711261749268,0.033264752477407455,-0.9994301199913025
1679661739.17829990,487271221,2,0.005581470672041178,0.0037115414161235094,0.022141166031360626,-0.9997323751449585
1679661739.27836490,487371286,2,0.00675590056926012,0.0036177600268274546,0.003826793748885393,-0.9999632835388184
1679661739.37834597,487471267,2,0.00820718239992857,0.00285687786526978,-0.007048202678561211,-0.9999374151229858
1679661739.47834587,487571267,2,0.00973121915012598,0.0006488531362265348,-0.0036152363754808903,-0.999945878982544
1679661739.57834792,487671269,2,0.010808396153151989,-0.0028667734004557133,0.006213038694113493,-0.9999181628227234
1679661739.67829490,487771216,2,0.012300816364586353,-0.005606727208942175,0.011469743214547634,-0.9998428225517273
1679661739.77829003,487871211,2,0.01348163839429617,-0.006001085974276066,0.013093993067741394,-0.9998053908348083
1679661739.87829804,487971219,2,0.014577866531908512,-0.005235679913312197,0.013527322560548782,-0.9997885227203369
1679661739.97829890,488071220,2,0.015119125135242939,-0.004345442168414593,0.014632413163781166,-0.9997692108154297
1679661740.07829595,488171217,2,0.01597050577402115,-0.0035086385905742645,0.014504081569612026,-0.9997611045837402
1679661740.17834187,488271263,2,0.016656966879963875,-0.0037408580537885427,0.013219152577221394,-0.9997668862342834
1679661740.27837706,488371298,2,0.01782376877963543,-0.004558329936116934,0.008351028896868229,-0.9997958540916443
1679661740.37835407,488471275,2,0.01903429627418518,-0.005564284045249224,0.003208948066458106,-0.9997981786727905
1679661740.47835302,488571274,2,0.020667141303420067,-0.0063439030200243,0.001394649501889944,-0.9997653365135193
1679661740.57830191,488671223,2,0.022135434672236443,-0.005476735066622496,0.0007943740347400308,-0.9997396469116211
1679661740.67829490,488771216,2,0.023713544011116028,-0.005038968287408352,6.360925181070343e-05,-0.9997060894966125
1679661740.77829003,488871211,2,0.02436297945678234,-0.004962234292179346,-0.0006440252182073891,-0.9996906518936157
1679661740.87829590,488971217,2,0.024695049971342087,-0.005006495863199234,-0.0008373393793590367,-0.9996821284294128
1679661740.97830009,489071221,2,0.02462557703256607,-0.004815079737454653,-0.005506060551851988,-0.9996699690818787
1679661741.07835007,489171271,2,0.024545473977923393,-0.007852894254028797,-0.01100131031125784,-0.9996073246002197
1679661741.17835593,489271277,2,0.024068867787718773,-0.012982325628399849,-0.009425729513168335,-0.9995815753936768
1679661741.27834606,489371267,2,0.023209301754832268,-0.014548398554325104,-0.004774920176714659,-0.999613344669342
1679661741.37833810,489471259,2,0.021558698266744614,-0.0138938520103693,0.0006213035667315125,-0.9996708631515503
1679661741.47835708,489571278,2,0.019479384645819664,-0.020532455295324326,0.003929644823074341,-0.9995917081832886
1679661741.57830787,489671229,2,0.0171324722468853,-0.03080153279006481,0.004903306253254414,-0.9993666410446167
1679661741.67830706,489771228,2,0.014915600419044495,-0.03666534647345543,0.0034471761900931597,-0.9992103576660156
1679661741.77829599,489871217,2,0.013150465674698353,-0.042412593960762024,-0.0030358959920704365,-0.9990090131759644
1679661741.87830305,489971224,2,0.01196224708110094,-0.04948761686682701,-0.011212384328246117,-0.9986401796340942
1679661741.97834706,490071268,2,0.010412038303911686,-0.04752050340175629,-0.0179681945592165,-0.9986543655395508
1679661742.07834196,490171263,2,0.009579974226653576,-0.044245123863220215,-0.026568522676825523,-0.99862140417099
1679661742.17835402,490271275,2,0.008397388271987438,-0.0478224940598011,-0.033160701394081116,-0.9982699155807495
1679661742.27834105,490371262,2,0.007165010552853346,-0.050114914774894714,-0.03621345013380051,-0.9980610013008118
1679661742.37829709,490471218,2,0.005423889495432377,-0.04874782636761665,-0.03665663301944733,-0.9981235265731812
1679661742.47830892,490571230,2,0.0039561111479997635,-0.047100719064474106,-0.036392293870449066,-0.9982191324234009
1679661742.57830906,490671230,2,0.0024863090366125107,-0.04597369581460953,-0.03620099276304245,-0.9982833862304688
1679661742.67828989,490771211,2,0.0022523885127156973,-0.043673451989889145,-0.03640344366431236,-0.9983798861503601
1679661742.77830505,490871226,2,0.0028880282770842314,-0.042073775082826614,-0.03808584809303284,-0.9983841776847839
1679661742.87835193,490971273,2,0.0049774120561778545,-0.041280679404735565,-0.0393601655960083,-0.9983596205711365
1679661742.97835588,491071277,2,0.006839655805379152,-0.04102317988872528,-0.039860598742961884,-0.9983393549919128
1679661743.07834697,491171268,2,0.009487924166023731,-0.04058976098895073,-0.0389944352209568,-0.9983696341514587
1679661743.17834187,491271263,2,0.011994728818535805,-0.038770247250795364,-0.03811698034405708,-0.9984488487243652
1679661743.27829695,491371218,2,0.01567268930375576,-0.028827544301748276,-0.03485076129436493,-0.9988537430763245
1679661743.37829590,491471217,2,0.01981556974351406,-0.011991498060524464,-0.027667464688420296,-0.9993488192558289
1679661743.47830009,491571221,2,0.02518945373594761,0.0005716243176721036,-0.024085568264126778,-0.9993923306465149
1679661743.57830596,491671227,2,0.0302763469517231,0.008563150651752949,-0.025625567883253098,-0.9991763234138489
1679661743.67829108,491771212,2,0.03513437509536743,0.014654827304184437,-0.030127760022878647,-0.9988208413124084
1679661743.77835393,491871275,2,0.038564976304769516,0.016145292669534683,-0.03514549136161804,-0.9985073208808899
1679661743.87835598,491971277,2,0.04185809940099716,0.015344852581620216,-0.039273183792829514,-0.998233437538147
1679661743.97835088,492071272,2,0.0444001629948616,0.012107881717383862,-0.042656950652599335,-0.9980292916297913
1679661744.07834291,492171264,2,0.046354249119758606,0.0024234869051724672,-0.043614886701107025,-0.9979695081710815
1679661744.17830491,492271226,2,0.047169264405965805,-0.015019930899143219,-0.04342273250222206,-0.9978296160697937
1679661744.27830887,492371230,2,0.047452412545681,-0.029680835083127022,-0.042048659175634384,-0.9975466132164001
1679661744.37830496,492471226,2,0.047650840133428574,-0.03676281124353409,-0.03984217345714569,-0.9973918199539185
1679661744.47830987,492571231,2,0.04861436039209366,-0.03603248670697212,-0.03784859925508499,-0.9974496364593506
1679661744.57830095,492671222,2,0.05020979791879654,-0.02966713160276413,-0.036161746829748154,-0.9976428151130676
1679661744.67836905,492771290,2,0.05237619951367378,-0.023835094645619392,-0.033712830394506454,-0.9977735280990601
1679661744.77834392,492871265,2,0.054729003459215164,-0.016313668340444565,-0.027741575613617897,-0.9979824423789978
1679661744.87835693,492971278,2,0.057573992758989334,-0.0028119420167058706,-0.01606835052371025,-0.9982079863548279
1679661744.97834802,493071269,2,0.06011153757572174,0.007115286774933338,-0.006671332288533449,-0.9981440305709839
1679661745.07830000,493171221,2,0.06260335445404053,0.010578900575637817,-0.0012567724334076047,-0.997981607913971
1679661745.17829609,493271217,2,0.06445267051458359,0.012215234339237213,0.0013814863050356507,-0.9978450536727905
1679661745.27830195,493371223,2,0.06606154888868332,0.012820831499993801,0.0019234211649745703,-0.9977313280105591
1679661745.37830091,493471222,2,0.06758513301610947,0.011478457599878311,-0.0004766798811033368,-0.9976473450660706
1679661745.47829509,493571216,2,0.0688079223036766,0.007544566411525011,-0.003179364139214158,-0.9975963234901428
1679661745.57836604,493671287,2,0.06907245516777039,-0.0017272657714784145,-0.004723660182207823,-0.9975989460945129
1679661745.67834496,493771266,2,0.06891905516386032,-0.009336084127426147,-0.004761159420013428,-0.9975672364234924
1679661745.77834797,493871269,2,0.06777901202440262,-0.010587070137262344,-0.0048212651163339615,-0.9976325631141663
1679661745.87834501,493971266,2,0.06585684418678284,-0.010842513293027878,-0.004095063079148531,-0.9977617859840393
1679661745.97829890,494071220,2,0.06330028176307678,-0.009055453352630138,-0.001997598446905613,-0.9979514479637146
1679661746.07829809,494171219,2,0.0607505701482296,-0.0011446458520367742,0.00018436381651554257,-0.9981523156166077
1679661746.17829299,494271214,2,0.05804993212223053,0.00720927445217967,0.0017958389362320304,-0.9982860088348389
1679661746.27829409,494371215,2,0.055723752826452255,0.00977200735360384,0.0030866421293467283,-0.9983936548233032
1679661746.37829995,494471221,2,0.053364746272563934,0.00932016409933567,0.0031726390589028597,-0.9985265731811523
1679661746.47835803,494571279,2,0.051310859620571136,0.008904383517801762,0.0027537753339856863,-0.9986392259597778
1679661746.57834387,494671265,2,0.049604468047618866,0.007457931060343981,0.0024019863922148943,-0.9987382292747498
1679661746.67836094,494771282,2,0.04857340827584267,0.006207987666130066,0.0016570319421589375,-0.9987989664077759
1679661746.77834487,494871266,2,0.048601195216178894,0.005260599311441183,0.0007627973100170493,-0.9988040924072266
1679661746.87833905,494971260,2,0.04925880953669548,0.005542054772377014,6.198108894750476e-05,-0.9987706542015076
1679661746.97829604,495071217,2,0.04967999458312988,0.005651866551488638,-0.0002783729287330061,-0.9987491369247437
1679661747.07828808,495171209,2,0.05027061700820923,0.0061180926859378815,-0.0008770042331889272,-0.9987165331840515
1679661747.17829704,495271218,2,0.05109263211488724,0.00590924359858036,-2.403335747658275e-05,-0.9986764192581177
1679661747.27829289,495371214,2,0.051874950528144836,0.005591748747974634,0.0034667833242565393,-0.9986318945884705
1679661747.37832999,495471251,2,0.05262432619929314,0.004906133748590946,0.004342187196016312,-0.9985929131507874
1679661747.47834301,495571264,2,0.053447168320417404,0.004285464994609356,0.0029271503444761038,-0.9985572099685669
1679661747.57834101,495671262,2,0.05433787778019905,0.004100971855223179,0.0019331714138388634,-0.998512327671051
1679661747.67833900,495771260,2,0.05515459552407265,0.004486576654016972,0.0011986494064331055,-0.9984670281410217
1679661747.77830005,495871221,2,0.05608725920319557,0.0065294839441776276,0.0003957898879889399,-0.9984044432640076
1679661747.87830305,495971224,2,0.057124290615320206,0.010388819500803947,-0.00010950101568596438,-0.9983130097389221
1679661747.97830200,496071223,2,0.058364588767290115,0.009874467737972736,0.001323395292274654,-0.9982455968856812
1679661748.07829905,496171220,2,0.05942660942673683,0.008546499535441399,0.009516187012195587,-0.9981507062911987
1679661748.17830992,496271231,2,0.060587503015995026,0.008089670911431313,0.023611662909388542,-0.997850775718689
1679661748.27834487,496371266,2,0.061935316771268845,0.004802804905921221,0.0441349521279335,-0.9970923066139221
1679661748.37835908,496471280,2,0.063167043030262,0.000986326951533556,0.056517038494348526,-0.9964008927345276
1679661748.47834587,496571267,2,0.06446123123168945,0.0037852951791137457,0.053027693182229996,-0.9965031147003174
1679661748.57834101,496671262,2,0.0656314417719841,0.010425770655274391,0.04450325667858124,-0.9967964887619019
1679661748.67829609,496771217,2,0.06638164818286896,0.016061488538980484,0.0383882112801075,-0.9969261884689331
1679661748.77830005,496871221,2,0.06682349741458893,0.02304779924452305,0.03242773935198784,-0.9969713687896729
1679661748.87830091,496971222,2,0.06692472100257874,0.026973500847816467,0.02481095679104328,-0.9970847368240356
1679661748.97831392,497071235,2,0.06654444336891174,0.01808735355734825,0.015617580153048038,-0.9974972605705261
1679661749.07831097,497171232,2,0.0655132308602333,0.007435247302055359,0.0032284625340253115,-0.9978187680244446
1679661749.17834496,497271266,2,0.06382682174444199,0.0036185525823384523,-0.006742927245795727,-0.9979316592216492
1679661749.27835107,497371272,2,0.06175846979022026,0.0027912084478884935,-0.009790142066776752,-0.998039186000824
1679661749.37835002,497471271,2,0.05964634567499161,0.00228896364569664,-0.008369640447199345,-0.9981818795204163
1679661749.47834301,497571264,2,0.057342011481523514,0.00201887427829206,-0.006739521399140358,-0.9983298182487488
1679661749.57829905,497671220,2,0.05514628440141678,0.0022524718660861254,-0.004639295861124992,-0.9984649419784546
1679661749.67828798,497771209,2,0.05312414467334747,0.0019395205890759826,0.001868512830697,-0.9985842704772949
1679661749.77829099,497871212,2,0.05150835961103439,0.0027750700246542692,0.013110028579831123,-0.998582661151886
1679661749.87830091,497971222,2,0.05022168159484863,0.007311247754842043,0.01655205897986889,-0.9985741376876831
1679661749.97830105,498071222,2,0.049401700496673584,0.018092330545186996,0.013601605780422688,-0.9985224604606628
1679661750.07834291,498171264,2,0.04892820119857788,0.029732640832662582,0.013746428303420544,-0.9982650279998779
1679661750.17836094,498271282,2,0.04892841354012489,0.03487742692232132,0.015334675088524818,-0.9980753660202026
1679661750.27834988,498371271,2,0.04912103712558746,0.03285447135567665,0.017211351543664932,-0.99810391664505
1679661750.37835002,498471271,2,0.0495951808989048,0.027510736137628555,0.01947411149740219,-0.9982004761695862
1679661750.47830105,498571222,2,0.04982781037688255,0.02249843440949917,0.020682871341705322,-0.9982901811599731
1679661750.57829690,498671218,2,0.05022726207971573,0.01819288358092308,0.02131451480090618,-0.9983446002006531
1679661750.67829394,498771215,2,0.05076155439019203,0.015233726240694523,0.019474858418107033,-0.9984046816825867
1679661750.77828908,498871210,2,0.051124945282936096,0.008621025830507278,0.011139308102428913,-0.9985929131507874
1679661750.87829494,498971216,2,0.05145319923758507,-0.00041876337490975857,1.5600575352436863e-05,-0.9986753463745117
1679661750.97835302,499071274,2,0.05183637514710426,-0.004271612502634525,-0.005575172137469053,-0.9986308813095093
1679661751.07837200,499171293,2,0.05219540745019913,-0.003591568674892187,-0.005604372825473547,-0.9986147284507751
1679661751.17833805,499271259,2,0.052873045206069946,-0.0019477721070870757,-0.0041665006428956985,-0.9985906481742859
1679661751.27834988,499371271,2,0.05326830968260765,-0.00045890355249866843,-0.002427486702799797,-0.9985771775245667
1679661751.37829709,499471218,2,0.05373251810669899,0.0009054092806763947,-0.00040406809421256185,-0.9985548853874207
1679661751.47830391,499571225,2,0.05427657812833786,0.0013367228675633669,0.00070862757274881,-0.9985247850418091
1679661751.57830691,499671228,2,0.05483551695942879,0.0007137716165743768,0.001387030933983624,-0.9984942078590393
1679661751.67829800,499771219,2,0.05566662922501564,7.442283822456375e-05,0.0021352891344577074,-0.9984471201896667
1679661751.77830505,499871226,2,0.056403882801532745,-0.0004593785270117223,0.002087872475385666,-0.9984057545661926
1679661751.87835908,499971280,2,0.057252153754234314,-0.000651500013191253,0.0018057982670143247,-0.998357892036438
1679661751.97835708,500071278,2,0.05816049873828888,0.0005141909350641072,0.000914775300770998,-0.9983066916465759
1679661752.07833791,500171259,2,0.058913715183734894,0.002748004160821438,0.0007673708605580032,-0.9982590079307556
1679661752.17834091,500271262,2,0.0597657673060894,0.0033186732325702906,0.0008362910593859851,-0.9982065558433533
1679661752.27829409,500371215,2,0.06049969047307968,0.006330979987978935,0.0008659852901473641,-0.9981477856636047
1679661752.37830305,500471224,2,0.06129753589630127,0.013175137341022491,0.0013367098290473223,-0.9980316758155823
1679661752.47830009,500571221,2,0.061751555651426315,0.016502391546964645,0.0018517234129831195,-0.9979534149169922
1679661752.57830596,500671227,2,0.062290485948324203,0.013714375905692577,0.0024760570377111435,-0.9979607462882996
1679661752.67829609,500771217,2,0.06271970272064209,0.007250158581882715,0.002393260831013322,-0.9980019927024841
1679661752.77835107,500871272,2,0.06299364566802979,0.0029697169084101915,0.002109180437400937,-0.9980072975158691
1679661752.87834692,500971268,2,0.06326963007450104,0.0015864463057368994,0.0021088183857500553,-0.997992992401123
1679661752.97834706,501071268,2,0.0631624311208725,0.0007642420823685825,0.0022089334670454264,-0.9980005025863647
1679661753.07834005,501171261,2,0.06339994817972183,0.0006217685295268893,0.0020284755155444145,-0.9979859590530396
1679661753.17829299,501271214,2,0.06326238811016083,0.0008548109326511621,0.0018321160459890962,-0.9979948997497559
1679661753.27829289,501371214,2,0.06318798661231995,0.0015443781157955527,0.001304037170484662,-0.9979996085166931
1679661753.37829494,501471216,2,0.06321023404598236,0.0015681894728913903,0.0003345356381032616,-0.9979989528656006
1679661753.47829199,501571213,2,0.06318198144435883,0.0013129457365721464,-0.00041103706462308764,-0.9980010986328125
1679661753.57829905,501671220,2,0.06304046511650085,0.0007978106150403619,-0.0005755938473157585,-0.998010516166687
1679661753.67834687,501771268,2,0.06270650029182434,0.0009219089988619089,-0.0010759910801425576,-0.9980310201644897
1679661753.77834105,501871262,2,0.06243002414703369,0.0011132481740787625,-0.00032666788320057094,-0.9980486631393433
1679661753.87835097,501971272,2,0.062156833708286285,0.0018126516370102763,0.0018424990121275187,-0.9980630278587341
1679661753.97834802,502071269,2,0.06157156080007553,0.003127554664388299,0.0034053558483719826,-0.9980919361114502
1679661754.07829690,502171218,2,0.060829825699329376,0.004152978770434856,0.005443261936306953,-0.9981246590614319
1679661754.17830110,502271222,2,0.05997589975595474,0.004025840666145086,0.007705661468207836,-0.9981619715690613
1679661754.27829409,502371215,2,0.05928845703601837,0.0034102885983884335,0.009088494814932346,-0.9981936812400818
1679661754.37828994,502471211,2,0.05782882496714592,0.0023811410646885633,0.009845134802162647,-0.998275101184845
1679661754.47829199,502571213,2,0.054955076426267624,0.0017785937525331974,0.00947061087936163,-0.9984423518180847
1679661754.57832789,502671249,2,0.05061720684170723,0.0016428902745246887,0.0076408241875469685,-0.9986875653266907
1679661754.67834306,502771264,2,0.04500563442707062,0.0018508832436054945,0.00417306087911129,-0.9989762902259827
1679661754.77834105,502871262,2,0.037507444620132446,0.0018688003765419126,0.0003779148973990232,-0.9992945194244385
1679661754.87834501,502971266,2,0.028418269008398056,0.0025294111110270023,0.0004294285026844591,-0.9995928406715393
1679661754.97829795,503071219,2,0.019671564921736717,0.0032134263310581446,0.004927441943436861,-0.9997891783714294
1679661755.07829189,503171213,2,0.011904173530638218,0.003157363273203373,0.013128610327839851,-0.9998379945755005
1679661755.17830586,503271227,2,0.004754561465233564,0.002622055122628808,0.025957729667425156,-0.9996482729911804
1679661755.27830410,503371225,2,-0.0017977243987843394,0.0016280716517940164,0.03624406456947327,-0.9993399977684021
1679661755.37830091,503471222,2,-0.007748532574623823,0.0009274681797251105,0.029789885506033897,-0.9995257258415222
1679661755.47835493,503571276,2,-0.012681692838668823,0.0011478180531412363,0.00993447657674551,-0.9998695850372314
1679661755.57836509,503671286,2,-0.01711256429553032,0.0009245274122804403,-0.004040096886456013,-0.9998449683189392
1679661755.67834187,503771263,2,-0.020688405260443687,0.000744601886253804,-0.006620148662477732,-0.9997637867927551
1679661755.77833796,503871259,2,-0.023518258705735207,0.0011909325839951634,-0.005491479765623808,-0.9997076392173767
1679661755.87832808,503971249,2,-0.025531625375151634,0.0014645170886069536,-0.004365109838545322,-0.9996634125709534
1679661755.97829509,504071216,2,-0.026688402518630028,0.0013645440340042114,-0.0035184479784220457,-0.9996366500854492
1679661756.07829690,504171218,2,-0.027088502421975136,0.0016988774295896292,-0.0029865687247365713,-0.9996271133422852
1679661756.17830110,504271222,2,-0.026665091514587402,0.0019373161485418677,-0.002657850505784154,-0.9996390342712402
1679661756.27829003,504371211,2,-0.025446385145187378,0.0022271734196692705,-0.002955429721623659,-0.9996693134307861
1679661756.37835503,504471276,2,-0.0242831502109766,0.0032361303456127644,-0.009210755117237568,-0.9996574521064758
1679661756.47834396,504571265,2,-0.023115674033761024,0.0043657151982188225,-0.024253543466329575,-0.9994290471076965
1679661756.57835197,504671273,2,-0.02251105196774006,0.004655125085264444,-0.037279777228832245,-0.999040424823761
1679661756.67834187,504771263,2,-0.02376164309680462,0.0031934180296957493,-0.04468172788619995,-0.9987135529518127
1679661756.77829909,504871220,2,-0.025892578065395355,0.001548484549857676,-0.043337706476449966,-0.9987236857414246
1679661756.87830400,504971225,2,-0.02736007235944271,0.00045259346370585263,-0.03168677166104317,-0.999123215675354
1679661756.97829294,505071214,2,-0.028222674503922462,-0.00017977035895455629,-0.016549794003367424,-0.9994646310806274
1679661757.07828808,505171209,2,-0.029535561800003052,-0.0002817096246872097,-0.008185924030840397,-0.9995301961898804
1679661757.17830110,505271222,2,-0.03145259618759155,-6.56243137200363e-05,-0.002804200164973736,-0.9995012879371643
1679661757.27834988,505371271,2,-0.033046841621398926,0.0001667979231569916,0.0016341028967872262,-0.9994524717330933
1679661757.37833905,505471260,2,-0.034140050411224365,0.0005434441845864058,0.002900786930695176,-0.9994127154350281
1679661757.47835088,505571272,2,-0.03637442737817764,0.0006060862215235829,0.0014281838666647673,-0.9993370175361633
1679661757.57835102,505671272,2,-0.04046851024031639,0.00046843235031701624,0.0003241291851736605,-0.9991806745529175
1679661757.67829704,505771218,2,-0.046413302421569824,0.00038461273652501404,-0.0006425948231481016,-0.9989220499992371
1679661757.77829099,505871212,2,-0.05214964598417282,0.0006558748427778482,-0.0011428383877500892,-0.998638391494751
1679661757.87830091,505971222,2,-0.0566987469792366,0.0007216656813398004,-0.0014074845239520073,-0.9983900785446167
1679661757.97829103,506071212,2,-0.06059334799647331,0.0005542776780202985,-0.0057212370447814465,-0.9981459975242615
1679661758.07829094,506171212,2,-0.06430964171886444,-0.00011092783825006336,-0.01727938838303089,-0.9977803826332092
1679661758.17835188,506271273,2,-0.0676446333527565,-0.0004442561184987426,-0.025031518191099167,-0.9973953366279602
1679661758.27834606,506371267,2,-0.0704343318939209,-0.0006334151839837432,-0.025369590148329735,-0.9971935749053955
1679661758.37835288,506471274,2,-0.07271440327167511,-0.0007182189146988094,-0.021696312353014946,-0.9971165060997009
1679661758.47834086,506571262,2,-0.07459205389022827,-3.1786948966328055e-05,-0.013251150958240032,-0.9971261024475098
1679661758.57830191,506671223,2,-0.07624676823616028,0.0006027120398357511,-0.006805985234677792,-0.997065544128418
1679661758.67830110,506771222,2,-0.07777370512485504,0.0008549860795028508,-0.007653116248548031,-0.9969412684440613
1679661758.77829909,506871220,2,-0.07979631423950195,0.0008293130667880177,-0.014976388774812222,-0.9966983199119568
1679661758.87830091,506971222,2,-0.0828934758901596,0.0006606623064726591,-0.02040194533765316,-0.9963493347167969
1679661758.97830606,507071227,2,-0.08611413836479187,2.8073183784727007e-05,-0.022445272654294968,-0.9960324168205261
1679661759.07835197,507171273,2,-0.08951468765735626,-0.0006471885717473924,-0.02350427955389023,-0.9957079291343689
1679661759.17834592,507271267,2,-0.09390265494585037,-0.001753409393131733,-0.02368502877652645,-0.9952980875968933
1679661759.27835798,507371279,2,-0.09923301637172699,-0.0032350122928619385,-0.023811250925064087,-0.9947740435600281
1679661759.37834501,507471266,2,-0.10665842890739441,-0.004525151569396257,-0.02356323041021824,-0.9940061569213867
1679661759.47830009,507571221,2,-0.11628425866365433,-0.005538135766983032,-0.023413021117448807,-0.9929245114326477
1679661759.57830501,507671226,2,-0.12719127535820007,-0.005488213151693344,-0.022580495104193687,-0.9916059374809265
1679661759.67829800,507771219,2,-0.13785628974437714,-0.00365034700371325,-0.01991051249206066,-0.9902453422546387
1679661759.77829790,507871219,2,-0.1474846750497818,-0.0016566978301852942,-0.013251882046461105,-0.9889741539955139
1679661759.87830997,507971231,2,-0.15616555511951447,9.350870095659047e-05,-0.0053221420384943485,-0.987716555595398
1679661759.97835898,508071280,2,-0.16430719196796417,0.0007716664113104343,-0.000554111844394356,-0.9864087700843811
1679661760.07835603,508171277,2,-0.17154225707054138,0.0006945865461602807,0.0006055973353795707,-0.9851763248443604
1679661760.17834306,508271264,2,-0.17784513533115387,0.0008137871627695858,0.0002217591681983322,-0.984058141708374
1679661760.27834105,508371262,2,-0.18293599784374237,0.0017317145830020308,-0.0012267620768398046,-0.9831225275993347
1679661760.37829089,508471212,2,-0.1869501918554306,0.0024396770168095827,-0.0030638857278972864,-0.9823616147041321
1679661760.47829294,508571214,2,-0.18979519605636597,0.002046511974185705,-0.0047162179835140705,-0.9818102717399597
1679661760.57829309,508671214,2,-0.1917046159505844,0.0009226325782947242,-0.006736320443451405,-0.9814291000366211
1679661760.67828703,508771208,2,-0.19307023286819458,-0.00024588892119936645,-0.0076059759594500065,-0.9811554551124573
1679661760.77829599,508871217,2,-0.19378593564033508,-0.0007194008212536573,-0.008108395151793957,-0.9810100793838501
1679661760.87836599,508971287,2,-0.19414851069450378,-0.001057922374457121,-0.012594643980264664,-0.9808907508850098
1679661760.97834706,509071268,2,-0.19475574791431427,-0.0016861793119460344,-0.023041682317852974,-0.9805796146392822
1679661761.07834888,509171270,2,-0.1963515281677246,-0.002171341795474291,-0.031626369804143906,-0.9800209999084473
1679661761.17834687,509271268,2,-0.1993296891450882,-0.00248666456900537,-0.03390641137957573,-0.9793425798416138
1679661761.27830410,509371225,2,-0.20453853905200958,-0.002616247860714793,-0.03157474100589752,-0.9783456325531006
1679661761.37829590,509471217,2,-0.2119760513305664,-0.002188913058489561,-0.025982199236750603,-0.9769269824028015
1679661761.47829199,509571213,2,-0.22155256569385529,-0.0015004624146968126,-0.01916072517633438,-0.9749590158462524
1679661761.57830787,509671229,2,-0.23192089796066284,-0.0019446335500106215,-0.017951542511582375,-0.9725670218467712
1679661761.67830205,509771223,2,-0.24253641068935394,-0.002440674928948283,-0.019142040982842445,-0.9699503779411316
1679661761.77832794,509871249,2,-0.2529706358909607,-0.00010161430691368878,-0.014859054237604141,-0.9673598408699036
1679661761.87834787,509971269,2,-0.26198652386665344,0.002566424198448658,-0.008273431099951267,-0.9650326371192932
1679661761.97833991,510071261,2,-0.2700493335723877,0.003819851204752922,-0.005619368981570005,-0.9628224968910217
1679661762.07834387,510171265,2,-0.2770719528198242,0.0036406118888407946,-0.006570293102413416,-0.9608198404312134
1679661762.17830396,510271225,2,-0.28332197666168213,0.0021441043354570866,-0.01077213790267706,-0.9589619636535645
1679661762.27830410,510371225,2,-0.28864786028862,-0.0006344879511743784,-0.019467448815703392,-0.957237184047699
1679661762.37829995,510471221,2,-0.29328852891921997,-0.0028868967201560736,-0.026403596624732018,-0.9556549191474915
1679661762.47830391,510571225,2,-0.2969978153705597,-0.003932327032089233,-0.03195303678512573,-0.9543352723121643
1679661762.57829189,510671213,2,-0.3000086545944214,-0.005102404858916998,-0.03922075033187866,-0.9531161785125732
1679661762.67836404,510771285,2,-0.3024085462093353,-0.006957226432859898,-0.04193536937236786,-0.9522300362586975
1679661762.77834487,510871266,2,-0.304439514875412,-0.007584218867123127,-0.03938537836074829,-0.9516868591308594
1679661762.87834191,510971263,2,-0.30585190653800964,-0.0074762143194675446,-0.034577399492263794,-0.9514216184616089
1679661762.97834587,511071267,2,-0.30674365162849426,-0.0064119379967451096,-0.02890266850590706,-0.951331615447998
1679661763.07829690,511171218,2,-0.3069894313812256,-0.005240400321781635,-0.022890180349349976,-0.951423168182373
1679661763.17829490,511271216,2,-0.3066074252128601,-0.004233849234879017,-0.019656894728541374,-0.9516236186027527
