timestamp,TimeUS,C,Roll,Pitch,Yaw,VN,VE,VD,dPD,PN,PE,PD,GX,GY,GZ,OH
1679661711.47833896,459571260,2,-0.75,-0.14,344.39,-0.013056973926723003,0.0058467634953558445,0.014242948964238167,0.024735702201724052,1.2623445987701416,-0.3309095799922943,-2.3980178833007812,-0.27,0.13,0.05,263.21
1679661711.57834101,459671262,2,-0.75,-0.14,344.40000000000003,-0.01296288799494505,0.005494917277246714,0.014602514915168285,0.018407465890049934,1.2628527879714966,-0.3302113115787506,-2.3964731693267822,-0.27,0.13,0.05,263.21
1679661711.67833304,459771254,2,-0.76,-0.14,344.41,-0.011880066245794296,0.006717880722135305,0.014679365791380405,0.023053240031003952,1.2634105682373047,-0.3290678560733795,-2.3938815593719482,-0.27,0.13,0.05,263.21
1679661711.77828693,459871208,2,-0.76,-0.14,344.42,-0.01254202239215374,0.0063765221275389194,0.014766126871109009,0.02447325736284256,1.2635365724563599,-0.327928364276886,-2.3917691707611084,-0.27,0.13,0.05,263.21
1679661711.87829900,459971220,2,-0.76,-0.14,344.43,-0.011205659247934818,0.005995297338813543,0.014576860703527927,0.01661107689142227,1.2644258737564087,-0.327389657497406,-2.390306234359741,-0.27,0.13,0.05,263.21
1679661711.97828507,460071206,2,-0.76,-0.14,344.44,-0.010581915266811848,0.005256649572402239,0.013738244771957397,0.012654517777264118,1.2650247812271118,-0.3269263803958893,-2.388815402984619,-0.27,0.13,0.05,263.21
1679661712.07828498,460171206,2,-0.76,-0.14,344.44,-0.008978194557130337,0.005774360615760088,0.014566916041076183,0.016963347792625427,1.266478180885315,-0.3258352279663086,-2.386950969696045,-0.27,0.13,0.05,263.21
1679661712.17829394,460271215,2,-0.76,-0.14,344.44,-0.006910535506904125,0.006947861053049564,0.014535415917634964,0.017908742651343346,1.2677520513534546,-0.32467496395111084,-2.3852245807647705,-0.27,0.13,0.05,263.21
1679661712.27833509,460371256,2,-0.76,-0.14,344.44,-0.00499145919457078,0.006776017602533102,0.015082644298672676,0.01341632753610611,1.2696943283081055,-0.3234069049358368,-2.3840649127960205,-0.27,0.13,0.05,263.21
1679661712.37833500,460471256,2,-0.76,-0.14,344.44,-0.003651087637990713,0.007739399094134569,0.014975015074014664,0.009576018899679184,1.27133309841156,-0.3221859335899353,-2.3829877376556396,-0.27,0.13,0.05,263.21
1679661712.47834396,460571265,2,-0.76,-0.15,344.44,-0.0023588859476149082,0.007968652062118053,0.016250740736722946,0.011196966283023357,1.2727265357971191,-0.32082659006118774,-2.3816983699798584,-0.27,0.13,0.05,263.21
1679661712.57833505,460671256,2,-0.76,-0.15,344.45,-0.002447775099426508,0.010195476934313774,0.015737349167466164,0.006680245976895094,1.2739804983139038,-0.31937843561172485,-2.380998134613037,-0.27,0.13,0.05,263.21
1679661712.67828393,460771205,2,-0.76,-0.15,344.46,-0.0007744653848931193,0.010175928473472595,0.015335313975811005,-0.0026924842968583107,1.276001214981079,-0.3182578384876251,-2.3811371326446533,-0.27,0.13,0.05,263.21
1679661712.77829695,460871218,2,-0.76,-0.16,344.46,0.0017133145593106747,0.008871793746948242,0.015279275365173817,-0.005700761452317238,1.278037667274475,-0.3173814117908478,-2.38138747215271,-0.27,0.13,0.05,263.21
1679661712.87829590,460971217,2,-0.76,-0.16,344.46,0.005866156425327063,0.008922855369746685,0.014690082520246506,-0.030538052320480347,1.2811765670776367,-0.3165466785430908,-2.3846001625061035,-0.27,0.13,0.05,263.21
1679661712.97829509,461071216,2,-0.76,-0.15,344.46,0.008309520781040192,0.008771786466240883,0.014183275401592255,-0.036754634231328964,1.2843687534332275,-0.31572023034095764,-2.387173891067505,-0.27,0.13,0.05,263.21
1679661713.07831097,461171232,2,-0.76,-0.15,344.45,0.010563991032540798,0.011171718128025532,0.014186521992087364,-0.03197261318564415,1.2879475355148315,-0.3133002519607544,-2.3900370597839355,-0.27,0.13,0.05,263.21
1679661713.17832398,461271245,2,-0.77,-0.15,344.45,0.013303522020578384,0.013410542160272598,0.013218674808740616,-0.023462601006031036,1.291383981704712,-0.31039223074913025,-2.391817092895508,-0.27,0.13,0.05,263.21
1679661713.27833605,461371257,2,-0.77,-0.15,344.44,0.01245070155709982,0.014461767859756947,0.01345761213451624,-0.007740306667983532,1.2934191226959229,-0.3086045980453491,-2.3925392627716064,-0.27,0.13,0.05,263.21
1679661713.37833691,461471258,2,-0.78,-0.15,344.44,0.012314360588788986,0.0139829833060503,0.01315662544220686,0.0007284327293746173,1.2947770357131958,-0.3071758449077606,-2.3927648067474365,-0.27,0.13,0.05,263.21
1679661713.47833800,461571259,2,-0.77,-0.15,344.43,0.01167430728673935,0.012647624127566814,0.013128007762134075,-0.015009385533630848,1.2959682941436768,-0.3065538704395294,-2.3950581550598145,-0.27,0.13,0.05,263.21
1679661713.57830000,461671221,2,-0.77,-0.15,344.43,0.010142991319298744,0.01236193161457777,0.013294322416186333,-0.025117037817835808,1.2968734502792358,-0.306106299161911,-2.3972556591033936,-0.27,0.13,0.05,263.21
1679661713.67829490,461771216,2,-0.78,-0.15,344.44,0.008716698735952377,0.009977424517273903,0.013085301965475082,-0.03450806438922882,1.2972606420516968,-0.3063914477825165,-2.4007678031921387,-0.27,0.13,0.05,263.21
1679661713.77830195,461871223,2,-0.78,-0.16,344.45,0.007360418327152729,0.008757472038269043,0.011644829995930195,-0.03167539834976196,1.2973226308822632,-0.3068518042564392,-2.403031587600708,-0.27,0.13,0.05,263.21
1679661713.87829399,461971215,2,-0.78,-0.16,344.47,0.006807301659137011,0.005851217545568943,0.010624873451888561,-0.013798287138342857,1.297974705696106,-0.30798864364624023,-2.4040462970733643,-0.27,0.13,0.05,263.21
1679661713.97829008,462071211,2,-0.78,-0.16,344.48,0.008468291722238064,0.0029640751890838146,0.009866539388895035,0.0025394409894943237,1.2987496852874756,-0.30934372544288635,-2.403836488723755,-0.27,0.13,0.05,263.21
1679661714.07834101,462171262,2,-0.77,-0.17,344.5,0.0085240937769413,0.0008329020929522812,0.009688502177596092,-0.008905154652893543,1.2999005317687988,-0.3105408847332001,-2.4059996604919434,-0.27,0.13,0.05,263.21
1679661714.17834902,462271270,2,-0.77,-0.16,344.5,0.008856902830302715,0.00017629082140047103,0.008540108799934387,-0.025362858548760414,1.3009685277938843,-0.3116019368171692,-2.408282995223999,-0.27,0.13,0.05,263.21
1679661714.27834892,462371270,2,-0.77,-0.16,344.52,0.01084511261433363,-0.000764205411542207,0.008241049945354462,-0.028282446786761284,1.304019808769226,-0.3121097981929779,-2.4108872413635254,-0.27,0.13,0.05,263.21
1679661714.37833810,462471259,2,-0.77,-0.17,344.52,0.014578715898096561,0.0008965287706814706,0.008965780958533287,-0.02141829952597618,1.306991696357727,-0.3125041723251343,-2.412639856338501,-0.27,0.13,0.05,263.21
1679661714.47829795,462571219,2,-0.77,-0.17,344.55,0.014626641757786274,-0.0020127990283071995,0.010192260146141052,-0.0025578776840120554,1.3099713325500488,-0.313101589679718,-2.4126505851745605,-0.27,0.13,0.05,263.21
1679661714.57829189,462671213,2,-0.76,-0.18,344.57,0.011969939805567265,-0.0025393704418092966,0.009752297773957253,0.014079548418521881,1.3125847578048706,-0.3137836456298828,-2.41155743598938,-0.27,0.13,0.05,263.21
1679661714.67829490,462771216,2,-0.75,-0.18,344.53000000000003,0.025582579895853996,0.004674218595027924,0.0073389895260334015,-0.0140590351074934,1.3141947984695435,-0.31432875990867615,-2.414562463760376,-0.27,0.13,0.05,263.21
1679661714.77829790,462871219,2,-0.72,-0.17,344.54,0.022732524201273918,0.0036330921575427055,0.009573305957019329,-0.027134090662002563,1.3150190114974976,-0.3152029812335968,-2.4166629314422607,-0.27,0.13,0.05,263.21
1679661714.87830210,462971223,2,-0.66,-0.16,344.55,0.01362607441842556,0.015226822346448898,0.013694792985916138,-0.0034011162351816893,1.3152066469192505,-0.31638115644454956,-2.4166300296783447,-0.27,0.13,0.05,263.21
1679661714.97835493,463071276,2,-0.74,-0.15,344.53000000000003,0.021429436281323433,-0.01458639744669199,0.006044167559593916,0.012239697389304638,1.3159728050231934,-0.3165213465690613,-2.4152636528015137,-0.27,0.13,0.05,263.21
1679661715.07834196,463171263,2,-0.67,-0.16,344.55,0.011078990995883942,-0.02539462223649025,0.0076725296676158905,0.028849544003605843,1.3178132772445679,-0.31871023774147034,-2.412729263305664,-0.27,0.13,0.05,263.21
1679661715.17834592,463271267,2,-0.71,-0.16,344.55,0.0013305068714544177,0.005452142562717199,0.008935478515923023,0.036536261439323425,1.319384217262268,-0.3195667266845703,-2.4100401401519775,-0.27,0.13,0.05,263.21
1679661715.27834296,463371264,2,-0.67,-0.16,344.5,0.0015499702421948314,-0.016184002161026,0.010315293446183205,0.022328302264213562,1.3221416473388672,-0.3201794922351837,-2.4089572429656982,-0.27,0.13,0.05,263.21
1679661715.37829399,463471215,2,-0.6900000000000001,-0.16,344.5,-0.0013559844810515642,0.0015098931035026908,0.00801896769553423,0.012681611813604832,1.3253315687179565,-0.3205904960632324,-2.4074418544769287,-0.27,0.13,0.05,263.21
1679661715.47829509,463571216,2,-0.6900000000000001,-0.17,344.51,0.00818971823900938,-0.000845585425850004,0.008614163845777512,0.030783284455537796,1.32822585105896,-0.3210621178150177,-2.403968095779419,-0.27,0.13,0.05,263.21
1679661715.57831097,463671232,2,-0.68,-0.16,344.49,0.020684394985437393,-0.011161284521222115,0.006390816532075405,0.03832231089472771,1.3311439752578735,-0.32165709137916565,-2.400383234024048,-0.27,0.13,0.05,263.21
1679661715.67828989,463771211,2,-0.73,-0.16,344.52,0.03238323703408241,-0.005952047649770975,0.009223906323313713,0.04794635996222496,1.3329706192016602,-0.3225216865539551,-2.3961563110351562,-0.27,0.13,0.05,263.21
1679661715.77829504,463871216,2,-0.65,-0.13,344.56,0.016555916517972946,-0.011338471435010433,8.323403017129749e-05,0.0434238463640213,1.3342255353927612,-0.3237075209617615,-2.391876459121704,-0.27,0.13,0.05,263.21
1679661715.87835789,463971279,2,-0.66,0.01,344.57,-0.0012503268662840128,0.008010872639715672,-0.0195561945438385,0.031165987253189087,1.3337064981460571,-0.3241753578186035,-2.3873302936553955,-0.27,0.13,0.05,263.21
1679661715.97834086,464071262,2,-0.46,0.31,344.65000000000003,-0.007304847240447998,0.022013641893863678,-0.1714739352464676,-0.1158323884010315,1.3322409391403198,-0.3229016363620758,-2.390619993209839,-0.27,0.13,0.05,263.21
1679661716.07835889,464171280,2,0.23,0.36,344.68,-0.008094592951238155,0.010312221944332123,-0.5165780782699585,-0.4786710739135742,1.3287993669509888,-0.321749210357666,-2.4232587814331055,-0.27,0.13,0.05,263.21
1679661716.17834306,464271264,2,1.03,-0.16,344.65000000000003,-0.012899021618068218,0.0259099043905735,-0.7484728693962097,-0.7310580611228943,1.3251194953918457,-0.320416122674942,-2.485280752182007,-0.27,0.13,0.06,263.21
1679661716.27829409,464371215,2,1.25,-0.72,344.58,-0.005973512306809425,0.029196174815297127,-0.721589982509613,-0.7923876047134399,1.3198925256729126,-0.31760138273239136,-2.567260503768921,-0.27,0.13,0.06,263.21
1679661716.37829399,464471215,2,0.85,-0.9,344.49,0.006716520991176367,0.02100447006523609,-0.636980414390564,-0.7759832143783569,1.315048336982727,-0.31378626823425293,-2.645994186401367,-0.27,0.13,0.06,263.21
1679661716.47830796,464571229,2,0.18,-0.23,344.43,0.003782156389206648,0.0321035198867321,-0.5493146777153015,-0.6575706005096436,1.3090177774429321,-0.3104611039161682,-2.7124152183532715,-0.27,0.13,0.06,263.21
1679661716.57829905,464671220,2,-0.37,0.72,344.36,-0.000508391996845603,0.01825682818889618,-0.44682255387306213,-0.5094717144966125,1.3032505512237549,-0.30769234895706177,-2.766836166381836,-0.27,0.13,0.06,263.21
1679661716.67830396,464771225,2,-0.34,1.17,344.29,-0.023005718365311623,0.010624246671795845,-0.3803851306438446,-0.3808486759662628,1.294229507446289,-0.30509793758392334,-2.8077385425567627,-0.27,0.13,0.07,263.21
1679661716.77835703,464871278,2,-0.19,1.07,344.16,-0.05048288777470589,0.0008252073312178254,-0.2897772490978241,-0.26647353172302246,1.2840667963027954,-0.3033239543437958,-2.8406307697296143,-0.27,0.13,0.07,263.21
1679661716.87834597,464971267,2,-0.13,0.87,344.05,-0.062018021941185,0.00202165893279016,-0.23047904670238495,-0.18045473098754883,1.2726542949676514,-0.30135953426361084,-2.8610551357269287,-0.27,0.13,0.07,263.21
1679661716.97835088,465071272,2,0.07,0.29,343.93,-0.05987801402807236,0.005207844078540802,-0.17015375196933746,-0.0915299654006958,1.261150598526001,-0.2998320460319519,-2.8743462562561035,-0.27,0.13,0.07,263.21
1679661717.07834697,465171268,2,0.47000000000000003,-0.73,343.85,-0.05557700991630554,-0.006941147148609161,-0.1367114633321762,-0.053509850054979324,1.2534523010253906,-0.3004619777202606,-2.882340669631958,-0.27,0.13,0.07,263.21
1679661717.17829990,465271221,2,0.56,-0.84,343.82,-0.05977946147322655,-0.015853136777877808,-0.07472442090511322,-0.005381868686527014,1.247663140296936,-0.3019024431705475,-2.8864119052886963,-0.27,0.13,0.07,263.21
1679661717.27829194,465371213,2,0.42,-0.06,343.84000000000003,-0.041743937879800797,-0.022313589230179787,-0.04118103161454201,0.03753243386745453,1.2460029125213623,-0.30258285999298096,-2.883456230163574,-0.27,0.13,0.07,263.21
1679661717.37829590,465471217,2,0.36,0.2,343.85,-0.03630451485514641,-0.01736820675432682,-0.011525741778314114,0.08029011636972427,1.2458999156951904,-0.3033769130706787,-2.8781304359436035,-0.27,0.13,0.08,263.21
1679661717.47829509,465571216,2,0.35000000000000003,0.24,343.89,-0.03232409060001373,-0.026397312059998512,0.002693571150302887,0.10494875907897949,1.2456164360046387,-0.3037465512752533,-2.8683812618255615,-0.27,0.13,0.08,263.21
1679661717.57833600,465671257,2,0.43,1.01,343.97,-0.04384147748351097,-0.01286099012941122,-0.031618569046258926,0.06391168385744095,1.2442516088485718,-0.3039391040802002,-2.8617594242095947,-0.27,0.13,0.08,263.21
1679661717.67834687,465771268,2,0.59,1.45,344.02,-0.05348639190196991,-0.006702514830976725,-0.06235803663730621,0.011430707760155201,1.2409650087356567,-0.3035738170146942,-2.8588507175445557,-0.27,0.13,0.08,263.21
1679661717.77834797,465871269,2,0.85,0.99,344.1,-0.05788518488407135,0.005445489659905434,-0.10714159160852432,-0.050013668835163116,1.2364730834960938,-0.30249738693237305,-2.861903429031372,-0.27,0.13,0.08,263.21
1679661717.87835407,465971275,2,1.07,0.29,344.15000000000003,-0.060669541358947754,0.027024228125810623,-0.18502582609653473,-0.19010162353515625,1.2299423217773438,-0.2987874746322632,-2.8786582946777344,-0.27,0.13,0.09,263.21
1679661717.97834587,466071267,2,1.1400000000000001,-0.66,344.16,-0.05248656123876572,0.028408311307430267,-0.22745193541049957,-0.2628263533115387,1.2236531972885132,-0.2943372130393982,-2.9008164405822754,-0.27,0.13,0.09,263.21
1679661718.07829499,466171216,2,1.12,-2.07,344.07,-0.025582754984498024,0.03157909959554672,-0.2919261157512665,-0.36770448088645935,1.2189733982086182,-0.28899291157722473,-2.9346776008605957,-0.27,0.13,0.09,263.21
1679661718.17830300,466271224,2,1.55,1.79,176.96,0.008085771463811398,0.002370463451370597,-0.3281180262565613,-0.3926200866699219,1.217639446258545,-0.284999817609787,-2.9695205688476562,-0.27,0.13,0.09,263.21
1679661718.27829790,466371219,2,0.89,0.09,176.20000000000002,0.0025744398590177298,-0.0005525146843865514,-0.35004618763923645,-0.36977213621139526,1.2141375541687012,-0.2823100686073303,-3.0053153038024902,-0.27,0.13,0.09,263.21
1679661718.37830305,466471224,2,0.0,-2.41,174.9,-0.041782673448324203,-0.003273293375968933,-0.31196993589401245,-0.29319509863853455,1.20662522315979,-0.281113862991333,-3.0363404750823975,-0.27,0.13,0.09,263.21
1679661718.47830105,466571222,2,-0.31,-2.97,173.57,-0.12084535509347916,0.007176758721470833,-0.3335084617137909,-0.3234962522983551,1.188281536102295,-0.27455252408981323,-3.0704102516174316,-0.27,0.13,0.09,263.21
1679661718.57835388,466671275,2,-0.19,-1.99,172.52,-0.21274839341640472,0.03613648936152458,-0.3457253575325012,-0.3487200140953064,1.1573618650436401,-0.2653467357158661,-3.105466842651367,-0.27,0.13,0.09,263.21
1679661718.67836809,466771289,2,-0.11,-0.81,171.46,-0.28116852045059204,0.06561248749494553,-0.3340849280357361,-0.2636653482913971,1.1270979642868042,-0.24723555147647858,-3.1306028366088867,-0.27,0.13,0.09,263.21
1679661718.77834201,466871263,2,0.1,0.17,170.81,-0.3077620267868042,0.09317990392446518,-0.32526904344558716,-0.19970978796482086,1.089674949645996,-0.22728484869003296,-3.1538422107696533,-0.27,0.13,0.09,263.21
1679661718.87834787,466971269,2,0.29,0.9,170.49,-0.302764356136322,0.11069109290838242,-0.32864904403686523,-0.2586349844932556,1.0653661489486694,-0.2071264237165451,-3.1834516525268555,-0.27,0.14,0.09,263.21
1679661718.97829604,467071217,2,0.43,1.11,170.73,-0.2871987819671631,0.11329194158315659,-0.34964796900749207,-0.3167670965194702,1.0424139499664307,-0.1869623363018036,-3.2123987674713135,-0.27,0.14,0.09,263.21
1679661719.07830310,467171224,2,0.29,1.09,171.0,-0.23973174393177032,0.10266535729169846,-0.3935622274875641,-0.32968074083328247,1.0396870374679565,-0.16760921478271484,-3.2405269145965576,-0.27,0.14,0.09,263.21
1679661719.17830491,467271226,2,0.07,1.08,171.37,-0.1830534040927887,0.11380329728126526,-0.42857229709625244,-0.3386496603488922,1.0443540811538696,-0.15060816705226898,-3.2716825008392334,-0.27,0.14,0.09,263.21
1679661719.27830410,467371225,2,-0.1,1.03,171.67000000000002,-0.1176285520195961,0.11286719143390656,-0.4808485507965088,-0.414039671421051,1.0630427598953247,-0.13591116666793823,-3.3112494945526123,-0.27,0.15,0.09,263.21
1679661719.37829399,467471215,2,-0.22,1.01,171.98,-0.05547522380948067,0.12070532143115997,-0.5484034419059753,-0.48969766497612,1.086902379989624,-0.12283065915107727,-3.356984853744507,-0.27,0.15,0.09,263.21
1679661719.47834992,467571271,2,-0.23,0.9500000000000001,172.14000000000001,0.013281097635626793,0.12273825705051422,-0.5944501161575317,-0.5235206484794617,1.1248332262039185,-0.10851604491472244,-3.407576560974121,-0.27,0.15,0.09,263.21
1679661719.57835603,467671277,2,-0.19,0.8300000000000001,172.25,0.08530598878860474,0.14030054211616516,-0.6584010720252991,-0.5742586851119995,1.1668665409088135,-0.09438987076282501,-3.4615025520324707,-0.27,0.15,0.09,263.21
1679661719.67834687,467771268,2,-0.17,0.74,172.31,0.14246486127376556,0.12858125567436218,-0.6926279067993164,-0.6120433211326599,1.2196972370147705,-0.0802157074213028,-3.521860122680664,-0.27,0.15,0.09,263.21
1679661719.77833986,467871261,2,-0.11,0.8,172.37,0.19588884711265564,0.14045575261116028,-0.6944997906684875,-0.6369573473930359,1.2745685577392578,-0.06613064557313919,-3.586249828338623,-0.27,0.15,0.09,263.21
1679661719.87830305,467971224,2,0.05,0.75,172.39000000000001,0.25086817145347595,0.15869183838367462,-0.6888585686683655,-0.6359124779701233,1.3326557874679565,-0.0514104925096035,-3.649116039276123,-0.27,0.15,0.09,263.21
1679661719.97830296,468071224,2,0.26,0.78,172.44,0.30389106273651123,0.1510160267353058,-0.6639057397842407,-0.5953706502914429,1.3911035060882568,-0.03663482889533043,-3.709871768951416,-0.27,0.15,0.09,263.21
1679661720.07829094,468171212,2,0.4,1.23,172.55,0.3427753746509552,0.14224271476268768,-0.6353058815002441,-0.5438844561576843,1.4521229267120361,-0.02513386681675911,-3.765721559524536,-0.27,0.15,0.09,263.21
1679661720.17829990,468271221,2,0.48,1.86,172.67000000000002,0.3950904607772827,0.13964702188968658,-0.5798768401145935,-0.4762502610683441,1.5116033554077148,-0.014346807263791561,-3.816657066345215,-0.27,0.15,0.09,263.21
1679661720.27829194,468371213,2,0.48,1.96,172.78,0.4356034994125366,0.1377781182527542,-0.524415910243988,-0.41752633452415466,1.5733193159103394,-0.005266170483082533,-3.8616557121276855,-0.27,0.15,0.09,263.21
1679661720.37834287,468471264,2,0.41000000000000003,1.52,172.87,0.4802093803882599,0.11426059901714325,-0.46749407052993774,-0.37049922347068787,1.6341253519058228,0.003477300051599741,-3.902148962020874,-0.27,0.15,0.09,263.21
1679661720.47835207,468571273,2,0.18,1.3900000000000001,172.99,0.5107828378677368,0.1186554953455925,-0.3920488655567169,-0.3269377648830414,1.6916234493255615,0.015962421894073486,-3.938910722732544,-0.27,0.15,0.09,263.21
1679661720.57833910,468671260,2,-0.02,2.1,173.11,0.5480729937553406,0.1321273148059845,-0.3489890396595001,-0.31905749440193176,1.7497104406356812,0.02925649844110012,-3.972923994064331,-0.27,0.15,0.09,263.21
1679661720.67834806,468771269,2,-0.53,2.97,173.08,0.5911425352096558,0.14678098261356354,-0.2889688014984131,-0.2697671055793762,1.8042662143707275,0.040322382003068924,-4.001013278961182,-0.27,0.15,0.09,263.21
1679661720.77829003,468871211,2,-1.67,2.89,172.96,0.6246828436851501,0.16402314603328705,-0.2320634126663208,-0.22891415655612946,1.8609769344329834,0.05311930552124977,-4.025940418243408,-0.27,0.15,0.09,263.21
1679661720.87831306,468971234,2,-3.46,1.9000000000000001,172.87,0.6640934944152832,0.22276146709918976,-0.18499873578548431,-0.18843431770801544,1.9113456010818481,0.0672333687543869,-4.044921875,-0.27,0.15,0.09,263.21
1679661720.97831202,469071233,2,-5.5600000000000005,0.87,172.83,0.6728963255882263,0.29882311820983887,-0.11995364725589752,-0.13006481528282166,1.9644274711608887,0.08801327645778656,-4.059892654418945,-0.27,0.15,0.09,263.21
1679661721.07829809,469171219,2,-5.38,0.35000000000000003,172.78,0.6824845671653748,0.3508848249912262,-0.07886204868555069,-0.0932864099740982,2.010950803756714,0.11051706969738007,-4.070915699005127,-0.27,0.15,0.09,263.21
1679661721.17829108,469271212,2,-2.33,0.26,172.6,0.6713175773620605,0.39668673276901245,-0.040834128856658936,-0.07657106220722198,2.0559399127960205,0.13806846737861633,-4.080445766448975,-0.27,0.15,0.09,263.21
1679661721.27834892,469371270,2,0.16,0.26,172.34,0.651477038860321,0.4095105826854706,0.019998669624328613,-0.016660595312714577,2.0891411304473877,0.1583242416381836,-4.08413553237915,-0.27,0.15,0.09,263.21
1679661721.37834692,469471268,2,0.81,0.34,172.03,0.6299979090690613,0.38955092430114746,0.06491190940141678,0.04438949003815651,2.1217193603515625,0.17857249081134796,-4.081947326660156,-0.27,0.15,0.09,263.21
1679661721.47834206,469571263,2,0.58,0.52,171.65,0.6166136264801025,0.3429605960845947,0.10197368264198303,0.09830884635448456,2.1497840881347656,0.1765066385269165,-4.073137283325195,-0.27,0.15,0.09,263.21
1679661721.57834506,469671266,2,0.39,1.17,171.34,0.6110440492630005,0.3043564260005951,0.1434638500213623,0.1428062468767166,2.181368350982666,0.17125357687473297,-4.0609612464904785,-0.27,0.15,0.09,263.21
1679661721.67829800,469771219,2,0.3,2.36,171.20000000000002,0.6192654967308044,0.2549832761287689,0.13456104695796967,0.1408929079771042,2.2119100093841553,0.14813119173049927,-4.045294284820557,-0.27,0.15,0.09,263.21
1679661721.77829409,469871215,2,0.25,3.11,171.20000000000002,0.6530430316925049,0.19863064587116241,0.1300164759159088,0.13740359246730804,2.2484841346740723,0.12452087551355362,-4.030815124511719,-0.27,0.15,0.09,263.21
1679661721.87830806,469971229,2,0.28,3.47,171.37,0.6849784255027771,0.15013408660888672,0.10338512063026428,0.10099370777606964,2.2839081287384033,0.08990661799907684,-4.019463539123535,-0.27,0.15,0.09,263.21
1679661721.97829509,470071216,2,0.37,3.87,171.66,0.7235255837440491,0.10035810619592667,0.05059560015797615,0.027624977752566338,2.327399492263794,0.05749450996518135,-4.013740062713623,-0.27,0.15,0.09,263.21
1679661722.07829690,470171218,2,1.03,3.93,171.97,0.7706069350242615,0.05025390535593033,0.012492925859987736,-0.0451655313372612,2.3691060543060303,0.015897667035460472,-4.015156269073486,-0.27,0.16,0.09,263.21
1679661722.17835593,470271277,2,1.96,3.63,172.25,0.8105522394180298,-0.02365724742412567,-0.0547376312315464,-0.13508418202400208,2.4189460277557373,-0.02439172938466072,-4.023967266082764,-0.27,0.16,0.09,263.21
1679661722.27835894,470371280,2,2.41,3.72,172.51,0.8470853567123413,-0.09085707366466522,-0.11700403690338135,-0.2047073394060135,2.4595961570739746,-0.0714021772146225,-4.040711879730225,-0.28,0.16,0.09,263.21
1679661722.37835097,470471272,2,2.58,3.69,172.67000000000002,0.8765143156051636,-0.1682019978761673,-0.19615867733955383,-0.2744137942790985,2.507870674133301,-0.11827198415994644,-4.063726425170898,-0.28,0.16,0.09,263.21
1679661722.47834206,470571263,2,1.92,3.3000000000000003,172.77,0.8848063349723816,-0.2243051826953888,-0.2723628580570221,-0.3395213782787323,2.540837287902832,-0.16818314790725708,-4.093249320983887,-0.28,0.16,0.09,263.21
1679661722.57829595,470671217,2,0.48,3.2800000000000002,172.86,0.907733678817749,-0.258661150932312,-0.3297686278820038,-0.3813154101371765,2.580507516860962,-0.2161312997341156,-4.128545761108398,-0.27,0.16,0.09,263.21
1679661722.67829704,470771218,2,-0.41000000000000003,3.17,172.9,0.9069120287895203,-0.2841477692127228,-0.3999643921852112,-0.44470420479774475,2.6050121784210205,-0.2582796514034271,-4.170183181762695,-0.27,0.16,0.09,263.21
1679661722.77829289,470871214,2,-0.52,2.29,172.94,0.9134483337402344,-0.2864362895488739,-0.45477572083473206,-0.48311856389045715,2.6367385387420654,-0.2955438792705536,-4.215396404266357,-0.27,0.16,0.09,263.21
1679661722.87829494,470971216,2,-0.38,1.73,172.94,0.8912996053695679,-0.28086480498313904,-0.5249232053756714,-0.5410861372947693,2.644125461578369,-0.32545390725135803,-4.26653528213501,-0.27,0.17,0.09,263.21
1679661722.97829509,471071216,2,0.54,1.76,172.89000000000001,0.8594257831573486,-0.2821599841117859,-0.559367835521698,-0.5869812369346619,2.6576602458953857,-0.35229992866516113,-4.324154853820801,-0.28,0.17,0.09,263.21
1679661723.07832503,471171246,2,2.19,1.32,172.76,0.8133990168571472,-0.3104819059371948,-0.5904583930969238,-0.6606847643852234,2.6484878063201904,-0.376035213470459,-4.3900909423828125,-0.27,0.17,0.09,263.21
1679661723.17834496,471271266,2,3.27,0.63,172.57,0.7674247622489929,-0.33907783031463623,-0.5758786797523499,-0.6656835079193115,2.645193576812744,-0.40070071816444397,-4.455468654632568,-0.27,0.17,0.09,263.21
1679661723.27834892,471371270,2,3.45,0.56,172.45000000000002,0.6985508799552917,-0.3787265121936798,-0.559428870677948,-0.6438359618186951,2.620554208755493,-0.4235725998878479,-4.519550323486328,-0.27,0.18,0.09,263.21
1679661723.37835002,471471271,2,3.25,0.65,172.41,0.651853621006012,-0.415407657623291,-0.5061176419258118,-0.5701786875724792,2.609415054321289,-0.45124268531799316,-4.577916145324707,-0.27,0.18,0.09,263.21
1679661723.47830009,471571221,2,2.7,0.45,172.42000000000002,0.585946261882782,-0.4471833407878876,-0.48031777143478394,-0.5060574412345886,2.5814061164855957,-0.4742768704891205,-4.629462242126465,-0.27,0.18,0.09,263.21
1679661723.57833004,471671251,2,1.98,0.2,172.55,0.5495343804359436,-0.4723931849002838,-0.43039703369140625,-0.43528348207473755,2.5673160552978516,-0.5017991065979004,-4.676130294799805,-0.27,0.18,0.09,263.21
1679661723.67828703,471771208,2,1.61,0.15,172.76,0.4875527024269104,-0.47580984234809875,-0.38354209065437317,-0.3928458094596863,2.5375359058380127,-0.5193932056427002,-4.719690322875977,-0.27,0.19,0.09,263.21
1679661723.77829599,471871217,2,1.36,0.24,172.99,0.4463483691215515,-0.4843284785747528,-0.3721761405467987,-0.40938448905944824,2.5212273597717285,-0.5412691831588745,-4.762179374694824,-0.27,0.19,0.09,263.21
1679661723.87831092,471971232,2,1.08,0.33,173.17000000000002,0.40241706371307373,-0.47029754519462585,-0.3333576023578644,-0.38032829761505127,2.486440658569336,-0.5489226579666138,-4.800758361816406,-0.27,0.19,0.09,263.21
1679661723.97836304,472071284,2,0.93,0.29,173.32,0.36616250872612,-0.46419766545295715,-0.28921228647232056,-0.3356245160102844,2.4648008346557617,-0.5615285634994507,-4.8358540534973145,-0.27,0.19,0.09,263.21
1679661724.07834101,472171262,2,0.8,0.19,173.37,0.3243778645992279,-0.434283584356308,-0.2440931349992752,-0.28189393877983093,2.427147388458252,-0.5585219264030457,-4.866001605987549,-0.26,0.2,0.09,263.21
1679661724.17834592,472271267,2,0.12,0.24,173.41,0.2900209426879883,-0.4023064970970154,-0.21672798693180084,-0.24337320029735565,2.4026381969451904,-0.560943603515625,-4.891735553741455,-0.26,0.2,0.09,263.21
1679661724.27834487,472371266,2,-0.45,0.17,173.41,0.24871206283569336,-0.37276679277420044,-0.1815633624792099,-0.19238388538360596,2.3663601875305176,-0.5507005453109741,-4.912598609924316,-0.26,0.2,0.09,263.21
1679661724.37835097,472471272,2,-0.56,0.06,173.37,0.22460483014583588,-0.3260473310947418,-0.1383269876241684,-0.15335823595523834,2.3422164916992188,-0.5456724166870117,-4.930652618408203,-0.26,0.2,0.09,263.21
1679661724.47830701,472571228,2,-0.62,0.03,184.17000000000002,0.19319100677967072,-0.28736284375190735,-0.10094182193279266,-0.11350585520267487,2.3082456588745117,-0.5271861553192139,-4.943448543548584,-0.26,0.21,0.09,263.21
1679661724.57831097,472671232,2,-0.58,0.02,183.82,0.16262415051460266,-0.24958008527755737,-0.06910223513841629,-0.07484263181686401,2.284947633743286,-0.5138487219810486,-4.95258903503418,-0.26,0.21,0.09,263.21
1679661724.67829609,472771217,2,-0.46,-0.01,183.24,0.12858957052230835,-0.21228499710559845,-0.026443015784025192,0.0016153841279447079,2.2571187019348145,-0.4981018602848053,-4.954476833343506,-0.26,0.21,0.09,263.21
1679661724.77829909,472871220,2,-0.26,-0.12,182.65,0.10173062980175018,-0.17934124171733856,0.005192539654672146,0.05035463348031044,2.231499671936035,-0.48174262046813965,-4.953087329864502,-0.26,0.21,0.09,263.21
1679661724.87836695,472971288,2,-0.04,-0.2,182.22,0.07924805581569672,-0.15398310124874115,0.01664113625884056,0.051922399550676346,2.1994266510009766,-0.46360087394714355,-4.94918966293335,-0.26,0.21,0.09,263.21
1679661724.97834492,473071266,2,0.09,-0.28,181.94,0.049819134175777435,-0.13693314790725708,0.054840654134750366,0.07920016348361969,2.173198699951172,-0.44986116886138916,-4.94298791885376,-0.26,0.21,0.09,263.21
1679661725.07834291,473171264,2,0.22,-0.32,181.63,0.017942579463124275,-0.1222279742360115,0.054028358310461044,0.08916708081960678,2.1408400535583496,-0.43586885929107666,-4.934453964233398,-0.26,0.21,0.09,263.21
1679661725.17833996,473271261,2,0.25,-0.26,181.39000000000001,-0.003641176735982299,-0.11447068303823471,0.0432104654610157,0.07518218457698822,2.1135506629943848,-0.4262349307537079,-4.9267377853393555,-0.25,0.21,0.09,263.21
1679661725.27830100,473371222,2,0.2,-0.13,181.29,-0.02528064139187336,-0.10048224031925201,0.07731766253709793,0.09240677952766418,2.080209493637085,-0.4154345989227295,-4.918398857116699,-0.26,0.21,0.09,263.21
1679661725.37829208,473471213,2,0.1,-0.02,181.5,-0.05087738856673241,-0.08487889915704727,0.08304356038570404,0.08975638449192047,2.0515286922454834,-0.40785127878189087,-4.908863067626953,-0.26,0.21,0.09,263.21
1679661725.47831702,473571238,2,0.0,0.06,181.94,-0.06868557631969452,-0.07089731097221375,0.11723054200410843,0.1326097995042801,2.0180885791778564,-0.400390088558197,-4.896050453186035,-0.26,0.21,0.09,263.21
1679661725.57830405,473671225,2,-0.15,0.2,182.55,-0.08795391768217087,-0.06281974911689758,0.1295057088136673,0.1488732397556305,1.9891536235809326,-0.39527779817581177,-4.881852626800537,-0.26,0.21,0.09,263.21
1679661725.67829704,473771218,2,-0.25,0.25,183.19,-0.10037555545568466,-0.05410384759306908,0.14024795591831207,0.15021918714046478,1.9555555582046509,-0.3888618052005768,-4.866872310638428,-0.26,0.21,0.09,263.21
1679661725.77835703,473871278,2,-0.22,0.25,183.76,-0.12164932489395142,-0.032414086163043976,0.15561161935329437,0.15853741765022278,1.9258644580841064,-0.3838216960430145,-4.85084867477417,-0.26,0.21,0.09,263.21
1679661725.87836194,473971283,2,-0.21,0.34,184.19,-0.13282425701618195,-0.013697841204702854,0.18529506027698517,0.18869644403457642,1.8937883377075195,-0.37867429852485657,-4.833853721618652,-0.26,0.21,0.09,263.21
1679661725.97833991,474071261,2,-0.25,0.28,184.47,-0.1442728489637375,-0.0011619733413681388,0.17257320880889893,0.17394454777240753,1.865354061126709,-0.3747479319572449,-4.816598892211914,-0.26,0.21,0.09,263.21
1679661726.07834601,474171267,2,-0.34,0.2,184.66,-0.15810225903987885,-0.0022657066583633423,0.1627412885427475,0.16501450538635254,1.8322434425354004,-0.3721032440662384,-4.798715114593506,-0.26,0.21,0.09,263.21
1679661726.17829800,474271219,2,-0.35000000000000003,0.18,184.65,-0.1711266189813614,0.013356650248169899,0.17630605399608612,0.18008120357990265,1.8017659187316895,-0.37027132511138916,-4.781295299530029,-0.26,0.21,0.09,263.21
1679661726.27829504,474371216,2,-0.35000000000000003,0.12,184.46,-0.18761713802814484,0.022334497421979904,0.17569129168987274,0.1805555522441864,1.7651894092559814,-0.37061870098114014,-4.7634596824646,-0.26,0.21,0.09,263.21
1679661726.37830901,474471230,2,-0.3,0.03,184.1,-0.21387818455696106,0.028750518336892128,0.16489620506763458,0.1713056117296219,1.7303999662399292,-0.37147825956344604,-4.745611667633057,-0.26,0.21,0.09,263.21
1679661726.47829700,474571218,2,-0.28,-0.09,183.6,-0.24041734635829926,0.03644911199808121,0.16446399688720703,0.1885496824979782,1.6898554563522339,-0.3731152415275574,-4.726510524749756,-0.25,0.21,0.09,263.21
1679661726.57829189,474671213,2,-0.25,-0.65,183.04,-0.2730691432952881,0.03732215240597725,0.15362998843193054,0.1838006228208542,1.6503357887268066,-0.3746819496154785,-4.709243297576904,-0.26,0.21,0.09,263.21
1679661726.67835307,474771274,2,-0.2,-1.85,182.52,-0.3223804533481598,0.03762984648346901,0.11562342941761017,0.15018808841705322,1.6027065515518188,-0.3800577223300934,-4.6916937828063965,-0.26,0.21,0.09,263.21
1679661726.77834892,474871270,2,-0.02,-2.92,182.18,-0.37155088782310486,0.03809992969036102,0.13565653562545776,0.16375228762626648,1.5554072856903076,-0.38529664278030396,-4.676848411560059,-0.26,0.21,0.09,263.21
1679661726.87834287,474971264,2,0.08,-2.81,182.03,-0.4366949796676636,0.0240296870470047,0.09293584525585175,0.09728279709815979,1.4999985694885254,-0.39590370655059814,-4.666071891784668,-0.25,0.21,0.09,263.21
1679661726.97834396,475071265,2,0.45,-1.6300000000000001,182.0,-0.4863114356994629,-0.0030473079532384872,0.07556566596031189,0.06926374137401581,1.4439491033554077,-0.40651965141296387,-4.657047748565674,-0.26,0.21,0.09,263.21
1679661727.07830310,475171224,2,1.3,-0.44,182.02,-0.5138301849365234,-0.016003556549549103,0.06554071605205536,0.06070801615715027,1.3879002332687378,-0.4220065176486969,-4.64910364151001,-0.26,0.21,0.09,263.21
1679661727.17829800,475271219,2,1.83,-0.01,182.09,-0.5327870845794678,-0.03817803040146828,0.06314616650342941,0.05931227654218674,1.3333121538162231,-0.438191682100296,-4.6425557136535645,-0.25,0.21,0.09,263.21
1679661727.27830100,475371222,2,1.95,0.05,182.38,-0.5279594659805298,-0.09209953993558884,0.03424318507313728,0.02170051448047161,1.2885768413543701,-0.4603859782218933,-4.638534069061279,-0.25,0.21,0.09,263.21
1679661727.37831092,475471232,2,2.0300000000000002,0.13,182.81,-0.5257064700126648,-0.1257951259613037,0.038670726120471954,0.021228831261396408,1.246476411819458,-0.4844968914985657,-4.63625955581665,-0.25,0.21,0.09,263.21
1679661727.47830200,475571223,2,1.87,-0.27,183.37,-0.5246446132659912,-0.17024153470993042,0.010295049287378788,0.002505491953343153,1.210688591003418,-0.5140457153320312,-4.6340460777282715,-0.25,0.21,0.09,263.21
1679661727.57837486,475671296,2,1.4000000000000001,-1.49,183.94,-0.5275997519493103,-0.1933782696723938,0.0032766046933829784,0.0017860755324363708,1.1744126081466675,-0.5449647903442383,-4.633482933044434,-0.25,0.21,0.09,263.21
1679661727.67834306,475771264,2,1.06,-2.45,184.53,-0.5451155304908752,-0.22760149836540222,-0.009024479426443577,-0.027577992528676987,1.1412690877914429,-0.5712775588035583,-4.636618137359619,-0.25,0.21,0.09,263.21
1679661727.77834392,475871265,2,0.9400000000000001,-2.9,185.02,-0.5783266425132751,-0.24792438745498657,-0.01549963466823101,-0.03665684163570404,1.1036425828933716,-0.5982356667518616,-4.639183044433594,-0.25,0.21,0.09,263.21
1679661727.87834907,475971270,2,0.87,-2.96,185.38,-0.6143049597740173,-0.2543555200099945,-0.011134736239910126,0.014186945743858814,1.0666619539260864,-0.6188221573829651,-4.637027263641357,-0.25,0.21,0.09,263.21
1679661727.97830105,476071222,2,0.84,-2.81,185.64000000000001,-0.6545339226722717,-0.26699674129486084,-0.012790407054126263,0.03203172609210014,1.021095871925354,-0.6409371495246887,-4.63659143447876,-0.25,0.21,0.09,263.21
1679661728.07829499,476171216,2,0.88,-2.47,185.8,-0.6841568946838379,-0.2710951864719391,-0.01995096355676651,0.0006757075316272676,0.9825581312179565,-0.6564342379570007,-4.638482093811035,-0.25,0.21,0.09,263.21
1679661728.17830706,476271228,2,0.93,-2.07,185.89000000000001,-0.7073246240615845,-0.27875712513923645,-0.043016012758016586,-0.05044205114245415,0.939863920211792,-0.6726030111312866,-4.642706394195557,-0.25,0.21,0.09,263.21
1679661728.27829790,476371219,2,1.01,-1.92,186.01,-0.716934323310852,-0.2832639515399933,-0.055133771151304245,-0.07734525948762894,0.9074167013168335,-0.6825042963027954,-4.648626327514648,-0.25,0.21,0.09,263.21
1679661728.37828994,476471211,2,1.11,-2.0100000000000002,186.17000000000002,-0.7322353720664978,-0.2835555970668793,-0.0549667589366436,-0.07495829463005066,0.8717127442359924,-0.6945198774337769,-4.655552387237549,-0.25,0.21,0.09,263.21
1679661728.47835398,476571275,2,1.22,-1.96,186.43,-0.7299237847328186,-0.29102781414985657,-0.05891872197389603,-0.08974134176969528,0.8481569886207581,-0.7006445527076721,-4.665207386016846,-0.25,0.21,0.09,263.21
1679661728.57834506,476671266,2,1.01,-1.6,186.66,-0.7221530675888062,-0.2925240695476532,-0.08669276535511017,-0.12860485911369324,0.8215699195861816,-0.7093608379364014,-4.676395416259766,-0.25,0.21,0.09,263.21
1679661728.67834496,476771266,2,0.63,-0.76,186.76,-0.7074810862541199,-0.2894766330718994,-0.09929133951663971,-0.14667047560214996,0.8074715733528137,-0.7104024291038513,-4.689658164978027,-0.25,0.21,0.09,263.21
1679661728.77834105,476871262,2,0.42,0.13,186.59,-0.6785634756088257,-0.2777758240699768,-0.10736022144556046,-0.13278362154960632,0.7901124358177185,-0.7135069966316223,-4.701234340667725,-0.25,0.21,0.09,263.21
1679661728.87833309,476971254,2,0.4,0.51,186.31,-0.6374706625938416,-0.2591528296470642,-0.1036168783903122,-0.08749831467866898,0.7872902750968933,-0.7089093327522278,-4.709228515625,-0.25,0.21,0.09,263.21
1679661728.97830105,477071222,2,0.42,0.55,185.89000000000001,-0.5983975529670715,-0.23282171785831451,-0.08914877474308014,-0.05847322568297386,0.7815277576446533,-0.7061758041381836,-4.717053413391113,-0.25,0.21,0.09,263.21
1679661729.07830000,477171221,2,0.41000000000000003,0.01,185.39000000000001,-0.5514079332351685,-0.20541007816791534,-0.09232361614704132,-0.08056853711605072,0.787765383720398,-0.6957283616065979,-4.726478576660156,-0.25,0.21,0.09,263.21
1679661729.17829204,477271213,2,0.35000000000000003,-1.19,184.79,-0.5389165878295898,-0.19447040557861328,-0.08818423748016357,-0.09243587404489517,0.7881719470024109,-0.6874120831489563,-4.736310958862305,-0.25,0.21,0.09,263.21
1679661729.27829289,477371214,2,0.36,-2.1,184.31,-0.5331924557685852,-0.16579297184944153,-0.09860257059335709,-0.10703830420970917,0.7949954867362976,-0.6740766763687134,-4.746157169342041,-0.25,0.2,0.09,263.21
1679661729.37834597,477471267,2,0.45,-2.06,183.86,-0.5307844877243042,-0.15812760591506958,-0.10439608991146088,-0.11638059467077255,0.7931175231933594,-0.6637653708457947,-4.756272315979004,-0.25,0.2,0.09,263.21
1679661729.47834396,477571265,2,0.48,-1.51,183.5,-0.5367448925971985,-0.14081956446170807,-0.09122443199157715,-0.08207619935274124,0.7961863279342651,-0.6483993530273438,-4.762732982635498,-0.25,0.2,0.09,263.21
1679661729.57836008,477671281,2,0.38,-0.74,183.14000000000001,-0.5247917771339417,-0.12770427763462067,-0.08961846679449081,-0.05917752534151077,0.7907911539077759,-0.6360181570053101,-4.768672466278076,-0.25,0.2,0.09,263.21
1679661729.67833996,477771261,2,0.31,0.05,182.82,-0.5034898519515991,-0.10417201370000839,-0.0760805532336235,-0.04713497310876846,0.7950030565261841,-0.6198403239250183,-4.77432107925415,-0.25,0.2,0.09,263.21
1679661729.77830005,477871221,2,0.27,0.39,182.63,-0.4773930013179779,-0.07860106229782104,-0.05495121702551842,-0.028286632150411606,0.7938071489334106,-0.6066414713859558,-4.779263496398926,-0.25,0.2,0.09,263.21
1679661729.87830687,477971228,2,0.19,0.11,182.6,-0.44264572858810425,-0.06106461584568024,-0.0762675479054451,-0.05001617968082428,0.8045146465301514,-0.5896895527839661,-4.784038543701172,-0.25,0.2,0.09,263.21
1679661729.97829008,478071211,2,0.1,-0.15,182.77,-0.4114391803741455,-0.04325661063194275,-0.07182629406452179,-0.054750651121139526,0.8100956082344055,-0.5753267407417297,-4.789214134216309,-0.25,0.2,0.09,263.21
1679661730.07830310,478171224,2,0.02,0.0,183.22,-0.38723739981651306,-0.024532074108719826,-0.053767912089824677,-0.026295794174075127,0.8243457674980164,-0.5593055486679077,-4.793342590332031,-0.25,0.2,0.09,263.21
1679661730.17829609,478271217,2,-0.13,0.24,183.72,-0.362231969833374,-0.0007159212836995721,-0.048838600516319275,-0.017883287742733955,0.8323976993560791,-0.5451944470405579,-4.7970781326293945,-0.25,0.2,0.09,263.21
1679661730.27834201,478371263,2,-0.17,0.38,184.07,-0.33212149143218994,0.015653658658266068,-0.06562940776348114,-0.03418337553739548,0.847233772277832,-0.5279980897903442,-4.799747943878174,-0.25,0.19,0.08,263.21
1679661730.37834191,478471263,2,-0.11,0.47000000000000003,184.32,-0.3076339364051819,0.030797690153121948,-0.06147676706314087,-0.02260451763868332,0.8566243648529053,-0.5121890306472778,-4.801775932312012,-0.25,0.19,0.08,263.21
1679661730.47835493,478571276,2,-0.07,0.45,184.56,-0.2732643485069275,0.055879317224025726,-0.04956262931227684,-0.004861151799559593,0.8755030632019043,-0.49454328417778015,-4.802981853485107,-0.25,0.19,0.08,263.21
1679661730.57834101,478671262,2,-0.08,0.27,184.79,-0.2525998055934906,0.0665493980050087,-0.04165499657392502,0.010847393423318863,0.886097252368927,-0.4788355529308319,-4.802529811859131,-0.24,0.19,0.08,263.21
1679661730.67829800,478771219,2,-0.08,-0.38,185.08,-0.24370452761650085,0.08650326728820801,-0.024231646209955215,0.03605743870139122,0.9025353193283081,-0.462961345911026,-4.800966739654541,-0.24,0.19,0.08,263.21
1679661730.77829599,478871217,2,-0.14,-1.31,185.45000000000002,-0.24720090627670288,0.09762036055326462,-0.03881106153130531,0.015713786706328392,0.9096015095710754,-0.4485687017440796,-4.800385475158691,-0.24,0.19,0.08,263.21
1679661730.87829208,478971213,2,-0.18,-1.45,185.87,-0.24580760300159454,0.10556324571371078,-0.045068856328725815,-0.01930966228246689,0.921823263168335,-0.4357289671897888,-4.802828788757324,-0.24,0.19,0.08,263.21
1679661730.97829604,479071217,2,-0.25,-1.07,186.26,-0.2582114338874817,0.11672015488147736,-0.023309823125600815,-0.016638275235891342,0.9242823123931885,-0.42327794432640076,-4.805192470550537,-0.24,0.19,0.08,263.21
1679661731.07830405,479171225,2,-0.21,-0.8,186.49,-0.2613418400287628,0.13464891910552979,-0.021242216229438782,0.0015016300603747368,0.932133138179779,-0.4130189120769501,-4.804538249969482,-0.24,0.19,0.08,263.21
1679661731.17835999,479271281,2,-0.23,-0.3,186.76,-0.25379514694213867,0.14258605241775513,-0.021878408268094063,0.007003071252256632,0.9319133162498474,-0.4025721549987793,-4.804008960723877,-0.24,0.18,0.08,263.21
1679661731.27835894,479371280,2,-0.26,0.1,187.04,-0.24364981055259705,0.14558658003807068,-0.0066257924772799015,0.02382192574441433,0.9436277747154236,-0.3949114978313446,-4.802212715148926,-0.25,0.18,0.08,263.21
1679661731.37834287,479471264,2,-0.23,-0.35000000000000003,187.32,-0.2469092160463333,0.14970338344573975,-0.0048935022205114365,0.02604677714407444,0.9474892616271973,-0.3860114514827728,-4.800449371337891,-0.25,0.18,0.08,263.21
1679661731.47834206,479571263,2,-0.07,-1.2,187.55,-0.23110996186733246,0.14876030385494232,-0.0005010308232158422,0.02392476238310337,0.962026834487915,-0.38088637590408325,-4.7990946769714355,-0.25,0.18,0.08,263.21
1679661731.57829809,479671219,2,0.13,-0.72,187.84,-0.22676438093185425,0.1602429300546646,-0.007663628086447716,0.00935971736907959,0.9655783176422119,-0.3733246922492981,-4.798731803894043,-0.25,0.18,0.08,263.21
1679661731.67829299,479771214,2,0.09,0.35000000000000003,188.14000000000001,-0.21198824048042297,0.1622777134180069,0.01627122424542904,0.054613519459962845,0.9822267889976501,-0.37096071243286133,-4.794465065002441,-0.25,0.18,0.08,263.21
1679661731.77830100,479871222,2,-0.1,0.78,188.32,-0.1890537440776825,0.1669599413871765,0.013429957441985607,0.061514634639024734,0.9943596124649048,-0.36767029762268066,-4.789383888244629,-0.25,0.17,0.08,263.21
1679661731.87830496,479971226,2,-0.24,0.7000000000000001,188.45000000000002,-0.16184338927268982,0.16324548423290253,0.03520049899816513,0.06653954088687897,1.0156832933425903,-0.36688411235809326,-4.784807205200195,-0.25,0.17,0.07,263.21
1679661731.97829294,480071214,2,-0.27,0.67,188.6,-0.13889244198799133,0.1630501002073288,0.039256781339645386,0.05449630320072174,1.0334663391113281,-0.3641100227832794,-4.779810428619385,-0.25,0.17,0.07,263.21
1679661732.07836390,480171285,2,-0.13,0.62,188.82,-0.11139842867851257,0.17409935593605042,0.05840486288070679,0.06573005765676498,1.055734395980835,-0.36240747570991516,-4.774206161499023,-0.25,0.17,0.07,263.21
1679661732.17835402,480271275,2,0.03,0.54,189.06,-0.08454576879739761,0.16763485968112946,0.05539014935493469,0.061642397195100784,1.080517053604126,-0.3613736033439636,-4.7679290771484375,-0.25,0.17,0.07,263.21
1679661732.27835298,480371274,2,0.13,0.47000000000000003,189.32,-0.06299678981304169,0.1608666479587555,0.051809944212436676,0.06495091319084167,1.1112793684005737,-0.364462286233902,-4.760738849639893,-0.25,0.17,0.07,263.21
1679661732.37834597,480471267,2,0.19,0.38,189.64000000000001,-0.032062020152807236,0.16064836084842682,0.04896429181098938,0.06841906160116196,1.137234091758728,-0.3661218285560608,-4.753565311431885,-0.25,0.17,0.07,263.21
1679661732.47830009,480571221,2,0.17,0.33,189.91,-0.005868349689990282,0.14151449501514435,0.046156901866197586,0.06820117682218552,1.1683976650238037,-0.3713228404521942,-4.746224880218506,-0.26,0.16,0.07,263.21
1679661732.57829499,480671216,2,0.26,0.3,190.15,0.006446728482842445,0.14170251786708832,0.05999669060111046,0.07597115635871887,1.1949560642242432,-0.3750150799751282,-4.739507675170898,-0.26,0.16,0.07,263.21
1679661732.67828894,480771210,2,1.12,0.34,190.34,0.030639177188277245,0.10860108584165573,0.04765310883522034,0.060371607542037964,1.2282347679138184,-0.38310158252716064,-4.732780456542969,-0.26,0.16,0.07,263.21
1679661732.77829194,480871213,2,2.47,0.4,190.58,0.0541377030313015,0.07994193583726883,0.05465586856007576,0.06477923691272736,1.2580677270889282,-0.39161625504493713,-4.726236820220947,-0.26,0.16,0.07,263.21
1679661732.87829304,480971214,2,3.0,0.49,190.78,0.079836405813694,0.035991039127111435,0.05534367635846138,0.06193142756819725,1.2942328453063965,-0.40489137172698975,-4.7202887535095215,-0.26,0.16,0.07,263.21
1679661732.97834492,481071266,2,2.75,0.52,190.98,0.11021130532026291,-0.010996446013450623,0.050245292484760284,0.05710914731025696,1.3273311853408813,-0.41981223225593567,-4.7147626876831055,-0.26,0.16,0.08,263.21
1679661733.07834387,481171265,2,2.0100000000000002,0.47000000000000003,191.20000000000002,0.13936060667037964,-0.046940531581640244,0.022243734449148178,0.026512769982218742,1.365399956703186,-0.4373519718647003,-4.710403919219971,-0.26,0.16,0.07,263.21
1679661733.17833805,481271259,2,1.21,0.39,191.39000000000001,0.15247368812561035,-0.07338409870862961,0.036572039127349854,0.041282907128334045,1.4001727104187012,-0.4548971652984619,-4.706658840179443,-0.26,0.16,0.07,263.21
1679661733.27835488,481371276,2,0.51,0.33,191.58,0.17490622401237488,-0.07983529567718506,0.02461252547800541,0.030254412442445755,1.437934160232544,-0.46651116013526917,-4.7038421630859375,-0.26,0.15,0.08,263.21
1679661733.37830091,481471222,2,-0.09,0.3,191.69,0.17703329026699066,-0.07370971143245697,0.022370826452970505,0.024477925151586533,1.4720159769058228,-0.47543829679489136,-4.701409339904785,-0.26,0.15,0.07,263.21
1679661733.47830009,481571221,2,-0.35000000000000003,0.3,191.83,0.19295364618301392,-0.05989004671573639,0.021686287596821785,0.04632679745554924,1.5095781087875366,-0.47513315081596375,-4.696085453033447,-0.26,0.15,0.08,263.21
1679661733.57829690,481671218,2,-0.26,0.21,191.89000000000001,0.2033023089170456,-0.045866742730140686,0.0031160549260675907,0.042187079787254333,1.5423991680145264,-0.47353997826576233,-4.691298007965088,-0.26,0.15,0.08,263.21
1679661733.67829990,481771221,2,-0.15,0.1,191.99,0.21045280992984772,-0.021134093403816223,0.005586329381912947,0.03001345321536064,1.5782122611999512,-0.4637967646121979,-4.688645839691162,-0.26,0.15,0.08,263.21
1679661733.77829194,481871213,2,-0.08,0.05,192.04,0.2150898277759552,0.0005707618547603488,-0.012866277247667313,-0.004097732715308666,1.6096988916397095,-0.4543090760707855,-4.687878608703613,-0.26,0.15,0.08,263.21
1679661733.87835002,481971271,2,0.02,0.04,192.08,0.21162545680999756,0.002270318800583482,-0.011535472236573696,-0.020821306854486465,1.6450576782226562,-0.44074055552482605,-4.68959903717041,-0.26,0.15,0.08,263.21
1679661733.97834086,482071262,2,0.06,0.05,192.03,0.21811485290527344,0.013929861597716808,-0.013439396396279335,-0.030939599499106407,1.6762821674346924,-0.4285163879394531,-4.692054271697998,-0.26,0.15,0.08,263.21
1679661734.07833600,482171257,2,0.09,0.04,191.93,0.23726786673069,0.028233056887984276,-0.031223883852362633,-0.012849939987063408,1.7127751111984253,-0.41327109932899475,-4.691042423248291,-0.26,0.15,0.08,263.21
1679661734.17834496,482271266,2,0.11,-0.05,191.77,0.22767657041549683,0.03331400454044342,-0.04527723789215088,-0.007588815875351429,1.745598554611206,-0.3994704484939575,-4.691832065582275,-0.26,0.15,0.08,263.21
1679661734.27829695,482371218,2,0.12,-0.09,191.51,0.23435236513614655,0.05381578579545021,-0.04585503041744232,0.0019330743234604597,1.7837706804275513,-0.383139431476593,-4.692209720611572,-0.26,0.14,0.08,263.21
1679661734.37828994,482471211,2,0.13,-0.07,191.17000000000002,0.24334298074245453,0.04669403284788132,-0.07662229239940643,-0.0622265450656414,1.8181673288345337,-0.36859020590782166,-4.698589324951172,-0.26,0.14,0.09,263.21
1679661734.47830296,482571224,2,0.2,-0.08,190.8,0.2397807538509369,0.06254926323890686,-0.055102281272411346,-0.08979637175798416,1.8564767837524414,-0.3520826995372772,-4.708251953125,-0.26,0.14,0.09,263.21
1679661734.57830691,482671228,2,0.28,-0.16,190.33,0.24151834845542908,0.06621500849723816,-0.06712950766086578,-0.11509653925895691,1.8907663822174072,-0.3373872637748718,-4.718502998352051,-0.26,0.14,0.09,263.21
1679661734.67830300,482771224,2,0.34,-0.2,189.84,0.24726742506027222,0.0772290751338005,-0.06675848364830017,-0.08382812887430191,1.9307782649993896,-0.3181126117706299,-4.724684238433838,-0.26,0.14,0.09,263.21
1679661734.77835393,482871275,2,0.35000000000000003,-0.09,189.3,0.2542083263397217,0.07548380643129349,-0.07408762723207474,-0.04745630919933319,1.9671580791473389,-0.3004772663116455,-4.72812557220459,-0.26,0.14,0.09,263.21
1679661734.87834597,482971267,2,0.38,0.11,188.63,0.2677752375602722,0.07861397415399551,-0.05474257841706276,-0.010074220597743988,2.0122530460357666,-0.2805097997188568,-4.730596542358398,-0.26,0.14,0.09,263.21
1679661734.97834301,483071264,2,0.49,0.25,187.83,0.26928189396858215,0.08909302204847336,-0.0357670858502388,0.0030337334610521793,2.052508592605591,-0.26359090209007263,-4.733304977416992,-0.25,0.13,0.09,263.21
1679661735.07834005,483171261,2,0.49,0.39,186.97,0.28971928358078003,0.09151969850063324,-0.047970693558454514,-0.009328139945864677,2.1024906635284424,-0.2429053634405136,-4.734698295593262,-0.25,0.13,0.09,263.21
1679661735.17829990,483271221,2,0.49,0.13,185.99,0.3001083433628082,0.10234906524419785,-0.0440252423286438,0.012177136726677418,2.1506173610687256,-0.22330109775066376,-4.733357906341553,-0.25,0.13,0.09,263.21
1679661735.27829695,483371218,2,0.46,0.03,185.03,0.32358890771865845,0.10629413276910782,-0.034649550914764404,0.03636753186583519,2.2039973735809326,-0.19940853118896484,-4.731180667877197,-0.25,0.13,0.09,263.21
1679661735.37829900,483471220,2,0.42,0.35000000000000003,184.07,0.32785749435424805,0.1141030564904213,-0.04617620259523392,-0.0008997995173558593,2.255049705505371,-0.17633908987045288,-4.731196403503418,-0.25,0.13,0.08,263.21
1679661735.47830296,483571224,2,0.28,0.46,183.3,0.3480696678161621,0.1212090402841568,-0.04428170248866081,-0.001296136761084199,2.3113503456115723,-0.15117447078227997,-4.729952335357666,-0.25,0.13,0.09,263.21
1679661735.57831097,483671232,2,0.14,0.42,182.82,0.3624040186405182,0.12237730622291565,-0.06663087010383606,-0.017476074397563934,2.3652758598327637,-0.12716048955917358,-4.72905969619751,-0.25,0.12,0.08,263.21
1679661735.67835593,483771277,2,0.14,0.52,182.47,0.38804247975349426,0.1482197493314743,-0.03580958768725395,0.013677756302058697,2.427257537841797,-0.09863930940628052,-4.728536605834961,-0.25,0.12,0.08,263.21
1679661735.77834105,483871262,2,0.12,0.89,182.23,0.41153091192245483,0.15218767523765564,-0.029445409774780273,0.010189826600253582,2.4874095916748047,-0.07068648934364319,-4.7294697761535645,-0.25,0.12,0.08,263.21
1679661735.87834692,483971268,2,0.03,1.77,182.09,0.4558732509613037,0.16808296740055084,-0.04204363375902176,-0.04233270138502121,2.554785966873169,-0.04103308543562889,-4.732987403869629,-0.25,0.12,0.08,263.21
1679661735.97834706,484071268,2,-0.11,3.14,182.14000000000001,0.5103129148483276,0.17954038083553314,-0.04964147508144379,-0.055287569761276245,2.6228175163269043,-0.01234963908791542,-4.736261367797852,-0.25,0.12,0.08,263.21
1679661736.07830310,484171224,2,-0.25,4.16,182.34,0.581196665763855,0.2082729935646057,-0.03754068538546562,-0.020219236612319946,2.700441837310791,0.01685263216495514,-4.737338066101074,-0.25,0.11,0.08,263.21
1679661736.17829490,484271216,2,-0.31,4.5200000000000005,182.62,0.654655396938324,0.20775459706783295,-0.021461566910147667,0.00976212415844202,2.7812259197235107,0.04577387496829033,-4.737232208251953,-0.25,0.11,0.08,263.21
1679661736.27829289,484371214,2,-0.22,4.0600000000000005,182.8,0.7283267378807068,0.23359854519367218,-0.02162494696676731,0.005950637627393007,2.8653459548950195,0.07567919045686722,-4.737317085266113,-0.24,0.11,0.08,263.21
1679661736.37828803,484471209,2,-0.01,3.47,182.92000000000002,0.7981600165367126,0.2455323189496994,-0.01073999609798193,0.015736985951662064,2.953071117401123,0.10585858672857285,-4.736780166625977,-0.24,0.11,0.07,263.21
1679661736.47830486,484571226,2,0.13,3.08,183.03,0.8479811549186707,0.23743847012519836,-0.022127700969576836,0.008314852602779865,3.0369441509246826,0.1362505853176117,-4.736128807067871,-0.24,0.12,0.07,263.21
1679661736.57835698,484671278,2,0.23,2.91,183.15,0.8878346681594849,0.25150319933891296,-0.018464066088199615,-0.0061410050839185715,3.121535062789917,0.16502465307712555,-4.737088680267334,-0.24,0.12,0.08,263.21
1679661736.67837596,484771297,2,0.27,2.96,183.31,0.9236740469932556,0.24050776660442352,-0.01812087744474411,-0.017509402707219124,3.195927858352661,0.1938699632883072,-4.739080429077148,-0.24,0.12,0.07,263.21
1679661736.77834296,484871264,2,0.23,3.13,183.62,0.9640478491783142,0.24960355460643768,-0.005714855622500181,-0.021081700921058655,3.27335786819458,0.22189532220363617,-4.741769313812256,-0.24,0.12,0.07,263.21
1679661736.87834907,484971270,2,-0.21,3.2,184.11,0.9903194308280945,0.2598104774951935,-0.016219744458794594,-0.024535007774829865,3.33950138092041,0.2532484829425812,-4.743319988250732,-0.24,0.13,0.07,263.21
1679661736.97830796,485071229,2,-0.78,3.54,184.62,1.0186814069747925,0.2715994715690613,-0.024806441739201546,-0.028309471905231476,3.4089415073394775,0.28512635827064514,-4.745033264160156,-0.24,0.13,0.07,263.21
1679661737.07829404,485171215,2,-1.06,3.99,185.13,1.0469228029251099,0.2946174442768097,-0.011647655628621578,-0.012229260988533497,3.4630885124206543,0.3202286660671234,-4.745884418487549,-0.24,0.14,0.07,263.21
1679661737.17829108,485271212,2,-1.21,4.2,185.57,1.0809835195541382,0.3324102759361267,0.00026314848219044507,0.0026766834780573845,3.526228666305542,0.3559933304786682,-4.745631694793701,-0.24,0.14,0.07,263.21
1679661737.27829409,485371215,2,-1.17,4.21,185.91,1.0958606004714966,0.36118635535240173,-0.005530700087547302,-0.00023213167150970548,3.572139024734497,0.39631491899490356,-4.745357513427734,-0.23,0.15,0.08,263.21
1679661737.37829804,485471219,2,-0.91,4.18,186.02,1.1279902458190918,0.37879934906959534,-0.014770271256566048,-0.015035250224173069,3.630169630050659,0.4375651776790619,-4.7462615966796875,-0.23,0.15,0.08,263.21
1679661737.47834492,485571266,2,-0.61,4.11,185.78,1.1421574354171753,0.40700864791870117,-0.017947711050510406,-0.01921531930565834,3.675028085708618,0.4789930582046509,-4.747849464416504,-0.23,0.16,0.08,263.21
1679661737.57834888,485671270,2,-0.26,3.99,185.15,1.1642801761627197,0.4206582307815552,-0.0008551514474675059,0.0017093336209654808,3.7217235565185547,0.520378828048706,-4.749444961547852,-0.23,0.16,0.08,263.21
1679661737.67835307,485771274,2,-0.06,3.74,184.27,1.1652079820632935,0.41939446330070496,0.009456509724259377,0.020844733342528343,3.7478654384613037,0.5600893497467041,-4.749048709869385,-0.23,0.17,0.08,263.21
1679661737.77833986,485871261,2,0.02,3.25,183.28,1.1666487455368042,0.42416250705718994,0.028779078274965286,0.046812403947114944,3.783357620239258,0.5994307398796082,-4.74659538269043,-0.24,0.17,0.08,263.21
1679661737.87831187,485971233,2,-0.45,1.85,182.48,1.1272445917129517,0.4292382001876831,0.025743817910552025,0.039692047983407974,3.7929482460021973,0.6398086547851562,-4.744057655334473,-0.24,0.19,0.08,263.21
1679661737.97829890,486071220,2,-1.07,0.46,181.8,1.092289686203003,0.44064635038375854,0.01912521943449974,0.02756509929895401,3.8105034828186035,0.6813312768936157,-4.741760730743408,-0.24,0.19,0.08,263.21
1679661738.07830095,486171222,2,-1.5,-0.05,181.26,1.016743779182434,0.4630517363548279,0.00017314993601758033,0.030189434066414833,3.8003036975860596,0.7244843244552612,-4.737851142883301,-0.23,0.2,0.08,263.21
1679661738.17830300,486271224,2,-2.4,-0.05,180.9,0.9474769234657288,0.5077764987945557,-0.0006548726232722402,0.04040706530213356,3.7975430488586426,0.7710908651351929,-4.734177589416504,-0.23,0.2,0.08,263.21
1679661738.27829599,486371217,2,-3.48,-0.06,180.86,0.8674291968345642,0.5544662475585938,-0.01197663601487875,0.04236185550689697,3.7659780979156494,0.8216053247451782,-4.729678153991699,-0.24,0.22,0.08,263.21
1679661738.37835288,486471274,2,-3.92,-0.19,180.88,0.792831301689148,0.6139253973960876,-0.007534591015428305,0.05171044543385506,3.7434558868408203,0.8779355883598328,-4.724813461303711,-0.24,0.22,0.08,263.21
1679661738.47835588,486571277,2,-3.9,-0.23,180.87,0.7105454802513123,0.6812005043029785,0.0157301165163517,0.06691642850637436,3.6975088119506836,0.9349157214164734,-4.720023155212402,-0.24,0.23,0.08,263.21
1679661738.57834387,486671265,2,-3.88,-0.14,180.75,0.6418702602386475,0.7350531220436096,0.001809801789931953,0.03840330243110657,3.6627724170684814,0.9986515045166016,-4.716040134429932,-0.24,0.23,0.08,263.21
1679661738.67834187,486771263,2,-3.74,-0.01,180.63,0.5647585988044739,0.7880067825317383,0.018529191613197327,0.04808320477604866,3.608725070953369,1.0557762384414673,-4.711702346801758,-0.24,0.24,0.08,263.21
1679661738.77829003,486871211,2,-3.69,0.07,180.52,0.5087679624557495,0.8477119207382202,0.021163398399949074,0.05006761848926544,3.566364049911499,1.1182714700698853,-4.70670747756958,-0.24,0.24,0.08,263.21
1679661738.87830806,486971229,2,-3.87,0.14,180.4,0.44219034910202026,0.8811782598495483,0.03688886761665344,0.06263783574104309,3.508615493774414,1.166878342628479,-4.701248645782471,-0.25,0.25,0.08,263.21
1679661738.97830391,487071225,2,-4.08,0.28,180.39000000000001,0.39165598154067993,0.9232422113418579,0.03640840947628021,0.060065411031246185,3.4631595611572266,1.2211954593658447,-4.69546365737915,-0.25,0.25,0.08,263.21
1679661739.07830405,487171225,2,-3.81,0.39,180.52,0.336868554353714,0.9446026086807251,0.03138422593474388,0.051708560436964035,3.4036879539489746,1.2585577964782715,-4.6898298263549805,-0.26,0.26,0.08,263.21
