timestamp,TimeUS,DesRoll,Roll,DesPitch,Pitch,DesYaw,Yaw,ErrRP,ErrYaw,AEKF
59.40397500,59403975,0.0,0.55,0.0,-0.78,1.22,1.22,0.0,0.01,0
59.50364600,59503646,0.0,0.55,0.0,-0.77,1.22,1.22,0.0,0.01,0
59.60364800,59603648,0.0,0.55,0.0,-0.77,1.21,1.21,0.0,0.01,0
59.70367200,59703672,0.0,0.55,0.0,-0.77,1.21,1.21,0.0,0.01,0
59.80362500,59803625,0.0,0.55,0.0,-0.77,1.21,1.21,0.0,0.01,0
61.90364300,61903643,0.0,0.54,0.0,-0.76,1.19,1.19,0.0,0.01,0
62.00365500,62003655,0.0,0.54,0.0,-0.76,1.19,1.19,0.0,0.01,0
62.10367700,62103677,0.0,0.54,0.0,-0.76,1.19,1.19,0.0,0.01,0
62.20368900,62203689,0.0,0.54,0.0,-0.76,1.17,1.17,0.0,0.01,0
62.30363700,62303637,0.0,0.54,0.0,-0.76,1.16,1.16,0.0,0.01,0
62.40397600,62403976,0.0,0.54,0.0,-0.76,1.18,1.18,0.0,0.01,0
62.50363400,62503634,0.0,0.54,0.0,-0.76,1.17,1.17,0.0,0.01,0
62.60368600,62603686,0.0,0.54,0.0,-0.76,1.17,1.17,0.0,0.01,0
62.70363600,62703636,0.0,0.54,0.0,-0.76,1.19,1.19,0.0,0.01,0
62.80363000,62803630,0.0,0.54,0.0,-0.77,1.18,1.18,0.0,0.01,0
62.90363600,62903636,0.0,0.54,0.0,-0.77,1.18,1.18,0.0,0.01,0
63.00367400,63003674,0.0,0.54,0.0,-0.77,1.19,1.19,0.0,0.01,0
63.10364800,63103648,0.0,0.54,0.0,-0.76,1.22,1.22,0.0,0.01,0
63.20363400,63203634,0.0,0.54,0.0,-0.77,1.23,1.23,0.0,0.01,0
63.30371600,63303716,0.0,0.54,0.0,-0.77,1.24,1.24,0.0,0.01,0
63.40390600,63403906,0.0,0.54,0.0,-0.77,1.25,1.25,0.0,0.01,0
63.50363400,63503634,0.0,0.54,0.0,-0.77,1.25,1.25,0.0,0.01,0
65.60368000,65603680,0.0,0.54,0.0,-0.78,1.47,1.47,0.0,0.01,0
65.70364700,65703647,0.0,0.54,0.0,-0.78,1.48,1.48,0.0,0.01,0
65.80362500,65803625,0.0,0.54,0.0,-0.78,1.49,1.49,0.0,0.01,0
65.90364500,65903645,0.0,0.54,0.0,-0.78,1.48,1.48,0.0,0.01,0
66.00365300,66003653,0.0,0.54,0.0,-0.78,1.49,1.49,0.0,0.01,0
66.10362700,66103627,0.0,0.54,0.0,-0.78,1.49,1.49,0.0,0.01,0
66.20364700,66203647,0.0,0.54,0.0,-0.78,1.49,1.49,0.0,0.01,0
66.30365900,66303659,0.0,0.54,0.0,-0.78,1.49,1.49,0.0,0.0,0
66.40387200,66403872,0.0,0.53,0.0,-0.78,1.49,1.49,0.0,0.0,0
66.50366200,66503662,0.0,0.53,0.0,-0.79,1.48,1.48,0.0,0.01,0
66.60365200,66603652,0.0,0.54,0.0,-0.79,1.49,1.49,0.0,0.01,0
66.70369800,66703698,0.0,0.54,0.0,-0.79,1.49,1.49,0.0,0.01,0
66.80359300,66803593,0.0,0.54,0.0,-0.79,1.49,1.49,0.0,0.01,0
66.90363500,66903635,0.0,0.54,0.0,-0.78,1.49,1.49,0.0,0.01,0
69.10363200,69103632,0.0,0.54,0.0,-0.77,1.6400000000000001,1.6400000000000001,0.0,0.01,0
69.20362800,69203628,0.0,0.54,0.0,-0.78,1.67,1.67,0.0,0.02,0
69.30366400,69303664,0.0,0.54,0.0,-0.77,1.6600000000000001,1.6600000000000001,0.0,0.01,0
69.40384100,69403841,0.0,0.54,0.0,-0.78,1.6600000000000001,1.6600000000000001,0.0,0.01,0
69.50368100,69503681,0.0,0.54,0.0,-0.77,1.6600000000000001,1.6600000000000001,0.0,0.01,0
69.60368500,69603685,0.0,0.54,0.0,-0.78,1.6500000000000001,1.6500000000000001,0.0,0.01,0
69.70368400,69703684,0.0,0.54,0.0,-0.78,1.6500000000000001,1.6500000000000001,0.0,0.01,0
69.80366000,69803660,0.0,0.55,0.0,-0.78,1.6600000000000001,1.6600000000000001,0.0,0.01,0
69.90367200,69903672,0.0,0.55,0.0,-0.78,1.6600000000000001,1.6600000000000001,0.0,0.01,0
70.00361400,70003614,0.0,0.55,0.0,-0.78,1.6600000000000001,1.6600000000000001,0.0,0.0,0
70.10365500,70103655,0.0,0.55,0.0,-0.78,1.6500000000000001,1.6500000000000001,0.0,0.01,0
70.20365300,70203653,0.0,0.55,0.0,-0.78,1.6600000000000001,1.6600000000000001,0.0,0.01,0
70.30363300,70303633,0.0,0.55,0.0,-0.78,1.6500000000000001,1.6500000000000001,0.0,0.0,0
72.50366500,72503665,0.0,0.54,0.0,-0.78,1.82,1.82,0.0,0.01,0
72.60364700,72603647,0.0,0.54,0.0,-0.78,1.83,1.83,0.0,0.01,0
72.70372000,72703720,0.0,0.54,0.0,-0.78,1.84,1.84,0.0,0.01,0
72.80371700,72803717,0.0,0.54,0.0,-0.78,1.84,1.84,0.0,0.01,0
72.90365100,72903651,0.0,0.54,0.0,-0.78,1.84,1.84,0.0,0.01,0
73.00369300,73003693,0.0,0.54,0.0,-0.78,1.83,1.83,0.0,0.01,0
73.10359700,73103597,0.0,0.54,0.0,-0.78,1.83,1.83,0.0,0.01,0
73.20371200,73203712,0.0,0.54,0.0,-0.78,1.83,1.83,0.0,0.01,0
73.30364800,73303648,0.0,0.54,0.0,-0.78,1.84,1.84,0.0,0.01,0
73.40395300,73403953,0.0,0.54,0.0,-0.78,1.83,1.83,0.0,0.01,0
73.50370100,73503701,0.0,0.54,0.0,-0.78,1.82,1.82,0.0,0.01,0
73.60366000,73603660,0.0,0.54,0.0,-0.78,1.82,1.82,0.0,0.01,0
73.70363900,73703639,0.0,0.54,0.0,-0.78,1.82,1.82,0.0,0.01,0
73.80364100,73803641,0.0,0.54,0.0,-0.79,1.83,1.83,0.0,0.01,0
73.90364700,73903647,0.0,0.54,0.0,-0.79,1.83,1.83,0.0,0.01,0
74.00367200,74003672,0.0,0.54,0.0,-0.79,1.81,1.81,0.0,0.01,0
74.10366000,74103660,0.0,0.54,0.0,-0.79,1.81,1.81,0.0,0.01,0
74.20366900,74203669,0.0,0.54,0.0,-0.79,1.81,1.81,0.0,0.01,0
74.30368900,74303689,0.0,0.55,0.0,-0.79,1.8,1.8,0.0,0.01,0
74.40390200,74403902,0.0,0.54,0.0,-0.79,1.81,1.81,0.0,0.01,0
74.50368500,74503685,0.0,0.54,0.0,-0.79,1.8,1.8,0.0,0.01,0
74.60370000,74603700,0.0,0.55,0.0,-0.79,1.79,1.79,0.0,0.01,0
74.70367300,74703673,0.0,0.55,0.0,-0.79,1.79,1.79,0.0,0.01,0
74.80367700,74803677,0.0,0.54,0.0,-0.79,1.8,1.8,0.0,0.01,0
74.90364700,74903647,0.0,0.55,0.0,-0.79,1.78,1.78,0.0,0.01,0
75.00367600,75003676,0.0,0.55,0.0,-0.78,1.79,1.79,0.0,0.01,0
75.10365400,75103654,0.0,0.54,0.0,-0.79,1.78,1.78,0.0,0.01,0
75.20367600,75203676,0.0,0.54,0.0,-0.79,1.77,1.77,0.0,0.01,0
75.30363700,75303637,0.0,0.54,0.0,-0.79,1.75,1.75,0.0,0.02,0
75.40384000,75403840,0.0,0.54,0.0,-0.79,1.74,1.74,0.0,0.02,0
75.50365400,75503654,0.0,0.54,0.0,-0.78,1.72,1.72,0.0,0.02,0
75.60363500,75603635,0.0,0.54,0.0,-0.78,1.71,1.71,0.0,0.02,0
75.70366700,75703667,0.0,0.54,0.0,-0.78,1.71,1.71,0.0,0.01,0
75.80365700,75803657,0.0,0.54,0.0,-0.78,1.72,1.72,0.0,0.01,0
75.90369200,75903692,0.0,0.54,0.0,-0.78,1.72,1.72,0.0,0.01,0
76.00365300,76003653,0.0,0.54,0.0,-0.78,1.72,1.72,0.0,0.01,0
76.10369200,76103692,0.0,0.54,0.0,-0.78,1.7,1.7,0.0,0.01,0
76.20361800,76203618,0.0,0.54,0.0,-0.78,1.72,1.72,0.0,0.01,0
76.30365400,76303654,0.0,0.54,0.0,-0.78,1.72,1.72,0.0,0.01,0
76.40396300,76403963,0.0,0.54,0.0,-0.78,1.71,1.71,0.0,0.01,0
76.50366900,76503669,0.0,0.54,0.0,-0.78,1.7,1.7,0.0,0.01,0
76.60368000,76603680,0.0,0.54,0.0,-0.78,1.72,1.72,0.0,0.01,0
76.70367400,76703674,0.0,0.54,0.0,-0.78,1.71,1.71,0.0,0.01,0
78.90366400,78903664,0.0,0.52,0.0,-0.78,2.15,2.15,0.0,0.03,0
79.00366500,79003665,0.0,0.52,0.0,-0.77,2.16,2.16,0.0,0.03,0
79.10366000,79103660,0.0,0.52,0.0,-0.77,2.18,2.18,0.0,0.03,0
79.20373400,79203734,0.0,0.52,0.0,-0.77,2.18,2.18,0.0,0.02,0
79.30371900,79303719,0.0,0.52,0.0,-0.77,2.18,2.18,0.0,0.02,0
79.40393600,79403936,0.0,0.52,0.0,-0.77,2.15,2.15,0.0,0.02,0
79.50363500,79503635,0.0,0.52,0.0,-0.77,2.14,2.14,0.0,0.02,0
79.60367200,79603672,0.0,0.52,0.0,-0.77,2.14,2.14,0.0,0.02,0
79.70369400,79703694,0.0,0.53,0.0,-0.77,2.13,2.13,0.0,0.02,0
79.80359700,79803597,0.0,0.53,0.0,-0.78,2.12,2.12,0.0,0.02,0
79.90363800,79903638,0.0,0.53,0.0,-0.77,2.1,2.1,0.0,0.02,0
80.00363500,80003635,0.0,0.52,0.0,-0.77,2.1,2.1,0.0,0.02,0
80.10365400,80103654,0.0,0.53,0.0,-0.77,2.11,2.11,0.0,0.02,0
80.20365500,80203655,0.0,0.52,0.0,-0.78,2.11,2.11,0.0,0.02,0
80.30376900,80303769,0.0,0.52,0.0,-0.78,2.11,2.11,0.0,0.01,0
80.40387400,80403874,0.0,0.52,0.0,-0.78,2.11,2.11,0.0,0.01,0
80.50366000,80503660,0.0,0.52,0.0,-0.78,2.11,2.11,0.0,0.01,0
80.60369600,80603696,0.0,0.52,0.0,-0.78,2.09,2.09,0.0,0.01,0
80.70365100,80703651,0.0,0.52,0.0,-0.78,2.07,2.07,0.0,0.02,0
80.80359100,80803591,0.0,0.52,0.0,-0.78,2.07,2.07,0.0,0.01,0
80.90359900,80903599,0.0,0.52,0.0,-0.78,2.05,2.05,0.0,0.02,0
81.00361000,81003610,0.0,0.52,0.0,-0.78,2.05,2.05,0.0,0.01,0
81.10365900,81103659,0.0,0.52,0.0,-0.78,2.04,2.04,0.0,0.01,0
81.20363300,81203633,0.0,0.52,0.0,-0.78,2.05,2.05,0.0,0.01,0
81.30364400,81303644,0.0,0.52,0.0,-0.78,2.06,2.06,0.0,0.01,0
81.40390200,81403902,0.0,0.51,0.0,-0.78,2.06,2.06,0.0,0.01,0
81.50363900,81503639,0.0,0.51,0.0,-0.78,2.06,2.06,0.0,0.01,0
81.60365700,81603657,0.0,0.51,0.0,-0.78,2.07,2.07,0.0,0.01,0
81.70365000,81703650,0.0,0.51,0.0,-0.78,2.07,2.07,0.0,0.01,0
81.80365400,81803654,0.0,0.51,0.0,-0.78,2.04,2.04,0.0,0.02,0
81.90365600,81903656,0.0,0.51,0.0,-0.78,2.0100000000000002,2.0100000000000002,0.0,0.02,0
82.00368800,82003688,0.0,0.51,0.0,-0.77,2.02,2.02,0.0,0.02,0
82.10367400,82103674,0.0,0.52,0.0,-0.77,2.0100000000000002,2.0100000000000002,0.0,0.01,0
82.20370800,82203708,0.0,0.52,0.0,-0.77,2.0,2.0,0.0,0.02,0
82.30365400,82303654,0.0,0.52,0.0,-0.77,2.0100000000000002,2.0100000000000002,0.0,0.01,0
82.40400900,82404009,0.0,0.51,0.0,-0.77,2.0100000000000002,2.0100000000000002,0.0,0.01,0
82.50369500,82503695,0.0,0.52,0.0,-0.78,2.0,2.0,0.0,0.01,0
82.60369200,82603692,0.0,0.51,0.0,-0.78,1.99,1.99,0.0,0.01,0
82.70364500,82703645,0.0,0.51,0.0,-0.78,1.99,1.99,0.0,0.01,0
82.80363300,82803633,0.0,0.51,0.0,-0.78,1.99,1.99,0.0,0.01,0
82.90366600,82903666,0.0,0.51,0.0,-0.78,2.0,2.0,0.0,0.01,0
83.00366400,83003664,0.0,0.51,0.0,-0.78,2.0,2.0,0.0,0.01,0
83.10360800,83103608,0.0,0.51,0.0,-0.78,1.98,1.98,0.0,0.01,0
83.20365900,83203659,0.0,0.51,0.0,-0.78,2.0,2.0,0.0,0.01,0
83.30366500,83303665,0.0,0.51,0.0,-0.78,2.0,2.0,0.0,0.01,0
83.40383900,83403839,0.0,0.51,0.0,-0.78,1.98,1.98,0.0,0.01,0
83.50366100,83503661,0.0,0.51,0.0,-0.77,1.98,1.98,0.0,0.01,0
83.60367400,83603674,0.0,0.51,0.0,-0.77,1.98,1.98,0.0,0.01,0
83.70367000,83703670,0.0,0.51,0.0,-0.77,1.99,1.99,0.0,0.01,0
85.90367100,85903671,0.0,0.5,0.0,-0.78,3.5300000000000002,3.5300000000000002,0.0,0.12,0
86.00368200,86003682,0.0,0.5,0.0,-0.77,3.61,3.61,0.0,0.12,0
86.10366500,86103665,0.0,0.5,0.0,-0.78,3.61,3.61,0.0,0.1,0
86.20364800,86203648,0.0,0.5,0.0,-0.77,3.6,3.6,0.0,0.09,0
86.30363500,86303635,0.0,0.5,0.0,-0.77,3.5700000000000003,3.5700000000000003,0.0,0.08,0
86.40386700,86403867,0.0,0.5,0.0,-0.77,3.5500000000000003,3.5500000000000003,0.0,0.07,0
86.50364800,86503648,0.0,0.5,0.0,-0.77,3.54,3.54,0.0,0.06,0
86.60373200,86603732,0.0,0.5,0.0,-0.77,3.5300000000000002,3.5300000000000002,0.0,0.06,0
86.70368800,86703688,0.0,0.5,0.0,-0.77,3.5,3.5,0.0,0.06,0
86.80368800,86803688,0.0,0.5,0.0,-0.77,3.47,3.47,0.0,0.06,0
86.90365700,86903657,0.0,0.5,0.0,-0.76,3.47,3.47,0.0,0.05,0
87.00367300,87003673,0.0,0.5,0.0,-0.76,3.45,3.45,0.0,0.05,0
87.10359600,87103596,0.0,0.5,0.0,-0.76,3.44,3.44,0.0,0.04,0
87.20362800,87203628,0.0,0.5,0.0,-0.76,3.43,3.43,0.0,0.04,0
87.30363600,87303636,0.0,0.5,0.0,-0.76,3.41,3.41,0.0,0.04,0
87.40387100,87403871,0.0,0.5,0.0,-0.76,3.42,3.42,0.0,0.03,0
87.50368700,87503687,0.0,0.5,0.0,-0.76,3.4,3.4,0.0,0.03,0
87.60363900,87603639,0.0,0.5,0.0,-0.76,3.38,3.38,0.0,0.03,0
87.70363500,87703635,0.0,0.5,0.0,-0.76,3.38,3.38,0.0,0.03,0
87.80365700,87803657,0.0,0.5,0.0,-0.75,3.38,3.38,0.0,0.03,0
87.90362000,87903620,0.0,0.5,0.0,-0.75,3.35,3.35,0.0,0.03,0
88.00366800,88003668,0.0,0.5,0.0,-0.75,3.3200000000000003,3.3200000000000003,0.0,0.04,0
88.10365300,88103653,0.0,0.51,0.0,-0.75,3.3000000000000003,3.3000000000000003,0.0,0.04,0
88.20365200,88203652,0.0,0.51,0.0,-0.75,3.3000000000000003,3.3000000000000003,0.0,0.03,0
88.30374300,88303743,0.0,0.51,0.0,-0.75,3.29,3.29,0.0,0.03,0
88.40390600,88403906,0.0,0.51,0.0,-0.75,3.27,3.27,0.0,0.03,0
88.50365000,88503650,0.0,0.51,0.0,-0.75,3.25,3.25,0.0,0.04,0
88.60366100,88603661,0.0,0.51,0.0,-0.75,3.24,3.24,0.0,0.03,0
88.70370800,88703708,0.0,0.51,0.0,-0.75,3.21,3.21,0.0,0.04,0
88.80361300,88803613,0.0,0.51,0.0,-0.75,3.19,3.19,0.0,0.04,0
88.90364800,88903648,0.0,0.51,0.0,-0.75,3.17,3.17,0.0,0.04,0
89.00366200,89003662,0.0,0.51,0.0,-0.75,3.18,3.18,0.0,0.03,0
89.10366900,89103669,0.0,0.51,0.0,-0.75,3.17,3.17,0.0,0.03,0
89.20363200,89203632,0.0,0.51,0.0,-0.75,3.16,3.16,0.0,0.03,0
89.30364900,89303649,0.0,0.51,0.0,-0.75,3.17,3.17,0.0,0.02,0
89.40387400,89403874,0.0,0.51,0.0,-0.75,3.16,3.16,0.0,0.02,0
89.50362900,89503629,0.0,0.52,0.0,-0.75,3.14,3.14,0.0,0.03,0
89.60367200,89603672,0.0,0.52,0.0,-0.75,3.13,3.13,0.0,0.03,0
89.70363500,89703635,0.0,0.52,0.0,-0.75,3.11,3.11,0.0,0.03,0
89.80368000,89803680,0.0,0.52,0.0,-0.75,3.1,3.1,0.0,0.03,0
89.90365900,89903659,0.0,0.52,0.0,-0.75,3.09,3.09,0.0,0.03,0
90.00365400,90003654,0.0,0.52,0.0,-0.75,3.0700000000000003,3.0700000000000003,0.0,0.03,0
90.10365000,90103650,0.0,0.52,0.0,-0.75,3.0700000000000003,3.0700000000000003,0.0,0.03,0
90.20367000,90203670,0.0,0.52,0.0,-0.75,3.0500000000000003,3.0500000000000003,0.0,0.03,0
90.30369000,90303690,0.0,0.52,0.0,-0.75,3.04,3.04,0.0,0.03,0
90.40393100,90403931,0.0,0.52,0.0,-0.75,3.0,3.0,0.0,0.04,0
90.50366200,90503662,0.0,0.52,0.0,-0.75,3.0,3.0,0.0,0.03,0
90.60363700,90603637,0.0,0.52,0.0,-0.75,2.99,2.99,0.0,0.03,0
90.70364900,90703649,0.0,0.52,0.0,-0.75,2.98,2.98,0.0,0.03,0
90.80365900,90803659,0.0,0.52,0.0,-0.75,2.97,2.97,0.0,0.03,0
90.90363800,90903638,0.0,0.53,0.0,-0.75,2.96,2.96,0.0,0.03,0
91.00365400,91003654,0.0,0.53,0.0,-0.75,2.93,2.93,0.0,0.03,0
91.10366100,91103661,0.0,0.53,0.0,-0.75,2.92,2.92,0.0,0.03,0
91.20365700,91203657,0.0,0.53,0.0,-0.75,2.88,2.88,0.0,0.04,0
91.30366000,91303660,0.0,0.53,0.0,-0.75,2.86,2.86,0.0,0.04,0
91.40392600,91403926,0.0,0.53,0.0,-0.75,2.86,2.86,0.0,0.03,0
91.50368400,91503684,0.0,0.53,0.0,-0.75,2.86,2.86,0.0,0.02,0
91.60364100,91603641,0.0,0.53,0.0,-0.75,2.84,2.84,0.0,0.03,0
91.70357400,91703574,0.0,0.53,0.0,-0.75,2.83,2.83,0.0,0.03,0
91.80369000,91803690,0.0,0.53,0.0,-0.75,2.82,2.82,0.0,0.03,0
91.90367000,91903670,0.0,0.53,0.0,-0.75,2.81,2.81,0.0,0.02,0
92.00361400,92003614,0.0,0.53,0.0,-0.75,2.79,2.79,0.0,0.02,0
92.10363400,92103634,0.0,0.53,0.0,-0.75,2.7800000000000002,2.7800000000000002,0.0,0.03,0
94.20370100,94203701,0.0,0.5,0.0,-0.76,3.7800000000000002,3.7800000000000002,0.0,0.08,0
94.30365200,94303652,0.0,0.5,0.0,-0.74,3.79,3.79,0.0,0.06,0
94.40383900,94403839,0.0,0.5,0.0,-0.75,3.8000000000000003,3.8000000000000003,0.0,0.05,0
94.50367400,94503674,0.0,0.5,0.0,-0.74,3.8000000000000003,3.8000000000000003,0.0,0.05,0
94.60367500,94603675,0.0,0.5,0.0,-0.75,3.77,3.77,0.0,0.05,0
94.70362700,94703627,0.0,0.5,0.0,-0.74,3.75,3.75,0.0,0.04,0
94.80369400,94803694,0.0,0.5,0.0,-0.75,3.72,3.72,0.0,0.05,0
94.90359300,94903593,0.0,0.51,0.0,-0.74,3.68,3.68,0.0,0.05,0
95.00369800,95003698,0.0,0.5,0.0,-0.75,3.66,3.66,0.0,0.05,0
95.10362800,95103628,0.0,0.51,0.0,-0.75,3.64,3.64,0.0,0.04,0
95.20359400,95203594,0.0,0.52,0.0,-0.74,3.61,3.61,0.0,0.04,0
95.30363800,95303638,0.0,0.52,0.0,-0.75,3.59,3.59,0.0,0.05,0
95.40388900,95403889,0.0,0.52,0.0,-0.75,3.56,3.56,0.0,0.05,0
95.50363000,95503630,0.0,0.52,0.0,-0.75,3.5100000000000002,3.5100000000000002,0.0,0.05,0
95.60364400,95603644,0.0,0.52,0.0,-0.74,3.49,3.49,0.0,0.05,0
95.70363300,95703633,0.0,0.52,0.0,-0.75,3.47,3.47,0.0,0.05,0
95.80368400,95803684,0.0,0.52,0.0,-0.74,3.43,3.43,0.0,0.05,0
95.90367300,95903673,0.0,0.52,0.0,-0.74,3.42,3.42,0.0,0.05,0
96.00365200,96003652,0.0,0.52,0.0,-0.74,3.41,3.41,0.0,0.04,0
96.10367400,96103674,0.0,0.52,0.0,-0.75,3.4,3.4,0.0,0.04,0
96.20368300,96203683,0.0,0.52,0.0,-0.74,3.38,3.38,0.0,0.04,0
96.30363400,96303634,0.0,0.52,0.0,-0.74,3.37,3.37,0.0,0.03,0
96.40390600,96403906,0.0,0.53,0.0,-0.74,3.36,3.36,0.0,0.03,0
96.50361500,96503615,0.0,0.54,0.0,-0.75,3.33,3.33,0.0,0.03,0
96.60369400,96603694,0.0,0.54,0.0,-0.73,3.31,3.31,0.0,0.04,0
96.70365000,96703650,0.0,0.53,0.0,-0.75,3.2800000000000002,3.2800000000000002,0.0,0.04,0
96.80368600,96803686,0.0,0.53,0.0,-0.73,3.29,3.29,0.0,0.04,0
96.90365400,96903654,0.0,0.52,0.0,-0.75,3.25,3.25,0.0,0.03,0
97.00365600,97003656,0.0,0.52,0.0,-0.73,3.2600000000000002,3.2600000000000002,0.0,0.03,0
97.10374000,97103740,0.0,0.53,0.0,-0.74,3.25,3.25,0.0,0.03,0
97.20360600,97203606,0.0,0.52,0.0,-0.74,3.24,3.24,0.0,0.03,0
97.30361400,97303614,0.0,0.54,0.0,-0.74,3.2,3.2,0.0,0.03,0
97.40387800,97403878,0.0,0.52,0.0,-0.73,3.18,3.18,0.0,0.04,0
97.50365600,97503656,0.0,0.53,0.0,-0.74,3.16,3.16,0.0,0.04,0
97.60370700,97603707,0.0,0.52,0.0,-0.74,3.12,3.12,0.0,0.05,0
97.70368200,97703682,0.0,0.53,0.0,-0.74,3.12,3.12,0.0,0.04,0
97.80363600,97803636,0.0,0.53,0.0,-0.74,3.11,3.11,0.0,0.04,0
97.90366100,97903661,0.0,0.53,0.0,-0.74,3.1,3.1,0.0,0.03,0
98.00366900,98003669,0.0,0.53,0.0,-0.74,3.08,3.08,0.0,0.03,0
98.10361000,98103610,0.0,0.53,0.0,-0.74,3.08,3.08,0.0,0.03,0
98.20364100,98203641,0.0,0.53,0.0,-0.75,3.0500000000000003,3.0500000000000003,0.0,0.04,0
98.30363600,98303636,0.0,0.53,0.0,-0.74,3.0300000000000002,3.0300000000000002,0.0,0.04,0
98.40388300,98403883,0.0,0.53,0.0,-0.74,3.0100000000000002,3.0100000000000002,0.0,0.04,0
98.50363300,98503633,0.0,0.52,0.0,-0.74,2.99,2.99,0.0,0.04,0
98.60367500,98603675,0.0,0.52,0.0,-0.74,2.96,2.96,0.0,0.04,0
98.70368800,98703688,0.0,0.52,0.0,-0.74,2.94,2.94,0.0,0.04,0
98.80363500,98803635,0.0,0.52,0.0,-0.74,2.93,2.93,0.0,0.04,0
98.90366000,98903660,0.0,0.52,0.0,-0.74,2.93,2.93,0.0,0.03,0
99.00364600,99003646,0.0,0.53,0.0,-0.74,2.92,2.92,0.0,0.03,0
99.10364100,99103641,0.0,0.53,0.0,-0.74,2.91,2.91,0.0,0.03,0
99.20369800,99203698,0.0,0.53,0.0,-0.74,2.91,2.91,0.0,0.03,0
99.30366800,99303668,0.0,0.53,0.0,-0.74,2.89,2.89,0.0,0.03,0
99.40392200,99403922,0.0,0.53,0.0,-0.74,2.88,2.88,0.0,0.03,0
99.50367600,99503676,0.0,0.53,0.0,-0.74,2.87,2.87,0.0,0.03,0
99.60360700,99603607,0.0,0.53,0.0,-0.74,2.86,2.86,0.0,0.03,0
99.70372500,99703725,0.0,0.53,0.0,-0.74,2.86,2.86,0.0,0.02,0
99.80360300,99803603,0.0,0.53,0.0,-0.74,2.85,2.85,0.0,0.02,0
99.90358800,99903588,0.0,0.53,0.0,-0.74,2.84,2.84,0.0,0.02,0
100.00366100,100003661,0.0,0.53,0.0,-0.74,2.83,2.83,0.0,0.02,0
100.10363500,100103635,0.0,0.53,0.0,-0.74,2.84,2.84,0.0,0.02,0
100.20363600,100203636,0.0,0.53,0.0,-0.74,2.82,2.82,0.0,0.02,0
100.30360200,100303602,0.0,0.53,0.0,-0.74,2.8000000000000003,2.8000000000000003,0.0,0.03,0
100.40396400,100403964,0.0,0.53,0.0,-0.74,2.8000000000000003,2.8000000000000003,0.0,0.02,0
100.50365000,100503650,0.0,0.53,0.0,-0.74,2.7800000000000002,2.7800000000000002,0.0,0.03,0
100.60366200,100603662,0.0,0.53,0.0,-0.74,2.77,2.77,0.0,0.03,0
100.70363700,100703637,0.0,0.53,0.0,-0.75,2.7600000000000002,2.7600000000000002,0.0,0.02,0
100.80371200,100803712,0.0,0.53,0.0,-0.75,2.77,2.77,0.0,0.02,0
100.90369500,100903695,0.0,0.53,0.0,-0.75,2.74,2.74,0.0,0.02,0
101.00369300,101003693,0.0,0.53,0.0,-0.75,2.75,2.75,0.0,0.02,0
101.10358400,101103584,0.0,0.53,0.0,-0.75,2.75,2.75,0.0,0.02,0
101.20359500,101203595,0.0,0.53,0.0,-0.75,2.73,2.73,0.0,0.02,0
101.30370800,101303708,0.0,0.53,0.0,-0.75,2.72,2.72,0.0,0.02,0
101.40403400,101404034,0.0,0.53,0.0,-0.75,2.69,2.69,0.0,0.03,0
101.50362600,101503626,0.0,0.53,0.0,-0.74,2.68,2.68,0.0,0.02,0
101.60368200,101603682,0.0,0.53,0.0,-0.75,2.68,2.68,0.0,0.02,0
101.70362600,101703626,0.0,0.53,0.0,-0.75,2.65,2.65,0.0,0.03,0
101.80363800,101803638,0.0,0.52,0.0,-0.75,2.64,2.64,0.0,0.02,0
101.90364500,101903645,0.0,0.52,0.0,-0.75,2.64,2.64,0.0,0.02,0
102.00364300,102003643,0.0,0.52,0.0,-0.75,2.63,2.63,0.0,0.02,0
102.10366800,102103668,0.0,0.52,0.0,-0.75,2.61,2.61,0.0,0.02,0
102.20368600,102203686,0.0,0.52,0.0,-0.75,2.59,2.59,0.0,0.02,0
102.30365700,102303657,0.0,0.53,0.0,-0.75,2.58,2.58,0.0,0.02,0
102.40390400,102403904,0.0,0.53,0.0,-0.75,2.59,2.59,0.0,0.02,0
102.50364600,102503646,0.0,0.52,0.0,-0.74,2.57,2.57,0.0,0.02,0
102.60376400,102603764,0.0,0.52,0.0,-0.74,2.5500000000000003,2.5500000000000003,0.0,0.03,0
102.70358900,102703589,0.0,0.52,0.0,-0.74,2.52,2.52,0.0,0.03,0
102.80368900,102803689,0.0,0.52,0.0,-0.74,2.5,2.5,0.0,0.03,0
102.90372000,102903720,0.0,0.52,0.0,-0.74,2.49,2.49,0.0,0.03,0
103.00369500,103003695,0.0,0.52,0.0,-0.75,2.48,2.48,0.0,0.03,0
103.10363800,103103638,0.0,0.52,0.0,-0.75,2.46,2.46,0.0,0.03,0
103.20365400,103203654,0.0,0.52,0.0,-0.75,2.44,2.44,0.0,0.03,0
103.30362900,103303629,0.0,0.52,0.0,-0.75,2.45,2.45,0.0,0.02,0
103.40398000,103403980,0.0,0.52,0.0,-0.75,2.45,2.45,0.0,0.02,0
103.50367800,103503678,0.0,0.52,0.0,-0.75,2.44,2.44,0.0,0.02,0
103.60366300,103603663,0.0,0.52,0.0,-0.75,2.44,2.44,0.0,0.01,0
103.70364500,103703645,0.0,0.52,0.0,-0.75,2.42,2.42,0.0,0.02,0
103.80366600,103803666,0.0,0.52,0.0,-0.75,2.43,2.43,0.0,0.01,0
103.90368600,103903686,0.0,0.52,0.0,-0.75,2.4,2.4,0.0,0.02,0
104.00368500,104003685,0.0,0.52,0.0,-0.75,2.4,2.4,0.0,0.02,0
104.10365400,104103654,0.0,0.52,0.0,-0.75,2.38,2.38,0.0,0.02,0
104.20369200,104203692,0.0,0.52,0.0,-0.75,2.38,2.38,0.0,0.02,0
104.30360800,104303608,0.0,0.52,0.0,-0.76,2.37,2.37,0.0,0.01,0
104.40393800,104403938,0.0,0.52,0.0,-0.75,2.36,2.36,0.0,0.01,0
104.50366800,104503668,0.0,0.52,0.0,-0.76,2.35,2.35,0.0,0.02,0
104.60365100,104603651,0.0,0.52,0.0,-0.75,2.32,2.32,0.0,0.02,0
104.70363400,104703634,0.0,0.52,0.0,-0.76,2.32,2.32,0.0,0.02,0
104.80365300,104803653,0.0,0.52,0.0,-0.75,2.3000000000000003,2.3000000000000003,0.0,0.02,0
104.90365700,104903657,0.0,0.54,0.0,-0.76,2.2800000000000002,2.2800000000000002,0.0,0.02,0
105.00364700,105003647,0.0,0.52,0.0,-0.75,2.2800000000000002,2.2800000000000002,0.0,0.02,0
105.10362800,105103628,0.0,0.52,0.0,-0.76,2.27,2.27,0.0,0.02,0
105.20365100,105203651,0.0,0.51,0.0,-0.75,2.2600000000000002,2.2600000000000002,0.0,0.02,0
105.30366100,105303661,0.0,0.52,0.0,-0.76,2.24,2.24,0.0,0.02,0
105.40385900,105403859,0.0,0.53,0.0,-0.75,2.23,2.23,0.0,0.02,0
105.50380400,105503804,0.0,0.53,0.0,-0.76,2.23,2.23,0.0,0.02,0
105.60363200,105603632,0.0,0.52,0.0,-0.75,2.2600000000000002,2.2600000000000002,0.0,0.02,0
105.70365100,105703651,0.0,0.52,0.0,-0.76,2.24,2.24,0.0,0.02,0
105.80372200,105803722,0.0,0.52,0.0,-0.75,2.23,2.23,0.0,0.02,0
105.90369000,105903690,0.0,0.52,0.0,-0.76,2.22,2.22,0.0,0.02,0
106.00364700,106003647,0.0,0.52,0.0,-0.75,2.22,2.22,0.0,0.02,0
106.10365100,106103651,0.0,0.53,0.0,-0.75,2.2,2.2,0.0,0.02,0
106.20363900,106203639,0.0,0.53,0.0,-0.75,2.19,2.19,0.0,0.02,0
106.30363200,106303632,0.0,0.53,0.0,-0.75,2.18,2.18,0.0,0.02,0
106.40388600,106403886,0.0,0.53,0.0,-0.75,2.18,2.18,0.0,0.01,0
106.50365000,106503650,0.0,0.53,0.0,-0.74,2.17,2.17,0.0,0.01,0
106.60363800,106603638,0.0,0.53,0.0,-0.74,2.15,2.15,0.0,0.01,0
106.70367000,106703670,0.0,0.53,0.0,-0.74,2.15,2.15,0.0,0.01,0
106.80367000,106803670,0.0,0.53,0.0,-0.74,2.14,2.14,0.0,0.01,0
106.90365200,106903652,0.0,0.53,0.0,-0.74,2.12,2.12,0.0,0.02,0
107.00370800,107003708,0.0,0.53,0.0,-0.74,2.09,2.09,0.0,0.02,0
107.10368200,107103682,0.0,0.53,0.0,-0.74,2.06,2.06,0.0,0.02,0
107.20365100,107203651,0.0,0.53,0.0,-0.74,2.04,2.04,0.0,0.02,0
107.30363300,107303633,0.0,0.53,0.0,-0.74,2.04,2.04,0.0,0.02,0
107.40398900,107403989,0.0,0.53,0.0,-0.74,2.0300000000000002,2.0300000000000002,0.0,0.02,0
107.50372000,107503720,0.0,0.53,0.0,-0.74,2.0100000000000002,2.0100000000000002,0.0,0.02,0
107.60364500,107603645,0.0,0.53,0.0,-0.74,1.98,1.98,0.0,0.03,0
107.70366100,107703661,0.0,0.53,0.0,-0.74,1.96,1.96,0.0,0.02,0
107.80364800,107803648,0.0,0.53,0.0,-0.74,1.95,1.95,0.0,0.02,0
107.90364000,107903640,0.0,0.53,0.0,-0.74,1.94,1.94,0.0,0.02,0
108.00364600,108003646,0.0,0.53,0.0,-0.74,1.9100000000000001,1.9100000000000001,0.0,0.02,0
108.10363600,108103636,0.0,0.53,0.0,-0.74,1.9000000000000001,1.9000000000000001,0.0,0.02,0
108.20363200,108203632,0.0,0.53,0.0,-0.74,1.8900000000000001,1.8900000000000001,0.0,0.02,0
108.30364900,108303649,0.0,0.53,0.0,-0.74,1.87,1.87,0.0,0.02,0
108.40390100,108403901,0.0,0.53,0.0,-0.74,1.85,1.85,0.0,0.02,0
108.50368100,108503681,0.0,0.53,0.0,-0.74,1.85,1.85,0.0,0.02,0
108.60368100,108603681,0.0,0.53,0.0,-0.74,1.84,1.84,0.0,0.02,0
108.70369600,108703696,0.0,0.53,0.0,-0.73,1.83,1.83,0.0,0.01,0
108.80363900,108803639,0.0,0.53,0.0,-0.73,1.82,1.82,0.0,0.01,0
108.90367300,108903673,0.0,0.52,0.0,-0.74,1.81,1.81,0.0,0.01,0
109.00369700,109003697,0.0,0.52,0.0,-0.73,1.81,1.81,0.0,0.01,0
109.10365500,109103655,0.0,0.52,0.0,-0.73,1.78,1.78,0.0,0.02,0
116.50370300,116503703,0.0,0.52,0.0,-0.72,1.4000000000000001,1.4000000000000001,0.0,0.02,0
116.60366100,116603661,0.0,0.52,0.0,-0.72,1.4000000000000001,1.4000000000000001,0.0,0.01,0
116.70374500,116703745,0.0,0.52,0.0,-0.71,1.42,1.42,0.0,0.02,0
116.80362600,116803626,0.0,0.52,0.0,-0.72,1.42,1.42,0.0,0.02,0
116.90368800,116903688,0.0,0.52,0.0,-0.71,1.43,1.43,0.0,0.01,0
117.00365500,117003655,0.0,0.52,0.0,-0.72,1.43,1.43,0.0,0.01,0
117.10368000,117103680,0.0,0.52,0.0,-0.71,1.42,1.42,0.0,0.01,0
117.20364800,117203648,0.0,0.52,0.0,-0.72,1.41,1.41,0.0,0.01,0
117.30364400,117303644,0.0,0.52,0.0,-0.71,1.41,1.41,0.0,0.01,0
117.40383800,117403838,0.0,0.52,0.0,-0.71,1.41,1.41,0.0,0.01,0
117.50368200,117503682,0.0,0.51,0.0,-0.71,1.3900000000000001,1.3900000000000001,0.0,0.01,0
117.60365000,117603650,0.0,0.52,0.0,-0.71,1.4000000000000001,1.4000000000000001,0.0,0.01,0
117.70366600,117703666,0.0,0.51,0.0,-0.71,1.41,1.41,0.0,0.01,0
117.80367500,117803675,0.0,0.51,0.0,-0.71,1.42,1.42,0.0,0.01,0
117.90366900,117903669,0.0,0.51,0.0,-0.71,1.41,1.41,0.0,0.01,0
118.00366500,118003665,0.0,0.51,0.0,-0.71,1.3900000000000001,1.3900000000000001,0.0,0.01,0
118.10370000,118103700,0.0,0.51,0.0,-0.71,1.3800000000000001,1.3800000000000001,0.0,0.01,0
118.20363100,118203631,0.0,0.51,0.0,-0.71,1.36,1.36,0.0,0.01,0
118.30367500,118303675,0.0,0.51,0.0,-0.72,1.37,1.37,0.0,0.01,0
118.40397200,118403972,0.0,0.51,0.0,-0.72,1.35,1.35,0.0,0.01,0
118.50365000,118503650,0.0,0.51,0.0,-0.72,1.34,1.34,0.0,0.01,0
118.60367000,118603670,0.0,0.51,0.0,-0.72,1.32,1.32,0.0,0.01,0
118.70364200,118703642,0.0,0.51,0.0,-0.71,1.32,1.32,0.0,0.01,0
118.80363700,118803637,0.0,0.51,0.0,-0.71,1.31,1.31,0.0,0.01,0
118.90365200,118903652,0.0,0.51,0.0,-0.71,1.31,1.31,0.0,0.01,0
119.00366500,119003665,0.0,0.51,0.0,-0.71,1.32,1.32,0.0,0.01,0
119.10363700,119103637,0.0,0.51,0.0,-0.71,1.32,1.32,0.0,0.01,0
119.20364800,119203648,0.0,0.52,0.0,-0.71,1.31,1.31,0.0,0.01,0
119.30367400,119303674,0.0,0.52,0.0,-0.71,1.29,1.29,0.0,0.01,0
119.40389200,119403892,0.0,0.52,0.0,-0.71,1.26,1.26,0.0,0.01,0
119.50370700,119503707,0.0,0.52,0.0,-0.71,1.26,1.26,0.0,0.01,0
119.60368800,119603688,0.0,0.52,0.0,-0.71,1.27,1.27,0.0,0.01,0
119.70363600,119703636,0.0,0.52,0.0,-0.71,1.26,1.26,0.0,0.01,0
119.80365700,119803657,0.0,0.52,0.0,-0.72,1.24,1.24,0.0,0.01,0
119.90370200,119903702,0.0,0.52,0.0,-0.72,1.24,1.24,0.0,0.01,0
120.00372800,120003728,0.0,0.52,0.0,-0.72,1.24,1.24,0.0,0.01,0
120.10365300,120103653,0.0,0.53,0.0,-0.72,1.23,1.23,0.0,0.01,0
120.20365700,120203657,0.0,0.53,0.0,-0.72,1.21,1.21,0.0,0.01,0
120.30365300,120303653,0.0,0.53,0.0,-0.72,1.21,1.21,0.0,0.01,0
120.40390300,120403903,0.0,0.53,0.0,-0.72,1.2,1.2,0.0,0.0,0
120.50365000,120503650,0.0,0.53,0.0,-0.72,1.19,1.19,0.0,0.0,0
120.60364300,120603643,0.0,0.53,0.0,-0.72,1.18,1.18,0.0,0.0,0
120.70363300,120703633,0.0,0.53,0.0,-0.72,1.17,1.17,0.0,0.0,0
120.80365500,120803655,0.0,0.53,0.0,-0.72,1.17,1.17,0.0,0.0,0
120.90366600,120903666,0.0,0.53,0.0,-0.72,1.16,1.16,0.0,0.01,0
121.00365600,121003656,0.0,0.53,0.0,-0.72,1.17,1.17,0.0,0.01,0
121.10369400,121103694,0.0,0.53,0.0,-0.72,1.18,1.18,0.0,0.01,0
121.20369500,121203695,0.0,0.53,0.0,-0.72,1.18,1.18,0.0,0.01,0
121.30364400,121303644,0.0,0.52,0.0,-0.72,1.17,1.17,0.0,0.01,0
121.40390500,121403905,0.0,0.52,0.0,-0.72,1.19,1.19,0.0,0.01,0
121.50359800,121503598,0.0,0.52,0.0,-0.72,1.18,1.18,0.0,0.01,0
121.60366800,121603668,0.0,0.52,0.0,-0.73,1.19,1.19,0.0,0.01,0
121.70366100,121703661,0.0,0.52,0.0,-0.73,1.17,1.17,0.0,0.01,0
121.80363800,121803638,0.0,0.52,0.0,-0.73,1.17,1.17,0.0,0.01,0
121.90363700,121903637,0.0,0.52,0.0,-0.73,1.1500000000000001,1.1500000000000001,0.0,0.01,0
122.00365200,122003652,0.0,0.52,0.0,-0.73,1.17,1.17,0.0,0.01,0
122.10366200,122103662,0.0,0.52,0.0,-0.73,1.1400000000000001,1.1400000000000001,0.0,0.02,0
122.20363600,122203636,0.0,0.52,0.0,-0.73,1.1500000000000001,1.1500000000000001,0.0,0.01,0
122.30367000,122303670,0.0,0.52,0.0,-0.73,1.1300000000000001,1.1300000000000001,0.0,0.01,0
122.40383700,122403837,0.0,0.52,0.0,-0.73,1.12,1.12,0.0,0.01,0
122.50367300,122503673,0.0,0.52,0.0,-0.74,1.1400000000000001,1.1400000000000001,0.0,0.02,0
122.60365500,122603655,0.0,0.52,0.0,-0.73,1.1400000000000001,1.1400000000000001,0.0,0.01,0
122.70369100,122703691,0.0,0.52,0.0,-0.74,1.1500000000000001,1.1500000000000001,0.0,0.02,0
122.80364300,122803643,0.0,0.52,0.0,-0.73,1.1400000000000001,1.1400000000000001,0.0,0.01,0
122.90369600,122903696,0.0,0.52,0.0,-0.73,1.12,1.12,0.0,0.02,0
123.00368000,123003680,0.0,0.52,0.0,-0.74,1.11,1.11,0.0,0.01,0
123.10371700,123103717,0.0,0.52,0.0,-0.73,1.1,1.1,0.0,0.01,0
123.20367400,123203674,0.0,0.51,0.0,-0.73,1.1,1.1,0.0,0.01,0
123.30363600,123303636,0.0,0.52,0.0,-0.73,1.08,1.08,0.0,0.01,0
123.40389100,123403891,0.0,0.52,0.0,-0.73,1.09,1.09,0.0,0.01,0
123.50365100,123503651,0.0,0.52,0.0,-0.73,1.09,1.09,0.0,0.01,0
123.60365000,123603650,0.0,0.52,0.0,-0.73,1.08,1.08,0.0,0.01,0
123.70364400,123703644,0.0,0.52,0.0,-0.73,1.07,1.07,0.0,0.01,0
123.80365900,123803659,0.0,0.52,0.0,-0.73,1.05,1.05,0.0,0.01,0
123.90366000,123903660,0.0,0.52,0.0,-0.73,1.05,1.05,0.0,0.01,0
124.00366100,124003661,0.0,0.52,0.0,-0.73,1.05,1.05,0.0,0.01,0
124.10367800,124103678,0.0,0.52,0.0,-0.73,1.06,1.06,0.0,0.01,0
124.20367800,124203678,0.0,0.52,0.0,-0.73,1.06,1.06,0.0,0.01,0
124.30368000,124303680,0.0,0.52,0.0,-0.73,1.06,1.06,0.0,0.01,0
124.40398800,124403988,0.0,0.52,0.0,-0.73,1.04,1.04,0.0,0.01,0
124.50367500,124503675,0.0,0.52,0.0,-0.73,1.02,1.02,0.0,0.01,0
124.60361700,124603617,0.0,0.52,0.0,-0.73,1.01,1.01,0.0,0.01,0
124.70371000,124703710,0.0,0.51,0.0,-0.73,1.03,1.03,0.0,0.01,0
124.80365900,124803659,0.0,0.51,0.0,-0.73,1.01,1.01,0.0,0.01,0
124.90363700,124903637,0.0,0.51,0.0,-0.73,1.0,1.0,0.0,0.01,0
125.00368600,125003686,0.0,0.51,0.0,-0.73,0.98,0.98,0.0,0.01,0
125.10359500,125103595,0.0,0.51,0.0,-0.73,0.98,0.98,0.0,0.01,0
125.20366100,125203661,0.0,0.52,0.0,-0.73,0.98,0.98,0.0,0.01,0
125.30365400,125303654,0.0,0.51,0.0,-0.73,1.0,1.0,0.0,0.01,0
125.40384000,125403840,0.0,0.52,0.0,-0.73,0.98,0.98,0.0,0.01,0
125.50365100,125503651,0.0,0.52,0.0,-0.73,0.98,0.98,0.0,0.01,0
125.60367200,125603672,0.0,0.51,0.0,-0.73,0.97,0.97,0.0,0.01,0
125.70369800,125703698,0.0,0.52,0.0,-0.73,0.98,0.98,0.0,0.01,0
125.80370800,125803708,0.0,0.52,0.0,-0.73,0.97,0.97,0.0,0.01,0
125.90363900,125903639,0.0,0.51,0.0,-0.73,0.97,0.97,0.0,0.01,0
126.00372900,126003729,0.0,0.51,0.0,-0.73,0.96,0.96,0.0,0.01,0
126.10367400,126103674,0.0,0.51,0.0,-0.73,0.96,0.96,0.0,0.01,0
126.20371800,126203718,0.0,0.51,0.0,-0.73,0.96,0.96,0.0,0.0,0
126.30360700,126303607,0.0,0.51,0.0,-0.73,0.9500000000000001,0.9500000000000001,0.0,0.0,0
126.40395900,126403959,0.0,0.52,0.0,-0.74,0.9500000000000001,0.9500000000000001,0.0,0.0,0
126.50368900,126503689,0.0,0.52,0.0,-0.74,0.9500000000000001,0.9500000000000001,0.0,0.0,0
126.60364000,126603640,0.0,0.51,0.0,-0.74,0.93,0.93,0.0,0.0,0
126.70367000,126703670,0.0,0.52,0.0,-0.74,0.9400000000000001,0.9400000000000001,0.0,0.01,0
126.80364300,126803643,0.0,0.51,0.0,-0.74,0.93,0.93,0.0,0.01,0
126.90361900,126903619,0.0,0.51,0.0,-0.73,0.92,0.92,0.0,0.01,0
127.00365900,127003659,0.0,0.51,0.0,-0.73,0.9,0.9,0.0,0.01,0
127.10366800,127103668,0.0,0.51,0.0,-0.73,0.89,0.89,0.0,0.01,0
127.20365300,127203653,0.0,0.51,0.0,-0.73,0.91,0.91,0.0,0.01,0
127.30368300,127303683,0.0,0.51,0.0,-0.73,0.93,0.93,0.0,0.01,0
127.40391700,127403917,0.0,0.51,0.0,-0.73,0.93,0.93,0.0,0.01,0
127.50366000,127503660,0.0,0.51,0.0,-0.73,0.92,0.92,0.0,0.01,0
127.60367300,127603673,0.0,0.51,0.0,-0.73,0.9400000000000001,0.9400000000000001,0.0,0.01,0
127.70362900,127703629,0.0,0.51,0.0,-0.74,0.9400000000000001,0.9400000000000001,0.0,0.01,0
127.80370100,127803701,0.0,0.51,0.0,-0.74,0.9500000000000001,0.9500000000000001,0.0,0.02,0
127.90366400,127903664,0.0,0.51,0.0,-0.74,0.97,0.97,0.0,0.02,0
128.00365100,128003651,0.0,0.51,0.0,-0.74,0.96,0.96,0.0,0.01,0
128.10365800,128103658,0.0,0.51,0.0,-0.74,0.9500000000000001,0.9500000000000001,0.0,0.01,0
128.20364400,128203644,0.0,0.51,0.0,-0.74,0.9400000000000001,0.9400000000000001,0.0,0.01,0
128.30366000,128303660,0.0,0.51,0.0,-0.74,0.9400000000000001,0.9400000000000001,0.0,0.01,0
128.40386200,128403862,0.0,0.51,0.0,-0.74,0.92,0.92,0.0,0.01,0
128.50362500,128503625,0.0,0.51,0.0,-0.74,0.93,0.93,0.0,0.01,0
128.60367200,128603672,0.0,0.51,0.0,-0.74,0.92,0.92,0.0,0.01,0
128.70369800,128703698,0.0,0.51,0.0,-0.74,0.93,0.93,0.0,0.01,0
128.80364500,128803645,0.0,0.51,0.0,-0.74,0.9400000000000001,0.9400000000000001,0.0,0.01,0
128.90362900,128903629,0.0,0.51,0.0,-0.74,0.93,0.93,0.0,0.01,0
129.00368600,129003686,0.0,0.51,0.0,-0.74,0.9400000000000001,0.9400000000000001,0.0,0.01,0
129.10367000,129103670,0.0,0.51,0.0,-0.74,0.96,0.96,0.0,0.02,0
129.20371000,129203710,0.0,0.51,0.0,-0.74,0.9400000000000001,0.9400000000000001,0.0,0.02,0
129.30359600,129303596,0.0,0.51,0.0,-0.74,0.92,0.92,0.0,0.02,0
129.40393400,129403934,0.0,0.51,0.0,-0.74,0.91,0.91,0.0,0.01,0
129.50366600,129503666,0.0,0.51,0.0,-0.74,0.89,0.89,0.0,0.01,0
129.60363400,129603634,0.0,0.51,0.0,-0.74,0.88,0.88,0.0,0.01,0
129.70365000,129703650,0.0,0.51,0.0,-0.74,0.88,0.88,0.0,0.01,0
129.80365800,129803658,0.0,0.51,0.0,-0.74,0.86,0.86,0.0,0.01,0
129.90364000,129903640,0.0,0.51,0.0,-0.74,0.85,0.85,0.0,0.01,0
130.00363100,130003631,0.0,0.51,0.0,-0.74,0.85,0.85,0.0,0.01,0
130.10366400,130103664,0.0,0.51,0.0,-0.74,0.85,0.85,0.0,0.01,0
130.20366000,130203660,0.0,0.51,0.0,-0.75,0.84,0.84,0.0,0.01,0
130.30364400,130303644,0.0,0.52,0.0,-0.75,0.84,0.84,0.0,0.0,0
130.40388200,130403882,0.0,0.52,0.0,-0.75,0.8300000000000001,0.8300000000000001,0.0,0.0,0
130.50369500,130503695,0.0,0.52,0.0,-0.75,0.8200000000000001,0.8200000000000001,0.0,0.0,0
130.60363700,130603637,0.0,0.52,0.0,-0.75,0.81,0.81,0.0,0.0,0
130.70365800,130703658,0.0,0.52,0.0,-0.75,0.79,0.79,0.0,0.01,0
130.80369600,130803696,0.0,0.52,0.0,-0.75,0.78,0.78,0.0,0.01,0
130.90360800,130903608,0.0,0.52,0.0,-0.75,0.79,0.79,0.0,0.01,0
131.00373100,131003731,0.0,0.52,0.0,-0.75,0.79,0.79,0.0,0.01,0
131.10365700,131103657,0.0,0.52,0.0,-0.75,0.77,0.77,0.0,0.01,0
131.20364000,131203640,0.0,0.52,0.0,-0.75,0.77,0.77,0.0,0.01,0
131.30363200,131303632,0.0,0.52,0.0,-0.75,0.76,0.76,0.0,0.01,0
131.40391400,131403914,0.0,0.52,0.0,-0.74,0.76,0.76,0.0,0.01,0
