timestamp,TimeUS,C,Q1,Q2,Q3,Q4
203.16653900,203166539,2,0.6817878484725952,0.0027224146761000156,0.006496417801827192,0.7315160632133484
203.26650300,203266503,2,0.6819309592247009,0.0027565518394112587,0.006764598190784454,0.7313801050186157
203.36652700,203366527,2,0.6821187734603882,0.003403331618756056,0.006944156251847744,0.7312005162239075
203.46649900,203466499,2,0.6821393370628357,0.004104124382138252,0.006897737737745047,0.7311781644821167
203.56648600,203566486,2,0.6822339296340942,0.004784589167684317,0.007213088683784008,0.7310827374458313
203.66650900,203666509,2,0.6821572780609131,0.005131990183144808,0.0073400093242526054,0.7311506271362305
203.76648200,203766482,2,0.682160496711731,0.005286434665322304,0.007309881970286369,0.7311468124389648
203.86649000,203866490,2,0.6823168396949768,0.005136796738952398,0.007061713840812445,0.7310044169425964
203.96650400,203966504,2,0.6824236512184143,0.005103600677102804,0.00703515624627471,0.7309051752090454
204.06654000,204066540,2,0.6824086904525757,0.00505763478577137,0.006990934256464243,0.7309199571609497
204.16649700,204166497,2,0.6825376749038696,0.0051636663265526295,0.007107503712177277,0.7307975888252258
204.26652800,204266528,2,0.6826324462890625,0.0051972633227705956,0.007157186046242714,0.7307083606719971
204.36651100,204366511,2,0.6826432943344116,0.005289415363222361,0.007260697893798351,0.7306965589523315
204.46647700,204466477,2,0.6827114224433899,0.005249395966529846,0.0071932002902030945,0.7306338548660278
204.56647800,204566478,2,0.6827967762947083,0.0053972420282661915,0.007355988956987858,0.7305513620376587
204.66648100,204666481,2,0.6828346252441406,0.005418329034000635,0.00729724857956171,0.7305164337158203
204.76647900,204766479,2,0.6829437613487244,0.0054528662003576756,0.007242359686642885,0.7304147481918335
204.86655800,204866558,2,0.6830541491508484,0.005455742124468088,0.007167594972997904,0.730312168598175
204.96653900,204966539,2,0.6830655336380005,0.005386199802160263,0.007112211547791958,0.7303025722503662
205.06649800,205066498,2,0.6830892562866211,0.00543870497494936,0.007209855131804943,0.7302790284156799
205.16653900,205166539,2,0.6831758618354797,0.00550294853746891,0.007192254066467285,0.7301977276802063
205.26650700,205266507,2,0.6832965016365051,0.005292623303830624,0.0071824099868535995,0.7300865054130554
205.36648100,205366481,2,0.6833134889602661,0.00504258694127202,0.007100278977304697,0.7300731539726257
205.46652300,205466523,2,0.6833118796348572,0.00493038073182106,0.006998737342655659,0.7300764322280884
205.56648800,205566488,2,0.6833495497703552,0.006240859627723694,0.007773783523589373,0.7300233244895935
205.66647800,205666478,2,0.6833522915840149,0.009224471636116505,0.008380831219255924,0.7299824357032776
205.76650400,205766504,2,0.6829695701599121,0.009687874466180801,0.007267808075994253,0.7303463816642761
205.86653200,205866532,2,0.6827629208564758,0.008664174005389214,0.006389306392520666,0.7305606603622437
205.96649900,205966499,2,0.6827889084815979,0.006833500694483519,0.005447054281830788,0.7305634617805481
206.06653000,206066530,2,0.6830919981002808,0.006218374241143465,0.005189798306673765,0.7302874326705933
206.16650400,206166504,2,0.6833264827728271,0.006535197142511606,0.005296011455357075,0.7300645112991333
206.26648000,206266480,2,0.6834801435470581,0.007022063713520765,0.005964559968560934,0.7299109697341919
206.36648600,206366486,2,0.6835850477218628,0.006769449450075626,0.00620301254093647,0.7298131585121155
206.46647500,206466475,2,0.6839927434921265,0.00656388932839036,0.006340523716062307,0.729431688785553
206.56647900,206566479,2,0.6842095255851746,0.00704595074057579,0.006273962557315826,0.7292245030403137
206.66654000,206666540,2,0.6840698719024658,0.007700028829276562,0.006407669745385647,0.7293477058410645
206.76654000,206766540,2,0.6842091679573059,0.007712666876614094,0.0066725206561386585,0.7292145490646362
206.86649600,206866496,2,0.684339165687561,0.007442963309586048,0.006692657712846994,0.7290951609611511
206.96653200,206966532,2,0.6843107342720032,0.007522569037973881,0.006614117417484522,0.7291216850280762
207.06649900,207066499,2,0.6841957569122314,0.00754500599578023,0.006429064553231001,0.729231059551239
207.16647800,207166478,2,0.6841420531272888,0.007299473043531179,0.006283302791416645,0.7292851805686951
207.26651700,207266517,2,0.684148371219635,0.006933598313480616,0.006124588195234537,0.7292841672897339
207.36648100,207366481,2,0.6842588782310486,0.00673427851870656,0.005905590020120144,0.7291842103004456
207.46647300,207466473,2,0.6842769980430603,0.00677341828122735,0.005765582900494337,0.7291679382324219
207.56652200,207566522,2,0.6842957139015198,0.00660917442291975,0.0056645506992936134,0.7291526794433594
207.66653200,207666532,2,0.6842920184135437,0.006275718566030264,0.005622615106403828,0.729159414768219
207.76650300,207766503,2,0.6843003630638123,0.0061692483723163605,0.005437483545392752,0.7291538715362549
207.86652900,207866529,2,0.6843020915985107,0.006140575744211674,0.005272815469652414,0.7291536927223206
207.96650800,207966508,2,0.6844337582588196,0.0058968872763216496,0.005186240188777447,0.7290327548980713
208.06648900,208066489,2,0.6845203042030334,0.005644381977617741,0.005175724625587463,0.7289535403251648
208.16648100,208166481,2,0.6846131086349487,0.005509505048394203,0.0051448228769004345,0.7288676500320435
208.26647900,208266479,2,0.684658944606781,0.005445083137601614,0.00511799706146121,0.7288252711296082
208.36649200,208366492,2,0.6844905614852905,0.005253767594695091,0.005022171884775162,0.7289854884147644
208.46649800,208466498,2,0.684394121170044,0.005112251732498407,0.004790751729160547,0.7290786504745483
208.56653100,208566531,2,0.6847695708274841,0.005360612645745277,0.004683861508965492,0.7287248969078064
208.66649500,208666495,2,0.6848604083061218,0.005249723792076111,0.004637842997908592,0.728640615940094
208.76652900,208766529,2,0.6841059923171997,0.0046045854687690735,0.004492772277444601,0.7293542623519897
208.86651200,208866512,2,0.6838605403900146,0.004103272687643766,0.004390283487737179,0.7295880317687988
208.96647900,208966479,2,0.684177041053772,0.003928492311388254,0.0043085599318146706,0.729292631149292
209.06651900,209066519,2,0.6843066811561584,0.003894547466188669,0.004083328414708376,0.7291724681854248
209.16647600,209166476,2,0.6841772794723511,0.0037375623360276222,0.004461205564439297,0.7292925119400024
209.26647800,209266478,2,0.6842108368873596,0.0033774797338992357,0.0046082958579063416,0.7292618751525879
209.36650900,209366509,2,0.6843780875205994,0.0034639406949281693,0.0046761371195316315,0.7291041016578674
209.46653400,209466534,2,0.684434711933136,0.00293708429671824,0.004354321397840977,0.7290552258491516
209.56649900,209566499,2,0.6841648817062378,0.0017090190667659044,0.0038296347483992577,0.7293152809143066
209.66652400,209666524,2,0.6840551495552063,-0.0008423568215221167,0.0028819774743169546,0.7294241189956665
209.76649900,209766499,2,0.6838427186012268,-0.0034667961299419403,0.002151914406567812,0.7296180725097656
209.86647600,209866476,2,0.6843297481536865,-0.004178629256784916,0.002201347379013896,0.7291573882102966
209.96651700,209966517,2,0.6843854188919067,-0.004131493624299765,0.0019188926089555025,0.7291061878204346
210.06647700,210066477,2,0.684096097946167,-0.004308533389121294,0.0016525951214134693,0.729377269744873
210.16647900,210166479,2,0.6843125820159912,-0.0046171629801392555,0.0017704237252473831,0.7291719913482666
210.26654900,210266549,2,0.6844490766525269,-0.004751091822981834,0.0016487962566316128,0.7290433049201965
210.36653900,210366539,2,0.6842401027679443,-0.004853025544434786,0.0014365756651386619,0.7292392253875732
210.46650200,210466502,2,0.6843999624252319,-0.004954164382070303,0.0014701097970828414,0.7290884852409363
210.56652300,210566523,2,0.6845647692680359,-0.005100960377603769,0.0013831157702952623,0.7289328575134277
210.66651600,210666516,2,0.6844608187675476,-0.0051865605637431145,0.0012868769699707627,0.7290300726890564
210.76647800,210766478,2,0.6846574544906616,-0.0052992249839007854,0.0011869643349200487,0.7288447022438049
210.86652200,210866522,2,0.6847813129425049,-0.005259133409708738,0.0013057137839496136,0.7287284731864929
210.96648100,210966481,2,0.6844990849494934,-0.005211637821048498,0.0012981353793293238,0.7289938926696777
211.06647500,211066475,2,0.6845806837081909,-0.005120796151459217,0.0013200921239331365,0.7289179563522339
211.16655100,211166551,2,0.6847849488258362,-0.005149605218321085,0.0013648277381435037,0.7287257313728333
211.26653200,211266532,2,0.6846432089805603,-0.005159459076821804,0.0013182826805859804,0.7288589477539062
211.36649200,211366492,2,0.6847416162490845,-0.0052425675094127655,0.0011871389579027891,0.728766143321991
211.46653100,211466531,2,0.6848953366279602,-0.005142885725945234,0.001294436282478273,0.7286221385002136
211.56649600,211566496,2,0.6848652362823486,-0.005014680325984955,0.001240205718204379,0.7286514043807983
211.66648000,211666480,2,0.6849822998046875,-0.0032344807405024767,0.002322023967280984,0.7285488247871399
211.76648300,211766483,2,0.6850794553756714,-0.0031623055692762136,0.0020252324175089598,0.7284587025642395
211.86655500,211866555,2,0.6848911046981812,-0.0026264842599630356,0.0028625563718378544,0.7286350727081299
211.96649200,211966492,2,0.6851660013198853,-0.0032309063244611025,0.00220105960033834,0.7283764481544495
212.06655800,212066558,2,0.6853018403053284,-0.002624788787215948,0.0023237215355038643,0.7282506823539734
212.16653800,212166538,2,0.6850057244300842,-0.0030772890895605087,0.0019598451908677816,0.7285285592079163
212.26650400,212266504,2,0.6850405335426331,-0.00247162370942533,0.0026091577019542456,0.7284960746765137
212.36652900,212366529,2,0.6850571632385254,-0.0030467461328953505,0.0018307543359696865,0.7284806370735168
212.46650500,212466505,2,0.6850318312644958,-0.0028873335104435682,0.0023619697894901037,0.7285035848617554
212.56648100,212566481,2,0.6854689121246338,-0.0029453348834067583,0.0022144666872918606,0.7280925512313843
212.66651900,212666519,2,0.6854978799819946,-0.002736914437264204,0.0020830859430134296,0.7280665040016174
212.76647600,212766476,2,0.6851738095283508,-0.002856452949345112,0.0020870286971330643,0.7283710241317749
212.86647700,212866477,2,0.6854615807533264,-0.003159014042466879,0.002024350455030799,0.7280991077423096
212.96651700,212966517,2,0.6854798197746277,-0.003021158743649721,0.0022442410700023174,0.7280818819999695
213.06653400,213066534,2,0.6853832602500916,-0.0032519842498004436,0.0017879304941743612,0.7281730771064758
213.16649500,213166495,2,0.6855299472808838,-0.0031366655603051186,0.002018050057813525,0.7280348539352417
213.26652400,213266524,2,0.6854703426361084,-0.003392863553017378,0.002094896277412772,0.7280896306037903
213.36651500,213366515,2,0.6852593421936035,-0.0030919876880943775,0.0021488710772246122,0.7282893657684326
213.46647500,213466475,2,0.6854353547096252,-0.0031014052219688892,0.0020154414232820272,0.7281240820884705
213.56648200,213566482,2,0.6856949329376221,-0.0032915205229073763,0.001904810662381351,0.7278791069984436
213.66647600,213666476,2,0.6856293082237244,-0.003212859621271491,0.0022571366280317307,0.7279402613639832
213.76648000,213766480,2,0.6854106783866882,-0.0035456775221973658,0.0020298424642533064,0.7281452417373657
213.86654600,213866546,2,0.6854651570320129,-0.0032175364904105663,0.002112552523612976,0.728095293045044
213.96653700,213966537,2,0.6855112314224243,-0.0035319540183991194,0.00187676923815161,0.7280510663986206
214.06649400,214066494,2,0.6854473352432251,-0.0032786468509584665,0.00212298845872283,0.728111743927002
214.16653200,214166532,2,0.6855149865150452,-0.0032690849620848894,0.0017382362857460976,0.728049099445343
214.26651000,214266510,2,0.6855441927909851,-0.0034717186354100704,0.0021347852889448404,0.7280195951461792
214.36648600,214366486,2,0.6853112578392029,-0.0028819083236157894,0.0016822320176288486,0.7282426357269287
214.46650600,214466506,2,0.6855275630950928,-0.0037950638215988874,0.002050311304628849,0.7280339002609253
214.56647700,214566477,2,0.6863794326782227,-0.004246910568326712,0.0028783506713807583,0.7272254824638367
214.66648300,214666483,2,0.6860058903694153,-0.0035381729248911142,0.0017003871034830809,0.7275853753089905
214.76650000,214766500,2,0.6851165294647217,-0.003289845073595643,0.0020461822859942913,0.7284231781959534
214.86653500,214866535,2,0.6861171126365662,-0.004101001191884279,0.0022020735777914524,0.7274762392044067
