timestamp,TimeUS,DesRoll,Roll,DesPitch,Pitch,DesYaw,Yaw,ErrRP,ErrYaw,AEKF
110.87621300,110876213,0.0,0.24,0.0,-0.41000000000000003,307.79,307.8,0.0,0.01,3
110.97617600,110976176,0.0,0.24,0.0,-0.41000000000000003,307.8,307.81,0.0,0.01,3
111.07614700,111076147,0.0,0.24,0.0,-0.41000000000000003,307.8,307.81,0.0,0.01,3
111.17615200,111176152,0.0,0.24,0.0,-0.41000000000000003,307.81,307.82,0.0,0.01,3
111.27616000,111276160,0.0,0.24,0.0,-0.41000000000000003,307.81,307.82,0.0,0.01,3
111.37613100,111376131,0.0,0.24,0.0,-0.41000000000000003,307.81,307.82,0.0,0.01,3
111.47607000,111476070,0.0,0.24,0.0,-0.41000000000000003,307.82,307.83,0.0,0.01,3
111.57654500,111576545,0.0,0.24,0.0,-0.41000000000000003,307.82,307.83,0.0,0.0,3
111.67611900,111676119,0.0,0.24,0.0,-0.41000000000000003,307.82,307.83,0.0,0.01,3
111.77604300,111776043,0.0,0.24,0.0,-0.41000000000000003,307.83,307.84000000000003,0.0,0.01,3
111.87609100,111876091,0.0,0.24,0.0,-0.41000000000000003,307.83,307.84000000000003,0.0,0.01,3
111.97610300,111976103,0.0,0.24,0.0,-0.4,307.83,307.84000000000003,0.0,0.01,3
112.07607600,112076076,0.0,0.24,0.0,-0.4,307.84000000000003,307.85,0.0,0.01,3
112.17606900,112176069,0.0,0.24,0.0,-0.4,307.85,307.86,0.0,0.01,3
112.27614600,112276146,0.0,0.24,0.0,-0.4,307.85,307.86,0.0,0.01,3
112.37613200,112376132,0.0,0.24,0.0,-0.4,307.86,307.87,0.0,0.01,3
112.47616800,112476168,0.0,0.24,0.0,-0.4,307.86,307.87,0.0,0.01,3
112.57656200,112576562,0.0,0.24,0.0,-0.4,307.86,307.87,0.0,0.01,3
112.67614000,112676140,0.0,0.24,0.0,-0.4,307.87,307.88,0.0,0.01,3
112.77618400,112776184,0.0,0.24,0.0,-0.4,307.87,307.88,0.0,0.01,3
112.87610000,112876100,0.0,0.24,0.0,-0.4,307.87,307.88,0.0,0.01,3
112.97617700,112976177,0.0,0.24,0.0,-0.4,307.88,307.89,0.0,0.01,3
113.07606700,113076067,0.0,0.24,0.0,-0.39,307.88,307.89,0.0,0.01,3
113.17614300,113176143,0.0,0.24,0.0,-0.39,307.88,307.89,0.0,0.01,3
113.27612100,113276121,0.0,0.24,0.0,-0.39,307.88,307.89,0.0,0.01,3
113.37612800,113376128,0.0,0.24,0.0,-0.39,307.88,307.89,0.0,0.01,3
113.47607500,113476075,0.0,0.24,0.0,-0.39,307.88,307.89,0.0,0.01,3
113.57649500,113576495,0.0,0.24,0.0,-0.39,307.88,307.89,0.0,0.01,3
113.67611000,113676110,0.0,0.24,0.0,-0.39,307.88,307.89,0.0,0.01,3
113.77605700,113776057,0.0,0.24,0.0,-0.39,307.88,307.89,0.0,0.01,3
113.87614700,113876147,0.0,0.24,0.0,-0.39,307.88,307.89,0.0,0.01,3
113.97613100,113976131,0.0,0.24,0.0,-0.39,307.88,307.89,0.0,0.01,3
114.07625200,114076252,0.0,0.24,0.0,-0.39,307.88,307.89,0.0,0.01,3
114.17612500,114176125,0.0,0.24,0.0,-0.39,307.89,307.90000000000003,0.0,0.01,3
114.27627200,114276272,0.0,0.24,0.0,-0.39,307.89,307.90000000000003,0.0,0.01,3
114.37615000,114376150,0.0,0.24,0.0,-0.39,307.89,307.90000000000003,0.0,0.01,3
114.47609700,114476097,0.0,0.24,0.0,-0.39,307.89,307.90000000000003,0.0,0.01,3
114.57651400,114576514,0.0,0.24,0.0,-0.39,307.89,307.90000000000003,0.0,0.01,3
114.67605000,114676050,0.0,0.24,0.0,-0.39,307.89,307.90000000000003,0.0,0.01,3
114.77610000,114776100,0.0,0.24,0.0,-0.39,307.89,307.90000000000003,0.0,0.0,3
114.87606900,114876069,0.0,0.24,0.0,-0.39,307.89,307.90000000000003,0.0,0.0,3
114.97611400,114976114,0.0,0.24,0.0,-0.39,307.89,307.90000000000003,0.0,0.0,3
115.07610200,115076102,0.0,0.24,0.0,-0.39,307.89,307.90000000000003,0.0,0.01,3
115.17615900,115176159,0.0,0.24,0.0,-0.39,307.90000000000003,307.91,0.0,0.01,3
115.27611800,115276118,0.0,0.24,0.0,-0.39,307.90000000000003,307.91,0.0,0.01,3
115.37609700,115376097,0.0,0.24,0.0,-0.39,307.91,307.92,0.0,0.01,3
115.47613600,115476136,0.0,0.24,0.0,-0.39,307.91,307.92,0.0,0.01,3
115.57650000,115576500,0.0,0.24,0.0,-0.39,307.91,307.92,0.0,0.01,3
115.67613900,115676139,0.0,0.24,0.0,-0.39,307.92,307.93,0.0,0.01,3
115.77615900,115776159,0.0,0.24,0.0,-0.39,307.92,307.93,0.0,0.01,3
115.87617600,115876176,0.0,0.24,0.0,-0.39,307.93,307.94,0.0,0.01,3
115.97609300,115976093,0.0,0.24,0.0,-0.39,307.93,307.94,0.0,0.01,3
116.07617700,116076177,0.0,0.24,0.0,-0.39,307.94,307.95,0.0,0.01,3
116.17614200,116176142,0.0,0.24,0.0,-0.39,307.94,307.95,0.0,0.01,3
116.27603800,116276038,0.0,0.24,0.0,-0.39,307.95,307.96,0.0,0.01,3
116.37610700,116376107,0.0,0.24,0.0,-0.39,307.95,307.96,0.0,0.01,3
116.47609800,116476098,0.0,0.24,0.0,-0.39,307.95,307.96,0.0,0.01,3
116.57649000,116576490,0.0,0.24,0.0,-0.39,307.95,307.96,0.0,0.01,3
116.67607200,116676072,0.0,0.24,0.0,-0.39,307.95,307.96,0.0,0.01,3
116.77607500,116776075,0.0,0.24,0.0,-0.39,307.95,307.96,0.0,0.01,3
116.87609100,116876091,0.0,0.24,0.0,-0.39,307.95,307.96,0.0,0.01,3
116.97621500,116976215,0.0,0.24,0.0,-0.39,307.95,307.96,0.0,0.01,3
117.07615000,117076150,0.0,0.24,0.0,-0.39,307.95,307.96,0.0,0.01,3
117.17620500,117176205,0.0,0.24,0.0,-0.39,307.95,307.96,0.0,0.01,3
117.27622600,117276226,0.0,0.23,0.0,-0.39,307.96,307.97,0.0,0.01,3
117.37617100,117376171,0.0,0.24,0.0,-0.39,307.96,307.97,0.0,0.01,3
117.47618000,117476180,0.0,0.24,0.0,-0.39,307.96,307.97,0.0,0.01,3
117.57648400,117576484,0.0,0.24,0.0,-0.39,307.96,307.97,0.0,0.01,3
117.67614200,117676142,0.0,0.24,0.0,-0.39,307.96,307.97,0.0,0.0,3
117.77607000,117776070,0.0,0.24,0.0,-0.4,307.96,307.97,0.0,0.0,3
117.87618700,117876187,0.0,0.24,0.0,-0.4,307.96,307.97,0.0,0.0,3
117.97612900,117976129,0.0,0.24,0.0,-0.4,307.97,307.98,0.0,0.0,3
118.07609100,118076091,0.0,0.24,0.0,-0.4,307.97,307.98,0.0,0.0,3
118.17607800,118176078,0.0,0.24,0.0,-0.4,307.97,307.98,0.0,0.0,3
118.27608900,118276089,0.0,0.24,0.0,-0.4,307.97,307.98,0.0,0.0,3
118.37610600,118376106,0.0,0.24,0.0,-0.4,307.97,307.98,0.0,0.0,3
118.47607100,118476071,0.0,0.24,0.0,-0.4,307.98,307.98,0.0,0.0,3
118.57655200,118576552,0.0,0.24,0.0,-0.39,307.98,307.99,0.0,0.01,3
118.67613200,118676132,0.0,0.24,0.0,-0.39,307.98,307.99,0.0,0.01,3
118.77619500,118776195,0.0,0.24,0.0,-0.39,307.98,307.99,0.0,0.01,3
118.87618600,118876186,0.0,0.24,0.0,-0.39,307.99,308.0,0.0,0.01,3
118.97615200,118976152,0.0,0.24,0.0,-0.39,308.0,308.01,0.0,0.01,3
119.07620100,119076201,0.0,0.24,0.0,-0.39,308.0,308.01,0.0,0.01,3
119.17610300,119176103,0.0,0.24,0.0,-0.39,308.0,308.01,0.0,0.0,3
119.27623800,119276238,0.0,0.24,0.0,-0.39,308.01,308.02,0.0,0.01,3
119.37624900,119376249,0.0,0.24,0.0,-0.39,308.01,308.02,0.0,0.01,3
119.47611600,119476116,0.0,0.24,0.0,-0.39,308.01,308.02,0.0,0.01,3
119.57648300,119576483,0.0,0.24,0.0,-0.39,308.01,308.02,0.0,0.01,3
119.67645200,119676452,0.0,0.24,0.0,-0.39,308.01,308.02,0.0,0.01,3
119.77607100,119776071,0.0,0.24,0.0,-0.39,308.01,308.02,0.0,0.01,3
119.87606800,119876068,0.0,0.24,0.0,-0.39,308.02,308.03000000000003,0.0,0.01,3
119.97612100,119976121,0.0,0.24,0.0,-0.39,308.02,308.03000000000003,0.0,0.01,3
120.07610700,120076107,0.0,0.24,0.0,-0.39,308.02,308.03000000000003,0.0,0.01,3
120.17614400,120176144,0.0,0.24,0.0,-0.39,308.02,308.03000000000003,0.0,0.01,3
120.27614500,120276145,0.0,0.25,0.0,-0.39,308.03000000000003,308.04,0.0,0.01,3
120.37620000,120376200,0.0,0.25,0.0,-0.39,308.03000000000003,308.04,0.0,0.01,3
120.47617600,120476176,0.0,0.25,0.0,-0.39,308.03000000000003,308.04,0.0,0.01,3
120.57650200,120576502,0.0,0.25,0.0,-0.39,308.04,308.05,0.0,0.01,3
120.67641700,120676417,0.0,0.25,0.0,-0.39,308.04,308.05,0.0,0.01,3
120.77611200,120776112,0.0,0.25,0.0,-0.39,308.04,308.05,0.0,0.01,3
120.87616000,120876160,0.0,0.25,0.0,-0.39,308.04,308.05,0.0,0.01,3
120.97603300,120976033,0.0,0.25,0.0,-0.39,308.04,308.05,0.0,0.01,3
121.07610700,121076107,0.0,0.25,0.0,-0.39,308.04,308.05,0.0,0.01,3
121.17610700,121176107,0.0,0.25,0.0,-0.39,308.04,308.05,0.0,0.01,3
121.27607800,121276078,0.0,0.25,0.0,-0.39,308.04,308.05,0.0,0.01,3
121.37612500,121376125,0.0,0.25,0.0,-0.39,308.04,308.05,0.0,0.01,3
121.47606800,121476068,0.0,0.25,0.0,-0.39,308.04,308.05,0.0,0.01,3
121.57652100,121576521,0.0,0.25,0.0,-0.39,308.04,308.05,0.0,0.01,3
121.67639500,121676395,0.0,0.25,0.0,-0.38,308.04,308.05,0.0,0.0,3
121.77613800,121776138,0.0,0.25,0.0,-0.38,308.04,308.05,0.0,0.0,3
121.87612700,121876127,0.0,0.25,0.0,-0.38,308.04,308.05,0.0,0.01,3
121.97613300,121976133,0.0,0.25,0.0,-0.38,308.04,308.05,0.0,0.0,3
122.07616000,122076160,0.0,0.25,0.0,-0.38,308.04,308.05,0.0,0.01,3
122.17611700,122176117,0.0,0.25,0.0,-0.38,308.05,308.06,0.0,0.01,3
122.27616600,122276166,0.0,0.25,0.0,-0.38,308.05,308.06,0.0,0.01,3
122.37618200,122376182,0.0,0.25,0.0,-0.38,308.05,308.06,0.0,0.01,3
122.47613100,122476131,0.0,0.25,0.0,-0.38,308.05,308.06,0.0,0.0,3
122.57651100,122576511,0.0,0.25,0.0,-0.38,308.05,308.06,0.0,0.0,3
122.67612400,122676124,0.0,0.25,0.0,-0.38,308.06,308.07,0.0,0.0,3
122.77604200,122776042,0.0,0.25,0.0,-0.38,308.06,308.07,0.0,0.01,3
122.87608700,122876087,0.0,0.25,0.0,-0.38,308.06,308.07,0.0,0.01,3
122.97608600,122976086,0.0,0.25,0.0,-0.38,308.06,308.07,0.0,0.01,3
123.07611400,123076114,0.0,0.25,0.0,-0.38,308.07,308.08,0.0,0.01,3
123.17611300,123176113,0.0,0.25,0.0,-0.38,308.07,308.08,0.0,0.01,3
123.27624000,123276240,0.0,0.25,0.0,-0.38,308.07,308.08,0.0,0.01,3
123.37614200,123376142,0.0,0.25,0.0,-0.37,308.07,308.08,0.0,0.01,3
123.47617500,123476175,0.0,0.25,0.0,-0.37,308.08,308.09000000000003,0.0,0.01,3
123.57664000,123576640,0.0,0.25,0.0,-0.37,308.08,308.09000000000003,0.0,0.01,3
123.67608000,123676080,0.0,0.25,0.0,-0.37,308.08,308.09000000000003,0.0,0.01,3
123.77619800,123776198,0.0,0.25,0.0,-0.37,308.09000000000003,308.1,0.0,0.01,3
123.87606300,123876063,0.0,0.25,0.0,-0.37,308.09000000000003,308.1,0.0,0.01,3
123.97613700,123976137,0.0,0.25,0.0,-0.37,308.09000000000003,308.1,0.0,0.01,3
124.07607000,124076070,0.0,0.25,0.0,-0.37,308.09000000000003,308.1,0.0,0.01,3
124.17615500,124176155,0.0,0.25,0.0,-0.38,308.1,308.11,0.0,0.01,3
124.27613000,124276130,0.0,0.25,0.0,-0.38,308.1,308.11,0.0,0.01,3
124.37606000,124376060,0.0,0.25,0.0,-0.38,308.1,308.11,0.0,0.01,3
124.47607800,124476078,0.0,0.25,0.0,-0.38,308.11,308.12,0.0,0.01,3
124.57647400,124576474,0.0,0.25,0.0,-0.37,308.11,308.12,0.0,0.0,3
124.67609300,124676093,0.0,0.25,0.0,-0.37,308.11,308.12,0.0,0.0,3
124.77610700,124776107,0.0,0.25,0.0,-0.37,308.11,308.12,0.0,0.0,3
124.87619200,124876192,0.0,0.25,0.0,-0.37,308.12,308.13,0.0,0.01,3
124.97610700,124976107,0.0,0.25,0.0,-0.37,308.11,308.13,0.0,0.01,3
125.07619500,125076195,0.0,0.25,0.0,-0.37,308.11,308.13,0.0,0.01,3
126.07608300,126076083,0.0,0.25,0.0,-0.38,308.14,308.15000000000003,0.0,0.01,3
126.17611200,126176112,0.0,0.25,0.0,-0.38,308.14,308.15000000000003,0.0,0.01,3
126.27611600,126276116,0.0,0.24,0.0,-0.38,308.14,308.15000000000003,0.0,0.0,3
126.37613100,126376131,0.0,0.24,0.0,-0.38,308.14,308.16,0.0,0.0,3
126.47615700,126476157,0.0,0.24,0.0,-0.38,308.15000000000003,308.16,0.0,0.0,3
126.57651300,126576513,0.0,0.24,0.0,-0.38,308.15000000000003,308.16,0.0,0.0,3
126.67619600,126676196,0.0,0.24,0.0,-0.38,308.15000000000003,308.16,0.0,0.0,3
126.77615700,126776157,0.0,0.24,0.0,-0.38,308.15000000000003,308.16,0.0,0.0,3
126.87621600,126876216,0.0,0.24,0.0,-0.38,308.15000000000003,308.17,0.0,0.0,3
126.97614000,126976140,0.0,0.24,0.0,-0.38,308.16,308.17,0.0,0.01,3
127.07612900,127076129,0.0,0.24,0.0,-0.38,308.16,308.17,0.0,0.01,3
127.17608400,127176084,0.0,0.24,0.0,-0.38,308.16,308.17,0.0,0.01,3
127.27606200,127276062,0.0,0.24,0.0,-0.38,308.16,308.18,0.0,0.01,3
127.37610700,127376107,0.0,0.24,0.0,-0.39,308.17,308.18,0.0,0.01,3
127.47607800,127476078,0.0,0.24,0.0,-0.39,308.17,308.18,0.0,0.01,3
127.57649000,127576490,0.0,0.24,0.0,-0.39,308.17,308.18,0.0,0.01,3
127.67613000,127676130,0.0,0.24,0.0,-0.39,308.17,308.18,0.0,0.01,3
127.77617000,127776170,0.0,0.24,0.0,-0.39,308.18,308.19,0.0,0.01,3
127.87614700,127876147,0.0,0.23,0.0,-0.39,308.18,308.19,0.0,0.01,3
127.97613100,127976131,0.0,0.23,0.0,-0.39,308.18,308.19,0.0,0.01,3
128.07618700,128076187,0.0,0.23,0.0,-0.39,308.18,308.19,0.0,0.01,3
128.17615300,128176153,0.0,0.23,0.0,-0.39,308.18,308.19,0.0,0.01,3
128.27619300,128276193,0.0,0.23,0.0,-0.39,308.18,308.19,0.0,0.01,3
128.37610600,128376106,0.0,0.23,0.0,-0.39,308.19,308.2,0.0,0.01,3
128.47612400,128476124,0.0,0.23,0.0,-0.39,308.19,308.2,0.0,0.01,3
128.57644600,128576446,0.0,0.23,0.0,-0.39,308.19,308.2,0.0,0.01,3
128.67604300,128676043,0.0,0.23,0.0,-0.39,308.19,308.2,0.0,0.01,3
128.77615200,128776152,0.0,0.23,0.0,-0.39,308.19,308.2,0.0,0.01,3
128.87606700,128876067,0.0,0.23,0.0,-0.39,308.19,308.21,0.0,0.01,3
128.97607300,128976073,0.0,0.23,0.0,-0.39,308.2,308.21,0.0,0.01,3
129.07610100,129076101,0.0,0.23,0.0,-0.39,308.2,308.21,0.0,0.01,3
129.17608600,129176086,0.0,0.23,0.0,-0.39,308.2,308.21,0.0,0.01,3
129.27607400,129276074,0.0,0.23,0.0,-0.39,308.2,308.21,0.0,0.0,3
129.37612800,129376128,0.0,0.23,0.0,-0.39,308.2,308.21,0.0,0.01,3
129.47612500,129476125,0.0,0.23,0.0,-0.39,308.2,308.21,0.0,0.01,3
129.57659200,129576592,0.0,0.23,0.0,-0.39,308.2,308.21,0.0,0.01,3
129.67616000,129676160,0.0,0.23,0.0,-0.39,308.2,308.22,0.0,0.01,3
129.77618900,129776189,0.0,0.23,0.0,-0.39,308.21,308.22,0.0,0.01,3
129.87625000,129876250,0.0,0.23,0.0,-0.39,308.21,308.22,0.0,0.01,3
129.97606700,129976067,0.0,0.23,0.0,-0.39,308.22,308.23,0.0,0.01,3
130.07617100,130076171,0.0,0.23,0.0,-0.39,308.22,308.23,0.0,0.01,3
130.17611300,130176113,0.0,0.23,0.0,-0.39,308.22,308.23,0.0,0.01,3
130.27615000,130276150,0.0,0.23,0.0,-0.39,308.23,308.24,0.0,0.01,3
130.37606500,130376065,0.0,0.23,0.0,-0.39,308.23,308.24,0.0,0.01,3
130.47613900,130476139,0.0,0.23,0.0,-0.39,308.23,308.24,0.0,0.01,3
130.57648000,130576480,0.0,0.23,0.0,-0.39,308.24,308.25,0.0,0.01,3
130.67605700,130676057,0.0,0.22,0.0,-0.39,308.24,308.25,0.0,0.01,3
130.77610700,130776107,0.0,0.22,0.0,-0.39,308.25,308.26,0.0,0.01,3
130.87605300,130876053,0.0,0.22,0.0,-0.39,308.25,308.26,0.0,0.01,3
130.97615300,130976153,0.0,0.22,0.0,-0.39,308.25,308.26,0.0,0.01,3
131.07613100,131076131,0.0,0.22,0.0,-0.39,308.25,308.26,0.0,0.01,3
131.17614100,131176141,0.0,0.22,0.0,-0.39,308.26,308.27,0.0,0.01,3
131.27613700,131276137,0.0,0.22,0.0,-0.39,308.26,308.27,0.0,0.01,3
131.37617500,131376175,0.0,0.22,0.0,-0.39,308.27,308.28000000000003,0.0,0.01,3
131.47607800,131476078,0.0,0.22,0.0,-0.39,308.27,308.28000000000003,0.0,0.01,3
131.57644700,131576447,0.0,0.22,0.0,-0.39,308.28000000000003,308.29,0.0,0.01,3
131.67615900,131676159,0.0,0.22,0.0,-0.39,308.28000000000003,308.29,0.0,0.02,3
131.77611700,131776117,0.0,0.22,0.0,-0.39,308.29,308.3,0.0,0.02,3
131.87619200,131876192,0.0,0.22,0.0,-0.39,308.3,308.31,0.0,0.02,3
131.97613200,131976132,0.0,0.22,0.0,-0.39,308.31,308.32,0.0,0.03,3
132.07612600,132076126,0.0,0.22,0.0,-0.39,308.31,308.32,0.0,0.02,3
132.17605200,132176052,0.0,0.22,0.0,-0.39,308.32,308.33,0.0,0.02,3
132.27609200,132276092,0.0,0.22,0.0,-0.39,308.32,308.33,0.0,0.01,3
132.37609000,132376090,0.0,0.21,0.0,-0.39,308.33,308.34000000000003,0.0,0.01,3
132.47608300,132476083,0.0,0.21,0.0,-0.38,308.33,308.34000000000003,0.0,0.01,3
132.57654500,132576545,0.0,0.21,0.0,-0.38,308.33,308.34000000000003,0.0,0.02,3
132.67618200,132676182,0.0,0.21,0.0,-0.38,308.33,308.34000000000003,0.0,0.02,3
132.77611900,132776119,0.0,0.22,0.0,-0.38,308.33,308.34000000000003,0.0,0.02,3
132.87614100,132876141,0.0,0.22,0.0,-0.38,308.32,308.33,0.0,0.01,3
132.97618500,132976185,0.0,0.22,0.0,-0.38,308.32,308.33,0.0,0.02,3
133.07612800,133076128,0.0,0.22,0.0,-0.38,308.32,308.33,0.0,0.03,3
133.17620400,133176204,0.0,0.22,0.0,-0.38,308.32,308.33,0.0,0.03,3
133.27612300,133276123,0.0,0.21,0.0,-0.38,308.33,308.34000000000003,0.0,0.03,3
133.37610700,133376107,0.0,0.22,0.0,-0.38,308.33,308.34000000000003,0.0,0.03,3
133.47607800,133476078,0.0,0.22,0.0,-0.38,308.33,308.34000000000003,0.0,0.02,3
133.57645500,133576455,0.0,0.22,0.0,-0.38,308.33,308.34000000000003,0.0,0.03,3
133.67611400,133676114,0.0,0.22,0.0,-0.38,308.34000000000003,308.35,0.0,0.02,3
133.77605200,133776052,0.0,0.22,0.0,-0.38,308.34000000000003,308.35,0.0,0.02,3
133.87609600,133876096,0.0,0.22,0.0,-0.38,308.35,308.36,0.0,0.03,3
133.97611200,133976112,0.0,0.22,0.0,-0.38,308.35,308.36,0.0,0.03,3
134.07607900,134076079,0.0,0.22,0.0,-0.38,308.35,308.36,0.0,0.03,3
134.17616700,134176167,0.0,0.22,0.0,-0.38,308.35,308.36,0.0,0.04,3
134.27611800,134276118,0.0,0.22,0.0,-0.37,308.35,308.36,0.0,0.04,3
134.37619700,134376197,0.0,0.22,0.0,-0.37,309.07,309.09000000000003,0.0,0.03,3
134.47617000,134476170,0.0,0.22,0.0,-0.38,309.07,309.12,0.0,0.03,3
134.57619900,134576199,0.0,0.22,0.0,-0.38,309.07,309.07,0.0,0.03,3
134.67609700,134676097,0.0,0.22,0.0,-0.38,309.07,308.83,0.0,0.04,3
134.77618500,134776185,0.0,0.22,0.0,-0.38,309.07,308.66,0.0,0.04,3
134.87611100,134876111,0.0,0.22,0.0,-0.38,309.07,308.54,0.0,0.03,3
134.97618900,134976189,0.0,0.21,0.0,-0.38,309.07,308.45,0.0,0.03,3
135.07607400,135076074,0.0,0.21,0.0,-0.38,309.07,308.41,0.0,0.04,3
135.17607300,135176073,0.0,0.21,0.0,-0.38,309.07,308.35,0.0,0.03,3
135.27612300,135276123,0.0,0.21,0.0,-0.38,309.07,308.24,0.0,0.03,3
135.37608300,135376083,0.0,0.21,0.0,-0.39,309.07,308.12,0.0,0.02,3
135.47607300,135476073,0.0,0.22,0.0,-0.39,309.07,308.03000000000003,0.0,0.03,3
135.57613400,135576134,0.0,0.21,0.0,-0.39,309.07,307.95,0.0,0.02,3
135.67613200,135676132,0.0,0.21,0.0,-0.39,309.07,307.90000000000003,0.0,0.03,3
135.77613100,135776131,0.0,0.21,0.0,-0.39,309.07,307.85,0.0,0.03,3
135.87621600,135876216,0.0,0.21,0.0,-0.39,309.07,307.78000000000003,0.0,0.04,3
135.97612900,135976129,0.0,0.22,0.0,-0.4,309.07,307.75,0.0,0.03,3
136.07618100,136076181,0.0,0.21,0.0,-0.4,309.07,307.75,0.0,0.03,3
136.17614400,136176144,0.0,0.21,0.0,-0.4,309.07,307.8,0.0,0.03,3
136.27614400,136276144,0.0,0.21,0.0,-0.4,309.07,307.88,0.0,0.04,3
136.37615200,136376152,0.0,0.21,0.0,-0.4,307.95,307.96,0.0,0.04,3
136.47615200,136476152,0.0,0.21,0.0,-0.4,308.02,308.03000000000003,0.0,0.05,3
136.57617100,136576171,0.0,0.21,0.0,-0.41000000000000003,308.05,308.06,0.0,0.04,3
136.67606000,136676060,0.0,0.21,0.0,-0.41000000000000003,308.06,308.07,0.0,0.04,3
136.77617400,136776174,0.0,0.21,0.0,-0.41000000000000003,308.04,308.05,0.0,0.04,3
136.87610000,136876100,0.0,0.21,0.0,-0.41000000000000003,308.01,308.02,0.0,0.04,3
136.97609400,136976094,0.0,0.21,0.0,-0.41000000000000003,307.98,307.99,0.0,0.04,3
137.07609800,137076098,0.0,0.2,0.0,-0.41000000000000003,307.94,307.95,0.0,0.06,3
137.17611100,137176111,0.0,0.21,0.0,-0.42,307.88,307.89,0.0,0.07,3
137.27614800,137276148,0.0,0.2,0.0,-0.41000000000000003,307.88,307.89,0.0,0.06,3
137.37612500,137376125,0.0,0.21,0.0,-0.42,307.79,307.8,0.0,0.09,3
137.47616900,137476169,0.0,0.21,0.0,-0.42,307.68,307.69,0.0,0.09,3
137.57619300,137576193,0.0,0.21,0.0,-0.42,307.65000000000003,307.66,0.0,0.1,3
137.67621300,137676213,0.0,0.21,0.0,-0.42,307.53000000000003,307.54,0.0,0.09,3
137.77623300,137776233,0.0,0.22,0.0,-0.42,307.41,307.42,0.0,0.09,3
137.87612100,137876121,0.0,0.22,0.0,-0.42,307.40000000000003,307.41,0.0,0.1,3
137.97614700,137976147,0.0,0.22,0.0,-0.42,307.33,307.34000000000003,0.0,0.1,3
138.07606600,138076066,0.0,0.22,0.0,-0.42,307.24,307.25,0.0,0.11,3
138.17623600,138176236,0.0,0.22,0.0,-0.42,307.24,307.25,0.0,0.1,3
138.27616500,138276165,0.0,0.23,0.0,-0.42,307.18,307.19,0.0,0.1,3
138.37612800,138376128,0.0,0.23,0.0,-0.43,307.11,307.12,0.0,0.09,3
138.47608200,138476082,0.0,0.23,0.0,-0.43,307.14,307.15000000000003,0.0,0.1,3
138.57613400,138576134,0.0,0.23,0.0,-0.43,307.12,307.13,0.0,0.09,3
138.67610200,138676102,0.0,0.23,0.0,-0.43,307.08,307.09000000000003,0.0,0.11,3
138.77615100,138776151,0.0,0.23,0.0,-0.43,307.12,307.13,0.0,0.11,3
138.87620300,138876203,0.0,0.23,0.0,-0.43,307.1,307.11,0.0,0.14,3
138.97613100,138976131,0.0,0.24,0.0,-0.43,307.03000000000003,307.04,0.0,0.12,3
139.07614800,139076148,0.0,0.24,0.0,-0.43,307.03000000000003,307.04,0.0,0.1,3
139.17613800,139176138,0.0,0.24,0.0,-0.43,306.98,306.99,0.0,0.09,3
139.27616100,139276161,0.0,0.24,0.0,-0.44,306.91,306.92,0.0,0.09,3
139.37614800,139376148,0.0,0.24,0.0,-0.43,306.93,306.94,0.0,0.09,3
139.47622300,139476223,0.0,0.24,0.0,-0.44,306.91,306.92,0.0,0.08,3
139.57622300,139576223,0.0,0.24,0.0,-0.44,306.85,306.86,0.0,0.09,3
139.67608400,139676084,0.0,0.24,0.0,-0.44,306.86,306.87,0.0,0.11,3
139.77612600,139776126,0.0,0.24,0.0,-0.44,306.84000000000003,306.85,0.0,0.1,3
139.87607000,139876070,0.0,0.25,0.0,-0.44,306.78000000000003,306.79,0.0,0.08,3
139.97608200,139976082,0.0,0.25,0.0,-0.44,306.79,306.8,0.0,0.09,3
140.07607500,140076075,0.0,0.25,0.0,-0.44,306.79,306.79,0.0,0.1,3
140.17607200,140176072,0.0,0.25,0.0,-0.44,306.79,306.75,0.0,0.13,3
140.27617100,140276171,0.0,0.25,0.0,-0.44,306.79,306.75,0.0,0.15,3
140.37622200,140376222,0.0,0.26,0.0,-0.44,306.79,306.72,0.0,0.12,3
140.47616300,140476163,0.0,0.26,0.0,-0.44,306.79,306.67,0.0,0.12,3
140.57613200,140576132,0.0,0.26,0.0,-0.44,306.79,306.69,0.0,0.11,3
140.67616800,140676168,0.0,0.27,0.0,-0.44,306.79,306.71,0.0,0.12,3
140.77616700,140776167,0.0,0.27,0.0,-0.44,306.79,306.7,0.0,0.12,3
140.87616500,140876165,0.0,0.28,0.0,-0.44,306.79,306.74,0.0,0.12,3
140.97617700,140976177,0.0,0.28,0.0,-0.44,306.79,306.76,0.0,0.11,3
141.07612100,141076121,0.0,0.29,0.0,-0.45,306.79,306.77,0.0,0.11,3
141.17605600,141176056,0.0,0.29,0.0,-0.45,306.79,306.81,0.0,0.11,3
141.27619800,141276198,0.0,0.29,0.0,-0.45,306.79,306.84000000000003,0.0,0.09,3
141.37615600,141376156,0.0,0.3,0.0,-0.45,306.79,306.84000000000003,0.0,0.1,3
141.47610300,141476103,0.0,0.3,0.0,-0.45,306.79,306.85,0.0,0.08,3
141.57610600,141576106,0.0,0.31,0.0,-0.46,306.84000000000003,306.85,0.0,0.08,3
141.67607300,141676073,0.0,0.31,0.0,-0.46,306.83,306.84000000000003,0.0,0.09,3
141.77609900,141776099,0.0,0.31,0.0,-0.46,306.83,306.84000000000003,0.0,0.08,3
141.87609000,141876090,0.0,0.31,0.0,-0.46,306.83,306.84000000000003,0.0,0.06,3
141.97615100,141976151,0.0,0.32,0.0,-0.46,306.82,306.83,0.0,0.05,3
142.07613700,142076137,0.0,0.32,0.0,-0.46,306.83,306.84000000000003,0.0,0.05,3
142.17619600,142176196,0.0,0.32,0.0,-0.46,306.84000000000003,306.85,0.0,0.04,3
142.27619400,142276194,0.0,0.32,0.0,-0.47000000000000003,306.84000000000003,306.85,0.0,0.04,3
142.37623600,142376236,0.0,0.32,0.0,-0.47000000000000003,306.85,306.86,0.0,0.05,3
142.47623400,142476234,0.0,0.32,0.0,-0.47000000000000003,306.85,306.86,0.0,0.05,3
142.57619200,142576192,0.0,0.32,0.0,-0.47000000000000003,306.85,306.86,0.0,0.08,3
142.67616100,142676161,0.0,0.32,0.0,-0.47000000000000003,306.85,306.86,0.0,0.07,3
142.77608200,142776082,0.0,0.33,0.0,-0.47000000000000003,306.85,306.86,0.0,0.08,3
142.87607800,142876078,0.0,0.33,0.0,-0.48,306.85,306.86,0.0,0.06,3
142.97611200,142976112,0.0,0.33,0.0,-0.48,306.87,306.88,0.0,0.05,3
143.07615600,143076156,0.0,0.33,0.0,-0.49,306.90000000000003,306.91,0.0,0.06,3
143.17610200,143176102,0.0,0.33,0.0,-0.49,306.91,306.92,0.0,0.05,3
143.27608900,143276089,0.0,0.34,0.0,-0.5,306.93,306.94,0.0,0.05,3
143.37608900,143376089,0.0,0.34,0.0,-0.5,306.96,306.97,0.0,0.05,3
143.47609300,143476093,0.0,0.34,0.0,-0.5,306.97,306.98,0.0,0.04,3
143.57621200,143576212,0.0,0.34,0.0,-0.51,306.99,307.0,0.0,0.04,3
143.67617700,143676177,0.0,0.35000000000000003,0.0,-0.51,307.0,307.01,0.0,0.04,3
143.77618300,143776183,0.0,0.35000000000000003,0.0,-0.52,307.0,307.01,0.0,0.05,3
143.87615200,143876152,0.0,0.35000000000000003,0.0,-0.52,307.01,307.02,0.0,0.05,3
143.97619700,143976197,0.0,0.35000000000000003,0.0,-0.52,307.01,307.02,0.0,0.05,3
144.07619300,144076193,0.0,0.36,0.0,-0.52,307.0,307.01,0.0,0.05,3
144.17607400,144176074,0.0,0.36,0.0,-0.52,307.0,307.01,0.0,0.05,3
144.27615200,144276152,0.0,0.36,0.0,-0.52,307.0,307.01,0.0,0.05,3
144.37606100,144376061,0.0,0.37,0.0,-0.52,307.0,307.01,0.0,0.05,3
144.47621600,144476216,0.0,0.37,0.0,-0.53,307.01,307.02,0.0,0.05,3
144.57621300,144576213,0.0,0.38,0.0,-0.53,307.02,307.03000000000003,0.0,0.04,3
144.67612800,144676128,0.0,0.38,0.0,-0.54,307.03000000000003,307.04,0.0,0.05,3
144.77606700,144776067,0.0,0.39,0.0,-0.54,307.06,307.07,0.0,0.04,3
144.87611200,144876112,0.0,0.39,0.0,-0.55,307.09000000000003,307.1,0.0,0.04,3
144.97612200,144976122,0.0,0.39,0.0,-0.56,307.1,307.11,0.0,0.04,3
145.07611400,145076114,0.0,0.39,0.0,-0.56,307.12,307.13,0.0,0.03,3
145.17619400,145176194,0.0,0.39,0.0,-0.5700000000000001,307.14,307.15000000000003,0.0,0.03,3
145.27620000,145276200,0.0,0.39,0.0,-0.5700000000000001,307.14,307.15000000000003,0.0,0.02,3
145.37617800,145376178,0.0,0.39,0.0,-0.5700000000000001,307.15000000000003,307.16,0.0,0.05,3
145.47616500,145476165,0.0,0.39,0.0,-0.5700000000000001,307.16,307.17,0.0,0.05,3
145.57620400,145576204,0.0,0.39,0.0,-0.5700000000000001,307.16,307.17,0.0,0.06,3
145.67616100,145676161,0.0,0.4,0.0,-0.5700000000000001,307.15000000000003,307.16,0.0,0.06,3
145.77618000,145776180,0.0,0.4,0.0,-0.5700000000000001,307.15000000000003,307.16,0.0,0.07,3
145.87616200,145876162,0.0,0.4,0.0,-0.5700000000000001,307.14,307.15000000000003,0.0,0.06,3
145.97605300,145976053,0.0,0.4,0.0,-0.58,307.15000000000003,307.16,0.0,0.05,3
146.07612700,146076127,0.0,0.4,0.0,-0.58,307.16,307.17,0.0,0.05,3
146.17607400,146176074,0.0,0.4,0.0,-0.58,307.16,307.17,0.0,0.05,3
146.27607800,146276078,0.0,0.4,0.0,-0.58,307.17,307.18,0.0,0.04,3
146.37605500,146376055,0.0,0.4,0.0,-0.59,307.18,307.19,0.0,0.04,3
146.47611100,146476111,0.0,0.41000000000000003,0.0,-0.59,307.18,307.19,0.0,0.04,3
146.57620300,146576203,0.0,0.41000000000000003,0.0,-0.59,307.18,307.19,0.0,0.05,3
146.67619600,146676196,0.0,0.41000000000000003,0.0,-0.59,307.18,307.19,0.0,0.05,3
146.77617200,146776172,0.0,0.41000000000000003,0.0,-0.59,307.18,307.19,0.0,0.04,3
146.87613700,146876137,0.0,0.41000000000000003,0.0,-0.59,307.18,307.19,0.0,0.04,3
146.97619600,146976196,0.0,0.41000000000000003,0.0,-0.59,307.18,307.19,0.0,0.04,3
147.07617500,147076175,0.0,0.41000000000000003,0.0,-0.59,307.17,307.18,0.0,0.05,3
147.17618700,147176187,0.0,0.41000000000000003,0.0,-0.59,307.17,307.18,0.0,0.05,3
147.27613100,147276131,0.0,0.42,0.0,-0.6,307.17,307.18,0.0,0.05,3
147.37615900,147376159,0.0,0.43,0.0,-0.6,307.17,307.18,0.0,0.04,3
147.47604900,147476049,0.0,0.44,0.0,-0.61,307.16,307.17,0.0,0.03,3
147.57619000,147576190,0.0,0.44,0.0,-0.61,307.16,307.17,0.0,0.04,3
147.67609000,147676090,0.0,0.44,0.0,-0.61,307.15000000000003,307.16,0.0,0.06,3
147.77607000,147776070,0.0,0.45,0.0,-0.62,307.15000000000003,307.16,0.0,0.06,3
147.87608100,147876081,0.0,0.45,0.0,-0.62,307.16,307.17,0.0,0.06,3
147.97603500,147976035,0.0,0.46,0.0,-0.63,307.16,307.17,0.0,0.06,3
148.07607900,148076079,0.0,0.46,0.0,-0.64,307.18,307.19,0.0,0.05,3
148.17616100,148176161,0.0,0.46,0.0,-0.65,307.2,307.21,0.0,0.04,3
148.27613300,148276133,0.0,0.46,0.0,-0.65,307.16,307.17,0.0,0.05,3
148.37614700,148376147,0.0,0.46,0.0,-0.65,307.0,307.01,0.0,0.05,3
148.47619100,148476191,0.0,0.46,0.0,-0.65,306.77,306.78000000000003,0.0,0.04,3
148.57656400,148576564,0.0,0.47000000000000003,0.0,-0.65,306.54,306.55,0.0,0.04,3
148.67621600,148676216,0.0,0.47000000000000003,0.0,-0.65,306.38,306.39,0.0,0.04,3
148.77627300,148776273,0.0,0.47000000000000003,0.0,-0.65,306.27,306.28000000000003,0.0,0.04,3
148.87612000,148876120,0.0,0.47000000000000003,0.0,-0.65,306.21,306.22,0.0,0.07,3
148.97614600,148976146,0.0,0.47000000000000003,0.0,-0.65,306.26,306.27,0.0,0.05,3
149.07607900,149076079,0.0,0.47000000000000003,0.0,-0.65,306.36,306.37,0.0,0.05,3
149.17610700,149176107,0.0,0.47000000000000003,0.0,-0.65,306.39,306.40000000000003,0.0,0.05,3
149.27608900,149276089,0.0,0.46,0.0,-0.64,306.41,306.42,0.0,0.07,3
149.37616800,149376168,0.0,0.46,0.0,-0.64,306.48,306.49,0.0,0.08,3
149.47607300,149476073,0.0,0.46,0.0,-0.63,306.59000000000003,306.6,0.0,0.08,3
149.57639600,149576396,0.0,0.45,0.0,-0.62,306.73,306.74,0.0,0.07,3
149.67614300,149676143,0.0,0.44,0.0,-0.6,306.85,306.86,0.0,0.08,3
149.77612000,149776120,0.0,0.44,0.0,-0.59,306.92,306.93,0.0,0.06,3
149.87614400,149876144,0.0,0.43,0.0,-0.5700000000000001,306.94,306.95,0.0,0.08,3
149.97611200,149976112,0.0,0.42,0.0,-0.55,307.0,307.01,0.0,0.1,3
150.07623200,150076232,0.0,0.42,0.0,-0.53,307.09000000000003,307.1,0.0,0.08,3
150.17617600,150176176,0.0,0.41000000000000003,0.0,-0.51,307.18,307.19,0.0,0.07,3
150.27617300,150276173,0.0,0.4,0.0,-0.48,307.26,307.27,0.0,0.06,3
150.37614000,150376140,0.0,0.4,0.0,-0.47000000000000003,307.29,307.3,0.0,0.06,3
150.47604500,150476045,0.0,0.39,0.0,-0.44,307.28000000000003,307.29,0.0,0.07,3
150.57649500,150576495,0.0,0.38,0.0,-0.42,307.3,307.31,0.0,0.07,3
150.67608000,150676080,0.0,0.37,0.0,-0.4,307.33,307.34000000000003,0.0,0.06,3
150.77621400,150776214,0.0,0.36,0.0,-0.39,307.36,307.37,0.0,0.06,3
150.87617200,150876172,0.0,0.36,0.0,-0.37,307.37,307.38,0.0,0.06,3
150.97607900,150976079,0.0,0.35000000000000003,0.0,-0.36,307.37,307.38,0.0,0.07,3
151.07607500,151076075,0.0,0.35000000000000003,0.0,-0.35000000000000003,307.37,307.38,0.0,0.09,3
151.17607200,151176072,0.0,0.34,0.0,-0.33,307.43,307.44,0.0,0.08,3
151.27614000,151276140,0.0,0.34,0.0,-0.32,307.47,307.48,0.0,0.07,3
151.37614100,151376141,0.0,0.33,0.0,-0.31,307.49,307.5,0.0,0.06,3
151.47614900,151476149,0.0,0.33,0.0,-0.31,307.5,307.51,0.0,0.05,3
151.57653400,151576534,0.0,0.33,0.0,-0.3,307.48,307.49,0.0,0.07,3
151.67619900,151676199,0.0,0.32,0.0,-0.29,307.47,307.48,0.0,0.06,3
151.77613700,151776137,0.0,0.32,0.0,-0.29,307.48,307.49,0.0,0.06,3
151.87616500,151876165,0.0,0.32,0.0,-0.28,307.5,307.51,0.0,0.05,3
151.97612900,151976129,0.0,0.32,0.0,-0.28,307.5,307.51,0.0,0.04,3
152.07618000,152076180,0.0,0.32,0.0,-0.28,307.5,307.51,0.0,0.06,3
152.17613500,152176135,0.0,0.32,0.0,-0.27,307.51,307.52,0.0,0.06,3
152.27606700,152276067,0.0,0.32,0.0,-0.27,307.54,307.55,0.0,0.05,3
152.37616300,152376163,0.0,0.31,0.0,-0.27,307.58,307.59000000000003,0.0,0.05,3
152.47606900,152476069,0.0,0.31,0.0,-0.27,307.6,307.61,0.0,0.05,3
152.57649400,152576494,0.0,0.31,0.0,-0.27,307.63,307.64,0.0,0.04,3
152.67605800,152676058,0.0,0.31,0.0,-0.26,307.65000000000003,307.66,0.0,0.04,3
152.77612500,152776125,0.0,0.31,0.0,-0.26,307.64,307.65000000000003,0.0,0.05,3
152.87621900,152876219,0.0,0.32,0.0,-0.26,307.63,307.64,0.0,0.05,3
152.97658700,152976587,0.0,0.32,0.0,-0.26,307.64,307.65000000000003,0.0,0.05,3
153.07613600,153076136,0.0,0.32,0.0,-0.26,307.65000000000003,307.66,0.0,0.08,3
153.17615400,153176154,0.0,0.32,0.0,-0.26,307.68,307.69,0.0,0.1,3
153.27617200,153276172,0.0,0.32,0.0,-0.26,307.76,307.77,0.0,0.1,3
153.37612900,153376129,0.0,0.32,0.0,-0.26,307.85,307.86,0.0,0.11,3
153.47616900,153476169,0.0,0.32,0.0,-0.26,307.95,307.96,0.0,0.1,3
153.57644500,153576445,0.0,0.32,0.0,-0.26,308.05,308.06,0.0,0.1,3
153.67615700,153676157,0.0,0.32,0.0,-0.26,308.13,308.14,0.0,0.1,3
153.77606100,153776061,0.0,0.32,0.0,-0.26,308.21,308.22,0.0,0.09,3
153.87614300,153876143,0.0,0.33,0.0,-0.26,308.26,308.27,0.0,0.07,3
153.97644900,153976449,0.0,0.33,0.0,-0.26,308.28000000000003,308.29,0.0,0.08,3
154.07605800,154076058,0.0,0.33,0.0,-0.26,308.27,308.28000000000003,0.0,0.07,3
154.17608600,154176086,0.0,0.33,0.0,-0.26,308.27,308.28000000000003,0.0,0.07,3
154.27606900,154276069,0.0,0.33,0.0,-0.26,308.24,308.25,0.0,0.09,3
154.37615700,154376157,0.0,0.33,0.0,-0.27,308.22,308.23,0.0,0.08,3
154.47611000,154476110,0.0,0.33,0.0,-0.27,308.21,308.22,0.0,0.09,3
154.57651900,154576519,0.0,0.33,0.0,-0.27,308.21,308.22,0.0,0.09,3
154.67612000,154676120,0.0,0.33,0.0,-0.27,308.23,308.24,0.0,0.09,3
154.77618700,154776187,0.0,0.33,0.0,-0.27,308.26,308.27,0.0,0.08,3
154.87619800,154876198,0.0,0.33,0.0,-0.27,308.3,308.31,0.0,0.08,3
154.97643900,154976439,0.0,0.33,0.0,-0.27,308.34000000000003,308.35,0.0,0.07,3
155.07625100,155076251,0.0,0.34,0.0,-0.28,308.37,308.38,0.0,0.07,3
155.17614600,155176146,0.0,0.34,0.0,-0.28,308.39,308.40000000000003,0.0,0.06,3
155.27606700,155276067,0.0,0.34,0.0,-0.28,308.40000000000003,308.41,0.0,0.07,3
155.37608300,155376083,0.0,0.34,0.0,-0.28,308.41,308.42,0.0,0.07,3
155.47610300,155476103,0.0,0.34,0.0,-0.28,308.42,308.43,0.0,0.08,3
155.57646000,155576460,0.0,0.34,0.0,-0.28,308.45,308.46,0.0,0.08,3
155.67613600,155676136,0.0,0.35000000000000003,0.0,-0.28,308.48,308.49,0.0,0.08,3
155.77608400,155776084,0.0,0.35000000000000003,0.0,-0.28,308.5,308.51,0.0,0.09,3
155.87609200,155876092,0.0,0.35000000000000003,0.0,-0.29,308.51,308.52,0.0,0.07,3
155.97612900,155976129,0.0,0.35000000000000003,0.0,-0.29,308.52,308.53000000000003,0.0,0.06,3
156.07613700,156076137,0.0,0.35000000000000003,0.0,-0.28,308.52,308.53000000000003,0.0,0.05,3
156.17616000,156176160,0.0,0.35000000000000003,0.0,-0.29,308.51,308.52,0.0,0.04,3
156.27611500,156276115,0.0,0.35000000000000003,0.0,-0.29,308.5,308.51,0.0,0.03,3
156.37619500,156376195,0.0,0.35000000000000003,0.0,-0.29,308.49,308.5,0.0,0.05,3
156.47608000,156476080,0.0,0.35000000000000003,0.0,-0.29,308.48,308.49,0.0,0.04,3
156.57655400,156576554,0.0,0.35000000000000003,0.0,-0.29,308.48,308.49,0.0,0.04,3
156.67613200,156676132,0.0,0.35000000000000003,0.0,-0.29,308.49,308.5,0.0,0.03,3
156.77614300,156776143,0.0,0.35000000000000003,0.0,-0.29,308.49,308.5,0.0,0.03,3
156.87607600,156876076,0.0,0.36,0.0,-0.29,308.5,308.51,0.0,0.03,3
156.97605600,156976056,0.0,0.35000000000000003,0.0,-0.3,308.51,308.52,0.0,0.04,3
157.07615000,157076150,0.0,0.36,0.0,-0.3,308.51,308.52,0.0,0.04,3
157.17613800,157176138,0.0,0.36,0.0,-0.3,308.52,308.53000000000003,0.0,0.03,3
157.27608500,157276085,0.0,0.36,0.0,-0.3,308.52,308.53000000000003,0.0,0.03,3
157.37602500,157376025,0.0,0.36,0.0,-0.3,308.51,308.52,0.0,0.04,3
157.47607500,157476075,0.0,0.36,0.0,-0.3,308.5,308.51,0.0,0.04,3
157.57657000,157576570,0.0,0.36,0.0,-0.3,308.5,308.51,0.0,0.04,3
157.67615400,157676154,0.0,0.36,0.0,-0.3,308.5,308.51,0.0,0.05,3
157.77614200,157776142,0.0,0.36,0.0,-0.3,308.52,308.53000000000003,0.0,0.06,3
157.87617100,157876171,0.0,0.36,0.0,-0.3,308.54,308.55,0.0,0.08,3
157.97629500,157976295,0.0,0.36,0.0,-0.3,308.58,308.59000000000003,0.0,0.07,3
158.07608000,158076080,0.0,0.36,0.0,-0.3,308.62,308.63,0.0,0.06,3
158.17617400,158176174,0.0,0.37,0.0,-0.3,308.65000000000003,308.66,0.0,0.05,3
158.27613700,158276137,0.0,0.37,0.0,-0.3,308.66,308.67,0.0,0.06,3
158.37620000,158376200,0.0,0.37,0.0,-0.3,308.65000000000003,308.66,0.0,0.05,3
158.47611200,158476112,0.0,0.37,0.0,-0.3,308.64,308.65000000000003,0.0,0.04,3
158.57647500,158576475,0.0,0.37,0.0,-0.3,308.62,308.63,0.0,0.04,3
158.67608400,158676084,0.0,0.37,0.0,-0.3,308.61,308.62,0.0,0.04,3
158.77606600,158776066,0.0,0.37,0.0,-0.3,308.6,308.61,0.0,0.04,3
158.87607500,158876075,0.0,0.37,0.0,-0.3,308.59000000000003,308.6,0.0,0.04,3
158.97608200,158976082,0.0,0.37,0.0,-0.3,308.58,308.59000000000003,0.0,0.04,3
159.07615800,159076158,0.0,0.37,0.0,-0.3,308.57,308.58,0.0,0.03,3
159.17618300,159176183,0.0,0.37,0.0,-0.3,308.54,308.55,0.0,0.03,3
159.27623500,159276235,0.0,0.37,0.0,-0.31,308.53000000000003,308.53000000000003,0.0,0.05,3
159.37614300,159376143,0.0,0.37,0.0,-0.31,308.52,308.53000000000003,0.0,0.05,3
159.47613700,159476137,0.0,0.37,0.0,-0.3,308.53000000000003,308.54,0.0,0.06,3
159.57655700,159576557,0.0,0.37,0.0,-0.31,308.53000000000003,308.54,0.0,0.05,3
159.67614800,159676148,0.0,0.36,0.0,-0.31,308.54,308.55,0.0,0.05,3
159.77613900,159776139,0.0,0.36,0.0,-0.31,308.53000000000003,308.54,0.0,0.05,3
159.87613700,159876137,0.0,0.36,0.0,-0.31,308.53000000000003,308.54,0.0,0.04,3
159.97607300,159976073,0.0,0.36,0.0,-0.31,308.53000000000003,308.54,0.0,0.04,3
160.07608900,160076089,0.0,0.36,0.0,-0.31,308.52,308.53000000000003,0.0,0.05,3
160.17614200,160176142,0.0,0.36,0.0,-0.3,308.51,308.52,0.0,0.05,3
160.27612300,160276123,0.0,0.36,0.0,-0.3,308.51,308.52,0.0,0.04,3
160.37605200,160376052,0.0,0.36,0.0,-0.3,308.51,308.52,0.0,0.05,3
160.47607700,160476077,0.0,0.36,0.0,-0.3,308.51,308.52,0.0,0.04,3
160.57650500,160576505,0.0,0.36,0.0,-0.3,308.51,308.52,0.0,0.05,3
160.67614900,160676149,0.0,0.36,0.0,-0.3,308.51,308.52,0.0,0.05,3
160.77615300,160776153,0.0,0.37,0.0,-0.3,308.53000000000003,308.54,0.0,0.05,3
160.87611600,160876116,0.0,0.37,0.0,-0.3,308.54,308.55,0.0,0.04,3
160.97616200,160976162,0.0,0.37,0.0,-0.3,308.54,308.55,0.0,0.05,3
161.07621500,161076215,0.0,0.36,0.0,-0.3,308.53000000000003,308.54,0.0,0.05,3
161.17619000,161176190,0.0,0.36,0.0,-0.3,308.52,308.53000000000003,0.0,0.07,3
161.27616200,161276162,0.0,0.36,0.0,-0.3,308.5,308.51,0.0,0.06,3
161.37623300,161376233,0.0,0.36,0.0,-0.3,308.49,308.5,0.0,0.06,3
161.47608600,161476086,0.0,0.36,0.0,-0.3,308.49,308.5,0.0,0.06,3
161.57648100,161576481,0.0,0.36,0.0,-0.3,308.49,308.5,0.0,0.06,3
161.67605800,161676058,0.0,0.36,0.0,-0.3,308.49,308.5,0.0,0.05,3
161.77610300,161776103,0.0,0.36,0.0,-0.3,308.5,308.51,0.0,0.05,3
161.87608500,161876085,0.0,0.36,0.0,-0.3,308.51,308.52,0.0,0.05,3
161.97609700,161976097,0.0,0.36,0.0,-0.3,308.51,308.52,0.0,0.06,3
162.07607300,162076073,0.0,0.36,0.0,-0.3,308.5,308.51,0.0,0.06,3
162.17609300,162176093,0.0,0.36,0.0,-0.3,308.5,308.51,0.0,0.05,3
162.27614300,162276143,0.0,0.36,0.0,-0.3,308.5,308.51,0.0,0.05,3
162.37614300,162376143,0.0,0.36,0.0,-0.3,308.5,308.51,0.0,0.05,3
162.47619600,162476196,0.0,0.36,0.0,-0.3,308.5,308.51,0.0,0.04,3
162.57652900,162576529,0.0,0.36,0.0,-0.3,308.5,308.51,0.0,0.05,3
162.67621500,162676215,0.0,0.36,0.0,-0.3,308.5,308.51,0.0,0.05,3
162.77609400,162776094,0.0,0.36,0.0,-0.3,308.49,308.5,0.0,0.05,3
162.87617100,162876171,0.0,0.36,0.0,-0.3,308.48,308.49,0.0,0.04,3
162.97621400,162976214,0.0,0.35000000000000003,0.0,-0.3,308.47,308.48,0.0,0.06,3
163.07607000,163076070,0.0,0.36,0.0,-0.3,308.46,308.47,0.0,0.05,3
171.17611200,171176112,0.0,0.38,0.0,-0.29,308.89,308.90000000000003,0.0,0.07,3
171.27608200,171276082,0.0,0.38,0.0,-0.29,308.91,308.92,0.0,0.05,3
171.37606100,171376061,0.0,0.38,0.0,-0.29,308.92,308.93,0.0,0.05,3
171.47609900,171476099,0.0,0.38,0.0,-0.29,308.94,308.95,0.0,0.06,3
171.57644100,171576441,0.0,0.38,0.0,-0.29,308.94,308.95,0.0,0.07,3
171.67620500,171676205,0.0,0.38,0.0,-0.29,308.95,308.96,0.0,0.06,3
171.77615200,171776152,0.0,0.38,0.0,-0.29,308.95,308.96,0.0,0.06,3
171.87620700,171876207,0.0,0.38,0.0,-0.29,308.96,308.97,0.0,0.05,3
171.97618600,171976186,0.0,0.38,0.0,-0.29,308.97,308.98,0.0,0.04,3
172.07606500,172076065,0.0,0.38,0.0,-0.29,308.97,308.98,0.0,0.05,3
172.17616000,172176160,0.0,0.38,0.0,-0.29,308.99,309.0,0.0,0.06,3
172.27612100,172276121,0.0,0.38,0.0,-0.29,309.0,309.01,0.0,0.07,3
172.37617300,172376173,0.0,0.38,0.0,-0.29,309.01,309.02,0.0,0.09,3
172.47607600,172476076,0.0,0.38,0.0,-0.29,309.0,309.01,0.0,0.07,3
172.57652300,172576523,0.0,0.38,0.0,-0.29,308.99,309.0,0.0,0.07,3
172.67608800,172676088,0.0,0.38,0.0,-0.28,308.98,308.99,0.0,0.06,3
172.77605700,172776057,0.0,0.37,0.0,-0.28,308.97,308.98,0.0,0.06,3
172.87608800,172876088,0.0,0.37,0.0,-0.28,308.97,308.98,0.0,0.05,3
172.97603800,172976038,0.0,0.37,0.0,-0.28,308.98,308.99,0.0,0.04,3
173.07612500,173076125,0.0,0.37,0.0,-0.28,308.99,309.0,0.0,0.03,3
173.17608600,173176086,0.0,0.37,0.0,-0.28,309.0,309.01,0.0,0.03,3
173.27619300,173276193,0.0,0.37,0.0,-0.28,309.01,309.02,0.0,0.04,3
173.37614700,173376147,0.0,0.37,0.0,-0.28,309.01,309.02,0.0,0.04,3
173.47615300,173476153,0.0,0.37,0.0,-0.28,309.02,309.03000000000003,0.0,0.05,3
173.57647100,173576471,0.0,0.37,0.0,-0.28,309.04,309.05,0.0,0.05,3
173.67620000,173676200,0.0,0.37,0.0,-0.28,309.04,309.05,0.0,0.04,3
173.77617500,173776175,0.0,0.37,0.0,-0.28,309.05,309.06,0.0,0.03,3
173.87617600,173876176,0.0,0.37,0.0,-0.28,309.06,309.07,0.0,0.04,3
173.97619800,173976198,0.0,0.37,0.0,-0.28,309.07,309.08,0.0,0.04,3
174.07605700,174076057,0.0,0.37,0.0,-0.28,309.07,309.08,0.0,0.03,3
174.17609300,174176093,0.0,0.37,0.0,-0.28,309.07,309.08,0.0,0.03,3
174.27606700,174276067,0.0,0.37,0.0,-0.28,309.07,309.08,0.0,0.03,3
174.37608900,174376089,0.0,0.37,0.0,-0.28,309.08,309.09000000000003,0.0,0.02,3
174.47607300,174476073,0.0,0.37,0.0,-0.28,309.08,309.09000000000003,0.0,0.03,3
174.57652900,174576529,0.0,0.37,0.0,-0.28,309.08,309.09000000000003,0.0,0.04,3
174.67612900,174676129,0.0,0.37,0.0,-0.28,309.07,309.08,0.0,0.05,3
174.77613600,174776136,0.0,0.37,0.0,-0.28,309.06,309.07,0.0,0.06,3
174.87613500,174876135,0.0,0.37,0.0,-0.28,309.05,309.06,0.0,0.05,3
174.97612200,174976122,0.0,0.37,0.0,-0.28,309.04,309.05,0.0,0.05,3
175.07618800,175076188,0.0,0.36,0.0,-0.28,309.03000000000003,309.04,0.0,0.04,3
175.17615600,175176156,0.0,0.36,0.0,-0.28,309.02,309.03000000000003,0.0,0.06,3
175.27620700,175276207,0.0,0.36,0.0,-0.28,309.02,309.03000000000003,0.0,0.06,3
175.37612100,175376121,0.0,0.36,0.0,-0.28,309.03000000000003,309.04,0.0,0.06,3
175.47617500,175476175,0.0,0.36,0.0,-0.28,309.05,309.06,0.0,0.07,3
175.57653100,175576531,0.0,0.36,0.0,-0.28,309.06,309.07,0.0,0.08,3
175.67605000,175676050,0.0,0.36,0.0,-0.28,309.07,309.08,0.0,0.08,3
175.77609600,175776096,0.0,0.36,0.0,-0.28,309.08,309.09000000000003,0.0,0.07,3
175.87606100,175876061,0.0,0.36,0.0,-0.28,309.1,309.11,0.0,0.07,3
175.97613100,175976131,0.0,0.36,0.0,-0.28,309.11,309.12,0.0,0.06,3
176.07611200,176076112,0.0,0.36,0.0,-0.28,309.12,309.13,0.0,0.06,3
176.17611500,176176115,0.0,0.36,0.0,-0.28,309.13,309.14,0.0,0.05,3
176.27613300,176276133,0.0,0.36,0.0,-0.28,309.14,309.15000000000003,0.0,0.05,3
176.37617700,176376177,0.0,0.36,0.0,-0.28,309.14,309.15000000000003,0.0,0.05,3
176.47611200,176476112,0.0,0.36,0.0,-0.28,309.15000000000003,309.16,0.0,0.04,3
176.57644900,176576449,0.0,0.36,0.0,-0.28,309.15000000000003,309.16,0.0,0.04,3
176.67620200,176676202,0.0,0.36,0.0,-0.28,309.15000000000003,309.16,0.0,0.04,3
176.77613500,176776135,0.0,0.36,0.0,-0.28,309.16,309.17,0.0,0.04,3
176.87617000,176876170,0.0,0.36,0.0,-0.28,309.16,309.17,0.0,0.04,3
176.97610900,176976109,0.0,0.36,0.0,-0.28,309.17,309.18,0.0,0.05,3
177.07615200,177076152,0.0,0.36,0.0,-0.28,309.16,309.17,0.0,0.05,3
177.17606700,177176067,0.0,0.36,0.0,-0.28,309.16,309.17,0.0,0.06,3
177.27614300,177276143,0.0,0.36,0.0,-0.28,309.16,309.17,0.0,0.06,3
177.37611400,177376114,0.0,0.36,0.0,-0.28,309.16,309.17,0.0,0.05,3
177.47606200,177476062,0.0,0.36,0.0,-0.28,309.17,309.18,0.0,0.05,3
177.57650800,177576508,0.0,0.36,0.0,-0.28,309.17,309.18,0.0,0.04,3
177.67603400,177676034,0.0,0.35000000000000003,0.0,-0.28,309.17,309.18,0.0,0.04,3
177.77613800,177776138,0.0,0.36,0.0,-0.28,309.18,309.19,0.0,0.05,3
177.87614200,177876142,0.0,0.35000000000000003,0.0,-0.28,309.18,309.19,0.0,0.05,3
177.97616500,177976165,0.0,0.35000000000000003,0.0,-0.28,309.2,309.21,0.0,0.04,3
178.07617000,178076170,0.0,0.35000000000000003,0.0,-0.28,309.21,309.22,0.0,0.04,3
178.17631400,178176314,0.0,0.35000000000000003,0.0,-0.28,309.22,309.23,0.0,0.03,3
178.27617500,178276175,0.0,0.35000000000000003,0.0,-0.28,309.23,309.24,0.0,0.04,3
178.37609700,178376097,0.0,0.35000000000000003,0.0,-0.28,309.24,309.25,0.0,0.05,3
178.47619800,178476198,0.0,0.35000000000000003,0.0,-0.28,309.25,309.26,0.0,0.07,3
178.57647400,178576474,0.0,0.35000000000000003,0.0,-0.28,309.27,309.28000000000003,0.0,0.07,3
178.67608200,178676082,0.0,0.35000000000000003,0.0,-0.28,309.27,309.28000000000003,0.0,0.06,3
178.77606100,178776061,0.0,0.35000000000000003,0.0,-0.28,309.28000000000003,309.29,0.0,0.05,3
178.87612700,178876127,0.0,0.35000000000000003,0.0,-0.28,309.29,309.3,0.0,0.07,3
178.97605200,178976052,0.0,0.35000000000000003,0.0,-0.28,309.3,309.31,0.0,0.06,3
179.07609900,179076099,0.0,0.35000000000000003,0.0,-0.28,309.29,309.3,0.0,0.07,3
179.17608100,179176081,0.0,0.35000000000000003,0.0,-0.29,309.29,309.3,0.0,0.08,3
179.27611100,179276111,0.0,0.35000000000000003,0.0,-0.29,309.28000000000003,309.29,0.0,0.08,3
179.37614500,179376145,0.0,0.35000000000000003,0.0,-0.29,309.26,309.27,0.0,0.06,3
179.47612800,179476128,0.0,0.35000000000000003,0.0,-0.29,309.25,309.26,0.0,0.05,3
179.57652500,179576525,0.0,0.35000000000000003,0.0,-0.29,309.24,309.25,0.0,0.04,3
179.67621300,179676213,0.0,0.35000000000000003,0.0,-0.29,309.23,309.24,0.0,0.05,3
179.77618200,179776182,0.0,0.35000000000000003,0.0,-0.29,309.23,309.24,0.0,0.04,3
179.87607500,179876075,0.0,0.35000000000000003,0.0,-0.29,309.23,309.24,0.0,0.04,3
179.97619500,179976195,0.0,0.35000000000000003,0.0,-0.29,309.23,309.24,0.0,0.05,3
180.07612300,180076123,0.0,0.35000000000000003,0.0,-0.29,309.24,309.25,0.0,0.06,3
180.17617400,180176174,0.0,0.35000000000000003,0.0,-0.29,309.26,309.27,0.0,0.05,3
180.27617900,180276179,0.0,0.35000000000000003,0.0,-0.29,309.28000000000003,309.29,0.0,0.06,3
180.37607000,180376070,0.0,0.35000000000000003,0.0,-0.29,309.29,309.3,0.0,0.06,3
180.47615000,180476150,0.0,0.35000000000000003,0.0,-0.29,309.3,309.31,0.0,0.08,3
180.57647000,180576470,0.0,0.35000000000000003,0.0,-0.29,309.29,309.3,0.0,0.08,3
180.67607000,180676070,0.0,0.35000000000000003,0.0,-0.29,309.28000000000003,309.29,0.0,0.07,3
180.77607600,180776076,0.0,0.35000000000000003,0.0,-0.29,309.26,309.27,0.0,0.06,3
180.87607000,180876070,0.0,0.35000000000000003,0.0,-0.29,309.25,309.26,0.0,0.06,3
180.97613700,180976137,0.0,0.35000000000000003,0.0,-0.29,309.25,309.26,0.0,0.07,3
181.07619000,181076190,0.0,0.35000000000000003,0.0,-0.29,309.24,309.25,0.0,0.06,3
181.17615900,181176159,0.0,0.34,0.0,-0.29,309.24,309.25,0.0,0.06,3
181.27612700,181276127,0.0,0.34,0.0,-0.29,309.24,309.25,0.0,0.05,3
181.37619300,181376193,0.0,0.34,0.0,-0.29,309.23,309.24,0.0,0.05,3
181.47612900,181476129,0.0,0.35000000000000003,0.0,-0.29,309.23,309.24,0.0,0.08,3
181.57650400,181576504,0.0,0.35000000000000003,0.0,-0.29,309.23,309.24,0.0,0.07,3
181.67612400,181676124,0.0,0.35000000000000003,0.0,-0.29,309.22,309.23,0.0,0.09,3
181.77619200,181776192,0.0,0.35000000000000003,0.0,-0.29,309.21,309.22,0.0,0.08,3
181.87609300,181876093,0.0,0.34,0.0,-0.29,309.19,309.2,0.0,0.07,3
181.97609300,181976093,0.0,0.34,0.0,-0.29,309.19,309.19,0.0,0.07,3
182.07612000,182076120,0.0,0.34,0.0,-0.29,309.18,309.19,0.0,0.07,3
182.17605300,182176053,0.0,0.34,0.0,-0.28,309.17,309.18,0.0,0.06,3
182.27613100,182276131,0.0,0.34,0.0,-0.28,309.16,309.17,0.0,0.05,3
182.37613700,182376137,0.0,0.34,0.0,-0.29,309.16,309.17,0.0,0.06,3
182.47614500,182476145,0.0,0.34,0.0,-0.28,309.16,309.17,0.0,0.05,3
182.57653500,182576535,0.0,0.34,0.0,-0.28,309.15000000000003,309.16,0.0,0.05,3
182.67622600,182676226,0.0,0.34,0.0,-0.28,309.15000000000003,309.16,0.0,0.05,3
182.77621100,182776211,0.0,0.34,0.0,-0.28,309.15000000000003,309.16,0.0,0.04,3
182.87614400,182876144,0.0,0.34,0.0,-0.28,309.16,309.17,0.0,0.04,3
182.97619700,182976197,0.0,0.34,0.0,-0.29,309.16,309.17,0.0,0.03,3
183.07608800,183076088,0.0,0.34,0.0,-0.29,309.17,309.18,0.0,0.04,3
183.17611600,183176116,0.0,0.34,0.0,-0.29,309.17,309.18,0.0,0.03,3
183.27613200,183276132,0.0,0.34,0.0,-0.29,309.17,309.18,0.0,0.03,3
183.37615300,183376153,0.0,0.34,0.0,-0.29,309.17,309.18,0.0,0.05,3
183.47609500,183476095,0.0,0.35000000000000003,0.0,-0.29,309.17,309.18,0.0,0.06,3
183.57651900,183576519,0.0,0.35000000000000003,0.0,-0.29,309.16,309.17,0.0,0.07,3
183.67608700,183676087,0.0,0.34,0.0,-0.29,309.16,309.17,0.0,0.06,3
183.77604100,183776041,0.0,0.34,0.0,-0.29,309.17,309.18,0.0,0.06,3
183.87609000,183876090,0.0,0.34,0.0,-0.29,309.18,309.19,0.0,0.08,3
183.97613000,183976130,0.0,0.34,0.0,-0.29,309.19,309.2,0.0,0.09,3
184.07611600,184076116,0.0,0.34,0.0,-0.28,309.19,309.2,0.0,0.08,3
184.17613300,184176133,0.0,0.34,0.0,-0.29,309.18,309.19,0.0,0.08,3
184.27614100,184276141,0.0,0.34,0.0,-0.28,309.17,309.18,0.0,0.06,3
184.37619100,184376191,0.0,0.34,0.0,-0.29,309.16,309.17,0.0,0.06,3
184.47623200,184476232,0.0,0.34,0.0,-0.29,309.15000000000003,309.16,0.0,0.06,3
184.57647700,184576477,0.0,0.34,0.0,-0.29,309.15000000000003,309.16,0.0,0.07,3
184.67608900,184676089,0.0,0.34,0.0,-0.29,309.16,309.17,0.0,0.06,3
184.77613600,184776136,0.0,0.34,0.0,-0.28,309.17,309.18,0.0,0.05,3
184.87606300,184876063,0.0,0.34,0.0,-0.28,309.17,309.18,0.0,0.05,3
184.97612000,184976120,0.0,0.34,0.0,-0.28,309.19,309.2,0.0,0.06,3
185.07605600,185076056,0.0,0.34,0.0,-0.28,309.19,309.2,0.0,0.06,3
185.17612400,185176124,0.0,0.34,0.0,-0.28,309.19,309.2,0.0,0.05,3
185.27608100,185276081,0.0,0.34,0.0,-0.29,309.19,309.2,0.0,0.06,3
185.37611300,185376113,0.0,0.34,0.0,-0.28,309.19,309.2,0.0,0.07,3
185.47608600,185476086,0.0,0.34,0.0,-0.28,309.18,309.19,0.0,0.06,3
185.57645700,185576457,0.0,0.34,0.0,-0.28,309.16,309.17,0.0,0.06,3
185.67614400,185676144,0.0,0.34,0.0,-0.28,309.16,309.17,0.0,0.05,3
185.77613200,185776132,0.0,0.34,0.0,-0.28,309.16,309.17,0.0,0.06,3
185.87613900,185876139,0.0,0.34,0.0,-0.28,309.16,309.17,0.0,0.06,3
185.97616000,185976160,0.0,0.34,0.0,-0.28,309.15000000000003,309.16,0.0,0.06,3
186.07618900,186076189,0.0,0.34,0.0,-0.28,309.15000000000003,309.16,0.0,0.05,3
318.37641500,318376415,-0.09,0.31,0.0,-0.27,309.76,309.77,0.0,0.03,3
318.47635600,318476356,-0.05,0.31,0.0,-0.27,309.76,309.78000000000003,0.0,0.03,3
318.57652600,318576526,-0.02,0.31,0.0,-0.27,309.76,309.78000000000003,0.0,0.03,3
318.67643400,318676434,-0.01,0.31,0.0,-0.27,309.76,309.78000000000003,0.0,0.02,3
318.77641300,318776413,0.0,0.31,0.0,-0.27,309.76,309.78000000000003,0.0,0.02,3
318.87650600,318876506,0.0,0.31,0.0,-0.27,309.76,309.78000000000003,0.0,0.02,3
318.97640500,318976405,0.0,0.31,0.0,-0.27,309.76,309.78000000000003,0.0,0.02,3
319.07641900,319076419,0.0,0.31,0.0,-0.27,309.76,309.77,0.0,0.02,3
319.17637200,319176372,0.0,0.3,0.0,-0.27,309.76,309.77,0.0,0.03,3
319.27642000,319276420,0.0,0.3,0.0,-0.27,309.76,309.77,0.0,0.03,3
319.37641300,319376413,0.0,0.3,0.0,-0.26,309.76,309.76,0.0,0.04,3
319.47667900,319476679,0.0,0.31,0.0,-0.27,309.76,309.76,0.0,0.03,3
319.57636300,319576363,0.0,0.3,0.0,-0.27,309.76,309.74,0.0,0.03,3
319.67639700,319676397,0.0,0.3,0.0,-0.27,309.76,309.74,0.0,0.03,3
319.77636600,319776366,0.0,0.3,0.0,-0.27,309.76,309.74,0.0,0.03,3
319.87643100,319876431,0.0,0.3,0.0,-0.27,309.76,309.73,0.0,0.03,3
319.97647300,319976473,0.0,0.31,0.0,-0.27,309.76,309.73,0.0,0.04,3
320.07637400,320076374,0.0,0.3,0.0,-0.27,309.76,309.72,0.0,0.04,3
320.17642100,320176421,0.0,0.31,0.0,-0.27,309.76,309.71,0.0,0.03,3
320.27642000,320276420,0.0,0.31,0.0,-0.27,309.76,309.7,0.0,0.03,3
320.37651100,320376511,0.0,0.31,0.0,-0.27,309.69,309.7,0.0,0.03,3
320.47670100,320476701,0.0,0.31,0.0,-0.27,309.68,309.69,0.0,0.02,3
320.57640600,320576406,0.0,0.31,0.0,-0.27,309.68,309.69,0.0,0.02,3
320.67645300,320676453,0.0,0.31,0.0,-0.27,309.68,309.69,0.0,0.02,3
320.77639200,320776392,0.0,0.31,0.0,-0.27,309.68,309.69,0.0,0.03,3
320.87644800,320876448,0.0,0.31,0.0,-0.27,309.68,309.69,0.0,0.03,3
320.97648000,320976480,0.0,0.31,0.0,-0.27,309.68,309.71,0.0,0.03,3
321.07643900,321076439,0.0,0.31,0.0,-0.27,309.68,309.65000000000003,0.0,0.03,3
321.17632300,321176323,0.0,0.31,0.0,-0.27,309.68,309.64,0.0,0.05,3
321.27639000,321276390,0.0,0.31,0.0,-0.27,309.68,309.7,0.0,0.06,3
321.37640700,321376407,0.0,0.31,0.0,-0.27,309.68,309.63,0.0,0.08,3
321.47668900,321476689,0.0,0.31,0.0,-0.27,309.68,309.59000000000003,0.0,0.1,3
321.57643300,321576433,0.0,0.31,0.0,-0.27,309.68,309.62,0.0,0.1,3
321.67637500,321676375,0.0,0.31,0.0,-0.27,309.68,309.54,0.0,0.1,3
321.77643400,321776434,0.0,0.31,0.0,-0.27,309.68,309.5,0.0,0.12,3
321.87639700,321876397,0.0,0.31,0.0,-0.27,309.68,309.51,0.0,0.13,3
321.97648400,321976484,0.0,0.31,0.0,-0.27,309.68,309.44,0.0,0.13,3
322.07638800,322076388,0.0,0.31,0.0,-0.27,309.68,309.39,0.0,0.14,3
322.17648300,322176483,0.0,0.31,0.0,-0.27,309.68,309.39,0.0,0.13,3
322.27638000,322276380,0.0,0.31,0.0,-0.27,309.68,309.33,0.0,0.14,3
322.37636100,322376361,0.0,0.31,0.0,-0.27,309.68,309.28000000000003,0.0,0.13,3
322.47644300,322476443,0.0,0.32,0.0,-0.27,309.68,309.27,0.0,0.13,3
322.57646300,322576463,0.0,0.32,0.0,-0.27,309.68,309.22,0.0,0.14,3
322.67642300,322676423,0.0,0.32,0.0,-0.27,309.68,309.18,0.0,0.16,3
322.77637600,322776376,0.0,0.32,0.0,-0.27,309.68,309.16,0.0,0.16,3
322.87647300,322876473,0.0,0.32,0.0,-0.27,309.68,309.1,0.0,0.15,3
322.97637700,322976377,0.0,0.32,0.0,-0.27,309.68,309.05,0.0,0.15,3
323.07657900,323076579,0.0,0.32,0.0,-0.27,309.68,309.03000000000003,0.0,0.12,3
323.17635300,323176353,0.0,0.32,0.0,-0.27,309.68,308.98,0.0,0.14,3
323.27641000,323276410,0.0,0.32,0.0,-0.28,309.68,308.93,0.0,0.13,3
323.37641700,323376417,0.0,0.32,0.0,-0.27,309.68,308.91,0.0,0.13,3
323.47641400,323476414,0.0,0.32,0.0,-0.27,308.85,308.86,0.0,0.15,3
323.57648300,323576483,0.0,0.32,0.0,-0.27,308.82,308.83,0.0,0.14,3
323.67641200,323676412,0.0,0.32,0.0,-0.27,308.8,308.81,0.0,0.12,3
323.77647900,323776479,0.0,0.32,0.0,-0.27,308.74,308.75,0.0,0.1,3
323.87645300,323876453,0.0,0.32,0.0,-0.27,308.71,308.72,0.0,0.1,3
323.97647600,323976476,0.0,0.32,0.0,-0.27,308.7,308.71,0.0,0.1,3
324.07651700,324076517,0.0,0.32,0.0,-0.27,308.65000000000003,308.66,0.0,0.09,3
324.17641000,324176410,0.0,0.32,0.0,-0.27,308.64,308.65000000000003,0.0,0.09,3
324.27635300,324276353,0.0,0.32,0.0,-0.27,308.63,308.64,0.0,0.09,3
324.37633700,324376337,0.0,0.32,0.0,-0.27,308.59000000000003,308.6,0.0,0.07,3
324.47647200,324476472,0.0,0.32,0.0,-0.27,308.57,308.58,0.0,0.06,3
324.57641900,324576419,0.0,0.32,0.0,-0.28,308.57,308.58,0.0,0.06,3
324.67642600,324676426,0.0,0.32,0.0,-0.28,308.53000000000003,308.54,0.0,0.05,3
324.77633700,324776337,0.0,0.32,0.0,-0.28,308.52,308.53000000000003,0.0,0.04,3
324.87654000,324876540,0.0,0.32,0.0,-0.28,308.52,308.53000000000003,0.0,0.05,3
324.97642000,324976420,0.0,0.32,0.0,-0.28,308.48,308.49,0.0,0.05,3
325.07638100,325076381,0.0,0.32,0.0,-0.28,308.47,308.48,0.0,0.06,3
325.17650500,325176505,0.0,0.32,0.0,-0.28,308.46,308.47,0.0,0.05,3
325.27639400,325276394,0.0,0.32,0.0,-0.28,308.46,308.43,0.0,0.08,3
325.37645600,325376456,0.0,0.32,0.0,-0.28,308.46,308.41,0.0,0.08,3
325.47639700,325476397,0.0,0.32,0.0,-0.28,308.46,308.40000000000003,0.0,0.1,3
325.57644900,325576449,0.0,0.32,0.0,-0.28,308.46,308.35,0.0,0.09,3
325.67632700,325676327,0.0,0.32,0.0,-0.28,308.46,308.32,0.0,0.1,3
325.77646700,325776467,0.0,0.32,0.0,-0.28,308.46,308.29,0.0,0.1,3
325.87635700,325876357,0.0,0.32,0.0,-0.28,308.46,308.24,0.0,0.09,3
325.97636400,325976364,0.0,0.32,0.0,-0.28,308.46,308.21,0.0,0.07,3
326.07643300,326076433,0.0,0.32,0.0,-0.28,308.46,308.19,0.0,0.06,3
326.17647200,326176472,0.0,0.32,0.0,-0.28,308.46,308.16,0.0,0.07,3
326.27642000,326276420,0.0,0.32,0.0,-0.28,308.46,308.14,0.0,0.07,3
326.37641900,326376419,0.0,0.32,0.0,-0.28,308.46,308.13,0.0,0.09,3
326.47642200,326476422,0.0,0.32,0.0,-0.28,308.46,308.1,0.0,0.09,3
326.57644700,326576447,0.0,0.32,0.0,-0.28,308.46,308.07,0.0,0.09,3
326.67648300,326676483,0.0,0.32,0.0,-0.28,308.46,308.04,0.0,0.1,3
326.77644700,326776447,0.0,0.32,0.0,-0.28,308.46,308.0,0.0,0.1,3
326.87641500,326876415,0.0,0.32,0.0,-0.28,308.46,307.97,0.0,0.11,3
326.97642700,326976427,0.0,0.32,0.0,-0.28,308.46,307.93,0.0,0.12,3
327.07637100,327076371,0.0,0.32,0.0,-0.28,307.87,307.88,0.0,0.14,3
327.17641800,327176418,0.0,0.32,0.0,-0.28,307.81,307.82,0.0,0.14,3
327.27644600,327276446,0.0,0.32,0.0,-0.28,307.79,307.8,0.0,0.12,3
327.37643900,327376439,0.0,0.32,0.0,-0.28,307.73,307.74,0.0,0.1,3
327.47633400,327476334,0.0,0.32,0.0,-0.28,307.69,307.7,0.0,0.09,3
327.57650500,327576505,0.0,0.32,0.0,-0.28,307.69,307.7,0.0,0.09,3
327.67641300,327676413,0.0,0.32,0.0,-0.28,307.67,307.68,0.0,0.09,3
327.77636300,327776363,0.0,0.32,0.0,-0.28,307.65000000000003,307.66,0.0,0.09,3
327.87639100,327876391,0.0,0.32,0.0,-0.28,307.66,307.67,0.0,0.08,3
327.97636600,327976366,0.0,0.32,0.0,-0.28,307.65000000000003,307.66,0.0,0.09,3
328.07644000,328076440,0.0,0.32,0.0,-0.28,307.63,307.64,0.0,0.08,3
328.17641200,328176412,0.0,0.32,0.0,-0.28,307.64,307.65000000000003,0.0,0.06,3
328.27649400,328276494,0.0,0.32,0.0,-0.28,307.62,307.63,0.0,0.05,3
328.37643900,328376439,0.0,0.32,0.0,-0.28,307.59000000000003,307.6,0.0,0.05,3
328.47647900,328476479,0.0,0.32,0.0,-0.28,307.58,307.59000000000003,0.0,0.05,3
328.57646700,328576467,0.0,0.32,0.0,-0.28,307.56,307.57,0.0,0.04,3
328.67641100,328676411,0.0,0.32,0.0,-0.28,307.53000000000003,307.54,0.0,0.06,3
328.77643300,328776433,0.0,0.32,0.0,-0.28,307.53000000000003,307.54,0.0,0.06,3
328.87640200,328876402,0.0,0.32,0.0,-0.28,307.5,307.51,0.0,0.06,3
328.97634500,328976345,0.0,0.32,0.0,-0.28,307.46,307.47,0.0,0.05,3
329.07635200,329076352,0.0,0.32,0.0,-0.28,307.44,307.45,0.0,0.04,3
329.17639400,329176394,0.0,0.32,0.0,-0.28,307.42,307.43,0.0,0.06,3
329.27638200,329276382,0.0,0.32,0.0,-0.28,307.39,307.40000000000003,0.0,0.05,3
329.37659600,329376596,0.0,0.32,0.0,-0.28,307.40000000000003,307.41,0.0,0.04,3
329.47637600,329476376,0.0,0.32,0.0,-0.28,307.40000000000003,307.41,0.0,0.03,3
329.57641500,329576415,0.0,0.32,0.0,-0.28,307.38,307.39,0.0,0.03,3
329.67642900,329676429,0.0,0.31,0.0,-0.28,307.38,307.39,0.0,0.03,3
329.77641500,329776415,0.0,0.31,0.0,-0.28,307.37,307.38,0.0,0.03,3
329.87642600,329876426,0.0,0.31,0.0,-0.28,307.35,307.36,0.0,0.04,3
329.97639300,329976393,0.0,0.31,0.0,-0.28,307.34000000000003,307.35,0.0,0.04,3
330.07644300,330076443,0.0,0.31,0.0,-0.28,307.32,307.33,0.0,0.04,3
330.17637800,330176378,0.0,0.31,0.0,-0.28,307.28000000000003,307.29,0.0,0.04,3
330.27647600,330276476,0.0,0.32,0.0,-0.28,307.27,307.28000000000003,0.0,0.04,3
330.37647600,330376476,0.0,0.32,0.0,-0.28,307.26,307.27,0.0,0.04,3
330.47633200,330476332,0.0,0.32,0.0,-0.28,307.23,307.24,0.0,0.03,3
330.57636500,330576365,0.0,0.32,0.0,-0.28,307.23,307.24,0.0,0.03,3
330.67631800,330676318,0.0,0.32,0.0,-0.28,307.22,307.23,0.0,0.04,3
330.77642200,330776422,0.0,0.32,0.0,-0.28,307.2,307.21,0.0,0.03,3
330.87642900,330876429,0.0,0.32,0.0,-0.28,307.19,307.2,0.0,0.03,3
330.97639300,330976393,0.0,0.32,0.0,-0.28,307.19,307.19,0.0,0.02,3
331.07639600,331076396,0.0,0.32,0.0,-0.28,307.16,307.17,0.0,0.03,3
331.17645700,331176457,0.0,0.32,0.0,-0.28,307.15000000000003,307.16,0.0,0.05,3
331.27646400,331276464,0.0,0.32,0.0,-0.29,307.14,307.15000000000003,0.0,0.06,3
331.37637600,331376376,0.0,0.32,0.0,-0.29,307.13,307.14,0.0,0.05,3
331.47650900,331476509,0.0,0.32,0.0,-0.29,307.15000000000003,307.16,0.0,0.06,3
331.57674200,331576742,0.0,0.32,0.0,-0.29,307.15000000000003,307.16,0.0,0.05,3
331.67639200,331676392,0.0,0.32,0.0,-0.28,307.14,307.15000000000003,0.0,0.05,3
331.77636500,331776365,0.0,0.32,0.0,-0.28,307.16,307.17,0.0,0.06,3
331.87642400,331876424,0.0,0.32,0.0,-0.28,307.16,307.17,0.0,0.06,3
331.97642200,331976422,0.0,0.32,0.0,-0.28,307.16,307.17,0.0,0.06,3
332.07645700,332076457,0.0,0.32,0.0,-0.28,307.18,307.19,0.0,0.07,3
332.17641000,332176410,0.0,0.32,0.0,-0.28,307.18,307.19,0.0,0.07,3
332.27638500,332276385,0.0,0.32,0.0,-0.28,307.18,307.19,0.0,0.06,3
332.37640600,332376406,0.0,0.32,0.0,-0.28,307.2,307.21,0.0,0.07,3
332.47645200,332476452,0.0,0.32,0.0,-0.28,307.2,307.21,0.0,0.06,3
332.57682200,332576822,0.0,0.32,0.0,-0.28,307.19,307.2,0.0,0.05,3
332.67637500,332676375,0.0,0.32,0.0,-0.28,307.21,307.22,0.0,0.05,3
332.77643200,332776432,0.0,0.32,0.0,-0.27,307.21,307.22,0.0,0.05,3
332.87638500,332876385,0.0,0.32,0.0,-0.27,307.19,307.2,0.0,0.07,3
332.97648600,332976486,0.0,0.32,0.0,-0.27,307.21,307.22,0.0,0.07,3
333.07640800,333076408,0.0,0.32,0.0,-0.27,307.22,307.23,0.0,0.06,3
333.17636800,333176368,0.0,0.32,0.0,-0.27,307.21,307.22,0.0,0.05,3
333.27646600,333276466,0.0,0.32,0.0,-0.27,307.23,307.24,0.0,0.04,3
333.37641300,333376413,0.0,0.32,0.0,-0.27,307.23,307.24,0.0,0.05,3
333.47642900,333476429,0.0,0.32,0.0,-0.26,307.22,307.23,0.0,0.05,3
333.57682900,333576829,0.0,0.32,0.0,-0.26,307.23,307.24,0.0,0.04,3
333.67635600,333676356,0.0,0.31,0.0,-0.26,307.23,307.24,0.0,0.05,3
333.77627900,333776279,0.0,0.31,0.0,-0.26,307.22,307.23,0.0,0.04,3
333.87645100,333876451,0.0,0.31,0.0,-0.26,307.23,307.24,0.0,0.05,3
333.97643000,333976430,0.0,0.31,0.0,-0.26,307.23,307.24,0.0,0.06,3
334.07637100,334076371,0.0,0.31,0.0,-0.26,307.22,307.23,0.0,0.05,3
334.17648900,334176489,0.0,0.31,0.0,-0.26,307.24,307.25,0.0,0.04,3
334.27641700,334276417,0.0,0.31,0.0,-0.26,307.24,307.25,0.0,0.04,3
334.37642300,334376423,0.0,0.31,0.0,-0.26,307.23,307.24,0.0,0.04,3
334.47640400,334476404,0.0,0.31,0.0,-0.26,307.24,307.25,0.0,0.05,3
334.57690700,334576907,0.0,0.31,0.0,-0.26,307.24,307.25,0.0,0.06,3
334.67640800,334676408,0.0,0.31,0.0,-0.26,307.24,307.25,0.0,0.05,3
334.77647600,334776476,0.0,0.31,0.0,-0.26,307.26,307.27,0.0,0.05,3
334.87638100,334876381,0.0,0.31,0.0,-0.26,307.26,307.27,0.0,0.04,3
334.97641900,334976419,0.0,0.31,0.0,-0.26,307.25,307.26,0.0,0.05,3
335.07642300,335076423,0.0,0.31,0.0,-0.26,307.26,307.27,0.0,0.06,3
335.17643100,335176431,0.0,0.31,0.0,-0.26,307.26,307.27,0.0,0.07,3
335.27634700,335276347,0.0,0.31,0.0,-0.26,307.26,307.27,0.0,0.06,3
335.37638200,335376382,0.0,0.31,0.0,-0.26,307.27,307.28000000000003,0.0,0.08,3
335.47650300,335476503,0.0,0.31,0.0,-0.26,307.28000000000003,307.29,0.0,0.07,3
335.57678500,335576785,0.0,0.31,0.0,-0.26,307.29,307.3,0.0,0.06,3
335.67655000,335676550,0.0,0.31,0.0,-0.26,307.3,307.31,0.0,0.05,3
