timestamp,TimeUS,C,Q1,Q2,Q3,Q4
110.87552800,110875528,1,0.8946043848991394,0.001373800914734602,-0.004156989976763725,-0.4468376040458679
110.97547500,110975475,1,0.8946049809455872,0.0013553634053096175,-0.004174384754151106,-0.44683632254600525
111.07552000,111075520,1,0.8945947885513306,0.0013455944135785103,-0.004236749839037657,-0.4468560814857483
111.17549500,111175495,1,0.8946025967597961,0.001368029392324388,-0.004220676142722368,-0.4468406140804291
111.27550500,111275505,1,0.8946098685264587,0.0013745620381087065,-0.004228516016155481,-0.44682586193084717
111.37545500,111375455,1,0.8946216106414795,0.001378981745801866,-0.004225900862365961,-0.44680240750312805
111.47548000,111475480,1,0.8946303725242615,0.0013826927170157433,-0.00420234352350235,-0.4467851221561432
111.57549700,111575497,1,0.8946378827095032,0.0013948851265013218,-0.004191513638943434,-0.4467700719833374
111.67547100,111675471,1,0.8946396708488464,0.0013763061724603176,-0.004182616714388132,-0.44676673412323
111.77548100,111775481,1,0.8946510553359985,0.0013483342481777072,-0.004180861636996269,-0.44674405455589294
111.87548400,111875484,1,0.8946561217308044,0.001336473971605301,-0.004175473004579544,-0.44673389196395874
111.97548200,111975482,1,0.8946661353111267,0.0013066247338429093,-0.004197175148874521,-0.44671371579170227
112.07545400,112075454,1,0.8946877717971802,0.001298108254559338,-0.0041953143663704395,-0.4466705024242401
112.17549100,112175491,1,0.8947202563285828,0.0012858295813202858,-0.0042129335924983025,-0.44660523533821106
112.27553400,112275534,1,0.8947290778160095,0.001275979564525187,-0.00417822040617466,-0.4465879797935486
112.37552300,112375523,1,0.8947533965110779,0.0012701083905994892,-0.004184768535196781,-0.4465392231941223
112.47552200,112475522,1,0.8947821259498596,0.0012316186912357807,-0.00417407276108861,-0.4464818239212036
112.57555700,112575557,1,0.894794762134552,0.001232800423167646,-0.004159944597631693,-0.446456640958786
112.67551900,112675519,1,0.8948034048080444,0.0012163068167865276,-0.004183834884315729,-0.44643911719322205
112.77550600,112775506,1,0.8948139548301697,0.0011906297877430916,-0.004187404178082943,-0.44641801714897156
112.87552000,112875520,1,0.8948296308517456,0.0011649980442598462,-0.004210013896226883,-0.446386456489563
112.97545600,112975456,1,0.894829511642456,0.0011728346580639482,-0.004199168644845486,-0.4463867247104645
113.07548500,113075485,1,0.8948525786399841,0.0011630338849499822,-0.004164432641118765,-0.4463408887386322
113.17548100,113175481,1,0.8948628306388855,0.0011381721124053001,-0.004152656067162752,-0.4463205337524414
113.27548200,113275482,1,0.8948688507080078,0.0010934558231383562,-0.004167553037405014,-0.44630834460258484
113.37548600,113375486,1,0.8948671817779541,0.0010943127563223243,-0.004169088322669268,-0.44631168246269226
113.47548100,113475481,1,0.8948501944541931,0.0010786291677504778,-0.004153106361627579,-0.4463459849357605
113.57548700,113575487,1,0.8948268294334412,0.0011126763420179486,-0.004146866500377655,-0.44639283418655396
113.67545800,113675458,1,0.8948196768760681,0.0011085537262260914,-0.004159918986260891,-0.4464069604873657
113.77548300,113775483,1,0.8948208093643188,0.0011206184281036258,-0.004205383826047182,-0.4464043080806732
113.87553200,113875532,1,0.894828736782074,0.0011284628417342901,-0.004180865362286568,-0.4463886320590973
113.97553200,113975532,1,0.8948402404785156,0.0011168644996359944,-0.004162902943789959,-0.44636571407318115
114.07549400,114075494,1,0.8948448896408081,0.001090647536329925,-0.004187951795756817,-0.44635626673698425
114.17551900,114175519,1,0.8948295712471008,0.0011040997924283147,-0.0041937814094126225,-0.4463868737220764
114.27550600,114275506,1,0.8948572278022766,0.0011000661179423332,-0.004184930119663477,-0.4463315010070801
114.37548300,114375483,1,0.8948597311973572,0.0011158223496749997,-0.004202682990580797,-0.446326345205307
114.47552300,114475523,1,0.8948750495910645,0.0011111425701528788,-0.004214364569634199,-0.44629544019699097
114.57548200,114575482,1,0.8948841691017151,0.0010946851689368486,-0.004224263597279787,-0.4462771713733673
114.67547200,114675472,1,0.8948882222175598,0.001095952233299613,-0.004226522520184517,-0.4462689757347107
114.77549100,114775491,1,0.8948972225189209,0.0010889422846958041,-0.004207475110888481,-0.44625115394592285
114.87548000,114875480,1,0.8948947787284851,0.0010831907857209444,-0.004213791806250811,-0.44625598192214966
114.97548100,114975481,1,0.8948888778686523,0.0010900108609348536,-0.0041650645434856415,-0.4462682604789734
115.07548100,115075481,1,0.8948866128921509,0.0010739160934463143,-0.004193739499896765,-0.4462725818157196
115.17549600,115175496,1,0.8948863744735718,0.0010557550704106688,-0.004225970711559057,-0.44627276062965393
115.27547700,115275477,1,0.8949013948440552,0.0010611795587465167,-0.004209603648632765,-0.4462427496910095
115.37550400,115375504,1,0.8949236869812012,0.0010400774190202355,-0.004180846270173788,-0.446198433637619
115.47552400,115475524,1,0.8949394226074219,0.0010210140608251095,-0.004169227089732885,-0.4461669623851776
115.57553800,115575538,1,0.8949535489082336,0.001015869085676968,-0.004194819368422031,-0.446138471364975
115.67549400,115675494,1,0.8949553370475769,0.0009926615748554468,-0.0041921199299395084,-0.446135014295578
115.77552400,115775524,1,0.8949462175369263,0.0009609435219317675,-0.004204156342893839,-0.4461532533168793
115.87549700,115875497,1,0.8949506282806396,0.0009708284633234143,-0.00418623723089695,-0.4461444616317749
115.97550600,115975506,1,0.8949694037437439,0.000992315704934299,-0.00420114491134882,-0.4461067020893097
116.07546400,116075464,1,0.8949849009513855,0.001000101794488728,-0.0042207674123346806,-0.44607529044151306
116.17546300,116175463,1,0.8950124382972717,0.0009721743990667164,-0.0041994331404566765,-0.44602030515670776
116.27545700,116275457,1,0.8950273394584656,0.00098069675732404,-0.004180400166660547,-0.44599056243896484
116.37547000,116375470,1,0.8950522541999817,0.00100039248354733,-0.0041932337917387486,-0.44594043493270874
116.47548500,116475485,1,0.8950665593147278,0.0010074360761791468,-0.004193737171590328,-0.445911705493927
116.57548900,116575489,1,0.8950702548027039,0.0009874398820102215,-0.004221283830702305,-0.44590407609939575
116.67548300,116675483,1,0.8950763940811157,0.000987998559139669,-0.004208364523947239,-0.4458918571472168
116.77545700,116775457,1,0.895082414150238,0.0010116931516677141,-0.0042079174891114235,-0.44587966799736023
116.87550300,116875503,1,0.8950895071029663,0.0009911813540384173,-0.00424330634996295,-0.4458652436733246
116.97554400,116975544,1,0.8950769305229187,0.0009687613346613944,-0.004246874246746302,-0.4458904564380646
117.07553100,117075531,1,0.8950654864311218,0.000960147415753454,-0.00425819493830204,-0.4459134042263031
117.17548700,117175487,1,0.8950682282447815,0.0009751804172992706,-0.004251684527844191,-0.44590792059898376
117.27551300,117275513,1,0.8950721621513367,0.0009538006852380931,-0.004296752158552408,-0.4458995759487152
117.37549100,117375491,1,0.8950656652450562,0.0009200976346619427,-0.00430333474650979,-0.4459126591682434
117.47548600,117475486,1,0.8950759172439575,0.0008974556694738567,-0.0042924899607896805,-0.44589224457740784
117.57550300,117575503,1,0.8950786590576172,0.000874919060152024,-0.004288996569812298,-0.4458867609500885
117.67550600,117675506,1,0.8950719237327576,0.0008833240135572851,-0.0042860377579927444,-0.4459002614021301
117.77548800,117775488,1,0.8950627446174622,0.0008705289801582694,-0.004281916655600071,-0.4459187686443329
117.87548000,117875480,1,0.8950667381286621,0.0008694532443769276,-0.0042897919192910194,-0.4459107220172882
117.97549500,117975495,1,0.8950809240341187,0.0008532459614798427,-0.004291120450943708,-0.44588226079940796
118.07548800,118075488,1,0.8950788974761963,0.000846428272780031,-0.004282099194824696,-0.44588640332221985
118.17548500,118175485,1,0.8950669169425964,0.0008616301929578185,-0.004307541996240616,-0.44591018557548523
118.27546800,118275468,1,0.8950650691986084,0.0008836550405249,-0.004295709077268839,-0.44591397047042847
118.37546500,118375465,1,0.8950641751289368,0.0008892855257727206,-0.004286869894713163,-0.44591590762138367
118.47548800,118475488,1,0.8950678706169128,0.0008734147413633764,-0.004278199747204781,-0.4459085166454315
118.57549600,118575496,1,0.8950664401054382,0.0008939600083976984,-0.004241463728249073,-0.4459116756916046
118.67552900,118675529,1,0.8950817584991455,0.0008927751914598048,-0.004221323411911726,-0.4458812475204468
118.77547800,118775478,1,0.8950843811035156,0.0008785849204286933,-0.004237286280840635,-0.4458758234977722
118.87552300,118875523,1,0.8950951099395752,0.0008621247834526002,-0.004234702326357365,-0.4458542764186859
118.97553300,118975533,1,0.8950953483581543,0.0008417170029133558,-0.004194811452180147,-0.4458542764186859
119.07551600,119075516,1,0.895095944404602,0.0008334822487086058,-0.004201782401651144,-0.44585299491882324
119.17548400,119175484,1,0.8951151967048645,0.00083125289529562,-0.004223041236400604,-0.4458141326904297
119.27548500,119275485,1,0.8951210975646973,0.0008513751090504229,-0.004218967631459236,-0.44580233097076416
119.37548000,119375480,1,0.8951360583305359,0.0008616483537480235,-0.004235763102769852,-0.44577205181121826
119.47548100,119475481,1,0.895148515701294,0.0008925462025217712,-0.004214741755276918,-0.44574716687202454
119.57548900,119575489,1,0.8951641917228699,0.000880543899256736,-0.0042055873200297356,-0.4457157850265503
119.67548100,119675481,1,0.8951578736305237,0.0008471916080452502,-0.004209419712424278,-0.4457285404205322
119.77548200,119775482,1,0.8951407074928284,0.0008708229870535433,-0.004213998094201088,-0.4457629323005676
119.87549800,119875498,1,0.8951395153999329,0.0008804979152046144,-0.0042032524943351746,-0.4457653760910034
119.97550900,119975509,1,0.8951399326324463,0.0009171906858682632,-0.00421294616535306,-0.4457644522190094
120.07550500,120075505,1,0.8951516151428223,0.0009106576908379793,-0.004191966727375984,-0.4457411468029022
120.17552000,120175520,1,0.8951525092124939,0.0009109063539654016,-0.004179815296083689,-0.4457394480705261
120.27549800,120275498,1,0.8951541185379028,0.0009012072114273906,-0.0041818758472800255,-0.44573622941970825
120.37551000,120375510,1,0.8951520323753357,0.0008912052144296467,-0.004198906011879444,-0.445740282535553
120.47552900,120475529,1,0.8951655626296997,0.0009022976737469435,-0.004207829013466835,-0.44571301341056824
120.57551100,120575511,1,0.8951722979545593,0.0008982013096101582,-0.0041897352784872055,-0.44569963216781616
120.67548500,120675485,1,0.8951725959777832,0.0009368318133056164,-0.004217417445033789,-0.4456987679004669
120.77547000,120775470,1,0.8951593637466431,0.0009383211145177484,-0.004214895889163017,-0.4457252621650696
120.87548200,120875482,1,0.8951606750488281,0.0009325008722953498,-0.0042166453786194324,-0.44572263956069946
120.97545700,120975457,1,0.8951568007469177,0.0008992468356154859,-0.004229152575135231,-0.4457304775714874
121.07548200,121075482,1,0.8951523900032043,0.0009025975596159697,-0.004238591063767672,-0.44573915004730225
121.17548200,121175482,1,0.8951454758644104,0.0009168757824227214,-0.004236440174281597,-0.4457530975341797
121.27548100,121275481,1,0.8951420783996582,0.0009337779483757913,-0.00423531886190176,-0.4457598626613617
121.37548700,121375487,1,0.8951291441917419,0.0009365748846903443,-0.004220837261527777,-0.4457859396934509
121.47547800,121475478,1,0.8951209187507629,0.0009493187535554171,-0.004239494912326336,-0.445802241563797
121.57552200,121575522,1,0.8951036334037781,0.0009824131848290563,-0.004233583342283964,-0.44583696126937866
121.67552700,121675527,1,0.8951034545898438,0.000988441170193255,-0.004231282975524664,-0.4458372890949249
121.77552300,121775523,1,0.895111620426178,0.0010177161311730742,-0.004260916728526354,-0.44582054018974304
121.87547900,121875479,1,0.8950965404510498,0.0010486026294529438,-0.004274506121873856,-0.4458506107330322
121.97549100,121975491,1,0.895090639591217,0.0010500146308913827,-0.004278222564607859,-0.44586247205734253
122.07552100,122075521,1,0.8950976133346558,0.0010326617630198598,-0.004301344510167837,-0.44584834575653076
122.17552200,122175522,1,0.895097017288208,0.0010578122455626726,-0.004298607353121042,-0.44584938883781433
122.27549000,122275490,1,0.895093560218811,0.0010819026501849294,-0.0042735254392027855,-0.44585660099983215
122.37547900,122375479,1,0.8951117992401123,0.0010990762384608388,-0.0042653013952076435,-0.4458199441432953
122.47548200,122475482,1,0.8951219320297241,0.0010827737860381603,-0.00429556705057621,-0.4457993507385254
122.57548000,122575480,1,0.8951292037963867,0.0010590387973934412,-0.004320703446865082,-0.4457845687866211
122.67548500,122675485,1,0.8951112031936646,0.0010498997289687395,-0.0042884135618805885,-0.4458211362361908
122.77545800,122775458,1,0.8951050043106079,0.0010476011084392667,-0.004325730726122856,-0.44583314657211304
122.87548100,122875481,1,0.8951142430305481,0.0010639647953212261,-0.00431709224358201,-0.44581466913223267
122.97545400,122975454,1,0.8951210379600525,0.0010404211934655905,-0.004298054147511721,-0.4458012580871582
123.07548800,123075488,1,0.8951100707054138,0.0010717896511778235,-0.004267384298145771,-0.4458235800266266
123.17551700,123175517,1,0.8951261043548584,0.0010759227443486452,-0.00426454609259963,-0.4457913339138031
123.27553300,123275533,1,0.8951359987258911,0.0011087112361565232,-0.004239213652908802,-0.44577160477638245
123.37552800,123375528,1,0.8951383233070374,0.0010876025771722198,-0.0042382776737213135,-0.4457670748233795
123.47547900,123475479,1,0.8951371908187866,0.0010929462732747197,-0.004197738133370876,-0.44576963782310486
123.57552000,123575520,1,0.8951414823532104,0.0011185822077095509,-0.004206154495477676,-0.4457608759403229
123.67549700,123675497,1,0.8951469659805298,0.0010970898438245058,-0.00421015452593565,-0.4457499086856842
123.77550600,123775506,1,0.895150363445282,0.0011129174381494522,-0.0041840337216854095,-0.4457433223724365
123.87546800,123875468,1,0.8951743245124817,0.0011280147591605783,-0.0041483198292553425,-0.4456954598426819
123.97547300,123975473,1,0.8951797485351562,0.0011333886068314314,-0.004129980690777302,-0.4456847012042999
124.07548100,124075481,1,0.8951641321182251,0.0011432655155658722,-0.0041193887591362,-0.44571614265441895
124.17547300,124175473,1,0.895165205001831,0.0011439294321462512,-0.004112664610147476,-0.4457141160964966
124.27548100,124275481,1,0.8951703906059265,0.0011681215837597847,-0.0040484326891601086,-0.4457041919231415
124.37548100,124375481,1,0.8951765894889832,0.0011903798440471292,-0.00404257420450449,-0.44569170475006104
124.47548700,124475487,1,0.8951760530471802,0.00115749123506248,-0.0040506343357264996,-0.445692777633667
124.57546200,124575462,1,0.895199716091156,0.0011412493186071515,-0.004028631839901209,-0.4456454813480377
124.67548100,124675481,1,0.8951994776725769,0.0011167238699272275,-0.004014287143945694,-0.44564616680145264
124.77551800,124775518,1,0.8952112793922424,0.0010996973142027855,-0.004016518592834473,-0.44562244415283203
124.87554700,124875547,1,0.8952232599258423,0.0011269637616351247,-0.003997828811407089,-0.4455985724925995
124.97552700,124975527,1,0.8952110409736633,0.0011208512587472796,-0.003973737359046936,-0.4456233084201813
125.07551400,125075514,1,0.8952024579048157,0.0010954913450405002,-0.004017620347440243,-0.4456402361392975
126.07549900,126075499,1,0.895228922367096,0.001025536796078086,-0.0038448357954621315,-0.4455887973308563
126.17549600,126175496,1,0.8952362537384033,0.0010275178356096148,-0.0038568838499486446,-0.4455738961696625
126.27550600,126275506,1,0.8952555060386658,0.0010200422257184982,-0.003843332640826702,-0.44553542137145996
126.37553500,126375535,1,0.8952606916427612,0.0010087749687954783,-0.0038791680708527565,-0.4455246031284332
126.47553100,126475531,1,0.8952661752700806,0.0010271172504872084,-0.0038790651597082615,-0.44551363587379456
126.57547300,126575473,1,0.8952693343162537,0.0010491596767678857,-0.00387765490449965,-0.4455072581768036
126.67553500,126675535,1,0.8952620029449463,0.0010476666502654552,-0.003891236847266555,-0.4455218017101288
126.77551300,126775513,1,0.8952760696411133,0.0010718381963670254,-0.003889317624270916,-0.44549351930618286
126.87550700,126875507,1,0.8952768445014954,0.0010799334850162268,-0.003923469688743353,-0.44549161195755005
126.97546900,126975469,1,0.895270586013794,0.0010488758562132716,-0.003884399775415659,-0.44550463557243347
127.07548000,127075480,1,0.8952941298484802,0.001035406719893217,-0.003886569757014513,-0.4454573094844818
127.17548200,127175482,1,0.8952969312667847,0.0010304342722520232,-0.0038934978656470776,-0.4454517066478729
127.27549200,127275492,1,0.8952898979187012,0.001021929201669991,-0.0038724157493561506,-0.44546598196029663
127.37548200,127375482,1,0.8952847123146057,0.0010511227883398533,-0.003814590396359563,-0.44547680020332336
127.47550100,127475501,1,0.8952872157096863,0.001073057996109128,-0.003759876126423478,-0.44547224044799805
127.57548700,127575487,1,0.8952820897102356,0.0010594181949272752,-0.0037505708169192076,-0.44548264145851135
127.67549300,127675493,1,0.8952916860580444,0.0010611494071781635,-0.0037523601204156876,-0.44546329975128174
127.77551800,127775518,1,0.8953129053115845,0.0010428160894662142,-0.0037380352150648832,-0.44542086124420166
127.87553500,127875535,1,0.895317018032074,0.0010505520040169358,-0.0037158203776925802,-0.4454127848148346
127.97552700,127975527,1,0.8953256607055664,0.0010490575805306435,-0.0037050778046250343,-0.44539549946784973
128.07549100,128075491,1,0.8953176736831665,0.0010220366530120373,-0.003717898391187191,-0.44541147351264954
128.17551200,128175512,1,0.8953217267990112,0.00104137125890702,-0.0037410908844321966,-0.44540315866470337
128.27552400,128275524,1,0.8953475952148438,0.0010460281046107411,-0.0037512383423745632,-0.4453509449958801
128.37550600,128375506,1,0.8953534960746765,0.0010418301681056619,-0.00373438629321754,-0.44533929228782654
128.47548800,128475488,1,0.8953675031661987,0.0010581349488347769,-0.0037393993698060513,-0.4453110992908478
128.57546100,128575461,1,0.8953607082366943,0.001016108668409288,-0.0037484392523765564,-0.44532471895217896
128.67546000,128675460,1,0.8953523635864258,0.0010248894104734063,-0.0037610286381095648,-0.4453413486480713
128.77546600,128775466,1,0.8953424096107483,0.0010554911568760872,-0.0037728240713477135,-0.4453612267971039
128.87548600,128875486,1,0.8953529000282288,0.0010543353855609894,-0.003803119994699955,-0.4453398287296295
128.97546500,128975465,1,0.8953590989112854,0.0010434958385303617,-0.003808886744081974,-0.44532740116119385
129.07548600,129075486,1,0.8953708410263062,0.0010551117593422532,-0.0038242782466113567,-0.44530361890792847
129.17548500,129175485,1,0.8953770399093628,0.0010738170240074396,-0.0038284573238343,-0.44529107213020325
129.27545400,129275454,1,0.8953768610954285,0.0010779312578961253,-0.0038361893966794014,-0.44529134035110474
129.37550000,129375500,1,0.8953707814216614,0.0010691927745938301,-0.0038390210829675198,-0.4453035593032837
129.47553700,129475537,1,0.8953616619110107,0.001099185785278678,-0.0038309432566165924,-0.4453219175338745
129.57552500,129575525,1,0.8953776955604553,0.0011096439557150006,-0.003839669283479452,-0.44528961181640625
129.67546300,129675463,1,0.8954013586044312,0.0011379243806004524,-0.0038449205458164215,-0.44524186849594116
129.77552000,129775520,1,0.8954285383224487,0.001168876769952476,-0.0038419771008193493,-0.44518721103668213
129.87552900,129875529,1,0.8954498767852783,0.0011742713395506144,-0.0038410502020269632,-0.4451442360877991
129.97548400,129975484,1,0.8954687118530273,0.0011654344853013754,-0.0038610699120908976,-0.4451062083244324
130.07549800,130075498,1,0.8954801559448242,0.0011807521805167198,-0.003879300318658352,-0.44508299231529236
130.17547700,130175477,1,0.8954947590827942,0.0011939614778384566,-0.003884105710312724,-0.44505345821380615
130.27548100,130275481,1,0.8955138325691223,0.0012057076673954725,-0.003927228040993214,-0.44501474499702454
130.37548000,130375480,1,0.8955197930335999,0.0011953245848417282,-0.00392179237678647,-0.44500282406806946
130.47548500,130475485,1,0.8955355882644653,0.0012005092576146126,-0.003914545755833387,-0.44497108459472656
130.57548900,130575489,1,0.8955668210983276,0.0012279582442715764,-0.003924754913896322,-0.4449079930782318
130.67547900,130675479,1,0.8955705165863037,0.0012627847027033567,-0.003938721492886543,-0.44490039348602295
130.77545400,130775454,1,0.8955814242362976,0.0012706691632047296,-0.003931989893317223,-0.4448784291744232
130.87547100,130875471,1,0.8956060409545898,0.0013053766451776028,-0.003948383964598179,-0.44482868909835815
130.97553100,130975531,1,0.8956131339073181,0.0013349996879696846,-0.003957904409617186,-0.44481420516967773
131.07553000,131075530,1,0.8956141471862793,0.0013967632548883557,-0.0039841486141085625,-0.44481179118156433
131.17552600,131175526,1,0.8956239223480225,0.0014063603011891246,-0.003975949250161648,-0.4447920620441437
131.27547900,131275479,1,0.89564049243927,0.0014373998856171966,-0.003968890756368637,-0.44475874304771423
131.37552900,131375529,1,0.8956390023231506,0.001453344477340579,-0.003971864935010672,-0.4447616636753082
131.47548600,131475486,1,0.8956379890441895,0.0014780433848500252,-0.003981088288128376,-0.44476351141929626
131.57550400,131575504,1,0.895661473274231,0.001488374313339591,-0.003958429675549269,-0.4447163939476013
131.67545700,131675457,1,0.8956735134124756,0.0014848837163299322,-0.003939548507332802,-0.4446922242641449
131.77548200,131775482,1,0.8956943154335022,0.0014595907414332032,-0.003918390721082687,-0.44465070962905884
131.87547800,131875478,1,0.8957220315933228,0.0014836991904303432,-0.003922756761312485,-0.4445946514606476
131.97546200,131975462,1,0.8957448601722717,0.001486025983467698,-0.003954329062253237,-0.4445483982563019
132.07548000,132075480,1,0.8957778811454773,0.0014841760275885463,-0.003966221585869789,-0.44448181986808777
132.17548300,132175483,1,0.895778477191925,0.0014921413967385888,-0.003973690327256918,-0.4444804787635803
132.27548100,132275481,1,0.8957858085632324,0.0015318571822717786,-0.003981989808380604,-0.4444654881954193
132.37545400,132375454,1,0.8957812786102295,0.0015631546266376972,-0.003992308862507343,-0.4444744288921356
132.47549300,132475493,1,0.8957720398902893,0.0015949624357745051,-0.004007103852927685,-0.44449278712272644
132.57552100,132575521,1,0.8957847952842712,0.0016183413099497557,-0.003987326752394438,-0.444467157125473
132.67554300,132675543,1,0.8957805633544922,0.0016355299158021808,-0.003949945792555809,-0.44447603821754456
132.77552400,132775524,1,0.8957602381706238,0.001655951957218349,-0.003957703243941069,-0.4445168375968933
132.87551400,132875514,1,0.8957489132881165,0.0016762068262323737,-0.0039393543265759945,-0.4445396959781647
132.97549200,132975492,1,0.8957396149635315,0.0016971330624073744,-0.003929380793124437,-0.44455844163894653
133.07551100,133075511,1,0.8957504034042358,0.001743427012115717,-0.00392076326534152,-0.44453656673431396
133.17550000,133175500,1,0.8957529664039612,0.001731082913465798,-0.003931561950594187,-0.4445314407348633
133.27545700,133275457,1,0.895756721496582,0.001734995748847723,-0.0039169504307210445,-0.4445239305496216
133.37548000,133375480,1,0.8957456946372986,0.001735165249556303,-0.0039062208961695433,-0.44454628229141235
133.47548100,133475481,1,0.8957417011260986,0.001746505149640143,-0.003901420161128044,-0.44455423951148987
133.57547800,133575478,1,0.8957440853118896,0.0017544624861329794,-0.003913748078048229,-0.4445493221282959
133.67548800,133675488,1,0.8957581520080566,0.0017702948534861207,-0.003921951167285442,-0.44452089071273804
133.77547900,133775479,1,0.8957757353782654,0.0017691205721348524,-0.003938151523470879,-0.4444853663444519
133.87547700,133875477,1,0.8957895040512085,0.001720164087601006,-0.003936171066015959,-0.4444577395915985
133.97545400,133975454,1,0.8958117365837097,0.0017245394410565495,-0.003909997642040253,-0.4444131553173065
134.07548400,134075484,1,0.8958052396774292,0.0017453882610425353,-0.003923302982002497,-0.44442611932754517
134.17553100,134175531,1,0.8957861661911011,0.0017364030936732888,-0.003924451302736998,-0.4444645345211029
134.27552700,134275527,1,0.8957872986793518,0.0017661737510934472,-0.0039048963226377964,-0.4444623589515686
134.37547100,134375471,1,0.9033143520355225,0.0018592640990391374,-0.0038939863443374634,-0.4289575219154358
134.47553000,134475530,1,0.9034106135368347,0.0018576320726424456,-0.003947880584746599,-0.4287542402744293
134.57549000,134575490,1,0.90324866771698,0.0018937684362754226,-0.003937781788408756,-0.42909523844718933
134.67552300,134675523,1,0.9024286270141602,0.0019266115268692374,-0.003932771272957325,-0.4308171272277832
134.77551100,134775511,1,0.9017239212989807,0.001986459130421281,-0.00396967027336359,-0.43228963017463684
134.87547800,134875478,1,0.9012889266014099,0.0020547597669065,-0.003992514684796333,-0.43319523334503174
134.97548200,134975482,1,0.9009199738502502,0.0021177809685468674,-0.004044197965413332,-0.4339611828327179
135.07548400,135075484,1,0.9007468819618225,0.002143778372555971,-0.004073084332048893,-0.43432000279426575
135.17548400,135175484,1,0.9005363583564758,0.0022016512230038643,-0.004065034911036491,-0.4347561001777649
135.27548700,135275487,1,0.9001314043998718,0.0022172732278704643,-0.004109935835003853,-0.43559345602989197
135.37552200,135375522,1,0.8996689915657043,0.0022556185722351074,-0.004142373334616423,-0.436547189950943
135.47545700,135475457,1,0.8992946743965149,0.0022694237995892763,-0.0041845631785690784,-0.4373173415660858
135.57548700,135575487,1,0.8990206122398376,0.0023105298168957233,-0.004191906191408634,-0.43788015842437744
135.67549900,135675499,1,0.898794949054718,0.0023597488179802895,-0.004207351244986057,-0.43834277987480164
135.77553400,135775534,1,0.8986032605171204,0.0023803492076694965,-0.004262751899659634,-0.4387349486351013
135.87554100,135875541,1,0.8983573913574219,0.002403492107987404,-0.004298602696508169,-0.43923765420913696
135.97550400,135975504,1,0.8981791138648987,0.00243180594407022,-0.0043008215725421906,-0.43960195779800415
136.07551200,136075512,1,0.8981884121894836,0.0024847344029694796,-0.004337341990321875,-0.4395822286605835
136.17549100,136175491,1,0.8983477354049683,0.0024736514315009117,-0.004374592565000057,-0.43925631046295166
136.27551000,136275510,1,0.8986296057701111,0.002499064663425088,-0.0044246637262403965,-0.4386787414550781
136.37550300,136375503,1,0.8989050984382629,0.0025382242165505886,-0.004442020785063505,-0.4381135404109955
136.47549000,136475490,1,0.8991561532020569,0.002580891363322735,-0.004486600868403912,-0.4375973343849182
136.57549000,136575490,1,0.8993262052536011,0.0025789975188672543,-0.0045083449222147465,-0.4372475743293762
136.67548600,136675486,1,0.8993500471115112,0.0026313697453588247,-0.004547736141830683,-0.43719780445098877
136.77549500,136775495,1,0.899256706237793,0.0026786650996655226,-0.004585057031363249,-0.4373890161514282
136.87548900,136875489,1,0.8991462588310242,0.0026752077974379063,-0.004620404448360205,-0.43761566281318665
136.97547800,136975478,1,0.8990762233734131,0.002716142451390624,-0.004664961248636246,-0.43775880336761475
137.07549500,137075495,1,0.8989068865776062,0.0027555194683372974,-0.004724965430796146,-0.4381055235862732
137.17552900,137175529,1,0.8986928462982178,0.0027990650851279497,-0.004726430866867304,-0.4385441839694977
137.27551400,137275514,1,0.8986795544624329,0.0028542871586978436,-0.0047813039273023605,-0.43857041001319885
137.37553000,137375530,1,0.8982834815979004,0.0029257850255817175,-0.004796443972736597,-0.4393805265426636
137.47547400,137475474,1,0.897836446762085,0.0029800476040691137,-0.004843340255320072,-0.4402923583984375
137.57553800,137575538,1,0.8976573944091797,0.0030331125017255545,-0.004894325975328684,-0.4406563937664032
137.67552100,137675521,1,0.8971224427223206,0.003064291551709175,-0.004961949773132801,-0.4417434632778168
137.77551000,137775510,1,0.8966028094291687,0.0031089477706700563,-0.0050313714891672134,-0.44279614090919495
137.87550200,137875502,1,0.8964725732803345,0.0031552535947412252,-0.005073168780654669,-0.44305896759033203
137.97551500,137975515,1,0.896121084690094,0.00322597473859787,-0.005133031867444515,-0.4437682032585144
138.07548100,138075481,1,0.8957186341285706,0.0033073872327804565,-0.005172944627702236,-0.44457894563674927
138.17548900,138175489,1,0.8956459760665894,0.0033869785256683826,-0.005222466308623552,-0.4447241425514221
138.27548600,138275486,1,0.8953282237052917,0.0034539273474365473,-0.005272979382425547,-0.445362389087677
138.37549400,138375494,1,0.8949902057647705,0.0034932708367705345,-0.005283313803374767,-0.4460408389568329
138.47548800,138475488,1,0.8950315713882446,0.0035491876769810915,-0.0052903094328939915,-0.44595733284950256
138.57548900,138575489,1,0.8948767781257629,0.003634733147919178,-0.005327213555574417,-0.44626665115356445
138.67546800,138675468,1,0.8946812152862549,0.0036585242487490177,-0.005377150606364012,-0.44665783643722534
138.77553700,138775537,1,0.8947941660881042,0.0037121775094419718,-0.005386004224419594,-0.44643092155456543
138.87554200,138875542,1,0.8946786522865295,0.003769404487684369,-0.005409979727119207,-0.44666165113449097
138.97553700,138975537,1,0.8943690061569214,0.0038259411230683327,-0.005469967611134052,-0.4472801685333252
139.07548100,139075481,1,0.8942790627479553,0.003853695234283805,-0.005496963858604431,-0.4474594295024872
139.17552400,139175524,1,0.8939982056617737,0.00385960191488266,-0.005524126812815666,-0.4480198323726654
139.27550100,139275501,1,0.8936574459075928,0.00386789976619184,-0.005576960742473602,-0.4486984312534332
139.37552000,139375520,1,0.8936598896980286,0.003858298761770129,-0.005593459587544203,-0.4486934542655945
139.47551400,139475514,1,0.8935229182243347,0.0038596722297370434,-0.00564999133348465,-0.448965460062027
139.57549000,139575490,1,0.8932554125785828,0.0038870801217854023,-0.005679788533598185,-0.449496865272522
139.67550100,139675501,1,0.893262505531311,0.003935382701456547,-0.005638650618493557,-0.44948285818099976
139.77547800,139775478,1,0.8931052684783936,0.003963744267821312,-0.005668445955961943,-0.44979459047317505
139.87549100,139875491,1,0.8927846550941467,0.004016757011413574,-0.005704489070922136,-0.4504297077655792
139.97548500,139975485,1,0.8927643895149231,0.0040616197511553764,-0.005752780940383673,-0.45046886801719666
140.07549000,140075490,1,0.8926629424095154,0.004133583512157202,-0.005790619179606438,-0.45066866278648376
140.17546700,140175467,1,0.8924047946929932,0.004169397056102753,-0.005855178460478783,-0.4511784315109253
140.27549800,140275498,1,0.8923003077507019,0.0042250994592905045,-0.005920681171119213,-0.45138368010520935
140.37553300,140375533,1,0.892019510269165,0.004304553382098675,-0.005961176007986069,-0.45193710923194885
140.47553800,140475538,1,0.8916682600975037,0.004384955856949091,-0.005984817165881395,-0.45262864232063293
140.57547200,140575472,1,0.8915976285934448,0.004466583486646414,-0.0060392338782548904,-0.45276618003845215
140.67553500,140675535,1,0.8915197253227234,0.004508000798523426,-0.00611150311306119,-0.45291826128959656
140.77553200,140775532,1,0.8913798928260803,0.004522560629993677,-0.006144730839878321,-0.4531927704811096
140.87549800,140875498,1,0.8914048075675964,0.004612285178154707,-0.006192296277731657,-0.4531421959400177
140.97552500,140975525,1,0.8913699984550476,0.0046614292077720165,-0.006218782626092434,-0.45320984721183777
141.07547100,141075471,1,0.8913154006004333,0.004759929608553648,-0.006279476452618837,-0.4533153176307678
141.17546900,141175469,1,0.8913887739181519,0.004794633015990257,-0.006339203100651503,-0.4531698524951935
141.27549400,141275494,1,0.8913632035255432,0.004852024372667074,-0.0063977595418691635,-0.4532187283039093
141.37548400,141375484,1,0.891248881816864,0.0049067167565226555,-0.006471158936619759,-0.4534417688846588
141.47550400,141475504,1,0.8911877274513245,0.00495490338653326,-0.006535361520946026,-0.4535605013370514
141.57549000,141575490,1,0.8910537958145142,0.004991254769265652,-0.006587361916899681,-0.45382243394851685
141.67548700,141675487,1,0.8908620476722717,0.005061117000877857,-0.006660011596977711,-0.4541969299316406
141.77548200,141775482,1,0.8907201290130615,0.005114622879773378,-0.006705860141664743,-0.45447394251823425
141.87550300,141875503,1,0.8905807137489319,0.005181596614420414,-0.0067172846756875515,-0.4547460973262787
141.97553100,141975531,1,0.8904423117637634,0.005243637599050999,-0.006739890668541193,-0.45501604676246643
142.07553500,142075535,1,0.8904301524162292,0.005332770757377148,-0.006773054599761963,-0.45503824949264526
142.17548100,142175481,1,0.890461266040802,0.005391577258706093,-0.0068610054440796375,-0.4549753963947296
142.27552300,142275523,1,0.8904848694801331,0.005436195991933346,-0.006909176707267761,-0.4549279808998108
142.37552900,142375529,1,0.8905333876609802,0.0054588294588029385,-0.0069490838795900345,-0.4548321068286896
142.47550100,142475501,1,0.890501081943512,0.00552400341257453,-0.006980132777243853,-0.4548940360546112
142.57552000,142575520,1,0.8904228210449219,0.005556926596909761,-0.006994147785007954,-0.4550465941429138
142.67548700,142675487,1,0.8903370499610901,0.0056165605783462524,-0.007012575399130583,-0.45521339774131775
142.77548600,142775486,1,0.8902084231376648,0.005646438803523779,-0.007056006696075201,-0.45546382665634155
142.87547900,142875479,1,0.8901664614677429,0.005715989973396063,-0.007112627848982811,-0.45554402470588684
142.97548500,142975485,1,0.8902820348739624,0.005769439972937107,-0.0071212658658623695,-0.4553173780441284
143.07548500,143075485,1,0.8904585242271423,0.005817586090415716,-0.007169110234826803,-0.4549707770347595
143.17548700,143175487,1,0.8905792236328125,0.005880417767912149,-0.007229279261082411,-0.45473265647888184
143.27549100,143275491,1,0.8907053470611572,0.005950882099568844,-0.007275951094925404,-0.45448389649391174
143.37548500,143375485,1,0.8908260464668274,0.005990412086248398,-0.007330426946282387,-0.454245924949646
143.47551400,143475514,1,0.8908839821815491,0.006026609800755978,-0.007376362103968859,-0.4541310667991638
143.57554200,143575542,1,0.890974760055542,0.006107671651989222,-0.007438201457262039,-0.45395082235336304
143.67554400,143675544,1,0.8910652995109558,0.006153061054646969,-0.007519744802266359,-0.4537711441516876
143.77550100,143775501,1,0.8910733461380005,0.006212436594069004,-0.007606187369674444,-0.4537530243396759
143.87551700,143875517,1,0.8910464644432068,0.006278710439801216,-0.0076067326590418816,-0.4538049101829529
143.97550100,143975501,1,0.8909406065940857,0.0063169728964567184,-0.0076435282826423645,-0.45401161909103394
144.07548800,144075488,1,0.8908043503761292,0.006373693700879812,-0.007690344005823135,-0.4542772173881531
144.17549100,144175491,1,0.8907103538513184,0.006467312574386597,-0.00774770462885499,-0.4544593095779419
144.27548900,144275489,1,0.8906725645065308,0.006544433068484068,-0.007808503229171038,-0.4545312225818634
144.37547800,144375478,1,0.8906366229057312,0.0066299038007855415,-0.007884270511567593,-0.4545990526676178
144.47547500,144475475,1,0.8906125426292419,0.00667920708656311,-0.00795302726328373,-0.45464426279067993
144.57549300,144575493,1,0.8906118869781494,0.006758735980838537,-0.008048886433243752,-0.4546426832675934
144.67548600,144675486,1,0.8906363248825073,0.006835001055151224,-0.008139491081237793,-0.4545920789241791
144.77548900,144775489,1,0.8907750248908997,0.006922014988958836,-0.008241130039095879,-0.4543170630931854
144.87547600,144875476,1,0.8909669518470764,0.006937727332115173,-0.008334998972713947,-0.45393866300582886
144.97546500,144975465,1,0.8911028504371643,0.006973594892770052,-0.008441588841378689,-0.4536692798137665
145.07552500,145075525,1,0.8912643194198608,0.00699473125860095,-0.008501950651407242,-0.45335057377815247
145.17553300,145175533,1,0.8914129137992859,0.0070117926225066185,-0.00855126604437828,-0.45305708050727844
145.27553400,145275534,1,0.8914853930473328,0.006996635813266039,-0.008566183038055897,-0.45291438698768616
145.37551500,145375515,1,0.8915440440177917,0.0070274947211146355,-0.008577846921980381,-0.4527982473373413
145.47548900,145475489,1,0.8915216326713562,0.007074068300426006,-0.008598711341619492,-0.45284131169319153
145.57550700,145575507,1,0.8914310336112976,0.007115937769412994,-0.008648103103041649,-0.4530179798603058
145.67551900,145675519,1,0.8912912607192993,0.007177721243351698,-0.008708448149263859,-0.45329079031944275
145.77551500,145775515,1,0.8911445736885071,0.007218553684651852,-0.008717921562492847,-0.45357826352119446
145.87549000,145875490,1,0.8910121321678162,0.007281644269824028,-0.008726230822503567,-0.45383721590042114
145.97546900,145975469,1,0.8909677267074585,0.007329131010919809,-0.008745388127863407,-0.4539232850074768
146.07548600,146075486,1,0.8909567594528198,0.007366453297436237,-0.008786012418568134,-0.4539433717727661
146.17549400,146175494,1,0.8909759521484375,0.007390785496681929,-0.008851664140820503,-0.45390400290489197
146.27546800,146275468,1,0.8909734487533569,0.007414652034640312,-0.00887169037014246,-0.45390811562538147
146.37548800,146375488,1,0.8909710645675659,0.0074422662146389484,-0.008901441469788551,-0.4539118707180023
146.47548900,146475489,1,0.8909568190574646,0.007451571524143219,-0.008955567143857479,-0.4539386034011841
146.57551800,146575518,1,0.8909236788749695,0.007515402045100927,-0.008985273540019989,-0.4540019631385803
146.67552900,146675529,1,0.8908851742744446,0.007542278151959181,-0.009038998745381832,-0.45407602190971375
146.77553500,146775535,1,0.8907890915870667,0.007623443379998207,-0.009078698232769966,-0.45426231622695923
146.87548600,146875486,1,0.8906788229942322,0.0076853507198393345,-0.009118634276092052,-0.45447665452957153
146.97553300,146975533,1,0.8905906081199646,0.007704350631684065,-0.00912665855139494,-0.45464903116226196
147.07553100,147075531,1,0.8905325531959534,0.0077468473464250565,-0.009148952551186085,-0.45476147532463074
147.17550700,147175507,1,0.8905274868011475,0.00781820435076952,-0.009202922694385052,-0.4547691345214844
147.27547700,147275477,1,0.8905906081199646,0.007866338826715946,-0.009324566461145878,-0.45464226603507996
147.37548600,147375486,1,0.8906333446502686,0.00794615875929594,-0.009391396306455135,-0.4545556902885437
147.47545800,147475458,1,0.890701413154602,0.008007632568478584,-0.00944568868726492,-0.4544201195240021
147.57547000,147575470,1,0.8907789587974548,0.008051595650613308,-0.009506693109869957,-0.45426610112190247
147.67548600,147675486,1,0.8908267021179199,0.008073022589087486,-0.009537729434669018,-0.454171359539032
147.77548500,147775485,1,0.8908730149269104,0.00810937862843275,-0.009588073939085007,-0.4540787935256958
147.87549000,147875490,1,0.8909199237823486,0.00813946034759283,-0.009655099362134933,-0.4539848268032074
147.97546700,147975467,1,0.8909639716148376,0.008188638836145401,-0.009736953303217888,-0.4538957178592682
148.07546000,148075460,1,0.8910926580429077,0.008223513141274452,-0.00981226097792387,-0.45364081859588623
148.17552200,148175522,1,0.8912363052368164,0.008250116370618343,-0.009865695610642433,-0.45335689187049866
148.27552000,148275520,1,0.8912376165390015,0.008232898078858852,-0.009911519475281239,-0.4533535838127136
148.37550100,148375501,1,0.8908510208129883,0.008210564032196999,-0.009943418204784393,-0.4541124701499939
148.47550900,148475509,1,0.890237033367157,0.008217760361731052,-0.009991634637117386,-0.4553137719631195
148.57552800,148575528,1,0.8897185325622559,0.00823658611625433,-0.010001694783568382,-0.45632562041282654
148.67551400,148675514,1,0.8894356489181519,0.008231030777096748,-0.010028471238911152,-0.45687630772590637
148.77548700,148775487,1,0.889384388923645,0.00821324996650219,-0.010044986382126808,-0.4569759666919708
148.87546900,148875469,1,0.8894530534744263,0.008237970061600208,-0.010045886971056461,-0.4568417966365814
148.97547700,148975477,1,0.8899365663528442,0.008216791786253452,-0.009987748228013515,-0.4559009373188019
149.07548300,149075483,1,0.8906148672103882,0.008184595964848995,-0.009934714064002037,-0.45457619428634644
149.17547600,149175476,1,0.8910133838653564,0.008085206151008606,-0.009847832843661308,-0.45379817485809326
149.27548500,149275485,1,0.8913038969039917,0.007945025339722633,-0.009755929931998253,-0.4532318115234375
149.37549000,149375490,1,0.8917496800422668,0.0078002456575632095,-0.009579921141266823,-0.4523603022098541
149.47546400,149475464,1,0.892305314540863,0.00762103172019124,-0.009396113455295563,-0.4512702524662018
149.57546300,149575463,1,0.8930218815803528,0.007342554163187742,-0.00915442407131195,-0.44986021518707275
149.67550200,149675502,1,0.8936785459518433,0.0070319753140211105,-0.008847644552588463,-0.44856542348861694
149.77552100,149775521,1,0.8940933346748352,0.006675207056105137,-0.008521686308085918,-0.4477497935295105
149.87552700,149875527,1,0.8943596482276917,0.006286765914410353,-0.00813601166009903,-0.44723042845726013
149.97546300,149975463,1,0.8947102427482605,0.005853797774761915,-0.007728893309831619,-0.44654181599617004
150.07552100,150075521,1,0.8951436281204224,0.005428921896964312,-0.007307639345526695,-0.44568485021591187
150.17553800,150175538,1,0.8955994844436646,0.00497793685644865,-0.006875066552311182,-0.4447803497314453
150.27551100,150275511,1,0.8960283398628235,0.004492778331041336,-0.006408637389540672,-0.44392791390419006
150.37553100,150375531,1,0.8962160348892212,0.004023336805403233,-0.006003752816468477,-0.4435589611530304
150.47547600,150475476,1,0.8962495923042297,0.003554893657565117,-0.0055890693329274654,-0.4435006082057953
150.57547400,150575474,1,0.8963615298271179,0.003144114278256893,-0.0051969923079013824,-0.44328221678733826
150.67546900,150675469,1,0.8964996933937073,0.002744033932685852,-0.004808776546269655,-0.44300973415374756
150.77548400,150775484,1,0.8966380953788757,0.002344659296795726,-0.004467696882784367,-0.4427354335784912
150.87548900,150875489,1,0.8967599272727966,0.001997294370085001,-0.004126803949475288,-0.44249358773231506
150.97548100,150975481,1,0.896745502948761,0.001695081009529531,-0.0038307432550936937,-0.44252675771713257
151.07545800,151075458,1,0.8967666625976562,0.0014448524452745914,-0.003531061578541994,-0.44248732924461365
151.17548100,151175481,1,0.8969674706459045,0.0011955122463405132,-0.003287360304966569,-0.44208264350891113
151.27551700,151275517,1,0.8971390128135681,0.000984345213510096,-0.0031066236551851034,-0.4417363107204437
151.37552900,151375529,1,0.8971813321113586,0.0008050458854995668,-0.002947211032733321,-0.4416518211364746
151.47552900,151475529,1,0.8972241282463074,0.0006691348389722407,-0.002791398437693715,-0.44156613945961
151.57548900,151575489,1,0.8971271514892578,0.0005311823333613575,-0.0026911019813269377,-0.44176387786865234
151.67554300,151675543,1,0.8970563411712646,0.00041684031020849943,-0.002572067081928253,-0.44190844893455505
151.77549000,151775490,1,0.897111177444458,0.00031282653799280524,-0.002470294712111354,-0.44179779291152954
151.87550900,151875509,1,0.8971388339996338,0.0002222633920609951,-0.002418285934254527,-0.4417419731616974
151.97551100,151975511,1,0.8971384167671204,0.00018186129454988986,-0.002335076918825507,-0.44174331426620483
152.07547700,152075477,1,0.8971414566040039,0.0001587535225553438,-0.002287659328430891,-0.44173747301101685
152.17549000,152175490,1,0.8971319198608398,0.0001248236367246136,-0.002218741923570633,-0.4417571723461151
152.27548900,152275489,1,0.8972128033638,0.00010077038314193487,-0.0021844806615263224,-0.4415930211544037
152.37548000,152375480,1,0.8973301649093628,5.3853527788305655e-05,-0.0021825775038450956,-0.4413544833660126
152.47548100,152475481,1,0.8973994851112366,2.7964211767539382e-05,-0.0021674667950719595,-0.44121360778808594
152.57548800,152575488,1,0.8974599838256836,9.052205314219464e-06,-0.002185821533203125,-0.44109049439430237
152.67546100,152675461,1,0.8975246548652649,-2.935694283223711e-06,-0.0022189596202224493,-0.440958708524704
152.77550600,152775506,1,0.8974782228469849,3.727006333065219e-05,-0.002220169873908162,-0.44105324149131775
152.87552800,152875528,1,0.8974088430404663,6.1001665017101914e-05,-0.0022177747450768948,-0.4411942958831787
152.97553800,152975538,1,0.8974102735519409,8.261308539658785e-05,-0.002227450255304575,-0.4411914050579071
153.07548500,153075485,1,0.897432804107666,0.00010522329830564559,-0.002244160044938326,-0.4411454498767853
153.17551600,153175516,1,0.8974992632865906,0.0001410802360624075,-0.0022601629607379436,-0.44101011753082275
153.27549500,153275495,1,0.8977624177932739,0.0001487646222813055,-0.002272458514198661,-0.44047409296035767
153.37548300,153375483,1,0.8980696797370911,0.00017432782624382526,-0.0022494695149362087,-0.4398474097251892
153.47550700,153475507,1,0.8983977437019348,0.00020306171791162342,-0.002282279310747981,-0.4391767680644989
153.57546600,153575466,1,0.8987748622894287,0.00021466283942572773,-0.002328091999515891,-0.43840426206588745
153.67548100,153675481,1,0.8990746140480042,0.0002181070885853842,-0.002351433504372835,-0.43778902292251587
153.77548300,153775483,1,0.8993126153945923,0.000260985572822392,-0.0024243423249572515,-0.4372994899749756
153.87549200,153875492,1,0.8995083570480347,0.00028937729075551033,-0.002426867838948965,-0.43689677119255066
153.97548900,153975489,1,0.8995370268821716,0.0003172025317326188,-0.0024575223214924335,-0.43683743476867676
154.07548000,154075480,1,0.8995035886764526,0.0003351612249389291,-0.002474773908033967,-0.43690624833106995
154.17546800,154175468,1,0.8994678854942322,0.0003725611313711852,-0.0024724220857024193,-0.436979740858078
154.27546100,154275461,1,0.8993310332298279,0.00039661757182329893,-0.0025041960179805756,-0.4372611343860626
154.37552100,154375521,1,0.8992121815681458,0.00041177638922818005,-0.002544458257034421,-0.4375052750110626
154.47549700,154475497,1,0.899168074131012,0.0004484739329200238,-0.002561011118814349,-0.4375957250595093
154.57552100,154575521,1,0.8991478085517883,0.0004884144873358309,-0.0025790894869714975,-0.43763720989227295
154.67547000,154675470,1,0.8991634249687195,0.0005169005016796291,-0.0026227952912449837,-0.4376048445701599
154.77552200,154775522,1,0.8993040919303894,0.0005398280336521566,-0.002624942921102047,-0.43731558322906494
154.87552900,154875529,1,0.8994168639183044,0.0005567548796534538,-0.002632339484989643,-0.4370836019515991
154.97552300,154975523,1,0.8995407819747925,0.0005714267026633024,-0.002669362351298332,-0.4368283152580261
155.07549500,155075495,1,0.8996635675430298,0.0006167319952510297,-0.0027015702798962593,-0.43657511472702026
155.17550600,155175506,1,0.8997198939323425,0.0006442556623369455,-0.0027480246499180794,-0.43645864725112915
155.27547400,155275474,1,0.8997224569320679,0.0006718980148434639,-0.0027787520084530115,-0.4364531636238098
155.37547200,155375472,1,0.8997507691383362,0.0006727568688802421,-0.0027901234570890665,-0.4363946318626404
155.47548200,155475482,1,0.899777889251709,0.0006656655459664762,-0.0027662997599691153,-0.43633899092674255
155.57549300,155575493,1,0.8998399972915649,0.0006777435773983598,-0.0027984820771962404,-0.43621066212654114
155.67549500,155675495,1,0.8999712467193604,0.0006962592015042901,-0.0028516340535134077,-0.43593937158584595
155.77545500,155775455,1,0.9000418782234192,0.00074749905616045,-0.002876794897019863,-0.43579331040382385
155.87550800,155875508,1,0.900065541267395,0.000765613280236721,-0.002946618478745222,-0.43574392795562744
155.97552700,155975527,1,0.9000998735427856,0.0007936595939099789,-0.0029733674600720406,-0.435672789812088
156.07553400,156075534,1,0.9000767469406128,0.0008008155273273587,-0.0029857740737497807,-0.43572038412094116
156.17549100,156175491,1,0.900010347366333,0.0008500226540490985,-0.0030216043815016747,-0.43585723638534546
156.27550900,156275509,1,0.8999587893486023,0.0008675265125930309,-0.003065346507355571,-0.43596330285072327
156.37552400,156375524,1,0.8998838067054749,0.0008917406667023897,-0.0031105505768209696,-0.4361177682876587
156.47549300,156475493,1,0.8998226523399353,0.0009055890259332955,-0.0031762977596372366,-0.4362434148788452
156.57551600,156575516,1,0.8998345136642456,0.0009308138396590948,-0.0031936655286699533,-0.4362187385559082
156.67546400,156675464,1,0.899840235710144,0.0009841652354225516,-0.0032226527109742165,-0.4362066388130188
156.77548200,156775482,1,0.8998376727104187,0.001008345978334546,-0.0032367988023906946,-0.4362117350101471
156.87546200,156875462,1,0.8998609781265259,0.0010103414533659816,-0.003272024681791663,-0.43616339564323425
156.97548200,156975482,1,0.899858295917511,0.0010143205290660262,-0.0033190648537129164,-0.43616852164268494
157.07546600,157075466,1,0.8998550176620483,0.0010105881374329329,-0.0033449544571340084,-0.4361751675605774
157.17548200,157175482,1,0.8998732566833496,0.0010141126113012433,-0.0033570362720638514,-0.4361373782157898
157.27548600,157275486,1,0.8998796343803406,0.0010003723436966538,-0.003380999667569995,-0.4361240863800049
157.37545300,157375453,1,0.899825930595398,0.001050686347298324,-0.0034202339593321085,-0.4362344741821289
157.47548400,157475484,1,0.8997783064842224,0.0010428776731714606,-0.003475711215287447,-0.43633222579956055
157.57554000,157575540,1,0.8997525572776794,0.001058101188391447,-0.0034982976503670216,-0.4363850951194763
157.67552100,157675521,1,0.8997429013252258,0.0010395495919510722,-0.003551855916157365,-0.43640467524528503
157.77547100,157775471,1,0.8997890949249268,0.0010619699023663998,-0.0035782516933977604,-0.4363090991973877
157.87551700,157875517,1,0.8998610377311707,0.0010381542379036546,-0.003587388666346669,-0.43616074323654175
157.97552800,157975528,1,0.899997353553772,0.001057279296219349,-0.003582731820642948,-0.43587931990623474
158.07549200,158075492,1,0.9001378417015076,0.0010758786229416728,-0.003619799157604575,-0.4355888068675995
158.17550100,158175501,1,0.9002352952957153,0.0010886091040447354,-0.003627561265602708,-0.4353873133659363
158.27547800,158275478,1,0.9002586603164673,0.0011067230952903628,-0.0036530352663248777,-0.43533867597579956
158.37547800,158375478,1,0.9002379179000854,0.0011245349887758493,-0.0036628516390919685,-0.4353814125061035
158.47548000,158475480,1,0.9001660943031311,0.0011168746277689934,-0.0036868061870336533,-0.4355297088623047
158.57548100,158575481,1,0.9000875949859619,0.0011247227666899562,-0.003700536908581853,-0.43569180369377136
158.67548100,158675481,1,0.9000239968299866,0.00114704470615834,-0.0036843225825577974,-0.4358232915401459
158.77547900,158775479,1,0.8999708890914917,0.0011599661083891988,-0.0037021625321358442,-0.4359327554702759
158.87545500,158875455,1,0.8999315500259399,0.001184970373287797,-0.00371422222815454,-0.43601369857788086
158.97549800,158975498,1,0.8998873233795166,0.0011729863472282887,-0.0037191829178482294,-0.43610501289367676
159.07552900,159075529,1,0.8998146653175354,0.0011882736580446362,-0.0037491891998797655,-0.436254620552063
159.17552100,159175521,1,0.8997027277946472,0.0012078337604179978,-0.0037744606379419565,-0.4364851713180542
159.27552500,159275525,1,0.8996258974075317,0.0012245612451806664,-0.0037550118286162615,-0.43664366006851196
159.37547800,159375478,1,0.8995838761329651,0.0012238487834110856,-0.003767317160964012,-0.43673011660575867
159.47553500,159475535,1,0.8995916247367859,0.0012349411845207214,-0.0037579163908958435,-0.43671420216560364
159.57552200,159575522,1,0.8995980024337769,0.001221134327352047,-0.0037228649016469717,-0.4367014169692993
159.67550600,159675506,1,0.8995968103408813,0.00124945561401546,-0.0037344342563301325,-0.436703622341156
159.77546000,159775460,1,0.8995653986930847,0.0012734325136989355,-0.003760752035304904,-0.4367679953575134
159.87548200,159875482,1,0.899533212184906,0.0012617659522220492,-0.0037823019083589315,-0.4368342459201813
159.97548100,159975481,1,0.8994960188865662,0.0012685377150774002,-0.0038097321521490812,-0.4369105100631714
160.07548400,160075484,1,0.8994460701942444,0.001274116220884025,-0.0038551536854356527,-0.4370128810405731
160.17548500,160175485,1,0.8994186520576477,0.0012593226274475455,-0.003882552729919553,-0.43706920742988586
160.27549300,160275493,1,0.899408757686615,0.001253372523933649,-0.0038559858221560717,-0.4370897114276886
160.37548200,160375482,1,0.8993756771087646,0.001252547837793827,-0.0038831792771816254,-0.43715760111808777
160.47545500,160475455,1,0.8993564248085022,0.001243586535565555,-0.0038608950562775135,-0.43719738721847534
160.57550300,160575503,1,0.8993633985519409,0.0012507319916039705,-0.0038475298788398504,-0.43718311190605164
160.67553500,160675535,1,0.8993749618530273,0.0012540383031591773,-0.0038446239195764065,-0.4371594190597534
160.77552300,160775523,1,0.8994149565696716,0.0012731471797451377,-0.003842153586447239,-0.43707701563835144
160.87552900,160875529,1,0.8994520306587219,0.0012642875080928206,-0.003848284250125289,-0.43700075149536133
160.97551200,160975512,1,0.8994531035423279,0.001282075303606689,-0.0038510144222527742,-0.4369984269142151
161.07552300,161075523,1,0.8994225263595581,0.00126432697288692,-0.0038644566666334867,-0.4370613396167755
161.17551600,161175516,1,0.8993324637413025,0.0012674388708546758,-0.0038539052475243807,-0.4372466206550598
161.27550400,161275504,1,0.8992382884025574,0.0012614295119419694,-0.003858833108097315,-0.43744024634361267
161.37546500,161375465,1,0.8992019891738892,0.0012389679905027151,-0.0038844335358589888,-0.4375147521495819
161.47548900,161475489,1,0.8991721868515015,0.001200455124489963,-0.0038796314038336277,-0.4375760853290558
161.57548400,161575484,1,0.8991416096687317,0.0011940341209992766,-0.0038897476624697447,-0.43763890862464905
161.67548500,161675485,1,0.8991572260856628,0.0012064955662935972,-0.0039185830391943455,-0.43760648369789124
161.77548900,161775489,1,0.8991930484771729,0.0011797008337453008,-0.003941425122320652,-0.4375327527523041
161.87549200,161875492,1,0.8991721272468567,0.0011997870169579983,-0.003919003065675497,-0.43757596611976624
161.97546300,161975463,1,0.8991561532020569,0.001205280888825655,-0.003914183005690575,-0.4376087784767151
162.07545500,162075455,1,0.8991485834121704,0.001194158336147666,-0.003862308105453849,-0.4376247823238373
162.17550900,162175509,1,0.8990936279296875,0.0011937612434849143,-0.0039057356771081686,-0.43773728609085083
162.27553100,162275531,1,0.899074137210846,0.0011993717635050416,-0.0038949199952185154,-0.43777740001678467
162.37552600,162375526,1,0.8990551829338074,0.0011836269404739141,-0.0039176419377326965,-0.43781617283821106
162.47547200,162475472,1,0.8990393877029419,0.001168665592558682,-0.003930788487195969,-0.4378485083580017
162.57552500,162575525,1,0.8990382552146912,0.0011743636569008231,-0.003938394598662853,-0.43785080313682556
162.67552300,162675523,1,0.8990294933319092,0.001168375718407333,-0.003915523644536734,-0.43786904215812683
162.77548900,162775489,1,0.898992121219635,0.0011704384814947844,-0.00389014626853168,-0.43794599175453186
162.87550600,162875506,1,0.898944616317749,0.001172444666735828,-0.003879033261910081,-0.4380435347557068
162.97548300,162975483,1,0.8988913297653198,0.0011484484421089292,-0.0038883823435753584,-0.43815284967422485
163.07547800,163075478,1,0.8988165855407715,0.0011256685247644782,-0.003928052727133036,-0.43830588459968567
171.17548100,171175481,1,0.8994333744049072,0.0014378910418599844,-0.0042510684579610825,-0.43703484535217285
171.27548300,171275483,1,0.8994870781898499,0.0014415096957236528,-0.004243453964591026,-0.43692442774772644
171.37545300,171375453,1,0.8995240926742554,0.0014341357164084911,-0.004260097164660692,-0.4368480145931244
171.47548000,171475480,1,0.8995491862297058,0.0014074664795771241,-0.004242602735757828,-0.436796635389328
171.57552000,171575520,1,0.8995622396469116,0.0014294375432655215,-0.00425507128238678,-0.4367694854736328
171.67553200,171675532,1,0.899577260017395,0.0014229672960937023,-0.004263955634087324,-0.436738520860672
171.77552000,171775520,1,0.8995842933654785,0.0014325031079351902,-0.00427979975938797,-0.43672388792037964
171.87549900,171875499,1,0.8995920419692993,0.0014410529984161258,-0.00425740098580718,-0.43670809268951416
171.97552400,171975524,1,0.8996252417564392,0.0014281588373705745,-0.004218428861349821,-0.43664008378982544
172.07548400,172075484,1,0.8996496796607971,0.0014523047721013427,-0.004224407486617565,-0.43658962845802307
172.17549200,172175492,1,0.8996943235397339,0.001456407131627202,-0.004202796146273613,-0.43649786710739136
172.27549900,172275499,1,0.8997335433959961,0.0014756066957488656,-0.0041599697433412075,-0.4364173412322998
172.37547600,172375476,1,0.8997501134872437,0.001448934432119131,-0.004125518724322319,-0.43638351559638977
172.47548000,172475480,1,0.8997214436531067,0.001443567336536944,-0.004104190971702337,-0.43644285202026367
172.57548100,172575481,1,0.8996657729148865,0.001457725535146892,-0.004121694713830948,-0.4365573823451996
172.67548100,172675481,1,0.8996327519416809,0.0014867127174511552,-0.004100827034562826,-0.436625599861145
172.77546000,172775460,1,0.8995953798294067,0.0014883396215736866,-0.004046065732836723,-0.436703085899353
172.87548200,172875482,1,0.8995953798294067,0.001483445754274726,-0.0040388647466897964,-0.4367032051086426
172.97545300,172975453,1,0.8996316194534302,0.0014744020299986005,-0.0039770654402673244,-0.436629056930542
173.07550600,173075506,1,0.8996618986129761,0.0015129706589505076,-0.003966148477047682,-0.43656671047210693
173.17549200,173175492,1,0.8997113704681396,0.00149880675598979,-0.0039640250615775585,-0.43646475672721863
173.27553600,173275536,1,0.8997324705123901,0.0015071120578795671,-0.003940009046345949,-0.4364215135574341
173.37549700,173375497,1,0.899756669998169,0.001504763145931065,-0.00391785753890872,-0.4363718032836914
173.47551100,173475511,1,0.8997793793678284,0.0015211931895464659,-0.003930750302970409,-0.43632474541664124
173.57551300,173575513,1,0.8998034596443176,0.0015199535991996527,-0.0038812034763395786,-0.43627557158470154
173.67549300,173675493,1,0.8998234868049622,0.001538610551506281,-0.003816168522462249,-0.4362347424030304
173.77550700,173775507,1,0.8998652696609497,0.001543228281661868,-0.0038075395859777927,-0.43614861369132996
173.87547100,173875471,1,0.8998939990997314,0.0015668842243030667,-0.003815608099102974,-0.43608924746513367
173.97547900,173975479,1,0.8999161720275879,0.0015640625497326255,-0.003770646406337619,-0.4360438585281372
174.07548700,174075487,1,0.8999383449554443,0.001570538617670536,-0.0037356247194111347,-0.4359982907772064
174.17548200,174175482,1,0.8999447822570801,0.001561241107992828,-0.0037077097222208977,-0.4359852969646454
174.27548100,174275481,1,0.8999465703964233,0.001573610003106296,-0.0036915389355272055,-0.43598172068595886
174.37548800,174375488,1,0.899965763092041,0.0015614000149071217,-0.003674834966659546,-0.43594229221343994
174.47549300,174475493,1,0.8999515175819397,0.001542363897897303,-0.0036610497627407312,-0.4359718859195709
174.57547900,174575479,1,0.8999466300010681,0.0015577520243823528,-0.0036367522552609444,-0.4359821379184723
174.67551100,174675511,1,0.8999238610267639,0.0015444743912667036,-0.0036187272053211927,-0.43602925539016724
174.77552900,174775529,1,0.8998836278915405,0.0015618340112268925,-0.003613312728703022,-0.43611228466033936
174.87551800,174875518,1,0.8998233675956726,0.0015705190598964691,-0.003579207696020603,-0.4362369477748871
174.97547800,174975478,1,0.8997671604156494,0.0016025432851165533,-0.0035523257683962584,-0.4363528788089752
175.07552600,175075526,1,0.8997078537940979,0.0016166229033842683,-0.0034984515514224768,-0.43647557497024536
