timestamp,TimeUS,C,Roll,Pitch,Yaw,VN,VE,VD,dPD,PN,PE,PD,GX,GY,GZ,OH
110.87552800,110875528,1,0.35000000000000003,-0.35000000000000003,306.91,0.07750443369150162,0.033228032290935516,-0.051393136382102966,-0.02072683721780777,0.0,0.0,6.946331977844238,0.24,-0.08,-0.13,0.0
110.97547500,110975475,1,0.35000000000000003,-0.35000000000000003,306.91,0.07817601412534714,0.03339965641498566,-0.05072324350476265,-0.023582736030220985,0.0,0.0,6.944499492645264,0.24,-0.08,-0.13,0.0
111.07552000,111075520,1,0.35000000000000003,-0.36,306.91,0.07945314794778824,0.03344869241118431,-0.05093051865696907,-0.027600355446338654,0.0,0.0,6.941486835479736,0.24,-0.08,-0.13,0.0
111.17549500,111175495,1,0.35000000000000003,-0.36,306.91,0.08006244152784348,0.033842843025922775,-0.05103880167007446,-0.038148391991853714,0.0,0.0,6.938058853149414,0.25,-0.08,-0.13,0.0
111.27550500,111275505,1,0.35000000000000003,-0.36,306.91,0.0805089920759201,0.03434155508875847,-0.05072540417313576,-0.031486816704273224,0.0,0.0,6.935447692871094,0.25,-0.08,-0.13,0.0
111.37545500,111375455,1,0.35000000000000003,-0.36,306.92,0.08019933104515076,0.03401002660393715,-0.05064785107970238,-0.012298512272536755,0.0,0.0,6.93467378616333,0.25,-0.08,-0.13,0.0
111.47548000,111475480,1,0.35000000000000003,-0.36,306.92,0.08033537119626999,0.03372156620025635,-0.04998014122247696,-0.014338859356939793,0.0,0.0,6.93216609954834,0.25,-0.08,-0.13,0.0
111.57549700,111575497,1,0.35000000000000003,-0.35000000000000003,306.92,0.08031418174505234,0.03342774882912636,-0.050402842462062836,-0.038176149129867554,0.0,0.0,6.928009033203125,0.25,-0.08,-0.13,0.0
111.67547100,111675471,1,0.35000000000000003,-0.35000000000000003,306.92,0.08025110512971878,0.033434681594371796,-0.05125812068581581,-0.061386045068502426,0.0,0.0,6.922061443328857,0.25,-0.08,-0.13,0.0
111.77548100,111775481,1,0.35000000000000003,-0.35000000000000003,306.92,0.0804784968495369,0.0334334634244442,-0.05126043036580086,-0.05555620789527893,0.0,0.0,6.917845726013184,0.25,-0.08,-0.13,0.0
111.87548400,111875484,1,0.35000000000000003,-0.35000000000000003,306.92,0.08051274716854095,0.0334867425262928,-0.05158315598964691,-0.03689829260110855,0.0,0.0,6.914493083953857,0.25,-0.08,-0.13,0.0
111.97548200,111975482,1,0.34,-0.36,306.93,0.08080042153596878,0.032582949846982956,-0.05024118348956108,-0.012537413276731968,0.0,0.0,6.913435459136963,0.25,-0.08,-0.13,0.0
112.07545400,112075454,1,0.34,-0.36,306.93,0.08072563260793686,0.03219868615269661,-0.04913351684808731,0.002041947329416871,0.0,0.0,6.912711143493652,0.25,-0.08,-0.13,0.0
112.17549100,112175491,1,0.34,-0.36,306.94,0.08086685836315155,0.03093130700290203,-0.04867137596011162,-0.002401147037744522,0.0,0.0,6.911614418029785,0.25,-0.08,-0.13,0.0
112.27553400,112275534,1,0.34,-0.36,306.94,0.08077146112918854,0.03035157546401024,-0.0481456033885479,-0.009580087848007679,0.0,0.0,6.910184860229492,0.25,-0.08,-0.13,0.0
112.37552300,112375523,1,0.34,-0.36,306.95,0.08048795163631439,0.03059813193976879,-0.047845736145973206,-0.022302594035863876,0.0,0.0,6.907629013061523,0.25,-0.08,-0.13,0.0
112.47552200,112475522,1,0.33,-0.36,306.96,0.08024225383996964,0.029481984674930573,-0.048143282532691956,-0.03592151030898094,0.0,0.0,6.90420389175415,0.25,-0.08,-0.13,0.0
112.57555700,112575557,1,0.33,-0.36,306.96,0.08025316148996353,0.029270656406879425,-0.048387132585048676,-0.04474503919482231,0.0,0.0,6.900113105773926,0.25,-0.08,-0.13,0.0
112.67551900,112675519,1,0.33,-0.36,306.96,0.08012156188488007,0.02861894853413105,-0.04866299033164978,-0.04880426079034805,0.0,0.0,6.895693302154541,0.25,-0.08,-0.13,0.0
112.77550600,112775506,1,0.33,-0.36,306.97,0.07951340824365616,0.028252532705664635,-0.0482526570558548,-0.032044846564531326,0.0,0.0,6.8933563232421875,0.25,-0.08,-0.13,0.0
112.87552000,112875520,1,0.33,-0.37,306.97,0.07951170206069946,0.02794385887682438,-0.048076942563056946,-0.021150939166545868,0.0,0.0,6.89077615737915,0.25,-0.08,-0.13,0.0
112.97545600,112975456,1,0.33,-0.37,306.97,0.07950711250305176,0.02801203355193138,-0.04747544601559639,-0.02276289276778698,0.0,0.0,6.8882155418396,0.25,-0.08,-0.13,0.0
113.07548500,113075485,1,0.33,-0.36,306.98,0.07925394922494888,0.027425436303019524,-0.04759331792593002,-0.012670440599322319,0.0,0.0,6.887112140655518,0.25,-0.08,-0.13,0.0
113.17548100,113175481,1,0.32,-0.36,306.98,0.07916135340929031,0.027427542954683304,-0.04669921100139618,-0.006690149195492268,0.0,0.0,6.8858513832092285,0.25,-0.08,-0.13,0.0
113.27548200,113275482,1,0.32,-0.37,306.98,0.07936514168977737,0.026584576815366745,-0.04635026305913925,-0.006408311426639557,0.0,0.0,6.8849382400512695,0.25,-0.08,-0.13,0.0
113.37548600,113375486,1,0.32,-0.37,306.98,0.07930587977170944,0.025834590196609497,-0.04552122578024864,-0.008913389407098293,0.0,0.0,6.883577346801758,0.25,-0.08,-0.13,0.0
113.47548100,113475481,1,0.32,-0.37,306.97,0.0791054517030716,0.025235522538423538,-0.044258300215005875,0.0025951615534722805,0.0,0.0,6.884217739105225,0.25,-0.08,-0.13,0.0
113.57548700,113575487,1,0.32,-0.36,306.97,0.07921050488948822,0.024771934375166893,-0.04354437068104744,0.014835990034043789,0.0,0.0,6.885152339935303,0.25,-0.08,-0.13,0.0
113.67545800,113675458,1,0.32,-0.36,306.97,0.07943981140851974,0.023825589567422867,-0.042207349091768265,0.025447092950344086,0.0,0.0,6.88743782043457,0.26,-0.08,-0.13,0.0
113.77548300,113775483,1,0.33,-0.37,306.97,0.07929419726133347,0.0231766477227211,-0.040512554347515106,0.04238377884030342,0.0,0.0,6.891244411468506,0.26,-0.08,-0.13,0.0
113.87553200,113875532,1,0.32,-0.37,306.97,0.07923374325037003,0.0227037500590086,-0.0380525067448616,0.06446728110313416,0.0,0.0,6.897106647491455,0.26,-0.08,-0.13,0.0
113.97553200,113975532,1,0.32,-0.36,306.97,0.07780487090349197,0.0220156442373991,-0.03595421090722084,0.0737382248044014,0.0,0.0,6.903273582458496,0.26,-0.08,-0.13,0.0
114.07549400,114075494,1,0.32,-0.37,306.97,0.07779327780008316,0.021003587171435356,-0.03451152518391609,0.05883035436272621,0.0,0.0,6.9079108238220215,0.26,-0.08,-0.13,0.0
114.17551900,114175519,1,0.32,-0.37,306.97,0.07713615149259567,0.021196598187088966,-0.03269288316369057,0.05366125702857971,0.0,0.0,6.913316249847412,0.26,-0.08,-0.13,0.0
114.27550600,114275506,1,0.32,-0.37,306.98,0.07670775055885315,0.021005917340517044,-0.03075871430337429,0.06752914935350418,0.0,0.0,6.920190334320068,0.26,-0.08,-0.13,0.0
114.37548300,114375483,1,0.32,-0.37,306.98,0.07599996775388718,0.019892267882823944,-0.029539380222558975,0.057207804173231125,0.0,0.0,6.924800872802734,0.26,-0.08,-0.13,0.0
114.47552300,114475523,1,0.32,-0.37,306.98,0.07555245608091354,0.019144682213664055,-0.02866954915225506,0.021642303094267845,0.0,0.0,6.926490783691406,0.26,-0.08,-0.13,0.0
114.57548200,114575482,1,0.32,-0.37,306.98,0.0753241553902626,0.018677912652492523,-0.027207277715206146,0.013330204412341118,0.0,0.0,6.929084777832031,0.26,-0.08,-0.13,0.0
114.67547200,114675472,1,0.32,-0.37,306.98,0.07517378032207489,0.01803862489759922,-0.025647388771176338,0.03776174411177635,0.0,0.0,6.933785438537598,0.26,-0.08,-0.13,0.0
114.77549100,114775491,1,0.32,-0.37,306.99,0.07514691352844238,0.018588837236166,-0.024394908919930458,0.05075176805257797,0.0,0.0,6.9384565353393555,0.26,-0.08,-0.13,0.0
114.87548000,114875480,1,0.32,-0.37,306.99,0.074970543384552,0.017653824761509895,-0.023478573188185692,0.05658014491200447,0.0,0.0,6.943967819213867,0.26,-0.08,-0.13,0.0
114.97548100,114975481,1,0.32,-0.37,306.98,0.07460898160934448,0.017212064936757088,-0.02169213443994522,0.05947032570838928,0.0,0.0,6.949294090270996,0.26,-0.08,-0.13,0.0
115.07548100,115075481,1,0.32,-0.37,306.98,0.07440817356109619,0.017614344134926796,-0.020507700741291046,0.02428738959133625,0.0,0.0,6.9503607749938965,0.26,-0.08,-0.13,0.0
115.17549600,115175496,1,0.32,-0.37,306.98,0.07533331215381622,0.017958426848053932,-0.019601760432124138,-0.014131194911897182,0.0,0.0,6.949524879455566,0.26,-0.08,-0.13,0.0
115.27547700,115275477,1,0.32,-0.37,306.99,0.0751170739531517,0.017813563346862793,-0.019438069313764572,-0.033681899309158325,0.0,0.0,6.947189807891846,0.26,-0.08,-0.13,0.0
115.37550400,115375504,1,0.32,-0.37,306.99,0.07548220455646515,0.01838112249970436,-0.01839076727628708,-0.019146712496876717,0.0,0.0,6.947143077850342,0.26,-0.08,-0.13,0.0
115.47552400,115475524,1,0.31,-0.37,307.0,0.07571946084499359,0.018220391124486923,-0.017862318083643913,0.007497504819184542,0.0,0.0,6.948306560516357,0.26,-0.08,-0.13,0.0
115.57553800,115575538,1,0.31,-0.37,307.0,0.07541709393262863,0.018878404051065445,-0.016390560194849968,0.036831289529800415,0.0,0.0,6.952148914337158,0.26,-0.08,-0.13,0.0
115.67549400,115675494,1,0.31,-0.37,307.0,0.07542096078395844,0.018560776486992836,-0.014283588156104088,0.05642833188176155,0.0,0.0,6.95670747756958,0.26,-0.09,-0.13,0.0
115.77552400,115775524,1,0.31,-0.38,307.0,0.07548710703849792,0.018673384562134743,-0.012904537841677666,0.058938540518283844,0.0,0.0,6.961630821228027,0.26,-0.09,-0.13,0.0
115.87549700,115875497,1,0.31,-0.37,307.0,0.07602570950984955,0.018816640600562096,-0.011201146058738232,0.054912202060222626,0.0,0.0,6.966278553009033,0.26,-0.09,-0.13,0.0
115.97550600,115975506,1,0.31,-0.38,307.01,0.07627075910568237,0.01806819438934326,-0.00981557834893465,0.04281497746706009,0.0,0.0,6.96996545791626,0.26,-0.09,-0.13,0.0
116.07546400,116075464,1,0.31,-0.38,307.01,0.07664546370506287,0.018162069842219353,-0.008172961883246899,0.04834991693496704,0.0,0.0,6.97525691986084,0.26,-0.09,-0.13,0.0
116.17546300,116175463,1,0.31,-0.38,307.02,0.07605646550655365,0.018271872773766518,-0.006356689613312483,0.04913707077503204,0.0,0.0,6.97953987121582,0.26,-0.09,-0.13,0.0
116.27545700,116275457,1,0.31,-0.37,307.02,0.07564252614974976,0.01880340464413166,-0.005976635962724686,0.035103246569633484,0.0,0.0,6.982890605926514,0.26,-0.09,-0.13,0.0
116.37547000,116375470,1,0.31,-0.37,307.03000000000003,0.07573044300079346,0.01887383684515953,-0.004440089222043753,0.052793703973293304,0.0,0.0,6.9891462326049805,0.26,-0.09,-0.13,0.0
116.47548500,116475485,1,0.31,-0.37,307.03000000000003,0.07611048966646194,0.01875154674053192,-0.0026495896745473146,0.05854041129350662,0.0,0.0,6.993977069854736,0.26,-0.09,-0.13,0.0
116.57548900,116575489,1,0.31,-0.38,307.03000000000003,0.0763368159532547,0.01988067477941513,-0.0011637414572760463,0.05079014226794243,0.0,0.0,6.9989166259765625,0.26,-0.09,-0.13,0.0
116.67548300,116675483,1,0.31,-0.38,307.03000000000003,0.07639724761247635,0.020045051351189613,0.00038634275551885366,0.05615904554724693,0.0,0.0,7.004601001739502,0.26,-0.09,-0.13,0.0
116.77545700,116775457,1,0.31,-0.37,307.03000000000003,0.07671650499105453,0.019447332248091698,0.001787611749023199,0.06476270407438278,0.0,0.0,7.010991096496582,0.26,-0.09,-0.13,0.0
116.87550300,116875503,1,0.31,-0.38,307.04,0.0765996053814888,0.01893635466694832,0.0030986787751317024,0.05327620357275009,0.0,0.0,7.01540470123291,0.26,-0.09,-0.13,0.0
116.97554400,116975544,1,0.31,-0.38,307.03000000000003,0.07637737691402435,0.018686139956116676,0.0037763400468975306,0.027741434052586555,0.0,0.0,7.018055438995361,0.26,-0.09,-0.13,0.0
117.07553100,117075531,1,0.31,-0.38,307.03000000000003,0.07654421776533127,0.018004992976784706,0.005187556147575378,0.04505038633942604,0.0,0.0,7.02410888671875,0.26,-0.09,-0.13,0.0
117.17548700,117175487,1,0.31,-0.38,307.03000000000003,0.07659479230642319,0.017895683646202087,0.007458040490746498,0.08829987049102783,0.0,0.0,7.033101558685303,0.26,-0.09,-0.13,0.0
117.27551300,117275513,1,0.31,-0.39,307.03000000000003,0.07627871632575989,0.017354238778352737,0.009912064298987389,0.11713309586048126,0.0,0.0,7.0438642501831055,0.26,-0.09,-0.13,0.0
117.37549100,117375491,1,0.31,-0.39,307.03000000000003,0.07671059668064117,0.016167599707841873,0.013048356398940086,0.13222520053386688,0.0,0.0,7.055715084075928,0.26,-0.09,-0.13,0.0
117.47548600,117475486,1,0.31,-0.39,307.03000000000003,0.07697778940200806,0.015882011502981186,0.015815895050764084,0.14013344049453735,0.0,0.0,7.068643093109131,0.26,-0.09,-0.13,0.0
117.57550300,117575503,1,0.3,-0.39,307.03000000000003,0.07782604545354843,0.016204575076699257,0.018068065866827965,0.11890636384487152,0.0,0.0,7.078736782073975,0.27,-0.09,-0.13,0.0
117.67550600,117675506,1,0.3,-0.39,307.03000000000003,0.0772394984960556,0.015785405412316322,0.020068440586328506,0.07838138192892075,0.0,0.0,7.086040019989014,0.27,-0.09,-0.13,0.0
117.77548800,117775488,1,0.3,-0.39,307.03000000000003,0.07740293443202972,0.015668924897909164,0.021810729056596756,0.04868193343281746,0.0,0.0,7.091522693634033,0.27,-0.09,-0.13,0.0
117.87548000,117875480,1,0.3,-0.39,307.03000000000003,0.07708444446325302,0.015557179227471352,0.023558659479022026,0.036172352731227875,0.0,0.0,7.096250534057617,0.27,-0.09,-0.13,0.0
117.97549500,117975495,1,0.3,-0.39,307.03000000000003,0.07799126952886581,0.015517139807343483,0.024991653859615326,0.0436190627515316,0.0,0.0,7.101869583129883,0.27,-0.09,-0.13,0.0
118.07548800,118075488,1,0.3,-0.39,307.03000000000003,0.0778641402721405,0.015393340960144997,0.0261293426156044,0.04777147248387337,0.0,0.0,7.106847763061523,0.27,-0.09,-0.13,0.0
118.17548500,118175485,1,0.3,-0.39,307.03000000000003,0.07732868939638138,0.015548432245850563,0.027937151491642,0.06379039585590363,0.0,0.0,7.113976955413818,0.27,-0.09,-0.13,0.0
118.27546800,118275468,1,0.31,-0.39,307.03000000000003,0.07723406702280045,0.015475708059966564,0.029405858367681503,0.07741739600896835,0.0,0.0,7.121223449707031,0.27,-0.09,-0.13,0.0
118.37546500,118375465,1,0.31,-0.39,307.03000000000003,0.07605208456516266,0.015237262472510338,0.030752211809158325,0.06204579398036003,0.0,0.0,7.1265106201171875,0.27,-0.09,-0.13,0.0
118.47548800,118475488,1,0.3,-0.39,307.03000000000003,0.07585565745830536,0.015042977407574654,0.03188307583332062,0.052735283970832825,0.0,0.0,7.132131099700928,0.27,-0.09,-0.13,0.0
118.57549600,118575496,1,0.3,-0.38,307.03000000000003,0.07587651163339615,0.013967090286314487,0.032279446721076965,0.04721234738826752,0.0,0.0,7.136850833892822,0.27,-0.09,-0.13,0.0
118.67552900,118675529,1,0.3,-0.38,307.03000000000003,0.07632363587617874,0.0139493178576231,0.03366972506046295,0.06776247918605804,0.0,0.0,7.144734859466553,0.27,-0.09,-0.13,0.0
118.77547800,118775478,1,0.3,-0.38,307.03000000000003,0.07625406235456467,0.014944669790565968,0.03595266491174698,0.09120357036590576,0.0,0.0,7.153151035308838,0.27,-0.09,-0.13,0.0
118.87552300,118875523,1,0.3,-0.39,307.04,0.07613842189311981,0.016410846263170242,0.03877817839384079,0.08754074573516846,0.0,0.0,7.16086483001709,0.27,-0.09,-0.13,0.0
118.97553300,118975533,1,0.3,-0.38,307.04,0.07638385891914368,0.01721336878836155,0.04175328090786934,0.08986447006464005,0.0,0.0,7.169713973999023,0.27,-0.09,-0.13,0.0
119.07551600,119075516,1,0.3,-0.38,307.04,0.07584121823310852,0.017366191372275352,0.043881382793188095,0.08443447947502136,0.0,0.0,7.177446365356445,0.27,-0.09,-0.13,0.0
119.17548400,119175484,1,0.3,-0.39,307.04,0.07610328495502472,0.017607131972908974,0.045169781893491745,0.06532533466815948,0.0,0.0,7.183743476867676,0.27,-0.09,-0.13,0.0
119.27548500,119275485,1,0.3,-0.38,307.04,0.0753142386674881,0.01878306083381176,0.046782221645116806,0.048827532678842545,0.0,0.0,7.1888251304626465,0.27,-0.09,-0.13,0.0
119.37548000,119375480,1,0.3,-0.39,307.05,0.07511422783136368,0.019979482516646385,0.047547224909067154,0.02941170148551464,0.0,0.0,7.192080497741699,0.27,-0.09,-0.13,0.0
119.47548100,119475481,1,0.3,-0.38,307.05,0.07549706101417542,0.020535049960017204,0.04845467954874039,0.03579384461045265,0.0,0.0,7.197126388549805,0.27,-0.09,-0.13,0.0
119.57548900,119575489,1,0.3,-0.38,307.06,0.07541036605834961,0.0205677580088377,0.04953597113490105,0.053243644535541534,0.0,0.0,7.202706336975098,0.27,-0.09,-0.13,0.0
119.67548100,119675481,1,0.3,-0.38,307.05,0.07609549909830093,0.021358251571655273,0.05037737265229225,0.05216816067695618,0.0,0.0,7.207568645477295,0.27,-0.09,-0.13,0.0
119.77548200,119775482,1,0.3,-0.38,307.05,0.07577889412641525,0.022383593022823334,0.05137910321354866,0.05292236804962158,0.0,0.0,7.213006496429443,0.27,-0.09,-0.13,0.0
119.87549800,119875498,1,0.3,-0.38,307.05,0.07551112025976181,0.022645141929388046,0.05303450673818588,0.06919165700674057,0.0,0.0,7.22018575668335,0.27,-0.09,-0.13,0.0
119.97550900,119975509,1,0.3,-0.38,307.05,0.07521580904722214,0.023002799600362778,0.054502785205841064,0.08152302354574203,0.0,0.0,7.227847099304199,0.27,-0.09,-0.13,0.0
120.07550500,120075505,1,0.3,-0.38,307.05,0.07467146962881088,0.02337898127734661,0.05529053881764412,0.07170306146144867,0.0,0.0,7.234116077423096,0.27,-0.09,-0.13,0.0
120.17552000,120175520,1,0.3,-0.38,307.05,0.0750764012336731,0.024112995713949203,0.05624525249004364,0.05330172926187515,0.0,0.0,7.239187240600586,0.27,-0.09,-0.13,0.0
120.27549800,120275498,1,0.3,-0.38,307.05,0.07463928312063217,0.024887867271900177,0.05730074271559715,0.04914587363600731,0.0,0.0,7.2446608543396,0.27,-0.09,-0.13,0.0
120.37551000,120375510,1,0.3,-0.38,307.05,0.07377908378839493,0.024331018328666687,0.05760178342461586,0.050062451511621475,0.0,0.0,7.249863624572754,0.27,-0.09,-0.13,0.0
120.47552900,120475529,1,0.3,-0.38,307.06,0.07365979999303818,0.024426668882369995,0.058638762682676315,0.051735058426856995,0.0,0.0,7.255243301391602,0.27,-0.09,-0.13,0.0
120.57551100,120575511,1,0.3,-0.38,307.06,0.07357819378376007,0.02446230873465538,0.059227362275123596,0.036308757960796356,0.0,0.0,7.258430480957031,0.27,-0.09,-0.13,0.0
120.67548500,120675485,1,0.31,-0.38,307.06,0.07332029938697815,0.02422979846596718,0.05947824567556381,0.03462111949920654,0.0,0.0,7.262909412384033,0.27,-0.09,-0.13,0.0
120.77547000,120775470,1,0.31,-0.38,307.05,0.07309456914663315,0.025280799716711044,0.0606393925845623,0.07240315526723862,0.0,0.0,7.271120548248291,0.27,-0.09,-0.13,0.0
120.87548200,120875482,1,0.31,-0.38,307.05,0.07287721335887909,0.02614436484873295,0.06284911185503006,0.1071159690618515,0.0,0.0,7.281106948852539,0.27,-0.09,-0.13,0.0
120.97545700,120975457,1,0.3,-0.38,307.05,0.07312162965536118,0.02596445195376873,0.06416094303131104,0.11775054037570953,0.0,0.0,7.291654586791992,0.27,-0.09,-0.13,0.0
121.07548200,121075482,1,0.3,-0.38,307.05,0.07274351269006729,0.025765743106603622,0.06671762466430664,0.1280679553747177,0.0,0.0,7.30368185043335,0.27,-0.09,-0.13,0.0
121.17548200,121175482,1,0.31,-0.38,307.05,0.0726800262928009,0.026626985520124435,0.06911884993314743,0.13258147239685059,0.0,0.0,7.315854072570801,0.27,-0.09,-0.13,0.0
121.27548100,121275481,1,0.31,-0.38,307.05,0.07248334586620331,0.0273665152490139,0.0708547830581665,0.11416031420230865,0.0,0.0,7.326114177703857,0.27,-0.09,-0.13,0.0
121.37548700,121375487,1,0.31,-0.38,307.05,0.07198090851306915,0.028116457164287567,0.07216078042984009,0.1007406935095787,0.0,0.0,7.336374759674072,0.27,-0.09,-0.13,0.0
121.47547800,121475478,1,0.31,-0.38,307.04,0.07220673561096191,0.027817826718091965,0.07425658404827118,0.11487316340208054,0.0,0.0,7.348517894744873,0.27,-0.09,-0.13,0.0
121.57552200,121575522,1,0.31,-0.38,307.04,0.07206786423921585,0.02739739790558815,0.07608908414840698,0.12295422703027725,0.0,0.0,7.360329627990723,0.27,-0.09,-0.13,0.0
121.67552700,121675527,1,0.31,-0.38,307.04,0.07204463332891464,0.027234574779868126,0.07828257232904434,0.13419340550899506,0.0,0.0,7.373868942260742,0.27,-0.09,-0.13,0.0
121.77552300,121775523,1,0.32,-0.38,307.04,0.07224199175834656,0.02795534022152424,0.07998727262020111,0.12975050508975983,0.0,0.0,7.385786533355713,0.28,-0.09,-0.13,0.0
121.87547900,121875479,1,0.32,-0.38,307.04,0.07279831916093826,0.027644170448184013,0.08164647221565247,0.11249667406082153,0.0,0.0,7.396817207336426,0.28,-0.09,-0.13,0.0
121.97549100,121975491,1,0.32,-0.38,307.04,0.07359399646520615,0.027589544653892517,0.08333368599414825,0.1138206422328949,0.0,0.0,7.408705711364746,0.28,-0.09,-0.13,0.0
122.07552100,122075521,1,0.32,-0.38,307.04,0.07386812567710876,0.02682175301015377,0.08424139767885208,0.10226865857839584,0.0,0.0,7.418394088745117,0.28,-0.09,-0.13,0.0
122.17552200,122175522,1,0.32,-0.38,307.04,0.07391894608736038,0.026571303606033325,0.08562996983528137,0.09306260198354721,0.0,0.0,7.428339004516602,0.28,-0.09,-0.13,0.0
122.27549000,122275490,1,0.32,-0.38,307.04,0.07424503564834595,0.02579900436103344,0.08645088225603104,0.10217446833848953,0.0,0.0,7.43916130065918,0.28,-0.09,-0.13,0.0
122.37547900,122375479,1,0.33,-0.38,307.04,0.07483496516942978,0.025617564097046852,0.08614907413721085,0.08283407241106033,0.0,0.0,7.446705341339111,0.28,-0.09,-0.13,0.0
122.47548200,122475482,1,0.33,-0.38,307.04,0.07516006380319595,0.024500327184796333,0.08659464120864868,0.06575953215360641,0.0,0.0,7.454080104827881,0.28,-0.09,-0.13,0.0
122.57548000,122575480,1,0.32,-0.38,307.05,0.07630407810211182,0.024156218394637108,0.08652603626251221,0.06405981630086899,0.0,0.0,7.461076736450195,0.28,-0.09,-0.13,0.0
122.67548500,122675485,1,0.32,-0.38,307.04,0.07653792202472687,0.024458512663841248,0.08608108013868332,0.05495268478989601,0.0,0.0,7.466850757598877,0.28,-0.09,-0.13,0.0
122.77545800,122775458,1,0.32,-0.39,307.04,0.07655897736549377,0.02395692840218544,0.08577704429626465,0.03428731486201286,0.0,0.0,7.470383167266846,0.28,-0.09,-0.13,0.0
122.87548100,122875481,1,0.32,-0.38,307.04,0.07685215026140213,0.023347027599811554,0.08486030995845795,0.0013190899044275284,0.0,0.0,7.4709272384643555,0.28,-0.09,-0.13,0.0
122.97545400,122975454,1,0.32,-0.38,307.04,0.07737267762422562,0.023429829627275467,0.08462021499872208,0.00227480661123991,0.0,0.0,7.4731550216674805,0.28,-0.09,-0.13,0.0
123.07548800,123075488,1,0.32,-0.38,307.04,0.07713925838470459,0.02409261092543602,0.08446871489286423,0.025394439697265625,0.0,0.0,7.476546287536621,0.28,-0.09,-0.13,0.0
123.17551700,123175517,1,0.32,-0.38,307.05,0.07723812758922577,0.02456906996667385,0.08456889539957047,0.04084526374936104,0.0,0.0,7.480721950531006,0.28,-0.09,-0.13,0.0
123.27553300,123275533,1,0.33,-0.37,307.05,0.07753775268793106,0.024864481762051582,0.08401113748550415,0.04558906331658363,0.0,0.0,7.484951496124268,0.28,-0.09,-0.13,0.0
123.37552800,123375528,1,0.32,-0.37,307.05,0.07727878540754318,0.02459951862692833,0.08384451270103455,0.0436062216758728,0.0,0.0,7.489040374755859,0.28,-0.09,-0.13,0.0
123.47547900,123475479,1,0.32,-0.37,307.05,0.0778377503156662,0.02463456057012081,0.08405505120754242,0.061916280537843704,0.0,0.0,7.4957275390625,0.28,-0.09,-0.13,0.0
123.57552000,123575520,1,0.32,-0.37,307.05,0.07764927297830582,0.025203421711921692,0.08474940061569214,0.07483015954494476,0.0,0.0,7.5023674964904785,0.28,-0.09,-0.13,0.0
123.67549700,123675497,1,0.32,-0.37,307.05,0.07789620012044907,0.02553265355527401,0.0848134383559227,0.0655474066734314,0.0,0.0,7.508190155029297,0.28,-0.09,-0.13,0.0
123.77550600,123775506,1,0.32,-0.37,307.05,0.07860427349805832,0.02560875006020069,0.08439833670854568,0.05934707075357437,0.0,0.0,7.514097213745117,0.28,-0.09,-0.13,0.0
123.87546800,123875468,1,0.32,-0.36,307.06,0.07856260240077972,0.026003682985901833,0.08517108857631683,0.06664473563432693,0.0,0.0,7.520985126495361,0.28,-0.09,-0.13,0.0
123.97547300,123975473,1,0.32,-0.36,307.06,0.07794110476970673,0.026373952627182007,0.08550970256328583,0.06796516478061676,0.0,0.0,7.527401447296143,0.28,-0.09,-0.13,0.0
124.07548100,124075481,1,0.32,-0.36,307.06,0.07791413366794586,0.025912242010235786,0.08574975281953812,0.06490425020456314,0.0,0.0,7.533869743347168,0.28,-0.09,-0.13,0.0
124.17547300,124175473,1,0.32,-0.36,307.06,0.07792553305625916,0.026002943515777588,0.08523246645927429,0.052798833698034286,0.0,0.0,7.538830280303955,0.28,-0.09,-0.13,0.0
124.27548100,124275481,1,0.32,-0.35000000000000003,307.06,0.07755351066589355,0.025790316984057426,0.08486217260360718,0.03426093980669975,0.0,0.0,7.54241943359375,0.28,-0.09,-0.13,0.0
124.37548100,124375481,1,0.32,-0.35000000000000003,307.06,0.07677116245031357,0.02642597071826458,0.08521859347820282,0.04200705513358116,0.0,0.0,7.547774314880371,0.28,-0.09,-0.13,0.0
124.47548700,124475487,1,0.32,-0.35000000000000003,307.06,0.07650262117385864,0.026213033124804497,0.08474934101104736,0.04523971676826477,0.0,0.0,7.552121639251709,0.28,-0.09,-0.13,0.0
124.57546200,124575462,1,0.32,-0.35000000000000003,307.06,0.07594625651836395,0.027118900790810585,0.08389410376548767,0.04140433296561241,0.0,0.0,7.556570529937744,0.28,-0.09,-0.13,0.0
124.67548100,124675481,1,0.31,-0.35000000000000003,307.06,0.07518826425075531,0.027517003938555717,0.0834641382098198,0.04419167712330818,0.0,0.0,7.561150074005127,0.28,-0.09,-0.13,0.0
124.77551800,124775518,1,0.31,-0.35000000000000003,307.07,0.07506063580513,0.02692670188844204,0.08358961343765259,0.04251201078295708,0.0,0.0,7.5653300285339355,0.28,-0.09,-0.13,0.0
124.87554700,124875547,1,0.31,-0.35000000000000003,307.07,0.07443828135728836,0.02715468592941761,0.08263302594423294,0.012765835039317608,0.0,0.0,7.565952777862549,0.28,-0.09,-0.13,0.0
124.97552700,124975527,1,0.31,-0.35000000000000003,307.07,0.07402221113443375,0.02664867229759693,0.0808376893401146,-0.017962206155061722,0.0,0.0,7.56510591506958,0.28,-0.09,-0.13,0.0
125.07551400,125075514,1,0.31,-0.35000000000000003,307.06,0.0732768252491951,0.026916105300188065,0.08009776473045349,-0.008374756202101707,0.0,0.0,7.5659685134887695,0.28,-0.09,-0.13,0.0
126.07549900,126075499,1,0.3,-0.34,307.07,0.06667936593294144,0.020770566537976265,0.06892168521881104,0.006212461274117231,0.0,0.0,7.580962657928467,0.29,-0.09,-0.13,0.0
126.17549600,126175496,1,0.3,-0.34,307.07,0.06597856432199478,0.019522028043866158,0.06656976789236069,-0.01827126182615757,0.0,0.0,7.579936981201172,0.29,-0.09,-0.13,0.0
126.27550600,126275506,1,0.3,-0.34,307.08,0.06490125507116318,0.01862024888396263,0.06593544781208038,0.004129761829972267,0.0,0.0,7.581758499145508,0.29,-0.09,-0.13,0.0
126.37553500,126375535,1,0.3,-0.34,307.08,0.06421153247356415,0.0179709792137146,0.0647500678896904,0.016325224190950394,0.0,0.0,7.582943916320801,0.29,-0.09,-0.13,0.0
126.47553100,126475531,1,0.3,-0.34,307.08,0.06413096189498901,0.01686290092766285,0.06279528886079788,0.004201968666166067,0.0,0.0,7.583060264587402,0.29,-0.09,-0.13,0.0
126.57547300,126575473,1,0.3,-0.34,307.08,0.0636063814163208,0.016017334535717964,0.06118132174015045,-0.0026490867603570223,0.0,0.0,7.583072662353516,0.29,-0.1,-0.13,0.0
126.67553500,126675535,1,0.3,-0.34,307.08,0.06362076103687286,0.014829977415502071,0.05981963127851486,-0.011241277679800987,0.0,0.0,7.58192777633667,0.29,-0.1,-0.13,0.0
126.77551300,126775513,1,0.3,-0.34,307.08,0.0635887011885643,0.01375619787722826,0.058559659868478775,-0.010451702401041985,0.0,0.0,7.5815958976745605,0.29,-0.1,-0.13,0.0
126.87550700,126875507,1,0.31,-0.34,307.08,0.06298349797725677,0.013104894198477268,0.05615311115980148,-0.006625684909522533,0.0,0.0,7.581145763397217,0.29,-0.1,-0.13,0.0
126.97546900,126975469,1,0.3,-0.34,307.08,0.0627460852265358,0.01165472436696291,0.05438621714711189,-0.00389110972173512,0.0,0.0,7.580937385559082,0.29,-0.1,-0.13,0.0
127.07548000,127075480,1,0.3,-0.34,307.09000000000003,0.06244339048862457,0.01113174855709076,0.052897918969392776,-0.004405335057526827,0.0,0.0,7.580414295196533,0.29,-0.1,-0.14,0.0
127.17548200,127175482,1,0.3,-0.34,307.09000000000003,0.062142666429281235,0.011111154220998287,0.05194094032049179,-0.004553238395601511,0.0,0.0,7.580058574676514,0.29,-0.1,-0.13,0.0
127.27549200,127275492,1,0.3,-0.34,307.09000000000003,0.06181678920984268,0.010436689481139183,0.05074356123805046,0.008289172314107418,0.0,0.0,7.581313610076904,0.29,-0.1,-0.14,0.0
127.37548200,127375482,1,0.3,-0.33,307.09000000000003,0.0613149031996727,0.009636265225708485,0.049097683280706406,0.016999248415231705,0.0,0.0,7.582671165466309,0.29,-0.1,-0.14,0.0
127.47550100,127475501,1,0.3,-0.33,307.09000000000003,0.06052111089229584,0.009193642064929008,0.04806126281619072,0.024318980053067207,0.0,0.0,7.585027694702148,0.29,-0.1,-0.14,0.0
127.57548700,127575487,1,0.3,-0.33,307.09000000000003,0.06019929423928261,0.009225570596754551,0.04680788144469261,0.028689313679933548,0.0,0.0,7.587473392486572,0.29,-0.1,-0.14,0.0
127.67549300,127675493,1,0.3,-0.33,307.09000000000003,0.05966414883732796,0.00856781005859375,0.046156685799360275,0.03439560905098915,0.0,0.0,7.5907883644104,0.29,-0.1,-0.14,0.0
127.77551800,127775518,1,0.29,-0.33,307.09000000000003,0.05981465056538582,0.008142405189573765,0.044697027653455734,0.02984425611793995,0.0,0.0,7.593156814575195,0.29,-0.1,-0.14,0.0
127.87553500,127875535,1,0.29,-0.32,307.09000000000003,0.059102240949869156,0.007340993266552687,0.04353063553571701,0.01461916696280241,0.0,0.0,7.5944294929504395,0.29,-0.1,-0.14,0.0
127.97552700,127975527,1,0.29,-0.32,307.1,0.058790404349565506,0.007478267420083284,0.042469363659620285,0.01703442446887493,0.0,0.0,7.596778392791748,0.29,-0.1,-0.14,0.0
128.07549100,128075491,1,0.29,-0.32,307.09000000000003,0.05839499831199646,0.007143528200685978,0.04115968197584152,0.009776017628610134,0.0,0.0,7.597343444824219,0.29,-0.1,-0.14,0.0
128.17551200,128175512,1,0.29,-0.33,307.1,0.057905007153749466,0.0063829366117715836,0.03984731435775757,0.00023802611394785345,0.0,0.0,7.597846031188965,0.29,-0.1,-0.14,0.0
128.27552400,128275524,1,0.29,-0.33,307.1,0.05702101066708565,0.006121758371591568,0.038712240755558014,0.004969368223100901,0.0,0.0,7.598825454711914,0.29,-0.1,-0.14,0.0
128.37550600,128375506,1,0.29,-0.32,307.1,0.05625439062714577,0.00599290244281292,0.03792706876993179,0.008093048818409443,0.0,0.0,7.599704742431641,0.29,-0.1,-0.14,0.0
128.47548800,128475488,1,0.29,-0.32,307.11,0.055382244288921356,0.005482282489538193,0.03765552118420601,0.01585076004266739,0.0,0.0,7.601512432098389,0.29,-0.1,-0.14,0.0
128.57546100,128575461,1,0.29,-0.33,307.11,0.05552055686712265,0.0050397273153066635,0.037521231919527054,0.03223921358585358,0.0,0.0,7.604821681976318,0.29,-0.1,-0.14,0.0
128.67546000,128675460,1,0.29,-0.33,307.1,0.05520344153046608,0.004472776781767607,0.03694375231862068,0.03173191100358963,0.0,0.0,7.607185363769531,0.29,-0.1,-0.14,0.0
128.77546600,128775466,1,0.3,-0.33,307.1,0.05510001629590988,0.003508772933855653,0.036251600831747055,0.04367607831954956,0.0,0.0,7.6120500564575195,0.29,-0.1,-0.14,0.0
128.87548600,128875486,1,0.3,-0.33,307.1,0.05506166070699692,0.0030035115778446198,0.03623991459608078,0.04610168933868408,0.0,0.0,7.615540981292725,0.29,-0.1,-0.14,0.0
128.97546500,128975465,1,0.3,-0.33,307.11,0.05470336228609085,0.00297310552559793,0.03556276112794876,0.031697578728199005,0.0,0.0,7.618471622467041,0.29,-0.1,-0.14,0.0
129.07548600,129075486,1,0.3,-0.33,307.11,0.05440787225961685,0.0028244610875844955,0.03480813652276993,0.016280023381114006,0.0,0.0,7.619889736175537,0.29,-0.1,-0.14,0.0
129.17548500,129175485,1,0.3,-0.33,307.11,0.05446077883243561,0.003357592737302184,0.034158434718847275,0.010060845874249935,0.0,0.0,7.621556282043457,0.29,-0.1,-0.14,0.0
129.27545400,129275454,1,0.3,-0.33,307.11,0.054861344397068024,0.004045245703309774,0.03393473103642464,0.03132886067032814,0.0,0.0,7.625600814819336,0.29,-0.1,-0.14,0.0
129.37550000,129375500,1,0.3,-0.33,307.11,0.05484805256128311,0.003324679099023342,0.03332150727510452,0.03493352606892586,0.0,0.0,7.628297805786133,0.29,-0.1,-0.14,0.0
129.47553700,129475537,1,0.3,-0.33,307.11,0.05394564941525459,0.0025679143145680428,0.03322533518075943,0.034376852214336395,0.0,0.0,7.631915092468262,0.29,-0.1,-0.14,0.0
129.57552500,129575525,1,0.3,-0.33,307.11,0.05357184633612633,0.002280482091009617,0.03277638927102089,0.03461587056517601,0.0,0.0,7.634971618652344,0.29,-0.1,-0.14,0.0
129.67546300,129675463,1,0.31,-0.33,307.12,0.05388052761554718,0.0020986658055335283,0.03217005357146263,0.03870870918035507,0.0,0.0,7.63911247253418,0.29,-0.1,-0.14,0.0
129.77552000,129775520,1,0.31,-0.33,307.12,0.05421994999051094,0.001689080847427249,0.03189648687839508,0.03618239611387253,0.0,0.0,7.642152309417725,0.29,-0.1,-0.14,0.0
129.87552900,129875529,1,0.31,-0.33,307.13,0.05379846319556236,0.0025270015466958284,0.03265884518623352,0.0468430258333683,0.0,0.0,7.647429943084717,0.29,-0.1,-0.14,0.0
129.97548400,129975484,1,0.31,-0.33,307.13,0.05379647761583328,0.0028811991214752197,0.032632846385240555,0.06045889854431152,0.0,0.0,7.652979850769043,0.29,-0.1,-0.14,0.0
130.07549800,130075498,1,0.31,-0.33,307.14,0.053579285740852356,0.0040486278012394905,0.03190695121884346,0.036017533391714096,0.0,0.0,7.655400276184082,0.29,-0.1,-0.14,0.0
130.17547700,130175477,1,0.32,-0.33,307.14,0.05380205437541008,0.004278696142137051,0.031437069177627563,0.019157804548740387,0.0,0.0,7.657985210418701,0.29,-0.1,-0.14,0.0
130.27548100,130275481,1,0.32,-0.34,307.15000000000003,0.0540812686085701,0.004247677978128195,0.031209256500005722,0.029988599941134453,0.0,0.0,7.661713123321533,0.29,-0.1,-0.14,0.0
130.37548000,130375480,1,0.32,-0.34,307.15000000000003,0.05407571792602539,0.004645631182938814,0.03210072964429855,0.05773899331688881,0.0,0.0,7.667996406555176,0.29,-0.1,-0.14,0.0
130.47548500,130475485,1,0.32,-0.34,307.15000000000003,0.053535331040620804,0.004659813828766346,0.032914139330387115,0.08493354171514511,0.0,0.0,7.675999164581299,0.29,-0.1,-0.14,0.0
130.57548900,130575489,1,0.32,-0.34,307.16,0.05369185283780098,0.004596245940774679,0.03292204067111015,0.07895781099796295,0.0,0.0,7.682374477386475,0.29,-0.1,-0.14,0.0
130.67547900,130675479,1,0.33,-0.33,307.16,0.05457175150513649,0.004407000262290239,0.03206069767475128,0.05398388206958771,0.0,0.0,7.68720006942749,0.29,-0.1,-0.14,0.0
130.77545400,130775454,1,0.33,-0.33,307.16,0.05553262680768967,0.0042711165733635426,0.030603842809796333,0.021962108090519905,0.0,0.0,7.689155101776123,0.29,-0.1,-0.14,0.0
130.87547100,130875471,1,0.33,-0.33,307.17,0.05546810105443001,0.0045590694062411785,0.02977590821683407,0.002891101175919175,0.0,0.0,7.690483570098877,0.29,-0.1,-0.14,0.0
130.97553100,130975531,1,0.33,-0.33,307.17,0.05600127577781677,0.005109716206789017,0.02781946025788784,-0.02702338434755802,0.0,0.0,7.68794584274292,0.3,-0.1,-0.14,0.0
131.07553000,131075530,1,0.34,-0.33,307.17,0.05737719684839249,0.005450322292745113,0.025372521951794624,-0.05270345136523247,0.0,0.0,7.684220790863037,0.3,-0.1,-0.14,0.0
131.17552600,131175526,1,0.34,-0.33,307.17,0.058027543127536774,0.006593515630811453,0.024310167878866196,-0.0381079837679863,0.0,0.0,7.6823344230651855,0.3,-0.1,-0.14,0.0
131.27547900,131275479,1,0.34,-0.33,307.18,0.05891547352075577,0.006837804336100817,0.023210974410176277,-0.004754954017698765,0.0,0.0,7.682784080505371,0.3,-0.1,-0.14,0.0
131.37552900,131375529,1,0.35000000000000003,-0.33,307.18,0.060239944607019424,0.007483785040676594,0.022586639970541,0.01594030112028122,0.0,0.0,7.683899879455566,0.3,-0.1,-0.14,0.0
131.47548600,131475486,1,0.35000000000000003,-0.33,307.18,0.06190800294280052,0.008971909992396832,0.022213464602828026,0.01629519648849964,0.0,0.0,7.684707164764404,0.3,-0.1,-0.14,0.0
131.57550400,131575504,1,0.35000000000000003,-0.33,307.18,0.06263952702283859,0.009311840869486332,0.021218016743659973,0.002876716200262308,0.0,0.0,7.684371471405029,0.3,-0.1,-0.14,0.0
131.67545700,131675457,1,0.35000000000000003,-0.32,307.19,0.06347592175006866,0.009411931969225407,0.02041667513549328,0.006485793273895979,0.0,0.0,7.68557071685791,0.3,-0.1,-0.14,0.0
131.77548200,131775482,1,0.34,-0.32,307.19,0.06391110271215439,0.010799151845276356,0.019735733047127724,0.024324661120772362,0.0,0.0,7.688065528869629,0.3,-0.1,-0.14,0.0
131.87547800,131875478,1,0.35000000000000003,-0.32,307.2,0.06383820623159409,0.01129809021949768,0.019137226045131683,0.035668544471263885,0.0,0.0,7.691231727600098,0.3,-0.1,-0.14,0.0
131.97546200,131975462,1,0.35000000000000003,-0.33,307.2,0.06402587890625,0.011463964357972145,0.01837153360247612,0.02567995712161064,0.0,0.0,7.692818641662598,0.3,-0.1,-0.14,0.0
132.07548000,132075480,1,0.35000000000000003,-0.33,307.21,0.06437153369188309,0.011517379432916641,0.01820712350308895,0.02445264346897602,0.0,0.0,7.695601463317871,0.3,-0.1,-0.14,0.0
132.17548300,132175483,1,0.35000000000000003,-0.33,307.21,0.06514871120452881,0.012897975742816925,0.018024593591690063,0.022173427045345306,0.0,0.0,7.697332859039307,0.3,-0.1,-0.14,0.0
132.27548100,132275481,1,0.36,-0.33,307.22,0.06598362326622009,0.013639436103403568,0.017306096851825714,0.017135504633188248,0.0,0.0,7.699276924133301,0.3,-0.1,-0.14,0.0
132.37545400,132375454,1,0.36,-0.33,307.21,0.06607958674430847,0.014241897501051426,0.016505064442753792,0.027677811682224274,0.0,0.0,7.702416896820068,0.3,-0.1,-0.14,0.0
132.47549300,132475493,1,0.36,-0.33,307.21,0.06544657796621323,0.015546984039247036,0.01603192836046219,0.004193693399429321,0.0,0.0,7.701577186584473,0.3,-0.1,-0.14,0.0
132.57552100,132575521,1,0.36,-0.32,307.21,0.06582090258598328,0.017053069546818733,0.014930040575563908,-0.03104785643517971,0.0,0.0,7.699008464813232,0.3,-0.1,-0.14,0.0
132.67554300,132675543,1,0.36,-0.32,307.21,0.06655018776655197,0.017743131145834923,0.014164336957037449,-0.029090145602822304,0.0,0.0,7.697607040405273,0.3,-0.1,-0.14,0.0
132.77552400,132775524,1,0.37,-0.32,307.21,0.06794220954179764,0.019297553226351738,0.014382162131369114,-0.012484067119657993,0.0,0.0,7.696967124938965,0.3,-0.1,-0.14,0.0
132.87551400,132875514,1,0.37,-0.31,307.21,0.06865308433771133,0.020758556202054024,0.01436263881623745,0.004068221431225538,0.0,0.0,7.6976637840271,0.3,-0.1,-0.14,0.0
132.97549200,132975492,1,0.37,-0.31,307.2,0.06923985481262207,0.022028163075447083,0.014922305010259151,0.019230486825108528,0.0,0.0,7.699300765991211,0.3,-0.1,-0.14,0.0
133.07551100,133075511,1,0.37,-0.31,307.21,0.06916281580924988,0.02312590181827545,0.015172090381383896,0.026292698457837105,0.0,0.0,7.701412200927734,0.3,-0.1,-0.14,0.0
133.17550000,133175500,1,0.37,-0.31,307.21,0.06932638585567474,0.024439122527837753,0.015475332736968994,0.027293194085359573,0.0,0.0,7.70361852645874,0.3,-0.1,-0.14,0.0
133.27545700,133275457,1,0.37,-0.31,307.21,0.06900288164615631,0.025359807536005974,0.015541884116828442,0.010631989687681198,0.0,0.0,7.703857421875,0.3,-0.1,-0.14,0.0
133.37548000,133375480,1,0.37,-0.31,307.2,0.06928065419197083,0.027193967252969742,0.01609334908425808,0.007592880167067051,0.0,0.0,7.7052903175354,0.3,-0.1,-0.14,0.0
133.47548100,133475481,1,0.37,-0.31,307.2,0.0696222335100174,0.028522104024887085,0.01677928864955902,0.016368607059121132,0.0,0.0,7.706943035125732,0.3,-0.1,-0.14,0.0
133.57547800,133575478,1,0.37,-0.31,307.2,0.06949135661125183,0.029147742316126823,0.01580636017024517,-0.011981682851910591,0.0,0.0,7.704813480377197,0.3,-0.1,-0.14,0.0
133.67548800,133675488,1,0.38,-0.31,307.21,0.06995082646608353,0.02956397272646427,0.014188766479492188,-0.043114278465509415,0.0,0.0,7.701306343078613,0.3,-0.1,-0.14,0.0
133.77547900,133775479,1,0.38,-0.31,307.21,0.0699458122253418,0.028945911675691605,0.012752542272210121,-0.04721067100763321,0.0,0.0,7.6978325843811035,0.3,-0.1,-0.14,0.0
133.87547700,133875477,1,0.37,-0.31,307.22,0.07017294317483902,0.028676671907305717,0.01178048737347126,-0.040359750390052795,0.0,0.0,7.694674968719482,0.3,-0.1,-0.14,0.0
133.97545400,133975454,1,0.37,-0.31,307.22,0.07015569508075714,0.028359534218907356,0.011178775690495968,-0.042627494782209396,0.0,0.0,7.690480709075928,0.3,-0.1,-0.14,0.0
134.07548400,134075484,1,0.37,-0.31,307.22,0.06996331363916397,0.02804620936512947,0.009947821497917175,-0.05276545137166977,0.0,0.0,7.685473918914795,0.3,-0.1,-0.14,0.0
134.17553100,134175531,1,0.37,-0.31,307.22,0.07086197286844254,0.027910102158784866,0.00921727903187275,-0.04116625338792801,0.0,0.0,7.682361602783203,0.3,-0.1,-0.14,0.0
134.27552700,134275527,1,0.38,-0.31,307.22,0.07114464044570923,0.0278365109115839,0.008561679162085056,-0.028645407408475876,0.0,0.0,7.67932653427124,0.3,-0.1,-0.14,0.0
134.37547100,134375471,1,0.38,-0.31,309.19,0.07171263545751572,0.027512475848197937,0.01130093727260828,-18.845149993896484,0.0,0.0,5.332101345062256,0.3,-0.1,-0.14,0.0
134.47553000,134475530,1,0.38,-0.31,309.22,0.07380861043930054,0.027587322518229485,0.016929814592003822,-25.75565528869629,0.0,0.0,3.455205202102661,0.3,-0.1,-0.14,0.0
134.57549000,134575490,1,0.38,-0.31,309.17,0.07607369124889374,0.028598828241229057,0.02177061326801777,-18.119169235229492,0.0,0.0,2.1695756912231445,0.3,-0.1,-0.14,0.0
134.67552300,134675523,1,0.39,-0.31,308.95,0.07883133739233017,0.030067317187786102,0.02501091919839382,-10.194893836975098,0.0,0.0,1.290170669555664,0.3,-0.1,-0.14,0.0
134.77551100,134775511,1,0.4,-0.31,308.77,0.08272381871938705,0.03143475577235222,0.027843769639730453,-5.1388959884643555,0.0,0.0,0.6921328902244568,0.3,-0.1,-0.14,0.0
134.87547800,134875478,1,0.41000000000000003,-0.31,308.65000000000003,0.08640042692422867,0.03400244936347008,0.029598591849207878,-2.4736857414245605,0.0,0.0,0.28810906410217285,0.3,-0.1,-0.14,0.0
134.97548200,134975482,1,0.41000000000000003,-0.31,308.55,0.08990120887756348,0.035506635904312134,0.031116968020796776,-1.164015531539917,0.0,0.0,0.018237709999084473,0.3,-0.1,-0.14,0.0
135.07548400,135075484,1,0.42,-0.31,308.51,0.0942729189991951,0.037385452538728714,0.031513430178165436,-0.5106866955757141,0.0,0.0,-0.15973275899887085,0.3,-0.1,-0.14,0.0
135.17548400,135175484,1,0.42,-0.3,308.45,0.09889939427375793,0.03939172253012657,0.030667493119835854,-0.19793590903282166,0.0,0.0,-0.27465370297431946,0.3,-0.1,-0.14,0.0
135.27548700,135275487,1,0.43,-0.31,308.35,0.10380494594573975,0.04177522286772728,0.029919328168034554,-0.03270048275589943,0.0,0.0,-0.34688887000083923,0.3,-0.1,-0.14,0.0
135.37552200,135375522,1,0.43,-0.31,308.23,0.1084740161895752,0.04347608610987663,0.028079625219106674,0.04813611879944801,0.0,0.0,-0.39060163497924805,0.3,-0.1,-0.14,0.0
135.47545700,135475457,1,0.44,-0.31,308.13,0.11369185894727707,0.045717962086200714,0.02749720774590969,0.10757633298635483,0.0,0.0,-0.412625253200531,0.3,-0.1,-0.14,0.0
135.57548700,135575487,1,0.44,-0.31,308.06,0.11873874813318253,0.04822802171111107,0.02683982253074646,0.15999451279640198,0.0,0.0,-0.4196292459964752,0.3,-0.1,-0.14,0.0
135.67549900,135675499,1,0.45,-0.31,308.0,0.12349064648151398,0.05021561309695244,0.026371322572231293,0.1821618378162384,0.0,0.0,-0.4180193245410919,0.3,-0.1,-0.14,0.0
135.77553400,135775534,1,0.45,-0.31,307.95,0.12897680699825287,0.05299567058682442,0.025337429717183113,0.18245093524456024,0.0,0.0,-0.41105106472969055,0.3,-0.1,-0.14,0.0
135.87554100,135875541,1,0.46,-0.32,307.88,0.13473960757255554,0.05590551346540451,0.025075647979974747,0.17974966764450073,0.0,0.0,-0.40042993426322937,0.3,-0.1,-0.14,0.0
135.97550400,135975504,1,0.46,-0.32,307.84000000000003,0.13994455337524414,0.058170147240161896,0.02415049821138382,0.17643091082572937,0.0,0.0,-0.3876151144504547,0.3,-0.1,-0.14,0.0
136.07551200,136075512,1,0.47000000000000003,-0.32,307.84000000000003,0.14549653232097626,0.060335125774145126,0.022859983146190643,0.1639198362827301,0.0,0.0,-0.3745090961456299,0.3,-0.1,-0.14,0.0
136.17549100,136175491,1,0.47000000000000003,-0.32,307.88,0.15063424408435822,0.0628754124045372,0.022155478596687317,0.15249216556549072,0.0,0.0,-0.36103418469429016,0.3,-0.1,-0.14,0.0
136.27551000,136275510,1,0.47000000000000003,-0.33,307.95,0.1555114984512329,0.06481281667947769,0.02084020897746086,0.14202913641929626,0.0,0.0,-0.3478221893310547,0.3,-0.1,-0.14,0.0
136.37550300,136375503,1,0.48,-0.33,308.03000000000003,0.16037875413894653,0.06655861437320709,0.019411953166127205,0.1389496624469757,0.0,0.0,-0.33403512835502625,0.3,-0.1,-0.14,0.0
136.47549000,136475490,1,0.49,-0.33,308.09000000000003,0.1654537469148636,0.06819502264261246,0.017452815547585487,0.12760181725025177,0.0,0.0,-0.3218950927257538,0.3,-0.1,-0.14,0.0
136.57549000,136575490,1,0.49,-0.33,308.14,0.17091496288776398,0.07040119171142578,0.01624423824250698,0.10845829546451569,0.0,0.0,-0.31098684668540955,0.3,-0.1,-0.14,0.0
136.67548600,136675486,1,0.49,-0.33,308.14,0.17541217803955078,0.0728050246834755,0.015566077083349228,0.10174304246902466,0.0,0.0,-0.3002018928527832,0.3,-0.1,-0.14,0.0
136.77549500,136775495,1,0.5,-0.33,308.12,0.18017856776714325,0.07461454719305038,0.014352836646139622,0.08530537039041519,0.0,0.0,-0.29168257117271423,0.3,-0.1,-0.14,0.0
136.87548900,136875489,1,0.5,-0.34,308.09000000000003,0.18464036285877228,0.07693598419427872,0.013819909654557705,0.06886313855648041,0.0,0.0,-0.2840566039085388,0.3,-0.1,-0.14,0.0
136.97547800,136975478,1,0.51,-0.34,308.07,0.19109320640563965,0.07812146842479706,0.012695430777966976,0.06550426781177521,0.0,0.0,-0.27670300006866455,0.3,-0.1,-0.14,0.0
137.07549500,137075495,1,0.52,-0.34,308.03000000000003,0.1949913203716278,0.07926641404628754,0.010033367201685905,0.06708939373493195,0.0,0.0,-0.26916924118995667,0.3,-0.1,-0.14,0.0
137.17552900,137175529,1,0.52,-0.34,307.97,0.20051385462284088,0.08157098293304443,0.009403886273503304,0.06175851449370384,0.0,0.0,-0.2629624605178833,0.3,-0.1,-0.14,0.0
137.27551400,137275514,1,0.53,-0.34,307.97,0.20523963868618011,0.08371149003505707,0.007908829487860203,0.0421467199921608,0.0,0.0,-0.2586408257484436,0.3,-0.1,-0.14,0.0
137.37553000,137375530,1,0.54,-0.34,307.86,0.20953510701656342,0.08644156903028488,0.00597863644361496,0.0267622172832489,0.0,0.0,-0.25517207384109497,0.3,-0.1,-0.14,0.0
137.47547400,137475474,1,0.55,-0.34,307.75,0.21491235494613647,0.08796415477991104,0.004055167082697153,0.020286163315176964,0.0,0.0,-0.25233185291290283,0.3,-0.1,-0.14,0.0
137.57553800,137575538,1,0.55,-0.35000000000000003,307.7,0.21807296574115753,0.09092225134372711,0.0029895142652094364,0.018494416028261185,0.0,0.0,-0.24979695677757263,0.3,-0.1,-0.14,0.0
137.67552100,137675521,1,0.56,-0.35000000000000003,307.56,0.2230718731880188,0.09162359684705734,0.002040297258645296,0.0227263905107975,0.0,0.0,-0.24690119922161102,0.3,-0.1,-0.14,0.0
137.77551000,137775510,1,0.5700000000000001,-0.35000000000000003,307.43,0.2261992245912552,0.09432902932167053,-0.0001357911532977596,0.02287893183529377,0.0,0.0,-0.24443265795707703,0.3,-0.1,-0.14,0.0
137.87550200,137875502,1,0.58,-0.36,307.39,0.22925329208374023,0.09601017087697983,-0.0010693372460082173,0.019409487023949623,0.0,0.0,-0.24232934415340424,0.3,-0.1,-0.14,0.0
137.97551500,137975515,1,0.59,-0.36,307.3,0.2331215888261795,0.0970349907875061,-0.002438392024487257,0.012510864064097404,0.0,0.0,-0.24098221957683563,0.3,-0.1,-0.14,0.0
138.07548100,138075481,1,0.6,-0.36,307.2,0.23561561107635498,0.09923325479030609,-0.003603904275223613,0.013257843442261219,0.0,0.0,-0.23912730813026428,0.3,-0.1,-0.14,0.0
138.17548900,138175489,1,0.61,-0.36,307.18,0.23984304070472717,0.1004754826426506,-0.005072530824691057,0.014800313860177994,0.0,0.0,-0.2375188022851944,0.3,-0.1,-0.14,0.0
138.27548600,138275486,1,0.62,-0.36,307.1,0.24140101671218872,0.10232312977313995,-0.006033599376678467,0.01804775558412075,0.0,0.0,-0.23541763424873352,0.3,-0.1,-0.14,0.0
138.37549400,138375494,1,0.62,-0.36,307.01,0.24363581836223602,0.10275986045598984,-0.007205859292298555,0.013069936074316502,0.0,0.0,-0.23435711860656738,0.3,-0.1,-0.14,0.0
138.47548800,138475488,1,0.63,-0.36,307.02,0.24558568000793457,0.10330662876367569,-0.009142382070422173,-0.0018075349507853389,0.0,0.0,-0.2344731241464615,0.3,-0.1,-0.14,0.0
138.57548900,138575489,1,0.64,-0.36,306.98,0.24577346444129944,0.10400267690420151,-0.010505198501050472,-0.0215004850178957,0.0,0.0,-0.23650677502155304,0.3,-0.1,-0.14,0.0
138.67546800,138675468,1,0.65,-0.36,306.93,0.24816684424877167,0.10347499698400497,-0.01286553218960762,-0.05323166027665138,0.0,0.0,-0.24147182703018188,0.3,-0.1,-0.14,0.0
138.77553700,138775537,1,0.65,-0.36,306.96,0.24815626442432404,0.10423997044563293,-0.014629775658249855,-0.07177216559648514,0.0,0.0,-0.24727290868759155,0.3,-0.1,-0.14,0.0
138.87554200,138875542,1,0.66,-0.36,306.93,0.248573899269104,0.10451643168926239,-0.015905793756246567,-0.054900120943784714,0.0,0.0,-0.25098511576652527,0.3,-0.1,-0.14,0.0
138.97553700,138975537,1,0.67,-0.36,306.85,0.2485034167766571,0.10530618578195572,-0.0177249014377594,-0.03780827298760414,0.0,0.0,-0.25447261333465576,0.3,-0.1,-0.14,0.0
139.07548100,139075481,1,0.67,-0.36,306.83,0.2484244555234909,0.10522063821554184,-0.02018379606306553,-0.047531019896268845,0.0,0.0,-0.2595841884613037,0.3,-0.1,-0.14,0.0
139.17552400,139175524,1,0.67,-0.36,306.76,0.24787922203540802,0.10493708401918411,-0.02116480842232704,-0.05196226015686989,0.0,0.0,-0.2643284797668457,0.3,-0.1,-0.14,0.0
139.27550100,139275501,1,0.68,-0.37,306.67,0.2462369054555893,0.1059536263346672,-0.021906664595007896,-0.05216086655855179,0.0,0.0,-0.2695156931877136,0.3,-0.1,-0.14,0.0
139.37552000,139375520,1,0.68,-0.37,306.67,0.24561074376106262,0.10461273044347763,-0.02310832403600216,-0.053934622555971146,0.0,0.0,-0.2745874524116516,0.3,-0.1,-0.14,0.0
139.47551400,139475514,1,0.68,-0.37,306.64,0.2437252551317215,0.1039753183722496,-0.02453547529876232,-0.06244603171944618,0.0,0.0,-0.2809167802333832,0.3,-0.1,-0.14,0.0
139.57549000,139575490,1,0.6900000000000001,-0.38,306.57,0.24229024350643158,0.1031983494758606,-0.02573176473379135,-0.06688934564590454,0.0,0.0,-0.2870282232761383,0.3,-0.1,-0.14,0.0
139.67550100,139675501,1,0.6900000000000001,-0.37,306.57,0.24055345356464386,0.10268880426883698,-0.027755776420235634,-0.07770762592554092,0.0,0.0,-0.2948691248893738,0.3,-0.1,-0.14,0.0
139.77547800,139775478,1,0.6900000000000001,-0.37,306.53000000000003,0.2380887269973755,0.10279223322868347,-0.02949264459311962,-0.08178730309009552,0.0,0.0,-0.302152544260025,0.3,-0.1,-0.13,0.0
139.87549100,139875491,1,0.7000000000000001,-0.37,306.45,0.23591195046901703,0.10142664611339569,-0.031118804588913918,-0.07079694420099258,0.0,0.0,-0.3086710572242737,0.3,-0.1,-0.13,0.0
139.97548500,139975485,1,0.71,-0.37,306.44,0.2334471195936203,0.10051920264959335,-0.0314987488090992,-0.05476732552051544,0.0,0.0,-0.3139130473136902,0.3,-0.1,-0.13,0.0
140.07549000,140075490,1,0.72,-0.37,306.42,0.2320328950881958,0.10023485124111176,-0.03223779797554016,-0.04484012722969055,0.0,0.0,-0.31872880458831787,0.3,-0.1,-0.13,0.0
140.17546700,140175467,1,0.72,-0.38,306.35,0.23004496097564697,0.10000293701887131,-0.0324103944003582,-0.03982139751315117,0.0,0.0,-0.32301977276802063,0.3,-0.1,-0.13,0.0
140.27549800,140275498,1,0.73,-0.38,306.33,0.22990776598453522,0.10117708146572113,-0.03308796137571335,-0.05129479244351387,0.0,0.0,-0.32891038060188293,0.3,-0.1,-0.13,0.0
140.37553300,140375533,1,0.74,-0.38,306.25,0.22914789617061615,0.10086005181074142,-0.034490909427404404,-0.06782683730125427,0.0,0.0,-0.33552786707878113,0.3,-0.1,-0.13,0.0
140.47553800,140475538,1,0.75,-0.38,306.17,0.22902438044548035,0.10160843282938004,-0.03550044819712639,-0.07042246311903,0.0,0.0,-0.34201517701148987,0.3,-0.1,-0.13,0.0
140.57547200,140575472,1,0.76,-0.38,306.15000000000003,0.22856341302394867,0.1022050753235817,-0.03688819333910942,-0.08028873801231384,0.0,0.0,-0.35003361105918884,0.3,-0.1,-0.13,0.0
140.67553500,140675535,1,0.77,-0.39,306.13,0.22850923240184784,0.10270725190639496,-0.037769075483083725,-0.08488944917917252,0.0,0.0,-0.3578145503997803,0.3,-0.1,-0.13,0.0
140.77553200,140775532,1,0.78,-0.39,306.09000000000003,0.22936443984508514,0.10430064052343369,-0.038629233837127686,-0.07965636998414993,0.0,0.0,-0.3653026819229126,0.3,-0.1,-0.13,0.0
140.87549800,140875498,1,0.79,-0.39,306.1,0.2293235808610916,0.10428182035684586,-0.039228033274412155,-0.07242640107870102,0.0,0.0,-0.3722844421863556,0.3,-0.1,-0.13,0.0
140.97552500,140975525,1,0.79,-0.39,306.09000000000003,0.23210781812667847,0.1060136929154396,-0.039119601249694824,-0.06229330226778984,0.0,0.0,-0.37845921516418457,0.3,-0.1,-0.13,0.0
141.07547100,141075471,1,0.81,-0.39,306.08,0.23331667482852936,0.10713937133550644,-0.039825357496738434,-0.07008375972509384,0.0,0.0,-0.3860726058483124,0.3,-0.1,-0.13,0.0
141.17546900,141175469,1,0.81,-0.39,306.1,0.23537622392177582,0.10781911015510559,-0.03961964324116707,-0.04861241951584816,0.0,0.0,-0.3897620141506195,0.3,-0.1,-0.13,0.0
141.27549400,141275494,1,0.8200000000000001,-0.4,306.09000000000003,0.23813045024871826,0.11058687418699265,-0.03892936557531357,-0.01055754441767931,0.0,0.0,-0.39128491282463074,0.3,-0.1,-0.13,0.0
141.37548400,141375484,1,0.8300000000000001,-0.4,306.06,0.23956407606601715,0.11009827256202698,-0.03837365657091141,-0.0070204236544668674,0.0,0.0,-0.39349886775016785,0.3,-0.1,-0.13,0.0
141.47550400,141475504,1,0.84,-0.4,306.05,0.2430804967880249,0.11233051866292953,-0.03823664411902428,-0.027140658348798752,0.0,0.0,-0.3972819149494171,0.3,-0.1,-0.13,0.0
141.57549000,141575490,1,0.85,-0.41000000000000003,306.01,0.24542491137981415,0.11282797902822495,-0.038179412484169006,-0.045568279922008514,0.0,0.0,-0.40188315510749817,0.3,-0.1,-0.13,0.0
141.67548700,141675487,1,0.86,-0.41000000000000003,305.96,0.2475259006023407,0.11304040253162384,-0.038564808666706085,-0.0563761405646801,0.0,0.0,-0.407182514667511,0.3,-0.1,-0.13,0.0
141.77548200,141775482,1,0.87,-0.41000000000000003,305.93,0.2506701946258545,0.11652187258005142,-0.03973284736275673,-0.0724862590432167,0.0,0.0,-0.4141799211502075,0.3,-0.1,-0.13,0.0
141.87550300,141875503,1,0.87,-0.41000000000000003,305.89,0.2538629174232483,0.11575402319431305,-0.03946365416049957,-0.07731851935386658,0.0,0.0,-0.4209933876991272,0.3,-0.1,-0.13,0.0
141.97553100,141975531,1,0.88,-0.41000000000000003,305.86,0.25741034746170044,0.11791600286960602,-0.03981673717498779,-0.04984235391020775,0.0,0.0,-0.4247310161590576,0.3,-0.1,-0.13,0.0
142.07553500,142075535,1,0.89,-0.41000000000000003,305.85,0.26091495156288147,0.11888018995523453,-0.03940463811159134,-0.03083186037838459,0.0,0.0,-0.42844128608703613,0.3,-0.1,-0.13,0.0
142.17548100,142175481,1,0.9,-0.41000000000000003,305.86,0.26486068964004517,0.11918541043996811,-0.03954228386282921,-0.023091541603207588,0.0,0.0,-0.4309903681278229,0.3,-0.1,-0.13,0.0
142.27552300,142275523,1,0.91,-0.42,305.87,0.269629567861557,0.12251202017068863,-0.0388239324092865,-0.032017964869737625,0.0,0.0,-0.43534624576568604,0.3,-0.1,-0.13,0.0
142.37552900,142375529,1,0.91,-0.42,305.88,0.27317455410957336,0.1217290461063385,-0.03888372704386711,-0.04632220044732094,0.0,0.0,-0.43990135192871094,0.3,-0.1,-0.13,0.0
142.47550100,142475501,1,0.92,-0.42,305.87,0.27657729387283325,0.12426326423883438,-0.039144743233919144,-0.0548970066010952,0.0,0.0,-0.44531697034835815,0.3,-0.1,-0.13,0.0
142.57552000,142575520,1,0.93,-0.42,305.85,0.2799813747406006,0.12640805542469025,-0.038641735911369324,-0.05657386779785156,0.0,0.0,-0.45047539472579956,0.3,-0.1,-0.13,0.0
142.67548700,142675487,1,0.93,-0.42,305.83,0.2838214039802551,0.12809453904628754,-0.03795997053384781,-0.04135473072528839,0.0,0.0,-0.4540204107761383,0.3,-0.1,-0.13,0.0
142.77548600,142775486,1,0.9400000000000001,-0.42,305.8,0.2892288267612457,0.13138431310653687,-0.03743438795208931,-0.04104513302445412,0.0,0.0,-0.45876216888427734,0.3,-0.1,-0.13,0.0
142.87547900,142875479,1,0.9500000000000001,-0.42,305.79,0.2944949269294739,0.13090366125106812,-0.03708378225564957,-0.0433013029396534,0.0,0.0,-0.46286579966545105,0.3,-0.1,-0.13,0.0
142.97548500,142975485,1,0.96,-0.42,305.82,0.29971593618392944,0.13320668041706085,-0.03731083124876022,-0.043892379850149155,0.0,0.0,-0.46741706132888794,0.3,-0.1,-0.13,0.0
143.07548500,143075485,1,0.96,-0.42,305.86,0.30532515048980713,0.13477230072021484,-0.03727906942367554,-0.05345631763339043,0.0,0.0,-0.47288355231285095,0.3,-0.1,-0.13,0.0
143.17548700,143175487,1,0.97,-0.43,305.89,0.31056463718414307,0.13707877695560455,-0.037217725068330765,-0.06734646111726761,0.0,0.0,-0.4795638620853424,0.3,-0.1,-0.13,0.0
143.27549100,143275491,1,0.98,-0.43,305.93,0.3164447844028473,0.1411886215209961,-0.03684869408607483,-0.04972190409898758,0.0,0.0,-0.4832267463207245,0.3,-0.1,-0.13,0.0
143.37548500,143375485,1,0.99,-0.43,305.96,0.3220485746860504,0.14212313294410706,-0.03601039573550224,-0.03520248085260391,0.0,0.0,-0.487368106842041,0.3,-0.1,-0.13,0.0
143.47551400,143475514,1,0.99,-0.43,305.97,0.3280158042907715,0.14490167796611786,-0.035297781229019165,-0.022476904094219208,0.0,0.0,-0.489410400390625,0.3,-0.1,-0.13,0.0
143.57554200,143575542,1,1.01,-0.44,305.99,0.33506059646606445,0.14728723466396332,-0.03476957604289055,-0.02152511291205883,0.0,0.0,-0.49262458086013794,0.29,-0.1,-0.13,0.0
143.67554400,143675544,1,1.01,-0.44,306.02,0.3415835201740265,0.14905332028865814,-0.034042518585920334,-0.01983659714460373,0.0,0.0,-0.49444153904914856,0.29,-0.1,-0.13,0.0
143.77550100,143775501,1,1.02,-0.45,306.02,0.34777307510375977,0.15242764353752136,-0.033451057970523834,-0.02159516140818596,0.0,0.0,-0.4973016381263733,0.3,-0.1,-0.13,0.0
143.87551700,143875517,1,1.03,-0.45,306.01,0.35380819439888,0.1537485122680664,-0.03287551924586296,-0.033200301229953766,0.0,0.0,-0.5007339715957642,0.3,-0.1,-0.13,0.0
143.97550100,143975501,1,1.04,-0.45,305.99,0.36001357436180115,0.15679800510406494,-0.032974179834127426,-0.03981485962867737,0.0,0.0,-0.5044999122619629,0.3,-0.1,-0.13,0.0
144.07548800,144075488,1,1.05,-0.45,305.95,0.3661327064037323,0.1597631424665451,-0.032972417771816254,-0.021587621420621872,0.0,0.0,-0.5056882500648499,0.29,-0.1,-0.13,0.0
144.17549100,144175491,1,1.06,-0.45,305.93,0.37244635820388794,0.1620030403137207,-0.032985880970954895,-0.006690792739391327,0.0,0.0,-0.5068981647491455,0.29,-0.1,-0.13,0.0
144.27548900,144275489,1,1.07,-0.45,305.92,0.3786982297897339,0.16553056240081787,-0.032789453864097595,-0.016607243567705154,0.0,0.0,-0.5093070268630981,0.29,-0.1,-0.13,0.0
144.37547800,144375478,1,1.08,-0.45,305.91,0.3856983184814453,0.16659848392009735,-0.032169196754693985,-0.028247274458408356,0.0,0.0,-0.5122474431991577,0.29,-0.1,-0.13,0.0
144.47547500,144475475,1,1.09,-0.46,305.90000000000003,0.39251625537872314,0.16987064480781555,-0.03175092861056328,-0.03252245485782623,0.0,0.0,-0.5152660012245178,0.29,-0.1,-0.13,0.0
144.57549300,144575493,1,1.1,-0.46,305.90000000000003,0.4000609815120697,0.17240065336227417,-0.03126271069049835,-0.03497802093625069,0.0,0.0,-0.518639862537384,0.29,-0.1,-0.13,0.0
144.67548600,144675486,1,1.12,-0.47000000000000003,305.91,0.4078983664512634,0.17409315705299377,-0.031196899712085724,-0.03426544740796089,0.0,0.0,-0.5217532515525818,0.29,-0.1,-0.13,0.0
144.77548900,144775489,1,1.1300000000000001,-0.48,305.94,0.4163341820240021,0.17720282077789307,-0.030423777177929878,-0.019674884155392647,0.0,0.0,-0.5232997536659241,0.29,-0.1,-0.13,0.0
144.87547600,144875476,1,1.1400000000000001,-0.49,305.99,0.42351141571998596,0.1783483326435089,-0.02984318695962429,-0.01717885211110115,0.0,0.0,-0.5256843566894531,0.29,-0.1,-0.13,0.0
144.97546500,144975465,1,1.1500000000000001,-0.49,306.03000000000003,0.4309804141521454,0.1810835897922516,-0.029528265818953514,-0.026745105162262917,0.0,0.0,-0.5285575985908508,0.29,-0.1,-0.13,0.0
145.07552500,145075525,1,1.1500000000000001,-0.5,306.07,0.43820759654045105,0.18336760997772217,-0.029599318280816078,-0.04079845920205116,0.0,0.0,-0.5328155755996704,0.29,-0.1,-0.13,0.0
145.17553300,145175533,1,1.16,-0.5,306.11,0.4451605975627899,0.1844763308763504,-0.029271818697452545,-0.043921589851379395,0.0,0.0,-0.5365710854530334,0.29,-0.1,-0.13,0.0
145.27553400,145275534,1,1.1500000000000001,-0.51,306.12,0.45178112387657166,0.1867537498474121,-0.029057079926133156,-0.04617895185947418,0.0,0.0,-0.5411479473114014,0.29,-0.1,-0.13,0.0
145.37551500,145375515,1,1.16,-0.51,306.14,0.45634740591049194,0.18723613023757935,-0.028103625401854515,-0.022614439949393272,0.0,0.0,-0.5421878695487976,0.29,-0.1,-0.13,0.0
145.47548900,145475489,1,1.16,-0.51,306.13,0.46201545000076294,0.18931332230567932,-0.02787632867693901,-0.00873439759016037,0.0,0.0,-0.5440689325332642,0.29,-0.1,-0.13,0.0
145.57550700,145575507,1,1.17,-0.51,306.11,0.46858108043670654,0.19209446012973785,-0.02707265317440033,-0.027638986706733704,0.0,0.0,-0.5476738214492798,0.29,-0.1,-0.13,0.0
145.67551900,145675519,1,1.18,-0.51,306.08,0.47471487522125244,0.1950630247592926,-0.027715696021914482,-0.06548155844211578,0.0,0.0,-0.5546911358833313,0.29,-0.1,-0.13,0.0
