timestamp,TimeUS,DesRoll,Roll,DesPitch,Pitch,DesYaw,Yaw,ErrRP,ErrYaw,AEKF
1682338723.48049688,188867786,0.0,0.04,0.0,0.56,345.86,345.85,0.0,0.09,3
1682338723.58042693,188967716,0.0,0.04,0.0,0.55,345.86,345.81,0.0,0.09,3
1682338723.68064404,189067933,0.0,0.05,0.0,0.55,345.86,345.77,0.0,0.09,3
1682338723.78061700,189167906,0.0,0.05,0.0,0.55,345.86,345.74,0.0,0.09,3
1682338723.88045692,189267746,0.0,0.05,0.0,0.55,345.86,345.7,0.0,0.09,3
1682338723.98049998,189367789,0.0,0.05,0.0,0.55,345.86,345.66,0.0,0.09,3
1682338724.08015084,189467440,0.0,0.05,0.0,0.54,345.86,345.62,0.0,0.09,3
1682338724.18021584,189567505,0.0,0.05,0.0,0.54,345.86,345.58,0.0,0.08,3
1682338724.28017497,189667464,0.0,0.06,0.0,0.53,345.86,345.54,0.01,0.08,3
1682338724.38021398,189767503,0.0,0.06,0.0,0.53,345.86,345.51,0.01,0.08,3
1682338724.48020792,189867497,0.0,0.06,0.0,0.53,345.86,345.47,0.0,0.08,3
1682338724.58012295,189967412,0.0,0.06,0.0,0.53,345.86,345.43,0.0,0.08,3
1682338724.68002605,190067315,0.0,0.06,0.0,0.53,345.86,345.40000000000003,0.0,0.08,3
1682338724.78052807,190167817,0.0,0.07,0.0,0.53,345.86,345.36,0.0,0.08,3
1682338724.88044095,190267730,0.0,0.07,0.0,0.53,345.86,345.32,0.0,0.08,3
1682338724.98029399,190367583,0.0,0.08,0.0,0.53,345.86,345.28000000000003,0.0,0.07,3
1682338725.08018303,190467472,0.0,0.08,0.0,0.52,345.86,345.24,0.0,0.08,3
1682338725.18019700,190567486,0.0,0.08,0.0,0.53,345.86,345.21,0.0,0.08,3
1682338725.28021002,190667499,0.0,0.08,0.0,0.53,345.86,345.17,0.01,0.08,3
1682338725.38020301,190767492,0.0,0.08,0.0,0.53,345.86,345.14,0.01,0.08,3
1682338725.48048496,190867774,0.0,0.09,0.0,0.53,345.09000000000003,345.1,0.01,0.08,3
1682338725.58059788,190967887,0.0,0.09,0.0,0.53,345.06,345.07,0.01,0.08,3
1682338725.68053293,191067822,0.0,0.09,0.0,0.52,345.03000000000003,345.04,0.01,0.08,3
1682338725.78046083,191167750,0.0,0.1,0.0,0.52,344.99,345.0,0.01,0.07,3
1682338725.88042998,191267719,0.0,0.1,0.0,0.52,344.94,344.95,0.01,0.07,3
1682338725.98050404,191367793,0.0,0.1,0.0,0.53,344.93,344.92,0.01,0.07,3
1682338726.08042097,191467710,0.0,0.1,0.0,0.53,344.93,344.88,0.01,0.07,3
1682338726.18045807,191567747,0.0,0.1,0.0,0.53,344.93,344.84000000000003,0.01,0.07,3
1682338726.28044200,191667731,0.0,0.1,0.0,0.53,344.93,344.8,0.01,0.07,3
1682338726.38052392,191767813,0.0,0.1,0.0,0.53,344.93,344.77,0.01,0.07,3
1682338726.48034191,191867631,0.0,0.1,0.0,0.53,344.93,344.72,0.01,0.06,3
1682338726.58056688,191967856,0.0,0.11,0.0,0.53,344.93,344.68,0.01,0.06,3
1682338726.68045402,192067743,0.0,0.1,0.0,0.54,344.93,344.65000000000003,0.01,0.06,3
1682338726.78072286,192168012,0.0,0.08,0.0,0.51,344.93,344.63,0.01,0.06,3
1682338726.88045001,192267739,0.0,0.12,0.0,0.49,344.93,344.58,0.02,0.06,3
1682338726.98028302,192367572,0.0,0.08,0.0,0.5,344.93,344.54,0.02,0.06,3
1682338727.08020806,192467497,0.0,0.07,0.0,0.48,344.93,344.48,0.01,0.06,3
1682338727.18030405,192567593,0.0,0.16,0.0,0.51,344.93,344.45,0.01,0.06,3
1682338727.28013492,192667424,0.0,0.13,0.0,0.49,344.93,344.41,0.02,0.06,3
1682338727.38003087,192767320,0.0,0.16,0.0,0.51,344.93,344.39,0.02,0.06,3
1682338727.48012185,192867411,0.0,0.12,0.0,0.5,344.93,344.35,0.02,0.06,3
1682338727.58020496,192967494,0.0,0.15,0.0,0.51,344.93,344.32,0.02,0.07,3
1682338727.68060398,193067893,0.0,0.15,0.0,0.5,344.93,344.29,0.01,0.06,3
1682338727.78020406,193167493,0.0,0.13,0.0,0.5,344.93,344.24,0.01,0.07,3
1682338727.88017201,193267461,0.0,0.15,0.0,0.49,344.93,344.21,0.01,0.06,3
1682338727.98028493,193367574,0.0,0.15,0.0,0.49,344.93,344.18,0.01,0.06,3
1682338728.08018899,193467478,0.0,0.16,0.0,0.5,344.93,344.13,0.01,0.06,3
1682338728.18051100,193567800,0.0,0.14,0.0,0.49,344.93,344.1,0.01,0.06,3
1682338728.28002095,193667310,0.0,0.16,0.0,0.47000000000000003,344.93,344.06,0.01,0.06,3
1682338728.38016987,193767459,0.0,0.13,0.0,0.48,344.93,344.02,0.01,0.06,3
1682338728.48013902,193867428,0.0,0.15,0.0,0.48,344.93,343.99,0.02,0.06,3
1682338728.58014894,193967438,0.0,0.16,0.0,0.48,344.93,343.96,0.02,0.06,3
1682338728.68019104,194067480,0.0,0.13,0.0,0.47000000000000003,344.93,343.91,0.03,0.06,3
1682338728.78019190,194167481,0.0,0.16,0.0,0.46,344.93,343.87,0.03,0.06,3
1682338728.88045001,194267739,0.0,0.16,0.0,0.48,344.93,343.84000000000003,0.02,0.06,3
1682338728.98050690,194367796,0.0,0.13,0.0,0.47000000000000003,344.93,343.81,0.02,0.06,3
1682338729.08051205,194467801,0.0,0.19,0.0,0.49,344.93,343.7,0.02,0.06,3
1682338729.18004584,194567335,0.0,0.11,0.0,0.44,344.93,343.69,0.02,0.08,3
1682338729.28043294,194667722,0.0,0.21,0.0,0.32,344.93,343.67,0.02,0.09,3
1682338729.38048005,194767769,0.05,0.23,0.0,0.04,344.93,343.64,0.02,0.09,3
1682338729.48039985,194867689,0.03,0.5,0.01,0.1,344.93,343.57,0.02,0.11,3
1682338729.58042693,194967716,0.0,0.66,0.1,0.0,344.93,343.5,0.02,0.11,3
1682338729.68039703,195067686,-0.09,0.58,0.18,-0.2,345.07,343.47,0.02,0.1,3
1682338729.78055906,195167848,-0.15,0.16,0.21,-0.02,345.29,343.46,0.02,0.1,3
1682338729.88042998,195267719,-0.2,-0.03,0.34,0.04,345.54,343.57,0.03,0.1,3
1682338729.98051405,195367803,-0.19,0.17,0.5,0.12,345.54,343.7,0.03,0.09,3
1682338730.08030796,195467597,0.13,0.36,0.6,0.38,345.54,343.84000000000003,0.04,0.09,3
1682338730.18077207,195568061,0.71,0.84,0.6900000000000001,0.56,345.54,343.99,0.04,0.09,3
1682338730.28044701,195667736,1.37,1.54,0.76,0.52,345.54,344.1,0.03,0.08,3
1682338730.38017797,195767467,2.25,2.19,0.78,0.54,345.54,344.2,0.03,0.08,3
1682338730.48046803,195867757,3.04,3.17,0.74,0.68,345.54,344.3,0.04,0.08,3
1682338730.58042502,195967714,3.56,3.7800000000000002,0.65,0.63,345.54,344.40000000000003,0.04,0.08,3
1682338730.68045807,196067747,3.61,4.08,0.5,0.53,345.54,344.5,0.03,0.07,3
1682338730.78047204,196167761,3.0,3.81,0.35000000000000003,0.43,345.54,344.54,0.03,0.08,3
1682338730.88049793,196267787,2.5100000000000002,2.9,0.28,0.47000000000000003,345.54,344.63,0.03,0.09,3
1682338730.98056889,196367858,2.69,2.19,0.33,0.32,345.74,344.67,0.03,0.09,3
1682338731.08079290,196468082,2.3000000000000003,2.34,0.43,0.26,345.92,344.75,0.02,0.1,3
1682338731.18045497,196567744,1.76,1.77,0.52,0.25,346.25,344.87,0.02,0.1,3
1682338731.28045106,196667740,1.46,0.8300000000000001,0.66,0.26,347.25,345.02,0.03,0.1,3
1682338731.38049197,196767781,1.3,0.76,0.75,0.53,349.11,345.35,0.03,0.1,3
1682338731.48043084,196867720,1.23,1.12,0.87,0.77,351.17,346.01,0.05,0.1,3
1682338731.58046794,196967757,1.26,1.24,0.9400000000000001,1.0,353.03000000000003,346.98,0.05,0.09,3
1682338731.68045306,197067742,1.29,1.24,0.8,1.1,354.36,348.17,0.07,0.09,3
1682338731.78052592,197167815,1.22,1.32,0.58,0.89,355.0,349.44,0.07,0.09,3
1682338731.88053393,197267823,1.06,0.96,0.05,0.76,355.02,350.66,0.07,0.09,3
1682338731.98085690,197368146,0.97,0.77,-0.47000000000000003,0.0,355.02,351.76,0.07,0.1,3
1682338732.08017087,197467460,0.97,0.71,-0.67,-0.8200000000000001,355.02,352.82,0.06,0.1,3
1682338732.18020797,197567497,1.23,0.6900000000000001,-0.71,-0.99,355.02,353.82,0.06,0.1,3
1682338732.28019595,197667485,1.56,1.04,-0.59,-0.9,355.02,354.72,0.06,0.11,3
1682338732.38026285,197767552,1.73,1.51,-0.32,-0.73,355.02,355.54,0.06,0.11,3
1682338732.48028684,197867576,1.79,1.7,-0.03,-0.18,355.02,356.24,0.06,0.1,3
1682338732.58027792,197967567,1.74,1.77,0.04,0.18,355.02,356.78000000000003,0.06,0.1,3
1682338732.68021798,198067507,1.67,1.77,0.24,0.16,355.02,357.19,0.06,0.1,3
1682338732.78004289,198167332,1.6300000000000001,1.75,0.37,0.42,355.02,357.46,0.06,0.09,3
1682338732.88046598,198267755,1.55,1.6,0.29,0.76,355.03000000000003,357.6,0.06,0.09,3
1682338732.98054695,198367836,1.42,1.42,0.34,0.49,355.41,357.63,0.06,0.09,3
1682338733.08043504,198467724,1.28,1.1400000000000001,0.23,0.43,355.6,357.65000000000003,0.07,0.1,3
1682338733.18047786,198567767,1.11,0.86,0.04,0.29,355.75,357.62,0.07,0.11,3
1682338733.28018785,198667477,0.7000000000000001,0.66,-0.07,-0.01,356.22,357.54,0.06,0.11,3
1682338733.38026905,198767558,0.1,0.09,-0.08,-0.08,356.64,357.49,0.06,0.11,3
1682338733.48025084,198867540,-0.6,-0.68,0.07,0.06,356.79,357.47,0.07,0.11,3
1682338733.58018899,198967478,-1.35,-1.41,0.43,0.33,356.8,357.41,0.07,0.1,3
1682338733.68004894,199067338,-2.12,-2.2,0.9,0.87,356.8,357.29,0.06,0.1,3
1682338733.78055787,199167847,-2.91,-3.0300000000000002,1.04,1.35,356.8,357.15000000000003,0.06,0.1,3
1682338733.88043499,199267724,-3.7,-3.86,1.08,1.23,356.8,357.03000000000003,0.08,0.1,3
1682338733.98030996,199367599,-4.48,-4.67,0.88,1.1,356.8,356.91,0.08,0.1,3
1682338734.08036590,199467655,-4.75,-5.34,0.54,0.73,356.8,356.83,0.1,0.11,3
1682338734.18039203,199567681,-4.49,-5.17,-0.03,0.08,356.8,356.77,0.1,0.1,3
1682338734.28040504,199667694,-3.94,-4.4,-0.71,-0.64,356.8,356.72,0.1,0.09,3
1682338734.38045406,199767743,-3.24,-3.5100000000000002,-1.17,-1.42,356.8,356.68,0.1,0.08,3
1682338734.48046303,199867752,-2.5,-2.52,-1.22,-1.6300000000000001,356.8,356.57,0.1,0.07,3
1682338734.58032203,199967611,-1.72,-1.55,-1.01,-1.26,356.8,356.47,0.1,0.06,3
1682338734.68042088,200067710,-0.9400000000000001,-0.73,-0.71,-0.91,356.8,356.41,0.09,0.06,3
1682338734.78037691,200167666,-0.33,0.13,-0.43,-0.51,356.8,356.34000000000003,0.09,0.06,3
1682338734.88066792,200267957,0.01,0.65,-0.26,-0.18,356.8,356.31,0.08,0.06,3
1682338734.98074603,200368035,0.12,0.79,-0.19,-0.09,356.8,356.3,0.08,0.06,3
1682338735.08020496,200467494,0.02,0.65,-0.09,-0.1,356.8,356.3,0.07,0.05,3
1682338735.18030190,200567591,-0.14,0.35000000000000003,0.26,0.07,356.8,356.3,0.07,0.05,3
1682338735.28027296,200667562,-0.34,0.14,0.8300000000000001,0.65,356.8,356.31,0.06,0.05,3
1682338735.38019991,200767489,-0.5,-0.19,1.41,1.42,356.8,356.32,0.06,0.04,3
1682338735.48003387,200867323,-0.62,-0.42,1.7,1.92,356.8,356.36,0.06,0.04,3
1682338735.58013487,200967424,-0.68,-0.58,1.77,1.96,356.8,356.41,0.06,0.05,3
1682338735.68014789,201067437,-0.67,-0.7000000000000001,1.69,1.84,356.8,356.46,0.06,0.04,3
1682338735.78045106,201167740,-0.63,-0.68,1.52,1.58,356.8,356.51,0.06,0.06,3
1682338735.88046598,201267755,-0.62,-0.53,1.3800000000000001,1.28,356.8,356.59000000000003,0.07,0.06,3
1682338735.98030090,201367590,-0.61,-0.44,1.3,1.1300000000000001,356.8,356.68,0.07,0.06,3
1682338736.08056092,201467850,-0.58,-0.45,1.32,1.11,356.8,356.72,0.06,0.05,3
1682338736.18048596,201567775,-0.5700000000000001,-0.49,1.42,1.21,356.8,356.75,0.06,0.06,3
1682338736.28053784,201667827,-0.53,-0.38,1.57,1.33,356.8,356.78000000000003,0.05,0.05,3
1682338736.38049197,201767781,-0.49,-0.39,1.75,1.42,356.8,356.82,0.05,0.04,3
1682338736.48081589,201868105,-0.47000000000000003,-0.41000000000000003,1.9100000000000001,1.6400000000000001,356.8,356.85,0.04,0.05,3
1682338736.58045793,201967747,-0.43,-0.44,2.09,1.82,356.8,356.89,0.04,0.04,3
1682338736.68016887,202067458,-0.41000000000000003,-0.29,2.25,2.0100000000000002,356.8,356.94,0.04,0.05,3
1682338736.78025794,202167547,-0.42,-0.23,2.39,2.17,356.8,356.95,0.04,0.05,3
1682338736.88019490,202267484,-0.4,-0.26,2.5300000000000002,2.27,356.8,356.96,0.04,0.04,3
1682338736.98034000,202367629,-0.39,-0.29,2.62,2.42,356.8,356.97,0.04,0.04,3
1682338737.08026600,202467555,-0.32,-0.19,2.67,2.54,356.8,356.98,0.03,0.04,3
1682338737.18060589,202567895,-0.28,-0.12,2.71,2.59,356.8,356.99,0.03,0.05,3
1682338737.28042388,202667713,-0.31,-0.02,1.07,2.5100000000000002,356.8,356.98,0.03,0.05,3
1682338737.38030100,202767590,-0.27,-0.07,-0.65,-0.08,356.8,356.99,0.03,0.05,3
1682338737.48019290,202867482,-0.03,0.05,-1.36,-2.72,356.8,356.99,0.02,0.06,3
1682338737.58015704,202967446,0.17,0.43,-1.6300000000000001,-2.47,356.8,356.96,0.02,0.06,3
1682338737.68020105,203067490,0.33,0.51,-1.55,-1.84,356.8,356.94,0.03,0.06,3
1682338737.78029394,203167583,0.46,0.74,-1.2,-1.71,356.8,356.92,0.03,0.05,3
1682338737.88026786,203267557,0.55,0.84,-0.81,-1.03,356.8,356.87,0.04,0.05,3
1682338737.98031592,203367605,0.64,0.65,-0.39,-0.46,356.8,356.83,0.04,0.05,3
1682338738.08016086,203467450,0.77,0.88,0.18,-0.01,356.8,356.8,0.03,0.05,3
1682338738.18020797,203567497,1.53,1.09,0.85,0.77,356.8,356.76,0.03,0.04,3
1682338738.28046584,203667755,2.24,1.99,1.27,1.42,356.8,356.73,0.03,0.04,3
1682338738.38046694,203767756,2.77,3.0300000000000002,1.44,1.6500000000000001,356.8,356.7,0.03,0.03,3
1682338738.48032999,203867619,2.95,3.13,1.3900000000000001,1.57,356.8,356.67,0.03,0.03,3
1682338738.58035898,203967648,2.87,3.17,1.23,1.3800000000000001,356.8,356.6,0.03,0.03,3
1682338738.68036604,204067655,2.66,2.7800000000000002,1.01,1.02,356.8,356.55,0.03,0.03,3
1682338738.78042984,204167719,2.5500000000000003,2.41,0.8,0.78,356.84000000000003,356.55,0.03,0.04,3
1682338738.88039589,204267685,2.5100000000000002,2.25,0.62,0.56,356.98,356.55,0.03,0.05,3
1682338738.98052788,204367817,2.5300000000000002,2.23,0.47000000000000003,0.35000000000000003,357.05,356.61,0.03,0.04,3
1682338739.08063197,204467921,2.59,2.13,0.37,0.26,357.05,356.69,0.03,0.04,3
1682338739.18062997,204567919,2.63,2.2,0.31,0.21,357.05,356.75,0.03,0.03,3
1682338739.28045702,204667746,2.65,2.21,0.27,0.21,357.05,356.8,0.02,0.03,3
1682338739.38014984,204767439,2.66,2.31,0.24,0.21,357.08,356.84000000000003,0.02,0.04,3
1682338739.48045492,204867744,2.63,2.35,0.21,0.22,357.08,356.87,0.02,0.04,3
1682338739.58043790,204967727,2.5300000000000002,2.23,0.17,0.23,357.49,356.90000000000003,0.02,0.05,3
1682338739.68045092,205067740,2.43,2.02,0.12,0.2,358.72,356.99,0.02,0.04,3
1682338739.78048897,205167778,2.36,1.85,0.06,0.25,0.05,357.3,0.02,0.04,3
1682338739.88051295,205267802,2.32,1.94,0.01,0.21,1.25,357.83,0.02,0.04,3
1682338739.98051095,205367800,2.31,2.0100000000000002,-0.02,0.19,2.75,358.53000000000003,0.02,0.05,3
1682338740.08052301,205467812,2.3000000000000003,2.04,-0.04,0.27,4.63,359.40000000000003,0.01,0.04,3
1682338740.18047690,205567766,2.25,2.0,-0.05,0.31,6.59,0.5,0.01,0.04,3
1682338740.28085685,205668146,2.06,1.92,-0.03,0.34,8.28,1.82,0.01,0.04,3
1682338740.38076901,205768058,1.92,1.84,0.01,0.39,9.35,3.2600000000000002,0.01,0.03,3
1682338740.48019791,205867487,1.84,1.49,0.05,0.39,9.6,4.72,0.02,0.03,3
1682338740.58027291,205967562,1.82,1.46,0.08,0.41000000000000003,9.6,6.08,0.02,0.04,3
1682338740.68028188,206067571,1.8900000000000001,1.55,0.11,0.4,9.6,7.32,0.03,0.04,3
1682338740.78021789,206167507,1.93,1.6500000000000001,0.11,0.45,9.6,8.47,0.03,0.04,3
1682338740.88003898,206267328,1.96,1.7,0.14,0.42,9.65,9.540000000000001,0.05,0.04,3
1682338740.98027396,206367563,1.97,1.6500000000000001,0.15,0.39,10.36,10.49,0.05,0.04,3
1682338741.08013988,206467429,1.98,1.61,0.15,0.43,11.57,11.42,0.05,0.03,3
1682338741.18044305,206567732,1.98,1.82,0.16,0.39,12.64,12.42,0.05,0.03,3
1682338741.28019190,206667481,1.98,1.71,0.15,0.42,13.780000000000001,13.450000000000001,0.06,0.03,3
1682338741.38021398,206767503,1.92,1.67,0.14,0.38,15.1,14.47,0.06,0.03,3
1682338741.48026299,206867552,1.8800000000000001,1.61,0.15,0.41000000000000003,16.21,15.540000000000001,0.06,0.02,3
1682338741.58027005,206967559,1.85,1.58,0.14,0.39,17.13,16.61,0.06,0.02,3
1682338741.68019795,207067487,1.9100000000000001,1.53,0.19,0.37,18.11,17.6,0.06,0.02,3
1682338741.78005385,207167343,2.11,1.86,0.24,0.4,19.16,18.580000000000002,0.06,0.02,3
1682338741.88013101,207267420,2.23,1.9000000000000001,0.33,0.41000000000000003,20.31,19.56,0.06,0.02,3
1682338741.98024988,207367539,2.22,2.37,0.41000000000000003,0.46,22.05,20.57,0.06,0.01,3
1682338742.08042288,207467712,2.18,2.08,0.48,0.62,23.85,21.72,0.05,0.01,3
1682338742.18046403,207567753,2.09,2.06,0.5700000000000001,0.6900000000000001,25.07,23.02,0.05,0.01,3
1682338742.28041601,207667705,2.02,1.97,0.63,0.8,25.86,24.35,0.07,0.01,3
1682338742.38055205,207767841,1.97,1.85,0.66,0.8300000000000001,26.78,25.54,0.07,0.01,3
1682338742.48027587,207867565,1.8900000000000001,1.97,0.68,0.88,27.67,26.73,0.05,0.03,3
1682338742.58023405,207967523,1.83,1.59,0.6900000000000001,0.84,28.78,27.900000000000002,0.05,0.03,3
1682338742.68004894,208067338,1.79,1.68,0.72,0.8300000000000001,30.18,29.12,0.05,0.04,3
1682338742.78016305,208167452,1.77,1.67,0.6900000000000001,0.93,31.71,30.400000000000002,0.05,0.06,3
1682338742.88019896,208267488,1.76,1.77,0.7000000000000001,0.96,33.34,31.78,0.06,0.07,3
1682338742.98050284,208367792,1.76,1.77,0.76,0.96,34.88,33.230000000000004,0.06,0.08,3
1682338743.08046699,208467756,1.76,1.8,0.84,1.1500000000000001,36.2,34.730000000000004,0.06,0.09,3
1682338743.18044806,208567737,1.7,1.95,0.9500000000000001,1.25,37.28,36.19,0.06,0.09,3
1682338743.28046799,208667757,1.6400000000000001,1.71,1.03,1.28,38.26,37.6,0.06,0.11,3
1682338743.38028789,208767577,1.62,1.57,1.1,1.28,39.2,38.910000000000004,0.06,0.14,3
1682338743.48047900,208867768,1.59,1.7,1.12,1.28,40.050000000000004,40.21,0.06,0.17,3
1682338743.58030486,208967594,1.59,1.62,1.11,1.22,40.84,41.44,0.06,0.18,3
1682338743.68044400,209067733,1.6,1.58,1.11,1.16,41.43,42.53,0.06,0.2,3
1682338743.78042197,209167711,1.6,1.6400000000000001,1.07,1.24,41.96,43.53,0.06,0.22,3
1682338743.88066387,209267953,1.6,1.56,0.99,1.1500000000000001,42.54,44.42,0.06,0.23,3
1682338743.98075199,209368041,1.6,1.41,0.9400000000000001,1.01,43.31,45.19,0.06,0.25,3
1682338744.08019686,209467486,1.59,1.47,0.86,0.98,44.37,45.92,0.08,0.28,3
1682338744.18030095,209567590,1.52,1.3,0.76,0.79,45.53,46.7,0.08,0.3,3
1682338744.28027105,209667560,1.34,1.19,0.72,0.63,47.09,47.54,0.08,0.32,3
1682338744.38020301,209767492,0.89,0.86,0.6900000000000001,0.65,49.230000000000004,48.480000000000004,0.08,0.32,3
1682338744.48004889,209867338,0.25,0.39,0.78,0.72,51.4,49.68,0.09,0.34,3
1682338744.58057904,209967868,-0.46,-0.26,0.96,0.98,53.46,51.04,0.09,0.34,3
1682338744.68014598,210067435,-1.22,-1.23,1.19,1.21,55.21,52.57,0.08,0.35000000000000003,3
1682338744.78016400,210167453,-2.0,-1.76,1.43,1.53,56.81,54.17,0.08,0.37,3
1682338744.88047099,210267760,-2.79,-2.56,1.62,1.74,57.68,55.79,0.08,0.39,3
1682338744.98047996,210367769,-3.58,-3.19,1.76,1.97,57.79,57.25,0.08,0.41000000000000003,3
1682338745.08047104,210467760,-4.38,-4.0,1.82,2.13,57.79,58.47,0.07,0.42,3
1682338745.18047500,210567764,-5.18,-4.94,1.78,2.13,57.79,59.49,0.07,0.45,3
1682338745.28051805,210667807,-5.49,-5.62,1.69,2.07,57.79,60.29,0.08,0.47000000000000003,3
1682338745.38035297,210767642,-4.75,-5.54,1.57,1.94,57.79,60.910000000000004,0.08,0.5,3
1682338745.48077297,210868062,-3.41,-3.7800000000000002,1.42,1.75,57.79,61.34,0.07,0.52,3
1682338745.58077788,210968067,-1.77,-1.78,1.28,1.31,57.79,61.63,0.07,0.53,3
1682338745.68043184,211067721,-0.08,0.18,1.21,1.12,57.79,61.730000000000004,0.07,0.54,3
1682338745.78048396,211167773,1.29,2.0300000000000002,1.24,0.89,57.79,61.7,0.07,0.55,3
1682338745.88019085,211267480,1.92,3.11,1.37,0.8,57.79,61.6,0.07,0.56,3
1682338745.98032999,211367619,2.14,3.25,1.55,1.06,57.79,61.410000000000004,0.07,0.5700000000000001,3
1682338746.08027601,211467565,1.83,2.93,1.69,1.37,57.79,61.09,0.07,0.59,3
1682338746.18018889,211567478,1.28,2.18,1.82,1.58,57.79,60.71,0.07,0.59,3
1682338746.28003502,211667324,0.55,1.27,1.8800000000000001,1.72,57.79,60.27,0.07,0.6,3
1682338746.38046789,211767757,0.05,0.26,1.9100000000000001,1.8,57.79,59.78,0.07,0.61,3
1682338746.48043990,211867729,-0.15,-0.17,1.8800000000000001,1.81,57.79,59.25,0.07,0.61,3
1682338746.58061004,211967899,-0.2,-0.26,1.82,1.74,57.79,58.72,0.07,0.6,3
1682338746.68046904,212067758,-0.17,-0.19,1.71,1.68,57.79,58.19,0.07,0.59,3
1682338746.78021288,212167502,-0.11,-0.16,1.59,1.53,57.79,57.660000000000004,0.07,0.58,3
1682338746.88027692,212267566,-0.27,-0.11,1.46,1.37,57.79,57.18,0.07,0.5700000000000001,3
1682338746.98034286,212367632,-0.75,-0.62,1.33,1.3,57.79,56.71,0.07,0.56,3
1682338747.08018088,212467470,-1.3900000000000001,-1.5,1.21,1.18,57.79,56.33,0.07,0.54,3
1682338747.18010187,212567391,-2.1,-2.16,1.1400000000000001,1.05,57.79,55.99,0.07,0.52,3
1682338747.28014207,212667431,-2.43,-2.85,1.12,0.93,57.79,55.74,0.09,0.51,3
1682338747.38016295,212767452,-2.24,-2.97,1.1300000000000001,0.9500000000000001,57.79,55.5,0.09,0.49,3
1682338747.48043299,212867722,-1.79,-2.34,1.1500000000000001,1.0,57.79,55.370000000000005,0.08,0.48,3
1682338747.58047485,212967764,-1.36,-1.54,1.2,1.01,57.79,55.26,0.08,0.47000000000000003,3
1682338747.68020391,213067493,-0.99,-1.05,1.27,1.0,57.79,55.24,0.07,0.45,3
1682338747.78028488,213167574,-0.6900000000000001,-0.67,1.33,1.18,57.79,55.230000000000004,0.07,0.44,3
1682338747.88040400,213267693,-0.38,-0.33,1.3900000000000001,1.25,57.79,55.28,0.06,0.43,3
1682338747.98052502,213367814,0.02,0.01,1.44,1.34,57.79,55.33,0.06,0.42,3
1682338748.08029795,213467587,0.55,0.49,1.47,1.33,57.79,55.45,0.05,0.41000000000000003,3
1682338748.18040991,213567699,1.01,1.16,1.49,1.37,57.79,55.58,0.05,0.4,3
1682338748.28035307,213667642,1.25,1.45,1.47,1.41,57.79,55.730000000000004,0.05,0.4,3
1682338748.38044095,213767730,1.29,1.6,1.44,1.4000000000000001,57.79,55.89,0.05,0.39,3
1682338748.48045993,213867749,1.29,1.48,1.41,1.4000000000000001,57.79,56.06,0.05,0.38,3
1682338748.58019686,213967486,1.29,1.3900000000000001,1.3800000000000001,1.4000000000000001,57.79,56.22,0.05,0.38,3
1682338748.68055987,214067849,1.35,1.35,1.33,1.36,57.79,56.42,0.05,0.38,3
1682338748.78050303,214167792,1.3800000000000001,1.32,1.25,1.31,57.79,56.59,0.05,0.39,3
1682338748.88049793,214267787,1.3800000000000001,1.3800000000000001,1.18,1.19,57.79,56.74,0.04,0.38,3
1682338748.98053885,214367828,1.37,1.43,1.1400000000000001,1.03,57.79,56.89,0.04,0.38,3
1682338749.08052897,214467818,1.42,1.27,1.1,0.98,57.79,57.01,0.04,0.38,3
1682338749.18045592,214567745,1.5,1.3900000000000001,1.08,0.93,57.79,57.13,0.04,0.37,3
1682338749.28071189,214668001,1.71,1.46,1.06,0.86,57.79,57.25,0.04,0.36,3
1682338749.38076806,214768057,1.9100000000000001,1.6500000000000001,1.04,0.86,57.79,57.32,0.04,0.35000000000000003,3
1682338749.48018885,214867478,2.02,2.11,0.99,0.86,57.79,57.39,0.03,0.35000000000000003,3
1682338749.58031988,214967609,1.98,1.99,0.93,0.74,57.79,57.43,0.03,0.35000000000000003,3
1682338749.68027091,215067560,1.67,1.73,0.89,0.75,57.79,57.46,0.03,0.34,3
1682338749.78019691,215167486,1.1300000000000001,1.33,0.86,0.75,57.79,57.49,0.03,0.33,3
1682338749.88004398,215267333,0.77,0.56,0.8200000000000001,0.68,57.79,57.47,0.03,0.33,3
1682338749.98031187,215367601,0.84,0.43,0.79,0.71,57.79,57.43,0.03,0.33,3
1682338750.08022094,215467510,0.89,0.76,0.74,0.59,57.79,57.4,0.02,0.34,3
1682338750.18026304,215567552,1.03,0.9,0.71,0.56,57.79,57.370000000000005,0.02,0.33,3
1682338750.28020287,215667492,1.2,0.98,0.6900000000000001,0.53,57.79,57.32,0.02,0.33,3
1682338750.38027596,215767565,1.33,1.36,0.66,0.52,57.79,57.29,0.02,0.32,3
1682338750.48045802,215867747,1.48,1.34,0.66,0.47000000000000003,57.79,57.26,0.02,0.32,3
1682338750.58028102,215967570,1.57,1.51,0.67,0.52,57.79,57.230000000000004,0.02,0.31,3
1682338750.68019485,216067484,1.6500000000000001,1.58,0.67,0.5700000000000001,57.79,57.21,0.02,0.31,3
1682338750.78023005,216167519,1.74,1.56,0.67,0.65,57.79,57.2,0.02,0.29,3
1682338750.88013601,216267425,1.8,1.6400000000000001,0.66,0.61,57.79,57.2,0.01,0.29,3
1682338750.98026204,216367551,1.8800000000000001,1.71,0.59,0.62,57.79,57.18,0.01,0.27,3
1682338751.08018088,216467470,1.96,1.77,0.53,0.61,57.79,57.21,0.01,0.26,3
1682338751.18030596,216567595,2.04,2.0100000000000002,0.45,0.52,57.79,57.27,0.01,0.26,3
1682338751.28020597,216667495,2.12,1.93,0.37,0.53,57.79,57.28,0.01,0.26,3
1682338751.38028002,216767569,2.17,2.2600000000000002,0.25,0.36,57.79,57.32,0.01,0.26,3
1682338751.48040700,216867696,2.18,2.12,0.18,0.14,57.79,57.31,0.01,0.26,3
1682338751.58045697,216967746,2.19,2.17,0.1,0.12,57.79,57.31,0.01,0.25,3
1682338751.68032503,217067614,2.06,2.09,0.06,0.0,57.79,57.33,0.02,0.25,3
1682338751.78044987,217167739,1.8800000000000001,1.87,-0.01,-0.06,57.79,57.32,0.02,0.25,3
1682338751.88037896,217267668,1.6400000000000001,1.74,-0.1,-0.14,57.79,57.33,0.02,0.24,3
1682338751.98046589,217367755,1.37,1.46,-0.17,-0.26,57.79,57.35,0.02,0.24,3
1682338752.08043098,217467720,1.22,1.17,-0.18,-0.32,57.79,57.38,0.02,0.24,3
1682338752.18040705,217567696,1.12,0.96,-0.23,-0.24,57.79,57.410000000000004,0.02,0.24,3
1682338752.28060794,217667897,1.04,0.9500000000000001,-0.23,-0.28,57.79,57.46,0.01,0.23,3
1682338752.38066101,217767950,0.96,0.93,-0.27,-0.24,57.79,57.51,0.01,0.22,3
1682338752.48051691,217867806,0.8,0.74,-0.23,-0.17,57.79,57.550000000000004,0.01,0.22,3
1682338752.58011198,217967401,0.67,0.58,-0.24,-0.14,57.79,57.620000000000005,0.01,0.21,3
1682338752.68016100,218067450,0.32,0.55,-0.23,-0.11,58.03,57.69,0.01,0.21,3
1682338752.78023505,218167524,-0.29,0.0,-0.28,-0.11,59.0,57.75,0.01,0.21,3
1682338752.88029194,218267581,-0.93,-0.79,-0.35000000000000003,-0.24,60.44,58.03,0.01,0.19,3
1682338752.98032403,218367613,-1.1500000000000001,-1.4000000000000001,-0.42,-0.49,62.13,58.56,0.01,0.18,3
1682338753.08020997,218467499,-1.04,-1.1400000000000001,-0.38,-0.5700000000000001,63.86,59.31,0.01,0.19,3
1682338753.18048596,218567775,-0.72,-0.67,-0.14,-0.56,65.6,60.33,0.01,0.18,3
1682338753.28071785,218668007,-0.28,-0.22,0.36,-0.05,66.75,61.52,0.01,0.18,3
1682338753.38056493,218767854,0.15,0.29,1.01,0.85,67.04,62.77,0.01,0.18,3
1682338753.48003197,218867321,0.48,0.66,1.49,1.72,67.04,63.96,0.01,0.2,3
1682338753.58013487,218967424,0.59,0.87,1.62,2.11,67.04,65.06,0.01,0.19,3
1682338753.68044806,219067737,0.59,0.85,1.52,1.8900000000000001,67.04,66.12,0.01,0.21,3
1682338753.78046083,219167750,0.6,0.53,1.27,1.54,67.04,67.04,0.01,0.24,3
1682338753.88045692,219267746,0.5700000000000001,0.58,0.9500000000000001,1.08,67.04,67.89,0.01,0.28,3
1682338753.98048592,219367775,0.72,0.61,0.66,0.66,67.04,68.64,0.01,0.31,3
1682338754.08044195,219467731,0.81,0.84,0.35000000000000003,0.36,67.04,69.26,0.01,0.32,3
1682338754.18046784,219567757,0.9,0.86,-0.08,0.01,67.04,69.74,0.01,0.34,3
1682338754.28098893,219668278,1.44,0.98,-0.35000000000000003,-0.56,67.04,70.12,0.01,0.37,3
1682338754.38041806,219767707,1.78,1.69,-0.54,-0.75,67.04,70.38,0.01,0.38,3
1682338754.48047400,219867763,1.95,2.06,-1.2,-0.89,67.04,70.53,0.01,0.39,3
1682338754.58045793,219967747,2.07,2.02,-1.83,-1.82,67.04,70.55,0.01,0.4,3
1682338754.68044305,220067732,2.11,2.11,-2.63,-2.63,67.04,70.5,0.01,0.42,3
1682338754.78048086,220167770,2.08,2.07,-3.5500000000000003,-3.36,67.04,70.36,0.01,0.43,3
1682338754.88042307,220267712,1.93,1.74,-3.73,-4.3500000000000005,67.04,70.17,0.01,0.43,3
1682338754.98059106,220367880,1.84,1.55,-3.21,-4.0600000000000005,67.04,69.94,0.01,0.42,3
1682338755.08064103,220467930,1.8,1.6,-2.43,-2.65,67.04,69.68,0.02,0.4,3
1682338755.18070793,220567997,1.79,1.61,-1.6300000000000001,-1.58,67.05,69.38,0.02,0.37,3
1682338755.28021097,220667500,1.83,1.62,-1.19,-0.8,67.3,69.03,0.04,0.35000000000000003,3
1682338755.38017702,220767466,1.9100000000000001,1.61,-1.2,-0.54,67.8,68.72,0.04,0.33,3
1682338755.48037505,220867664,1.94,1.84,-1.52,-1.06,68.26,68.51,0.05,0.33,3
1682338755.58037496,220967664,1.96,1.86,-1.67,-1.6600000000000001,68.74,68.36,0.05,0.32,3
1682338755.68045592,221067745,1.92,1.97,-1.73,-1.79,69.24,68.31,0.05,0.32,3
1682338755.78039384,221167683,1.84,1.94,-1.56,-1.6500000000000001,69.7,68.38,0.05,0.32,3
1682338755.88041401,221267703,1.78,1.73,-1.1300000000000001,-1.3,70.12,68.53,0.06,0.31,3
1682338755.98047900,221367768,1.73,1.67,-0.47000000000000003,-0.47000000000000003,70.53,68.77,0.06,0.29,3
1682338756.08065486,221467944,1.7,1.6,0.07,0.34,70.94,69.10000000000001,0.06,0.28,3
1682338756.18004394,221567333,1.69,1.59,0.26,0.84,71.3,69.49,0.06,0.26,3
1682338756.28016305,221667452,1.68,1.57,0.27,0.7000000000000001,71.5,69.93,0.07,0.26,3
1682338756.38015485,221767444,1.68,1.48,0.12,0.58,71.5,70.37,0.07,0.25,3
1682338756.48016500,221867454,1.68,1.52,-0.4,0.23,71.5,70.78,0.05,0.26,3
1682338756.58018303,221967472,1.6400000000000001,1.62,-0.84,-0.64,71.5,71.17,0.05,0.26,3
1682338756.68018985,222067479,1.6400000000000001,1.6400000000000001,-0.87,-1.03,71.5,71.54,0.06,0.27,3
1682338756.78026700,222167556,1.56,1.54,-0.89,-0.72,71.5,71.95,0.06,0.27,3
1682338756.88026690,222267556,1.44,1.3900000000000001,-0.9500000000000001,-0.63,71.51,72.32000000000001,0.05,0.28,3
1682338756.98027396,222367563,1.22,1.07,-1.0,-0.87,71.51,72.64,0.05,0.3,3
1682338757.08004594,222467335,1.06,0.91,-1.05,-0.85,71.51,72.95,0.05,0.3,3
1682338757.18054986,222567839,0.91,0.8,-1.11,-0.9,71.51,73.2,0.05,0.3,3
1682338757.28045392,222667743,0.72,0.66,-1.16,-1.09,71.51,73.42,0.06,0.3,3
1682338757.38016891,222767458,0.58,0.58,-1.05,-1.09,71.51,73.60000000000001,0.06,0.31,3
1682338757.48017502,222867464,0.48,0.44,-0.87,-0.76,71.53,73.73,0.05,0.3,3
1682338757.58018899,222967478,0.43,0.38,-0.78,-0.55,71.56,73.82000000000001,0.05,0.3,3
1682338757.68026304,223067552,0.4,0.52,-0.76,-0.46,71.61,73.88,0.05,0.3,3
1682338757.78028393,223167573,0.39,0.51,-0.77,-0.51,71.73,73.93,0.05,0.32,3
1682338757.88013887,223267428,0.38,0.55,-0.8200000000000001,-0.6,71.91,73.99,0.05,0.32,3
1682338757.98017788,223367467,0.38,0.62,-0.85,-0.65,72.27,74.06,0.05,0.31,3
1682338758.08054399,223467833,0.38,0.56,-0.88,-0.7000000000000001,72.60000000000001,74.18,0.04,0.31,3
1682338758.18021894,223567508,0.38,0.51,-0.88,-0.75,72.88,74.33,0.04,0.3,3
1682338758.28044605,223667735,0.38,0.54,-0.91,-0.74,73.13,74.45,0.04,0.29,3
1682338758.38048005,223767769,0.34,0.41000000000000003,-0.97,-0.8,73.33,74.59,0.04,0.3,3
1682338758.48043084,223867720,0.28,0.5,-1.07,-0.89,73.67,74.72,0.04,0.3,3
1682338758.58047295,223967762,-0.03,0.37,-1.1400000000000001,-1.11,74.16,74.86,0.04,0.3,3
1682338758.68045688,224067746,-0.19,0.04,-1.18,-1.19,74.81,75.05,0.04,0.29,3
1682338758.78053904,224167828,-0.22,-0.18,-1.03,-1.1300000000000001,75.42,75.32000000000001,0.04,0.3,3
1682338758.88041186,224267701,-0.18,-0.12,-0.66,-0.8200000000000001,75.97,75.64,0.05,0.29,3
1682338758.98085904,224368148,-0.01,0.05,-0.09,-0.19,76.48,75.99,0.05,0.28,3
1682338759.08045101,224467740,0.19,0.14,0.58,0.5700000000000001,76.9,76.36,0.05,0.27,3
1682338759.18064499,224567934,0.35000000000000003,0.5700000000000001,1.32,1.4000000000000001,76.95,76.76,0.05,0.26,3
1682338759.28045988,224667749,0.5700000000000001,0.63,2.09,2.3000000000000003,76.95,77.09,0.05,0.25,3
1682338759.38020205,224767491,0.74,0.72,2.87,3.11,76.95,77.35000000000001,0.05,0.24,3
1682338759.48040605,224867695,0.93,0.88,3.66,3.86,76.95,77.57000000000001,0.05,0.25,3
1682338759.58041191,224967701,1.21,1.16,4.46,4.69,76.95,77.73,0.05,0.26,3
1682338759.68044996,225067739,1.48,1.51,4.83,5.41,76.95,77.84,0.05,0.26,3
1682338759.78032398,225167613,1.61,2.02,4.45,5.3,76.95,77.89,0.05,0.26,3
1682338759.88039684,225267686,1.68,1.99,3.67,4.22,76.95,77.85000000000001,0.04,0.27,3
1682338759.98045492,225367744,1.72,1.92,2.68,2.94,76.95,77.83,0.04,0.29,3
1682338760.08033800,225467627,1.6500000000000001,1.9100000000000001,1.52,1.74,76.95,77.8,0.05,0.31,3
1682338760.18043089,225567720,1.59,1.81,0.63,0.33,76.95,77.73,0.05,0.32,3
1682338760.28038192,225667671,1.56,1.7,0.22,-0.44,76.95,77.7,0.05,0.34,3
1682338760.38042498,225767714,1.45,1.7,0.12,-0.39,76.95,77.66,0.05,0.34,3
1682338760.48039293,225867682,1.3,1.35,0.45,-0.18,76.95,77.61,0.05,0.33,3
1682338760.58069205,225967981,1.22,1.19,1.01,0.53,76.95,77.59,0.05,0.31,3
1682338760.68004298,226067332,1.18,1.1500000000000001,1.68,1.35,76.95,77.55,0.05,0.28,3
1682338760.78015685,226167446,1.1300000000000001,1.04,2.42,2.08,76.95,77.48,0.05,0.27,3
1682338760.88015294,226267442,1.1400000000000001,1.09,3.18,2.91,76.95,77.46000000000001,0.05,0.25,3
1682338760.98020792,226367497,1.09,1.0,3.56,3.61,77.04,77.42,0.05,0.25,3
1682338761.08019304,226467482,1.07,0.85,3.5100000000000002,3.69,77.18,77.37,0.05,0.24,3
1682338761.18020296,226567492,1.1,0.74,3.21,3.22,77.21000000000001,77.35000000000001,0.05,0.24,3
1682338761.28033495,226667624,1.04,0.93,2.74,2.75,77.21000000000001,77.35000000000001,0.04,0.24,3
1682338761.38028097,226767570,1.02,0.8300000000000001,2.21,2.02,77.21000000000001,77.39,0.04,0.24,3
1682338761.48054099,226867830,1.0,0.7000000000000001,1.6400000000000001,1.41,77.21000000000001,77.44,0.04,0.25,3
1682338761.58004403,226967333,1.0,0.89,1.04,0.86,77.28,77.5,0.04,0.26,3
1682338761.68012691,227067416,0.93,0.87,0.44,0.13,77.41,77.58,0.04,0.25,3
1682338761.78015089,227167440,0.88,0.8200000000000001,-0.05,-0.32,77.51,77.66,0.04,0.24,3
1682338761.88014889,227267438,0.8200000000000001,0.72,-0.3,-0.73,77.64,77.78,0.04,0.24,3
1682338761.98028898,227367578,0.77,0.64,-0.71,-0.75,78.08,77.93,0.04,0.24,3
1682338762.08019185,227467481,0.62,0.41000000000000003,-1.09,-1.19,78.59,78.12,0.03,0.23,3
1682338762.18027997,227567569,0.43,0.26,-1.21,-1.62,79.15,78.43,0.03,0.23,3
1682338762.28026390,227667553,-0.06,-0.15,-1.25,-1.41,79.74,78.78,0.03,0.22,3
1682338762.38053203,227767821,-0.71,-0.64,-1.27,-1.34,80.29,79.22,0.03,0.21,3
1682338762.48035884,227867648,-1.33,-1.61,-1.18,-1.33,80.45,79.7,0.03,0.2,3
1682338762.58054399,227967833,-1.45,-1.99,-1.06,-1.1400000000000001,80.45,80.19,0.03,0.2,3
1682338762.68045807,228067747,-1.22,-1.67,-0.93,-0.96,80.45,80.61,0.02,0.2,3
1682338762.78017592,228167465,-0.8200000000000001,-1.1400000000000001,-0.72,-0.84,80.45,81.0,0.02,0.2,3
1682338762.88045096,228267740,-0.2,-0.46,-0.5700000000000001,-0.58,80.45,81.38,0.02,0.18,3
1682338762.98055005,228367839,0.45,0.42,-0.52,-0.41000000000000003,80.45,81.71000000000001,0.02,0.17,3
1682338763.08045602,228467745,1.11,1.2,-0.52,-0.55,80.45,81.99,0.03,0.18,3
1682338763.18047786,228567767,1.75,1.77,-0.53,-0.6,80.45,82.23,0.03,0.19,3
1682338763.28075790,228668047,2.23,2.43,-0.51,-0.63,80.45,82.41,0.03,0.19,3
1682338763.38061786,228767907,2.5300000000000002,2.81,-0.44,-0.64,80.45,82.53,0.03,0.18,3
1682338763.48054385,228867833,2.71,2.98,-0.07,-0.45,80.45,82.60000000000001,0.04,0.19,3
1682338763.58055401,228967843,2.8000000000000003,3.0300000000000002,0.5,0.15,80.45,82.63,0.04,0.2,3
1682338763.68017101,229067460,2.85,2.99,1.19,0.98,80.45,82.60000000000001,0.03,0.21,3
1682338763.78020191,229167491,2.81,2.79,1.93,1.83,80.45,82.51,0.03,0.21,3
1682338763.88020396,229267493,2.75,2.77,2.7,2.7,80.45,82.39,0.05,0.2,3
1682338763.98031592,229367605,2.36,2.54,3.49,3.49,80.45,82.23,0.05,0.2,3
1682338764.08027101,229467560,2.04,2.11,4.0600000000000005,4.32,80.45,82.04,0.04,0.2,3
1682338764.18022299,229567512,1.6,1.6400000000000001,4.03,4.7,80.45,81.8,0.04,0.19,3
1682338764.28010106,229667390,0.96,1.25,3.67,4.17,80.45,81.56,0.03,0.19,3
1682338764.38054705,229767836,0.19,0.28,3.12,3.46,80.45,81.31,0.03,0.2,3
1682338764.48045397,229867743,-0.59,-0.58,2.44,2.7,80.45,81.07000000000001,0.03,0.21,3
1682338764.58016801,229967457,-1.3800000000000001,-1.3900000000000001,1.73,1.71,80.45,80.87,0.03,0.22,3
1682338764.68020201,230067491,-2.17,-2.16,1.08,0.91,80.45,80.69,0.03,0.21,3
1682338764.78026700,230167556,-2.58,-2.9,0.6,0.29,80.45,80.56,0.03,0.22,3
1682338764.88027596,230267565,-2.44,-3.0300000000000002,0.34,-0.09,80.45,80.41,0.03,0.22,3
1682338764.98032904,230367618,-1.99,-2.37,0.25,-0.2,80.45,80.29,0.03,0.21,3
1682338765.08020806,230467497,-1.37,-1.57,0.3,-0.07,80.45,80.14,0.03,0.19,3
1682338765.18043399,230567723,-0.67,-0.76,0.41000000000000003,0.06,80.45,80.02,0.03,0.15,3
1682338765.28056288,230667852,0.01,0.06,0.56,0.36,80.45,79.91,0.02,0.14,3
1682338765.38056087,230767850,0.51,0.81,0.6900000000000001,0.6,80.45,79.82000000000001,0.02,0.12,3
1682338765.48046494,230867754,0.8,1.1300000000000001,0.79,0.75,80.45,79.73,0.02,0.11,3
1682338765.58045292,230967742,0.91,1.27,0.87,0.84,80.45,79.66,0.02,0.1,3
1682338765.68041801,231067707,0.9,1.23,0.93,0.92,80.45,79.62,0.02,0.09,3
1682338765.78044987,231167739,0.85,1.0,0.96,0.99,80.45,79.56,0.02,0.1,3
1682338765.88042998,231267719,0.79,0.97,0.97,1.0,80.45,79.55,0.01,0.1,3
1682338765.98057294,231367862,0.72,0.87,0.98,0.99,80.45,79.55,0.01,0.11,3
1682338766.08033395,231467623,0.71,0.63,1.01,0.99,80.45,79.56,0.01,0.1,3
1682338766.18046999,231567759,0.7000000000000001,0.74,1.04,0.96,80.45,79.61,0.01,0.09,3
1682338766.28042006,231667709,0.7000000000000001,0.78,1.05,1.01,80.45,79.63,0.01,0.08,3
1682338766.38077307,231768062,0.73,0.78,1.07,1.05,80.45,79.65,0.01,0.08,3
1682338766.48048306,231867772,0.76,0.99,1.09,1.0,80.45,79.68,0.01,0.07,3
1682338766.58021092,231967500,0.8,0.9400000000000001,1.12,0.99,80.45,79.72,0.01,0.06,3
1682338766.68030190,232067591,0.79,0.86,1.1400000000000001,1.04,80.45,79.73,0.01,0.06,3
1682338766.78030801,232167597,0.8,0.91,1.1500000000000001,1.02,80.45,79.76,0.01,0.06,3
1682338766.88019991,232267489,0.77,0.96,1.1,1.01,80.45,79.81,0.01,0.07,3
1682338766.98021102,232367500,0.74,0.87,1.01,1.0,80.45,79.83,0.01,0.06,3
1682338767.08015394,232467443,0.68,0.9,0.9,0.88,80.45,79.89,0.01,0.05,3
1682338767.18023205,232567521,0.6,0.84,0.76,0.8300000000000001,80.45,79.97,0.01,0.06,3
1682338767.28045201,232667741,0.54,0.77,0.65,0.63,80.45,80.04,0.01,0.07,3
1682338767.38050294,232767792,0.53,0.71,0.52,0.5700000000000001,80.45,80.13,0.01,0.06,3
1682338767.48021007,232867499,0.54,0.67,0.44,0.49,80.45,80.23,0.01,0.06,3
1682338767.58034897,232967638,0.54,0.61,0.34,0.43,80.45,80.33,0.01,0.06,3
1682338767.68030405,233067593,0.56,0.62,0.25,0.35000000000000003,80.45,80.43,0.01,0.07,3
1682338767.78041506,233167704,0.61,0.59,0.21,0.23,80.45,80.49,0.01,0.07,3
1682338767.88012004,233267409,0.76,0.53,-0.16,0.12,80.75,80.54,0.0,0.07,3
1682338767.98034501,233367634,1.95,1.04,-0.05,-0.32,80.77,80.62,0.0,0.07,3
1682338768.08022690,233467516,2.4,2.5500000000000003,-0.06,-0.19,80.77,80.7,0.01,0.06,3
1682338768.18047285,233567762,2.65,3.24,0.06,0.02,80.77,80.74,0.01,0.05,3
1682338768.28028703,233667576,2.52,2.87,0.24,0.09,80.78,80.74,0.01,0.05,3
1682338768.38026786,233767557,1.95,2.25,0.3,0.32,80.78,80.73,0.01,0.05,3
1682338768.48051786,233867807,1.56,1.3,0.4,0.32,80.79,80.7,0.02,0.05,3
1682338768.58048892,233967778,1.21,0.97,0.41000000000000003,0.42,80.79,80.61,0.02,0.05,3
1682338768.68056393,234067853,1.0,0.71,0.49,0.39,80.79,80.55,0.03,0.04,3
1682338768.78050303,234167792,0.86,0.67,0.51,0.51,80.79,80.46000000000001,0.03,0.03,3
1682338768.88064599,234267935,0.68,0.42,0.5,0.53,80.79,80.36,0.03,0.04,3
1682338768.98058701,234367876,0.54,0.36,0.46,0.49,80.79,80.24,0.03,0.04,3
1682338769.08080101,234468090,0.37,0.18,0.36,0.48,80.79,80.15,0.03,0.05,3
1682338769.18092489,234568214,0.25,-0.03,0.33,0.33,80.79,80.08,0.03,0.05,3
1682338769.28047299,234667762,0.14,-0.18,0.34,0.34,80.79,80.03,0.03,0.04,3
1682338769.38051605,234767805,0.1,-0.14,0.4,0.41000000000000003,80.79,80.0,0.03,0.04,3
1682338769.48030186,234867591,0.09,-0.12,0.44,0.41000000000000003,80.79,79.97,0.03,0.03,3
1682338769.58028698,234967576,0.08,-0.14,0.43,0.45,80.79,79.97,0.03,0.03,3
1682338769.68023586,235067525,0.07,-0.22,0.44,0.38,80.79,79.96000000000001,0.02,0.02,3
1682338769.78029490,235167584,0.07,0.0,0.45,0.39,80.79,79.95,0.02,0.03,3
1682338769.88021803,235267507,0.06,-0.03,0.47000000000000003,0.36,80.79,79.97,0.02,0.02,3
1682338769.98060083,235367890,0.09,0.09,0.48,0.35000000000000003,80.79,79.99,0.02,0.02,3
1682338770.08048487,235467774,0.13,0.08,0.51,0.36,80.79,79.99,0.02,0.03,3
1682338770.18049097,235567780,0.17,0.07,0.54,0.41000000000000003,80.79,80.03,0.02,0.03,3
1682338770.28050685,235667796,0.18,0.08,0.5700000000000001,0.41000000000000003,80.79,80.06,0.01,0.03,3
1682338770.38031602,235767605,0.19,0.17,0.5700000000000001,0.5,80.79,80.08,0.01,0.04,3
1682338770.48022389,235867513,0.23,0.12,0.58,0.5,80.79,80.12,0.01,0.04,3
1682338770.58012295,235967412,0.22,0.25,0.56,0.49,80.79,80.15,0.01,0.03,3
1682338770.68016505,236067454,0.27,0.26,0.56,0.43,80.79,80.17,0.01,0.03,3
1682338770.78025699,236167546,0.28,0.43,0.5700000000000001,0.49,80.79,80.18,0.01,0.03,3
1682338770.88019395,236267483,0.3,0.33,0.5700000000000001,0.5,80.79,80.19,0.01,0.03,3
1682338770.98032999,236367619,0.34,0.42,0.58,0.5,80.79,80.19,0.01,0.03,3
1682338771.08027387,236467563,0.31,0.45,0.54,0.5700000000000001,80.79,80.18,0.01,0.03,3
1682338771.18050790,236567797,0.29,0.5,0.55,0.49,80.79,80.16,0.01,0.03,3
1682338771.28032398,236667613,0.25,0.33,0.53,0.43,80.79,80.14,0.01,0.03,3
1682338771.38021207,236767501,0.21,0.27,0.52,0.42,80.79,80.15,0.01,0.02,3
1682338771.48033285,236867622,0.17,0.23,0.5700000000000001,0.41000000000000003,80.79,80.16,0.01,0.02,3
1682338771.58044004,236967729,0.13,0.09,0.58,0.55,80.79,80.15,0.01,0.02,3
1682338771.68044901,237067738,0.18,0.0,0.61,0.5700000000000001,80.79,80.17,0.01,0.02,3
1682338771.78053784,237167827,0.22,0.08,0.6,0.6,80.79,80.17,0.01,0.02,3
1682338771.88043189,237267721,0.27,0.28,0.61,0.63,80.79,80.17,0.01,0.02,3
1682338771.98075390,237368043,0.38,0.32,0.67,0.56,80.79,80.18,0.01,0.02,3
1682338772.08048987,237467779,0.39,0.63,0.64,0.68,80.79,80.2,0.01,0.02,3
1682338772.18030500,237567594,0.43,0.73,0.6,0.5700000000000001,80.79,80.24,0.01,0.03,3
1682338772.28021407,237667503,0.41000000000000003,0.8,0.56,0.38,80.79,80.29,0.01,0.03,3
1682338772.38012695,237767416,0.42,0.75,0.51,0.48,80.79,80.31,0.01,0.03,3
1682338772.48014688,237867436,0.37,0.45,0.55,0.39,80.79,80.34,0.01,0.03,3
1682338772.58022904,237967518,0.36,0.45,0.5700000000000001,0.48,80.79,80.39,0.01,0.02,3
1682338772.68020296,238067492,0.36,0.24,0.59,0.51,80.79,80.44,0.01,0.02,3
1682338772.78026700,238167556,0.36,0.29,0.61,0.47000000000000003,80.79,80.49,0.01,0.04,3
1682338772.88026190,238267551,0.44,0.22,0.58,0.49,80.79,80.53,0.01,0.04,3
1682338772.98035002,238367639,0.5,0.39,0.58,0.49,80.79,80.59,0.01,0.05,3
1682338773.08029389,238467583,0.56,0.39,0.54,0.56,80.79,80.62,0.01,0.05,3
1682338773.18053794,238567827,0.56,0.34,0.51,0.63,80.79,80.63,0.01,0.05,3
1682338773.28012800,238667417,0.54,0.41000000000000003,0.53,0.53,80.79,80.66,0.01,0.05,3
1682338773.38017893,238767468,0.52,0.43,0.51,0.59,80.79,80.7,0.01,0.04,3
1682338773.48024106,238867530,0.53,0.54,0.54,0.53,80.79,80.71000000000001,0.01,0.04,3
1682338773.58026695,238967556,0.47000000000000003,0.6900000000000001,0.55,0.49,80.79,80.72,0.01,0.04,3
1682338773.68028688,239067576,0.45,0.8,0.49,0.62,80.79,80.75,0.01,0.03,3
1682338773.78033590,239167625,0.41000000000000003,0.73,0.48,0.63,80.79,80.75,0.01,0.03,3
1682338773.88036799,239267657,0.42,0.66,0.44,0.56,80.79,80.76,0.01,0.04,3
1682338773.98036194,239367651,0.41000000000000003,0.48,0.43,0.35000000000000003,80.79,80.78,0.01,0.03,3
1682338774.08055401,239467843,0.4,0.39,0.41000000000000003,0.37,80.79,80.78,0.01,0.03,3
1682338774.18011689,239567406,0.4,0.4,0.4,0.42,80.79,80.77,0.01,0.03,3
1682338774.28058887,239667878,0.43,0.44,0.41000000000000003,0.42,80.79,80.75,0.01,0.04,3
1682338774.38053083,239767820,0.44,0.43,0.38,0.4,80.79,80.76,0.01,0.04,3
1682338774.48047090,239867760,0.47000000000000003,0.35000000000000003,0.42,0.31,80.79,80.74,0.01,0.04,3
1682338774.58049202,239967781,0.43,0.29,0.43,0.3,80.79,80.74,0.01,0.05,3
1682338774.68047786,240067767,0.35000000000000003,0.38,0.44,0.42,80.79,80.71000000000001,0.01,0.05,3
1682338774.78048491,240167774,0.36,0.32,0.46,0.48,80.79,80.72,0.01,0.04,3
1682338774.88048005,240267769,0.36,0.35000000000000003,0.45,0.42,80.79,80.68,0.01,0.04,3
1682338774.98080087,240368090,0.46,0.32,0.36,0.45,80.79,80.69,0.01,0.04,3
1682338775.08012891,240467418,0.43,0.49,0.4,0.34,80.79,80.71000000000001,0.01,0.04,3
1682338775.18017101,240567460,0.59,0.44,0.37,0.4,80.79,80.72,0.01,0.04,3
1682338775.28023386,240667523,0.52,0.48,0.43,0.36,80.79,80.71000000000001,0.01,0.05,3
1682338775.38021302,240767502,0.5,0.7000000000000001,0.41000000000000003,0.32,80.79,80.74,0.01,0.04,3
1682338775.48026991,240867559,0.54,0.64,0.41000000000000003,0.29,80.79,80.75,0.01,0.04,3
1682338775.58027506,240967564,0.38,0.98,0.43,0.36,80.79,80.71000000000001,0.01,0.04,3
1682338775.68030787,241067597,0.37,0.74,0.4,0.45,80.79,80.71000000000001,0.01,0.03,3
1682338775.78032804,241167617,0.39,0.39,0.4,0.44,80.79,80.66,0.01,0.03,3
1682338775.88054204,241267831,0.43,0.23,0.37,0.36,80.79,80.69,0.01,0.03,3
1682338775.98066902,241367958,0.44,0.15,0.34,0.37,80.79,80.7,0.01,0.03,3
1682338776.08057284,241467862,0.59,-0.02,0.37,0.41000000000000003,80.79,80.75,0.01,0.04,3
1682338776.18055391,241567843,0.6,0.2,0.31,0.61,80.79,80.79,0.01,0.04,3
1682338776.28044295,241667732,0.67,0.43,0.34,0.46,80.79,80.86,0.01,0.05,3
1682338776.38048100,241767770,0.76,0.48,0.31,0.45,80.79,80.94,0.01,0.05,3
1682338776.48043203,241867721,0.71,0.77,0.26,0.53,80.79,81.04,0.01,0.04,3
1682338776.58045197,241967741,0.65,1.06,0.27,0.55,80.79,81.13,0.01,0.04,3
1682338776.68045688,242067746,0.56,1.06,0.26,0.53,80.79,81.2,0.01,0.05,3
1682338776.78066707,242167956,0.44,1.04,0.3,0.25,80.79,81.24,0.01,0.05,3
1682338776.88049293,242267782,0.43,0.72,0.31,0.2,80.79,81.26,0.01,0.06,3
1682338776.98068190,242367971,0.33,0.48,0.36,0.28,80.79,81.25,0.01,0.06,3
1682338777.08053899,242467828,0.41000000000000003,0.26,0.45,0.3,80.79,81.25,0.01,0.06,3
1682338777.18019605,242567485,0.44,0.28,0.48,0.3,80.79,81.2,0.01,0.05,3
1682338777.28028393,242667573,0.47000000000000003,0.5700000000000001,0.41000000000000003,0.34,80.79,81.14,0.01,0.06,3
1682338777.38030601,242767595,0.63,0.75,0.51,0.71,80.79,81.06,0.01,0.06,3
1682338777.48029995,242867589,0.5700000000000001,1.35,0.77,1.31,80.79,80.98,0.01,0.07,3
1682338777.58031797,242967607,1.1500000000000001,0.87,1.1300000000000001,1.05,80.8,80.91,0.01,0.09,3
1682338777.68021894,243067508,1.75,1.6,1.5,1.16,80.81,80.99,0.01,0.08,3
1682338777.78012085,243167410,1.02,0.75,1.1500000000000001,0.55,80.8,80.89,0.01,0.09,3
1682338777.88058686,243267876,1.04,0.11,1.16,0.3,80.8,80.84,0.01,0.08,3
1682338777.98058701,243367876,1.84,0.25,1.28,0.14,80.8,81.18,0.01,0.07,3
1682338778.08030701,243467596,1.12,-0.34,1.18,-0.04,80.8,81.43,0.01,0.08,3
1682338778.18028402,243567573,1.11,-0.22,0.93,0.0,80.79,81.58,0.01,0.1,3
1682338778.28029084,243667580,0.24,-0.81,0.51,0.06,80.78,81.59,0.01,0.13,3
1682338778.38030601,243767595,0.72,-0.25,0.86,0.06,80.78,81.48,0.01,0.14,3
1682338778.48032498,243867614,0.4,-0.54,0.5700000000000001,0.11,80.78,81.60000000000001,0.01,0.15,3
1682338778.58021188,243967501,0.67,-0.43,1.05,0.06,80.79,81.59,0.01,0.17,3
1682338778.68050289,244067792,0.55,-0.41000000000000003,0.62,0.06,80.78,81.53,0.01,0.18,3
1682338778.78064585,244167935,0.68,-0.48,0.89,0.02,80.78,81.57000000000001,0.01,0.19,3
1682338778.88054585,244267835,0.64,-0.42,0.74,0.03,80.78,81.56,0.01,0.19,3
1682338778.98030806,244367597,0.71,-0.41000000000000003,0.62,0.05,80.78,81.53,0.01,0.2,3
1682338779.08050990,244467799,0.56,-0.46,0.8200000000000001,0.02,80.78,81.5,0.01,0.2,3
1682338779.18049097,244567780,0.6,-0.4,0.71,0.07,80.78,81.55,0.01,0.19,3
1682338779.28049994,244667789,0.5700000000000001,-0.47000000000000003,0.92,0.05,80.79,81.51,0.01,0.19,3
1682338779.38053083,244767820,0.61,-0.43,0.85,0.06,80.78,81.49,0.01,0.2,3
1682338779.48055696,244867846,0.61,-0.44,0.84,0.07,80.78,81.51,0.01,0.19,3
1682338779.58049798,244967787,0.63,-0.44,0.91,0.07,80.79,81.47,0.01,0.19,3
1682338779.68058586,245067875,0.66,-0.42,0.75,0.08,80.78,81.49,0.01,0.19,3
1682338779.78045607,245167745,0.4,-0.44,0.64,0.07,80.78,81.48,0.01,0.19,3
1682338779.88072205,245268011,0.2,-0.48,0.32,0.02,80.78,81.41,0.01,0.19,3
1682338779.98082995,245368119,0.1,-0.48,0.16,0.01,81.45,81.45,0.01,0.2,3
1682338780.08018804,245467477,0.05,-0.5,0.08,0.03,81.51,81.51,0.0,0.2,3
1682338780.18034792,245567637,0.02,-0.51,0.04,0.0,81.41,81.41,0.0,0.2,3
1682338780.28026295,245667552,0.01,-0.51,0.02,0.0,81.4,81.4,0.0,0.2,3
1682338780.38018489,245767474,0.0,-0.52,0.01,0.01,81.45,81.45,0.0,0.21,3
1682338780.48004484,245867334,0.0,-0.53,0.0,0.0,81.38,81.38,0.0,0.21,3
1682338780.58016491,245967454,0.0,-0.52,0.0,0.01,81.34,81.34,0.0,0.21,3
1682338780.68019986,246067489,0.0,-0.54,0.0,0.01,81.39,81.39,0.0,0.2,3
1682338780.78045702,246167746,0.0,-0.52,0.0,0.0,81.35000000000001,81.35000000000001,0.0,0.21,3
1682338780.88018703,246267476,0.0,-0.53,0.0,0.01,81.3,81.3,0.0,0.21,3
1682338780.98029399,246367583,0.0,-0.54,0.0,0.0,81.32000000000001,81.32000000000001,0.0,0.21,3
1682338781.08040905,246467698,0.0,-0.52,0.0,0.0,81.31,81.31,0.0,0.2,3
1682338781.18043184,246567721,0.0,-0.54,0.0,0.0,81.26,81.26,0.0,0.2,3
1682338781.28046489,246667754,0.0,-0.53,0.0,0.0,81.25,81.25,0.0,0.21,3
1682338781.38031983,246767609,0.0,-0.55,0.0,0.01,81.27,81.27,0.0,0.2,3
1682338781.48043394,246867723,0.0,-0.55,0.0,0.0,81.22,81.22,0.0,0.2,3
1682338781.58045101,246967740,0.0,-0.56,0.0,0.01,81.21000000000001,81.21000000000001,0.0,0.21,3
1682338781.68068004,247067969,0.0,-0.55,0.0,0.02,81.21000000000001,81.21000000000001,0.0,0.21,3
1682338781.78042984,247167719,0.0,-0.56,0.0,0.01,81.17,81.17,0.0,0.2,3
1682338781.88036990,247267659,0.0,-0.56,0.0,0.01,81.13,81.13,0.0,0.2,3
1682338781.98045897,247367748,0.0,-0.55,0.0,0.01,81.12,81.12,0.0,0.19,3
1682338782.08040500,247467694,0.0,-0.56,0.0,0.01,81.10000000000001,81.10000000000001,0.0,0.19,3
1682338782.18048406,247567773,0.0,-0.55,0.0,0.02,81.07000000000001,81.07000000000001,0.0,0.18,3
1682338782.28041005,247667699,0.0,-0.55,0.0,0.01,81.07000000000001,81.07000000000001,0.0,0.18,3
1682338782.38051701,247767806,0.0,-0.55,0.0,0.01,81.05,81.05,0.0,0.18,3
1682338782.48036504,247867654,0.0,-0.55,0.0,0.01,81.03,81.03,0.0,0.18,3
1682338782.58066702,247967956,0.0,-0.55,0.0,0.01,81.02,81.02,0.0,0.18,3
1682338782.68046689,248067756,0.0,-0.56,0.0,0.02,81.01,81.01,0.0,0.17,3
1682338782.78047585,248167765,0.0,-0.56,0.0,0.02,80.98,80.98,0.0,0.17,3
1682338782.88045096,248267740,0.0,-0.56,0.0,0.03,80.96000000000001,80.96000000000001,0.0,0.16,3
1682338782.98033500,248367624,0.0,-0.56,0.0,0.03,80.95,80.95,0.0,0.16,3
1682338783.08017707,248467466,0.0,-0.56,0.0,0.02,80.92,80.92,0.0,0.15,3
1682338783.18005204,248567341,0.0,-0.56,0.0,0.02,80.91,80.91,0.0,0.15,3
1682338783.28015184,248667441,0.0,-0.56,0.0,0.03,80.91,80.91,0.0,0.15,3
1682338783.38017201,248767461,0.0,-0.5700000000000001,0.0,0.03,80.88,80.88,0.0,0.15,3
1682338783.48015785,248867447,0.0,-0.56,0.0,0.03,80.86,80.86,0.0,0.15,3
1682338783.58019185,248967481,0.0,-0.5700000000000001,0.0,0.04,80.85000000000001,80.85000000000001,0.0,0.15,3
1682338783.68020201,249067491,0.0,-0.5700000000000001,0.0,0.04,80.83,80.83,0.0,0.15,3
1682338783.78046203,249167751,0.0,-0.5700000000000001,0.0,0.04,80.8,80.8,0.0,0.15,3
1682338783.88028288,249267572,0.0,-0.5700000000000001,0.0,0.04,80.79,80.79,0.0,0.14,3
1682338783.98022985,249367519,0.0,-0.5700000000000001,0.0,0.05,80.77,80.77,0.0,0.14,3
1682338784.08003902,249467328,0.0,-0.5700000000000001,0.0,0.04,80.75,80.75,0.0,0.15,3
1682338784.18013906,249567428,0.0,-0.5700000000000001,0.0,0.04,80.74,80.74,0.0,0.14,3
1682338784.28019500,249667484,0.0,-0.5700000000000001,0.0,0.04,80.72,80.72,0.0,0.14,3
1682338784.38024497,249767534,0.0,-0.5700000000000001,0.0,0.04,80.7,80.7,0.0,0.14,3
1682338784.48018289,249867472,0.0,-0.5700000000000001,0.0,0.05,80.68,80.68,0.0,0.14,3
1682338784.58018303,249967472,0.0,-0.5700000000000001,0.0,0.05,80.66,80.66,0.0,0.14,3
1682338784.68046284,250067752,0.0,-0.5700000000000001,0.0,0.05,80.63,80.63,0.0,0.14,3
1682338784.78025889,250167548,0.0,-0.56,0.0,0.05,80.62,80.62,0.0,0.14,3
1682338784.88051200,250267801,0.0,-0.56,0.0,0.05,80.60000000000001,80.60000000000001,0.0,0.13,3
1682338784.98055696,250367846,0.0,-0.5700000000000001,0.0,0.05,80.58,80.58,0.0,0.12,3
1682338785.08053994,250467829,0.0,-0.56,0.0,0.05,80.56,80.56,0.0,0.13,3
1682338785.18045998,250567749,0.0,-0.56,0.0,0.05,80.55,80.55,0.0,0.13,3
1682338785.28072095,250668010,0.0,-0.56,0.0,0.05,80.52,80.52,0.0,0.14,3
1682338785.38073587,250768025,0.0,-0.56,0.0,0.05,80.5,80.5,0.0,0.13,3
1682338785.48017907,250867468,0.0,-0.56,0.0,0.05,80.48,80.48,0.0,0.13,3
1682338785.58020496,250967494,0.0,-0.56,0.0,0.05,80.46000000000001,80.46000000000001,0.0,0.12,3
1682338785.68026304,251067552,0.0,-0.56,0.0,0.05,80.44,80.44,0.0,0.12,3
1682338785.78018188,251167471,0.0,-0.56,0.0,0.04,80.42,80.42,0.0,0.12,3
1682338785.88003492,251267324,0.0,-0.56,0.0,0.04,80.4,80.4,0.0,0.11,3
1682338785.98070502,251367994,0.0,-0.56,0.0,0.04,80.38,80.38,0.0,0.12,3
1682338786.08049989,251467789,0.0,-0.56,0.0,0.04,80.37,80.37,0.0,0.12,3
1682338786.18043995,251567729,0.0,-0.5700000000000001,0.0,0.05,80.35000000000001,80.35000000000001,0.0,0.12,3
1682338786.28047395,251667763,0.0,-0.5700000000000001,0.0,0.05,80.32000000000001,80.32000000000001,0.0,0.12,3
1682338786.38028693,251767576,0.0,-0.5700000000000001,0.0,0.05,80.31,80.31,0.0,0.11,3
1682338786.48049307,251867782,0.0,-0.5700000000000001,0.0,0.05,80.28,80.28,0.0,0.11,3
1682338786.58065891,251967948,0.0,-0.56,0.0,0.05,80.26,80.26,0.0,0.1,3
1682338786.68048406,252067773,0.0,-0.56,0.0,0.05,80.25,80.25,0.0,0.1,3
1682338786.78033304,252167622,0.0,-0.56,0.0,0.05,80.23,80.23,0.0,0.09,3
1682338786.88075399,252268043,0.0,-0.56,0.0,0.04,80.21000000000001,80.21000000000001,0.0,0.11,3
1682338786.98054600,252367835,0.0,-0.56,0.0,0.04,80.2,80.2,0.0,0.11,3
1682338787.08014703,252467436,0.0,-0.56,0.0,0.04,80.18,80.18,0.0,0.1,3
1682338787.18020391,252567493,0.0,-0.56,0.0,0.04,80.15,80.15,0.0,0.1,3
1682338787.28018188,252667471,0.0,-0.56,0.0,0.04,80.13,80.13,0.0,0.09,3
1682338787.38021398,252767503,0.0,-0.56,0.0,0.03,80.12,80.12,0.0,0.09,3
1682338787.48026705,252867556,0.0,-0.56,0.0,0.03,80.10000000000001,80.10000000000001,0.0,0.09,3
1682338787.58047891,252967768,0.0,-0.56,0.0,0.03,80.08,80.08,0.0,0.1,3
1682338787.68005300,253067342,0.0,-0.56,0.0,0.03,80.06,80.06,0.0,0.1,3
1682338787.78015900,253167448,0.0,-0.56,0.0,0.03,80.04,80.04,0.0,0.09,3
1682338787.88018203,253267471,0.0,-0.56,0.0,0.03,80.02,80.02,0.0,0.08,3
1682338787.98049188,253367781,0.0,-0.56,0.0,0.03,80.0,80.0,0.0,0.08,3
1682338788.08046603,253467755,0.0,-0.56,0.0,0.03,79.98,79.98,0.0,0.07,3
1682338788.18025589,253567545,0.0,-0.56,0.0,0.03,79.97,79.97,0.0,0.07,3
1682338788.28047204,253667761,0.0,-0.56,0.0,0.02,79.96000000000001,79.96000000000001,0.0,0.06,3
1682338788.38049507,253767784,0.0,-0.56,0.0,0.03,79.94,79.94,0.0,0.06,3
1682338788.48051596,253867805,0.0,-0.56,0.0,0.03,79.93,79.93,0.0,0.07,3
1682338788.58083200,253968121,0.0,-0.56,0.0,0.03,79.93,79.93,0.0,0.07,3
1682338788.68054390,254067833,0.0,-0.56,0.0,0.03,79.91,79.91,0.0,0.08,3
1682338788.78053999,254167829,0.0,-0.56,0.0,0.02,79.89,79.89,0.0,0.07,3
1682338788.88043284,254267722,0.0,-0.56,0.0,0.02,79.88,79.88,0.0,0.08,3
1682338788.98061585,254367905,0.0,-0.56,0.0,0.02,79.85000000000001,79.85000000000001,0.0,0.08,3
1682338789.08019304,254467482,0.0,-0.55,0.0,0.02,79.83,79.83,0.0,0.07,3
1682338789.18026495,254567554,0.0,-0.55,0.0,0.02,79.81,79.81,0.0,0.08,3
1682338789.28025293,254667542,0.0,-0.55,0.0,0.01,79.79,79.79,0.0,0.08,3
1682338789.38028002,254767569,0.0,-0.55,0.0,0.01,79.76,79.76,0.0,0.07,3
1682338789.48003292,254867322,0.0,-0.55,0.0,0.01,79.75,79.75,0.0,0.07,3
1682338789.58065200,254967941,0.0,-0.54,0.0,0.01,79.73,79.73,0.0,0.06,3
1682338789.68045187,255067741,0.0,-0.54,0.0,0.0,79.71000000000001,79.71000000000001,0.0,0.07,3
1682338789.78016806,255167457,0.0,-0.54,0.0,0.01,79.69,79.69,0.0,0.07,3
1682338789.88017893,255267468,0.0,-0.54,0.0,0.0,79.68,79.68,0.0,0.07,3
1682338789.98028898,255367578,0.0,-0.54,0.0,0.0,79.66,79.66,0.0,0.06,3
1682338790.08025789,255467547,0.0,-0.54,0.0,0.0,79.65,79.65,0.0,0.06,3
1682338790.18028498,255567574,0.0,-0.54,0.0,0.0,79.63,79.63,0.0,0.06,3
1682338790.28018904,255667478,0.0,-0.54,0.0,0.0,79.61,79.61,0.0,0.06,3
1682338790.38004589,255767335,0.0,-0.54,0.0,0.0,79.59,79.59,0.0,0.06,3
1682338790.48054099,255867830,0.0,-0.54,0.0,0.0,79.57000000000001,79.57000000000001,0.0,0.07,3
1682338790.58053589,255967825,0.0,-0.54,0.0,0.0,79.55,79.55,0.0,0.08,3
1682338790.68027496,256067564,0.0,-0.54,0.0,0.0,79.54,79.54,0.0,0.08,3
1682338790.78020906,256167498,0.0,-0.54,0.0,-0.01,79.51,79.51,0.0,0.07,3
1682338790.88018584,256267475,0.0,-0.53,0.0,-0.01,79.49,79.49,0.0,0.06,3
1682338790.98034406,256367633,0.0,-0.53,0.0,-0.01,79.47,79.47,0.0,0.05,3
1682338791.08028603,256467575,0.0,-0.53,0.0,-0.01,79.45,79.45,0.0,0.05,3
1682338791.18020988,256567499,0.0,-0.53,0.0,-0.01,79.44,79.44,0.0,0.06,3
1682338791.28009701,256667386,0.0,-0.53,0.0,0.0,79.43,79.43,0.0,0.06,3
1682338791.38053989,256767829,0.0,-0.53,0.0,-0.01,79.41,79.41,0.0,0.05,3
1682338791.48046494,256867754,0.0,-0.53,0.0,0.0,79.4,79.4,0.0,0.05,3
1682338791.58015990,256967449,0.0,-0.53,0.0,0.0,79.38,79.38,0.0,0.04,3
1682338791.68041086,257067700,0.0,-0.54,0.0,0.0,79.36,79.36,0.0,0.04,3
1682338791.78038406,257167673,0.0,-0.54,0.0,0.0,79.35000000000001,79.35000000000001,0.0,0.04,3
1682338791.88041306,257267702,0.0,-0.54,0.0,0.0,79.33,79.33,0.0,0.05,3
1682338791.98049092,257367780,0.0,-0.54,0.0,0.0,79.32000000000001,79.32000000000001,0.0,0.05,3
1682338792.08045506,257467744,0.0,-0.54,0.0,0.0,79.31,79.31,0.0,0.05,3
1682338792.18066406,257567953,0.0,-0.54,0.0,0.0,79.29,79.29,0.0,0.05,3
1682338792.28046894,257667758,0.0,-0.54,0.0,0.0,79.27,79.27,0.0,0.05,3
1682338792.38046384,257767753,0.0,-0.55,0.0,0.0,79.26,79.26,0.0,0.05,3
1682338792.48014498,257867434,0.0,-0.55,0.0,0.0,79.24,79.24,0.0,0.04,3
1682338792.58018899,257967478,0.0,-0.55,0.0,-0.01,79.22,79.22,0.0,0.05,3
1682338792.68019795,258067487,0.0,-0.55,0.0,-0.01,79.21000000000001,79.21000000000001,0.0,0.05,3
1682338792.78033805,258167627,0.0,-0.55,0.0,-0.01,79.18,79.18,0.0,0.06,3
1682338792.88020706,258267496,0.0,-0.55,0.0,-0.02,79.16,79.16,0.0,0.05,3
1682338792.98027492,258367564,0.0,-0.56,0.0,-0.02,79.14,79.14,0.0,0.05,3
1682338793.08003497,258467324,0.0,-0.55,0.0,-0.02,79.12,79.12,0.0,0.04,3
1682338793.18017387,258567463,0.0,-0.55,0.0,-0.02,79.11,79.11,0.0,0.05,3
1682338793.28016996,258667459,0.0,-0.55,0.0,-0.02,79.09,79.09,0.0,0.05,3
1682338793.38049984,258767789,0.0,-0.55,0.0,-0.02,79.07000000000001,79.07000000000001,0.0,0.05,3
1682338793.48047400,258867763,0.0,-0.55,0.0,-0.02,79.06,79.06,0.0,0.05,3
1682338793.58026290,258967552,0.0,-0.55,0.0,-0.02,79.03,79.03,0.0,0.05,3
1682338793.68048501,259067774,0.0,-0.55,0.0,-0.02,79.01,79.01,0.0,0.05,3
1682338793.78047800,259167767,0.0,-0.56,0.0,-0.02,78.99,78.99,0.0,0.05,3
1682338793.88052392,259267813,0.0,-0.56,0.0,-0.02,78.97,78.97,0.0,0.05,3
1682338793.98059392,259367883,0.0,-0.56,0.0,-0.02,78.95,78.95,0.0,0.05,3
1682338794.08053184,259467821,0.0,-0.56,0.0,-0.02,78.93,78.93,0.0,0.05,3
1682338794.18081689,259568106,0.0,-0.56,0.0,-0.01,78.91,78.91,0.0,0.05,3
1682338794.28044605,259667735,0.0,-0.56,0.0,-0.01,78.89,78.89,0.0,0.06,3
1682338794.38047886,259767768,0.0,-0.5700000000000001,0.0,-0.01,78.87,78.87,0.0,0.05,3
1682338794.48043704,259867726,0.0,-0.5700000000000001,0.0,-0.01,78.85000000000001,78.85000000000001,0.0,0.05,3
1682338794.58048105,259967770,0.0,-0.58,0.0,-0.01,78.83,78.83,0.0,0.05,3
1682338794.68047285,260067762,0.0,-0.58,0.0,-0.01,78.8,78.8,0.0,0.05,3
1682338794.78050184,260167791,0.0,-0.58,0.0,-0.01,78.78,78.78,0.0,0.04,3
1682338794.88057899,260267868,0.0,-0.59,0.0,-0.01,78.76,78.76,0.0,0.04,3
