timestamp,TimeUS,I,Status,GMS,GWk,NSats,HDop,Lat,Lng,Alt,Spd,GCrs,VZ,Yaw,U
1682338723.59999990,188987289,0,3,130741600,2259,15,0.79,42.689923199999996,-84.48892239999999,262.05,0.023000001907348633,270.0,0.06800000369548798,0.0,1
1682338723.80014586,189187435,0,3,130741800,2259,15,0.79,42.689923,-84.48892239999999,261.99,0.012206556275486946,145.00796508789062,0.07000000029802322,0.0,1
1682338723.98014307,189367432,0,3,130742000,2259,15,0.79,42.6899228,-84.48892239999999,261.92,0.02942787855863571,350.21759033203125,-0.029000001028180122,0.0,1
1682338724.20044684,189587736,0,3,130742200,2259,15,0.79,42.689922599999996,-84.4889225,261.87,0.020396079868078232,281.3099365234375,0.06100000441074371,0.0,1
1682338724.39982700,189787116,0,3,130742400,2259,15,0.79,42.6899224,-84.4889225,261.83,0.012000000104308128,270.0,0.010000000707805157,0.0,1
1682338724.59989786,189987187,0,3,130742600,2259,15,0.79,42.6899222,-84.4889225,261.78000000000003,0.009055386297404766,276.3402099609375,0.01100000087171793,0.0,1
1682338724.78011203,190167401,0,3,130742800,2259,15,0.79,42.689921999999996,-84.4889226,261.72,0.02900000289082527,316.3971862792969,0.03400000184774399,0.0,1
1682338725.00018501,190387474,0,3,130743000,2259,15,0.79,42.6899218,-84.4889226,261.68,0.011661904864013195,210.96376037597656,0.03400000184774399,0.0,1
1682338725.17992306,190567212,0,3,130743200,2259,15,0.79,42.6899215,-84.4889226,261.64,0.02418677508831024,299.744873046875,-0.05000000074505806,0.0,1
1682338725.37986088,190767150,0,3,130743400,2259,15,0.79,42.689921299999995,-84.48892269999999,261.59000000000003,0.015556350350379944,45.0,-0.04400000348687172,0.0,1
1682338725.59992504,190987214,0,3,130743600,2259,15,0.79,42.6899211,-84.48892269999999,261.55,0.00824621133506298,255.96377563476562,-0.009000000543892384,0.0,1
1682338725.78013206,191167421,0,3,130743800,2259,15,0.79,42.689920799999996,-84.48892269999999,261.52,0.030016662552952766,209.98165893554688,0.014000000432133675,0.0,1
1682338725.98017287,191367462,0,3,130744000,2259,15,0.79,42.6899206,-84.4889228,261.48,0.007280109915882349,285.9454040527344,0.02500000037252903,0.0,1
1682338726.18020606,191567495,0,3,130744200,2259,15,0.79,42.6899204,-84.4889228,261.45,0.013928388245403767,248.96249389648438,0.00800000037997961,0.0,1
1682338726.38017893,191767468,0,3,130744400,2259,14,0.79,42.689920199999996,-84.48892289999999,261.41,0.039661064743995667,213.69007873535156,0.10700000822544098,0.0,1
1682338726.60009193,191987381,0,3,130744600,2259,14,0.79,42.68992,-84.488923,261.37,0.032893769443035126,19.53665542602539,0.12600000202655792,0.0,1
1682338726.80013084,192187420,0,3,130744800,2259,14,0.79,42.6899199,-84.488923,261.35,0.04750789701938629,220.7321014404297,0.06100000441074371,0.0,1
1682338727.00009084,192387380,0,3,130745000,2259,14,0.79,42.689919599999996,-84.4889231,261.33,0.029966648668050766,244.2900390625,0.10300000756978989,0.0,1
1682338727.19998598,192587275,0,3,130745200,2259,14,0.81,42.689919499999995,-84.4889232,261.29,0.03342154994606972,38.92753982543945,-0.013000000268220901,0.0,1
1682338727.40009999,192787389,0,3,130745400,2259,14,0.81,42.6899194,-84.4889232,261.27,0.031048350036144257,194.93142700195312,0.07500000298023224,0.0,1
1682338727.60014105,192987430,0,3,130745600,2259,14,0.81,42.6899192,-84.4889233,261.26,0.0022360680159181356,206.56504821777344,-0.055000003427267075,0.0,1
1682338727.77995396,193167243,0,3,130745800,2259,14,0.81,42.6899191,-84.4889233,261.26,0.006324555724859238,288.4349365234375,0.004000000189989805,0.0,1
1682338728.02045703,193407746,0,3,130746000,2259,14,0.81,42.689918999999996,-84.48892339999999,261.25,0.02420743741095066,128.29014587402344,-0.010000000707805157,0.0,1
1682338728.18014002,193567429,0,3,130746200,2259,14,0.81,42.689918899999995,-84.48892339999999,261.22,0.019416488707065582,34.508522033691406,-0.05300000309944153,0.0,1
1682338728.40014696,193787436,0,3,130746400,2259,14,0.81,42.6899187,-84.4889235,261.22,0.054708320647478104,210.78416442871094,0.05700000375509262,0.0,1
1682338728.59992290,193987212,0,3,130746600,2259,14,0.81,42.6899186,-84.48892359999999,261.22,0.00412310566753149,165.9637451171875,0.03800000250339508,0.0,1
1682338728.77993989,194167229,0,3,130746800,2259,14,0.81,42.689918399999996,-84.4889237,261.19,0.0187882948666811,244.79888916015625,0.02200000174343586,0.0,1
1682338729.00004005,194387329,0,3,130747000,2259,14,0.81,42.689918299999995,-84.4889237,261.19,0.028844410553574562,213.69007873535156,0.06100000441074371,0.0,1
1682338729.20014000,194587429,0,3,130747200,2259,14,0.81,42.6899182,-84.4889238,261.17,0.017691805958747864,47.29060745239258,-0.03100000135600567,0.0,1
1682338729.40019298,194787482,0,3,130747400,2259,14,0.81,42.6899182,-84.4889239,261.16,0.013341664336621761,12.994616508483887,-0.03200000151991844,0.0,1
1682338729.60045791,194987747,0,3,130747600,2259,14,0.81,42.6899181,-84.4889239,261.26,0.03847077116370201,8.972625732421875,-0.7300000190734863,0.0,1
1682338729.79988289,195187172,0,3,130747800,2259,14,0.81,42.6899182,-84.4889239,261.38,0.21060152351856232,350.9849548339844,-0.593000054359436,0.0,1
1682338729.99990988,195387199,0,3,130748000,2259,14,0.81,42.689918399999996,-84.4889238,261.54,0.07741447538137436,5.931526184082031,-0.5670000314712524,0.0,1
1682338730.18039894,195567688,0,3,130748200,2259,14,0.81,42.689918399999996,-84.48892339999999,261.67,0.06628725677728653,33.92979431152344,-0.4150000214576721,0.0,1
1682338730.37993693,195767226,0,3,130748400,2259,14,0.81,42.6899181,-84.4889231,261.75,0.07211102545261383,146.30992126464844,-0.2580000162124634,0.0,1
1682338730.58017707,195967466,0,3,130748600,2259,14,0.81,42.6899179,-84.4889228,261.81,0.11031772941350937,98.86461639404297,-0.11500000208616257,0.0,1
1682338730.78025794,196167547,0,3,130748800,2259,14,0.81,42.689917699999995,-84.4889225,261.82,0.2045336216688156,97.02076721191406,-0.13700000941753387,0.0,1
1682338730.99990106,196387190,0,3,130749000,2259,14,0.81,42.6899175,-84.4889219,261.83,0.27454873919487,99.22215270996094,-0.11100000888109207,0.0,1
1682338731.19995189,196587241,0,3,130749200,2259,14,0.81,42.6899173,-84.4889212,261.79,0.4397931694984436,100.08344268798828,0.02200000174343586,0.0,1
1682338731.38020301,196767492,0,3,130749400,2259,14,0.81,42.6899172,-84.48892029999999,261.8,0.26084864139556885,74.20545959472656,-0.15300001204013824,0.0,1
1682338731.58021402,196967503,0,3,130749600,2259,14,0.81,42.689917,-84.48891929999999,261.87,0.48257333040237427,115.92786407470703,-0.12000000476837158,0.0,1
1682338731.78015494,197167444,0,3,130749800,2259,14,0.81,42.6899167,-84.488918,261.94,0.4345940947532654,101.41334533691406,-0.23500001430511475,0.0,1
1682338731.98052287,197367812,0,3,130750000,2259,14,0.81,42.689916499999995,-84.48891689999999,262.02,0.3967429995536804,101.33824920654297,-0.14800000190734863,0.0,1
1682338732.17997098,197567260,0,3,130750200,2259,14,0.81,42.6899162,-84.48891569999999,262.0,0.5257803797721863,95.8949203491211,-0.24700000882148743,0.0,1
1682338732.37994885,197767238,0,3,130750400,2259,14,0.81,42.689915899999995,-84.4889142,262.1,0.45260247588157654,107.35401916503906,-0.203000009059906,0.0,1
1682338732.57992601,197967215,0,3,130750600,2259,14,0.81,42.6899157,-84.4889128,262.21,0.571056067943573,90.80268096923828,-0.36900001764297485,0.0,1
1682338732.77979589,198167085,0,3,130750800,2259,14,0.81,42.6899158,-84.48891119999999,262.4,0.48608335852622986,88.9390869140625,-0.4690000116825104,0.0,1
1682338732.98018885,198367478,0,3,130751000,2259,14,0.81,42.6899158,-84.4889098,262.58,0.5593791604042053,114.50328826904297,-0.5560000538825989,0.0,1
1682338733.18019295,198567482,0,3,130751200,2259,14,0.81,42.6899155,-84.48890829999999,262.78000000000003,0.6309564113616943,102.91293334960938,-0.6610000133514404,0.0,1
1682338733.40014386,198787433,0,3,130751400,2259,14,0.81,42.6899155,-84.4889065,262.95,0.7403891086578369,88.14240264892578,-0.6200000047683716,0.0,1
1682338733.59990501,198987194,0,3,130751600,2259,14,0.81,42.6899155,-84.48890469999999,263.12,0.6450496315956116,90.71060180664062,-0.5560000538825989,0.0,1
1682338733.79991698,199187206,0,3,130751800,2259,14,0.81,42.689915299999996,-84.4889034,263.26,0.43294575810432434,123.50653076171875,-0.609000027179718,0.0,1
1682338733.99993086,199387220,0,3,130752000,2259,14,0.81,42.6899152,-84.48890229999999,263.39,0.5249762535095215,86.50535583496094,-0.5290000438690186,0.0,1
1682338734.18013787,199567427,0,3,130752200,2259,14,0.81,42.6899154,-84.4889012,263.49,0.3235119879245758,68.98792266845703,-0.30300000309944153,0.0,1
1682338734.39982390,199787113,0,3,130752400,2259,14,0.81,42.6899154,-84.4889003,263.51,0.2603248357772827,87.13758850097656,-0.328000009059906,0.0,1
1682338734.60015607,199987445,0,3,130752600,2259,14,0.81,42.6899158,-84.4888996,263.69,0.2161134034395218,35.013736724853516,-0.19300000369548798,0.0,1
1682338734.80017495,200187464,0,3,130752800,2259,14,0.81,42.6899164,-84.4888991,263.81,0.2898310124874115,14.18008041381836,-0.2630000114440918,0.0,1
1682338735.00025105,200387540,0,3,130753000,2259,14,0.81,42.6899169,-84.4888988,263.86,0.26816412806510925,18.70520782470703,-0.24700000882148743,0.0,1
1682338735.17992187,200567211,0,3,130753200,2259,14,0.81,42.6899175,-84.4888984,263.97,0.24606503546237946,19.465866088867188,-0.1770000010728836,0.0,1
1682338735.37985396,200767143,0,3,130753400,2259,14,0.81,42.6899181,-84.4888981,264.02,0.3590891361236572,20.20121955871582,-0.007000000216066837,0.0,1
1682338735.57989883,200967188,0,3,130753600,2259,14,0.81,42.6899187,-84.4888976,264.08,0.1841331124305725,39.04857635498047,-0.058000002056360245,0.0,1
1682338735.78016090,201167450,0,3,130753800,2259,14,0.81,42.6899192,-84.48889729999999,264.08,0.2898310124874115,14.18008041381836,-0.06200000271201134,0.0,1
1682338735.99993706,201387226,0,3,130754000,2259,14,0.81,42.6899198,-84.4888972,264.12,0.2304886132478714,356.26861572265625,-0.03700000047683716,0.0,1
1682338736.18028688,201567576,0,3,130754200,2259,14,0.81,42.6899204,-84.4888972,264.21,0.15895912051200867,338.6001892089844,0.12700000405311584,0.0,1
1682338736.39993405,201787223,0,3,130754400,2259,14,0.81,42.689920799999996,-84.48889729999999,264.26,0.17611360549926758,344.8590087890625,-0.004000000189989805,0.0,1
1682338736.58018398,201967473,0,3,130754600,2259,14,0.81,42.689921299999995,-84.4888972,264.32,0.1193314790725708,346.4295654296875,0.10700000822544098,0.0,1
1682338736.77996588,202167255,0,3,130754800,2259,14,0.81,42.6899215,-84.48889729999999,264.33,0.152410626411438,323.8067932128906,0.01100000087171793,0.0,1
1682338736.99986696,202387156,0,3,130755000,2259,14,0.81,42.6899217,-84.4888974,264.35,0.1458800882101059,286.32305908203125,0.003000000026077032,0.0,1
1682338737.20007586,202587365,0,3,130755200,2259,14,0.81,42.6899218,-84.48889779999999,264.38,0.1983381062746048,263.3407897949219,0.07700000703334808,0.0,1
1682338737.40033102,202787620,0,3,130755400,2259,14,0.81,42.6899217,-84.4888982,264.43,0.2776562571525574,239.0008544921875,0.017000000923871994,0.0,1
1682338737.60017085,202987460,0,3,130755600,2259,14,0.81,42.6899217,-84.4888986,264.46,0.2068864405155182,283.7004089355469,-0.07700000703334808,0.0,1
1682338737.79991102,203187200,0,3,130755800,2259,14,0.81,42.6899217,-84.48889899999999,264.49,0.2248777598142624,254.78958129882812,-0.029000001028180122,0.0,1
1682338738.00003505,203387324,0,3,130756000,2259,14,0.81,42.6899217,-84.4888993,264.55,0.1980404108762741,268.8426818847656,0.015000000596046448,0.0,1
1682338738.20020199,203587491,0,3,130756200,2259,14,0.81,42.6899218,-84.4888996,264.58,0.16977927088737488,293.242919921875,0.01100000087171793,0.0,1
1682338738.38015389,203767443,0,3,130756400,2259,14,0.81,42.689921899999995,-84.4888998,264.58,0.09823442250490189,284.7435607910156,-0.04700000211596489,0.0,1
1682338738.60032892,203987618,0,3,130756600,2259,14,0.81,42.689921999999996,-84.4889,264.6,0.05656854435801506,278.1300964355469,-0.023000001907348633,0.0,1
1682338738.80052400,204187813,0,3,130756800,2259,14,0.81,42.689921899999995,-84.4889,264.64,0.09374434500932693,191.07020568847656,0.0860000029206276,0.0,1
1682338738.99988699,204387176,0,3,130757000,2259,14,0.81,42.6899218,-84.48889989999999,264.66,0.1465776264667511,138.0418243408203,0.004000000189989805,0.0,1
1682338739.19991899,204587208,0,3,130757200,2259,14,0.81,42.6899216,-84.4888995,264.71,0.18280045688152313,143.00473022460938,-0.009000000543892384,0.0,1
1682338739.39994407,204787233,0,3,130757400,2259,14,0.81,42.6899215,-84.4888991,264.76,0.22871161997318268,138.0127716064453,-0.07800000160932541,0.0,1
1682338739.58018184,204967471,0,3,130757600,2259,14,0.81,42.6899212,-84.4888986,264.79,0.2702961564064026,137.09889221191406,-0.005000000353902578,0.0,1
1682338739.79980087,205187090,0,3,130757800,2259,14,0.81,42.689921,-84.4888981,264.86,0.33857646584510803,131.6475830078125,0.05300000309944153,0.0,1
1682338739.99992585,205387215,0,3,130758000,2259,13,0.81,42.689920699999995,-84.4888975,264.86,0.3604067265987396,127.21964263916016,-0.06700000166893005,0.0,1
1682338740.18016195,205567451,0,3,130758200,2259,14,0.81,42.6899205,-84.4888969,264.95,0.3408240079879761,131.3124237060547,-0.10500000417232513,0.0,1
1682338740.38047385,205767763,0,3,130758400,2259,14,0.81,42.689920199999996,-84.48889609999999,265.02,0.4892003834247589,126.9401626586914,-0.04000000283122063,0.0,1
1682338740.57992387,205967213,0,3,130758600,2259,14,0.81,42.6899199,-84.48889539999999,265.1,0.3220139741897583,132.6088104248047,-0.15600000321865082,0.0,1
1682338740.77986884,206167158,0,3,130758800,2259,14,0.81,42.689919599999996,-84.4888945,265.14,0.5528562068939209,114.01509094238281,0.06200000271201134,0.0,1
1682338741.00011587,206387405,0,3,130759000,2259,13,0.81,42.6899192,-84.4888933,265.15,0.5040367245674133,120.78829956054688,-0.05900000408291817,0.0,1
1682338741.18015194,206567441,0,3,130759200,2259,14,0.81,42.6899188,-84.48889199999999,265.25,0.7227205634117126,125.8233642578125,0.032999999821186066,0.0,1
1682338741.37996387,206767253,0,3,130759400,2259,14,0.81,42.689918,-84.4888903,265.23,0.6454340219497681,121.89244842529297,-0.12000000476837158,0.0,1
1682338741.57992887,206967218,0,3,130759600,2259,14,0.81,42.6899175,-84.48888869999999,265.29,0.7110309600830078,111.62184143066406,0.07800000160932541,0.0,1
1682338741.77979898,207167088,0,3,130759800,2259,14,0.81,42.6899172,-84.4888872,265.36,0.584528923034668,116.08283996582031,-0.08300000429153442,0.0,1
1682338741.97992587,207367215,0,3,130760000,2259,13,0.81,42.6899167,-84.48888579999999,265.41,0.704775869846344,120.05746459960938,0.0020000000949949026,0.0,1
1682338742.18017387,207567463,0,3,130760200,2259,13,0.8300000000000001,42.689915899999995,-84.4888842,265.35,0.938569188117981,123.35143280029297,0.21300001442432404,0.0,1
1682338742.38030791,207767597,0,3,130760400,2259,13,0.8300000000000001,42.6899151,-84.4888821,265.37,0.9649254679679871,122.25714111328125,0.1900000125169754,0.0,1
1682338742.60012007,207987409,0,3,130760600,2259,14,0.8300000000000001,42.689914099999996,-84.4888801,265.38,0.9585974812507629,128.519775390625,0.03700000047683716,0.0,1
1682338742.77992105,208167210,0,3,130760800,2259,14,0.8300000000000001,42.6899133,-84.4888783,265.39,0.872479259967804,118.32743072509766,-0.007000000216066837,0.0,1
1682338742.99993706,208387226,0,3,130761000,2259,14,0.8300000000000001,42.6899125,-84.48887669999999,265.37,0.8450946807861328,123.95330810546875,0.1810000091791153,0.0,1
1682338743.18018699,208567476,0,3,130761200,2259,14,0.8300000000000001,42.6899118,-84.4888749,265.4,1.0042635202407837,125.55757141113281,0.1600000113248825,0.0,1
1682338743.37994695,208767236,0,3,130761400,2259,14,0.81,42.6899108,-84.4888732,265.43,1.0402811765670776,134.10421752929688,-0.015000000596046448,0.0,1
1682338743.60015106,208987440,0,3,130761600,2259,14,0.81,42.689909799999995,-84.48887169999999,265.49,0.9497226476669312,130.51622009277344,-0.08500000089406967,0.0,1
1682338743.78009605,209167385,0,3,130761800,2259,14,0.81,42.6899088,-84.48886979999999,265.49,1.0384238958358765,124.08794403076172,0.03400000184774399,0.0,1
1682338743.98036695,209367656,0,3,130762000,2259,14,0.81,42.6899076,-84.48886809999999,265.45,1.1451044082641602,141.80905151367188,0.08500000089406967,0.0,1
1682338744.17993784,209567227,0,3,130762200,2259,14,0.81,42.689906199999996,-84.48886619999999,265.49,1.0226964950561523,136.1885223388672,0.17600001394748688,0.0,1
1682338744.37985587,209767145,0,3,130762400,2259,14,0.81,42.6899051,-84.4888642,265.46,0.93364018201828,124.4389877319336,0.06000000238418579,0.0,1
1682338744.59992194,209987211,0,3,130762600,2259,14,0.81,42.6899042,-84.4888624,265.5,0.9590131044387817,133.9015350341797,0.01100000087171793,0.0,1
1682338744.77992105,210167210,0,3,130762800,2259,14,0.81,42.689903099999995,-84.4888605,265.58,1.0951497554779053,129.2562713623047,-0.0430000014603138,0.0,1
1682338745.00026202,210387551,0,3,130763000,2259,14,0.81,42.6899021,-84.4888587,265.63,0.8498076796531677,126.62716674804688,-0.07100000232458115,0.0,1
1682338745.18026996,210567559,0,3,130763200,2259,14,0.81,42.6899014,-84.48885709999999,265.65,0.8685304522514343,117.12559509277344,0.04200000315904617,0.0,1
1682338745.39991689,210787206,0,3,130763400,2259,14,0.81,42.689901,-84.4888556,265.74,0.6518466472625732,112.55224609375,-0.06300000101327896,0.0,1
1682338745.59997201,210987261,0,3,130763600,2259,14,0.81,42.6899009,-84.4888544,265.82,0.5543978810310364,87.82917022705078,-0.04500000178813934,0.0,1
1682338745.78018594,211167475,0,3,130763800,2259,14,0.81,42.6899011,-84.4888531,265.84000000000003,0.5597946643829346,77.72652435302734,-0.015000000596046448,0.0,1
1682338746.02044988,211407739,0,3,130764000,2259,14,0.81,42.6899012,-84.48885159999999,265.88,0.5660406351089478,99.0462875366211,0.14300000667572021,0.0,1
1682338746.19991899,211587208,0,3,130764200,2259,14,0.81,42.689901,-84.4888501,265.8,0.6025189757347107,92.37801361083984,0.11800000816583633,0.0,1
1682338746.38009691,211767386,0,3,130764400,2259,14,0.81,42.6899009,-84.48884869999999,265.81,0.5560036301612854,112.41375732421875,0.12300000339746475,0.0,1
1682338746.58021092,211967500,0,3,130764600,2259,14,0.81,42.689900699999995,-84.4888478,265.85,0.42915964126586914,112.32202911376953,0.03200000151991844,0.0,1
1682338746.77996087,212167250,0,3,130764800,2259,14,0.81,42.689900699999995,-84.4888472,265.86,0.3025921583175659,95.88015747070312,0.07900000363588333,0.0,1
1682338747.00000286,212387292,0,3,130765000,2259,14,0.81,42.689900699999995,-84.4888464,265.93,0.4939311742782593,114.90475463867188,-0.11300000548362732,0.0,1
1682338747.17980599,212567095,0,3,130765200,2259,14,0.81,42.6899006,-84.48884559999999,265.96,0.2982633411884308,81.5167236328125,0.04400000348687172,0.0,1
1682338747.37991595,212767205,0,3,130765400,2259,14,0.81,42.6899009,-84.488845,266.02,0.2378760278224945,58.58184814453125,0.010000000707805157,0.0,1
1682338747.58017397,212967463,0,3,130765600,2259,14,0.81,42.6899012,-84.4888446,266.03000000000003,0.29621952772140503,53.787750244140625,0.015000000596046448,0.0,1
1682338747.77994084,213167230,0,3,130765800,2259,14,0.81,42.6899018,-84.4888442,266.06,0.34541136026382446,36.40543746948242,-0.007000000216066837,0.0,1
1682338747.98008299,213367372,0,3,130766000,2259,14,0.81,42.6899024,-84.4888438,266.11,0.3658250868320465,26.284875869750977,-0.15800000727176666,0.0,1
1682338748.19995499,213587244,0,3,130766200,2259,14,0.81,42.689903099999995,-84.4888435,266.16,0.31232038140296936,32.977718353271484,-0.0010000000474974513,0.0,1
1682338748.39994097,213787230,0,3,130766400,2259,14,0.81,42.689903699999995,-84.4888431,266.21,0.34708070755004883,22.35319709777832,0.02800000086426735,0.0,1
1682338748.59992599,213987215,0,3,130766600,2259,14,0.81,42.6899042,-84.4888429,266.26,0.23774147033691406,8.709516525268555,0.010000000707805157,0.0,1
1682338748.79981804,214187107,0,3,130766800,2259,14,0.81,42.6899048,-84.4888428,266.28000000000003,0.2772453725337982,14.83823013305664,-0.018000001087784767,0.0,1
1682338748.98004389,214367333,0,3,130767000,2259,14,0.81,42.6899053,-84.4888428,266.32,0.19094765186309814,354.2893981933594,0.013000000268220901,0.0,1
1682338749.18014598,214567435,0,3,130767200,2259,14,0.81,42.6899057,-84.488843,266.36,0.20522183179855347,347.0472412109375,-0.024000000208616257,0.0,1
1682338749.38046598,214767755,0,3,130767400,2259,14,0.81,42.689906199999996,-84.4888433,266.36,0.20181675255298615,343.00164794921875,-0.0010000000474974513,0.0,1
1682338749.59985304,214987142,0,3,130767600,2259,14,0.81,42.6899066,-84.4888436,266.36,0.1438923329114914,340.9354553222656,-0.03400000184774399,0.0,1
1682338749.77986288,215167152,0,3,130767800,2259,14,0.81,42.6899069,-84.48884389999999,266.39,0.10621676594018936,311.9471130371094,0.11000000685453415,0.0,1
1682338749.97990894,215367198,0,3,130768000,2259,14,0.81,42.6899072,-84.4888442,266.39,0.1428355723619461,315.0,-0.024000000208616257,0.0,1
1682338750.17997885,215567268,0,3,130768200,2259,14,0.81,42.689907399999996,-84.48884439999999,266.41,0.09406913071870804,316.29217529296875,-0.007000000216066837,0.0,1
1682338750.37999487,215767284,0,3,130768400,2259,14,0.81,42.6899075,-84.4888446,266.43,0.09349332004785538,302.3302001953125,0.04700000211596489,0.0,1
1682338750.57993102,215967220,0,3,130768600,2259,14,0.81,42.6899077,-84.4888448,266.44,0.11236102879047394,290.8544616699219,0.04400000348687172,0.0,1
1682338750.77984691,216167136,0,3,130768800,2259,14,0.81,42.6899078,-84.48884509999999,266.44,0.07111962139606476,297.6459655761719,0.029000001028180122,0.0,1
1682338750.97993398,216367223,0,3,130769000,2259,14,0.81,42.6899078,-84.4888453,266.45,0.07877182215452194,278.0272521972656,0.09800000488758087,0.0,1
1682338751.19994688,216587236,0,3,130769200,2259,14,0.81,42.6899078,-84.4888455,266.48,0.12080562859773636,252.1649932861328,0.1210000067949295,0.0,1
1682338751.39986897,216787158,0,3,130769400,2259,14,0.81,42.6899077,-84.48884559999999,266.5,0.08028076589107513,230.55995178222656,0.0430000014603138,0.0,1
1682338751.60014200,216987431,0,3,130769600,2259,14,0.81,42.6899075,-84.4888457,266.54,0.14937537908554077,211.029541015625,0.09000000357627869,0.0,1
1682338751.78008986,217167379,0,3,130769800,2259,14,0.81,42.6899073,-84.48884579999999,266.54,0.16864755749702454,207.93260192871094,0.0690000057220459,0.0,1
1682338751.99995685,217387246,0,3,130770000,2259,14,0.81,42.6899071,-84.488846,266.54,0.16794344782829285,209.61795043945312,0.06000000238418579,0.0,1
1682338752.18014884,217567438,0,3,130770200,2259,14,0.81,42.689906799999996,-84.48884609999999,266.55,0.1700117588043213,180.67404174804688,0.0650000050663948,0.0,1
1682338752.40005088,217787340,0,3,130770400,2259,14,0.81,42.6899064,-84.4888459,266.57,0.1880478858947754,164.26385498046875,0.04400000348687172,0.0,1
1682338752.57982087,217967110,0,3,130770600,2259,14,0.81,42.689906099999995,-84.4888457,266.62,0.19091883301734924,171.86988830566406,0.07600000500679016,0.0,1
1682338752.77995300,218167242,0,3,130770800,2259,14,0.81,42.6899057,-84.4888455,266.64,0.19891959428787231,160.92742919921875,0.029000001028180122,0.0,1
1682338752.97998285,218367272,0,3,130771000,2259,14,0.81,42.6899054,-84.4888452,266.64,0.13112589716911316,151.284912109375,0.06300000101327896,0.0,1
1682338753.18027592,218567565,0,3,130771200,2259,14,0.81,42.6899052,-84.48884489999999,266.65,0.10084641724824905,112.75096893310547,0.023000001907348633,0.0,1
1682338753.39990306,218787192,0,3,130771400,2259,14,0.81,42.6899052,-84.4888446,266.64,0.10100001096725464,78.57881164550781,0.07600000500679016,0.0,1
1682338753.57990003,218967189,0,3,130771600,2259,14,0.81,42.6899052,-84.48884439999999,266.63,0.08411896228790283,61.60697937011719,0.009000000543892384,0.0,1
1682338753.78017497,219167464,0,3,130771800,2259,14,0.81,42.6899053,-84.4888442,266.64,0.05854912847280502,7.8533124923706055,0.04700000211596489,0.0,1
1682338754.00015187,219387441,0,3,130772000,2259,14,0.81,42.6899053,-84.4888441,266.66,0.012369317002594471,14.036242485046387,0.05300000309944153,0.0,1
1682338754.18025994,219567549,0,3,130772200,2259,14,0.81,42.6899054,-84.4888441,266.66,0.025961510837078094,15.642245292663574,-0.032999999821186066,0.0,1
1682338754.38003087,219767320,0,3,130772400,2259,14,0.81,42.6899054,-84.488844,266.68,0.02607681043446064,355.6012878417969,0.04200000315904617,0.0,1
1682338754.58014894,219967438,0,3,130772600,2259,14,0.81,42.689905499999995,-84.48884389999999,266.7,0.05433231219649315,96.34017944335938,-0.018000001087784767,0.0,1
1682338754.78020000,220167489,0,3,130772800,2259,14,0.81,42.6899054,-84.4888436,266.72,0.1664121448993683,117.95096588134766,0.08000000566244125,0.0,1
1682338754.99986386,220387153,0,3,130773000,2259,14,0.81,42.6899053,-84.488843,266.72,0.3838033676147461,101.57341766357422,0.0,0.0,1
1682338755.18048692,220567776,0,3,130773200,2259,14,0.81,42.6899053,-84.4888422,266.76,0.274366557598114,101.35088348388672,0.058000002056360245,0.0,1
1682338755.37992692,220767216,0,3,130773400,2259,14,0.81,42.689904999999996,-84.48884129999999,266.76,0.5783079266548157,112.57413482666016,0.09600000083446503,0.0,1
1682338755.58012390,220967413,0,3,130773600,2259,14,0.81,42.6899047,-84.4888399,266.74,0.6939114332199097,104.43675994873047,0.1120000034570694,0.0,1
1682338755.79993200,221187221,0,3,130773800,2259,14,0.81,42.6899045,-84.4888385,266.71,0.5532965064048767,102.10198211669922,0.06000000238418579,0.0,1
1682338755.98016286,221367452,0,3,130774000,2259,14,0.81,42.6899042,-84.4888371,266.79,0.6675941944122314,113.7620620727539,-0.01900000125169754,0.0,1
1682338756.17980003,221567089,0,3,130774200,2259,14,0.81,42.6899039,-84.4888356,266.8,0.6341939568519592,97.33792114257812,0.12200000882148743,0.0,1
1682338756.37990785,221767197,0,3,130774400,2259,14,0.81,42.689903699999995,-84.4888342,266.74,0.6307582855224609,100.59732818603516,0.13600000739097595,0.0,1
1682338756.57994795,221967237,0,3,130774600,2259,13,0.81,42.6899034,-84.4888326,266.73,0.7416913509368896,110.4384994506836,0.1469999998807907,0.0,1
1682338756.80017591,222187465,0,3,130774800,2259,13,0.81,42.6899029,-84.48883099999999,266.79,0.735000729560852,117.99451446533203,0.04500000178813934,0.0,1
1682338756.97986698,222367156,0,3,130775000,2259,14,0.81,42.6899023,-84.4888292,266.91,0.8335136771202087,119.70223999023438,-0.18400001525878906,0.0,1
1682338757.18013501,222567424,0,3,130775200,2259,14,0.81,42.6899018,-84.4888275,266.93,0.8039036393165588,106.69923400878906,0.006000000052154064,0.0,1
1682338757.37992787,222767217,0,3,130775400,2259,14,0.81,42.6899014,-84.4888256,266.91,0.8407527208328247,101.45693969726562,-0.0020000000949949026,0.0,1
1682338757.57993698,222967226,0,3,130775600,2259,14,0.81,42.689901,-84.48882379999999,266.94,0.7776380777359009,107.8990478515625,-0.05000000074505806,0.0,1
1682338757.77990890,223167198,0,3,130775800,2259,14,0.81,42.6899006,-84.4888217,267.02,0.8991802334785461,107.40724182128906,-0.04700000211596489,0.0,1
1682338758.00011396,223387403,0,3,130776000,2259,14,0.81,42.689900099999996,-84.4888197,267.01,0.9087849259376526,104.20443725585938,-0.01600000075995922,0.0,1
1682338758.17995000,223567239,0,3,130776200,2259,14,0.81,42.6898998,-84.48881759999999,267.06,0.8041107654571533,101.8409423828125,0.0950000062584877,0.0,1
1682338758.38019085,223767480,0,3,130776400,2259,14,0.81,42.6898996,-84.4888156,267.06,0.8930762410163879,98.17546081542969,-0.13300000131130219,0.0,1
1682338758.58027005,223967559,0,3,130776600,2259,14,0.81,42.6898994,-84.4888134,267.05,1.0094459056854248,91.70303344726562,0.06000000238418579,0.0,1
1682338758.78019691,224167486,0,3,130776800,2259,14,0.81,42.6898993,-84.4888108,267.12,1.0004249811172485,97.87091827392578,-0.05400000140070915,0.0,1
1682338758.98053098,224367820,0,3,130777000,2259,14,0.81,42.6898991,-84.48880849999999,267.11,0.8995137810707092,95.74227142333984,0.03500000014901161,0.0,1
1682338759.18027186,224567561,0,3,130777200,2259,14,0.81,42.6898991,-84.4888063,267.13,1.0070044994354248,89.82930755615234,-0.027000000700354576,0.0,1
1682338759.37993097,224767220,0,3,130777400,2259,14,0.81,42.689899,-84.4888039,267.19,0.9542756676673889,94.7486801147461,0.07700000703334808,0.0,1
1682338759.58014393,224967433,0,3,130777600,2259,14,0.81,42.689898899999996,-84.48880179999999,267.15,0.7570323944091797,89.4701919555664,0.11900000274181366,0.0,1
1682338759.77999306,225167282,0,3,130777800,2259,14,0.81,42.6898991,-84.4888003,267.16,0.620193600654602,83.33333587646484,0.01900000125169754,0.0,1
1682338759.98011899,225367408,0,3,130778000,2259,14,0.81,42.6898992,-84.4887988,267.16,0.6341332793235779,91.1746597290039,-0.01100000087171793,0.0,1
1682338760.18014407,225567433,0,3,130778200,2259,14,0.81,42.6898992,-84.48879749999999,267.18,0.47877034544944763,103.77501678466797,0.03500000014901161,0.0,1
1682338760.38015699,225767446,0,3,130778400,2259,14,0.81,42.6898991,-84.4887966,267.17,0.3939961791038513,94.07524871826172,0.05100000277161598,0.0,1
1682338760.58047390,225967763,0,3,130778600,2259,14,0.81,42.689899,-84.4887954,267.22,0.520481526851654,104.00953674316406,-0.04800000041723251,0.0,1
1682338760.77990699,226167196,0,3,130778800,2259,14,0.81,42.689898799999995,-84.4887943,267.22,0.3922269940376282,104.9219970703125,0.09800000488758087,0.0,1
1682338760.97992492,226367214,0,3,130779000,2259,14,0.81,42.6898986,-84.4887933,267.24,0.4382510781288147,111.4129638671875,0.023000001907348633,0.0,1
1682338761.19993806,226587227,0,3,130779200,2259,14,0.81,42.689898299999996,-84.4887924,267.24,0.36062726378440857,112.15543365478516,-0.021000001579523087,0.0,1
1682338761.37994194,226767231,0,3,130779400,2259,14,0.81,42.6898981,-84.4887918,267.26,0.22200225293636322,127.12798309326172,0.009000000543892384,0.0,1
1682338761.60014987,226987439,0,3,130779600,2259,14,0.81,42.6898979,-84.4887913,267.26,0.27400732040405273,127.2881088256836,-0.04700000211596489,0.0,1
1682338761.80044889,227187738,0,3,130779800,2259,14,0.81,42.689897599999995,-84.48879079999999,267.26,0.20220041275024414,124.31879425048828,-0.06100000441074371,0.0,1
1682338762.00024986,227387539,0,3,130780000,2259,14,0.81,42.6898975,-84.4887904,267.26,0.22411605715751648,122.98099517822266,0.01900000125169754,0.0,1
1682338762.17992902,227567218,0,3,130780200,2259,14,0.81,42.6898973,-84.48878979999999,267.27,0.2861625552177429,112.17321014404297,-0.005000000353902578,0.0,1
1682338762.38018584,227767475,0,3,130780400,2259,14,0.81,42.6898972,-84.4887892,267.27,0.2848297953605652,102.57243347167969,-0.012000000104308128,0.0,1
1682338762.58012891,227967418,0,3,130780600,2259,14,0.81,42.6898972,-84.48878839999999,267.27,0.34158602356910706,86.64338684082031,-0.08500000089406967,0.0,1
1682338762.77993298,228167222,0,3,130780800,2259,14,0.81,42.6898973,-84.4887875,267.26,0.4127044975757599,72.22359466552734,0.03100000135600567,0.0,1
1682338763.00009704,228387386,0,3,130781000,2259,14,0.81,42.689897599999995,-84.48878649999999,267.27,0.3981519937515259,82.78573608398438,0.09000000357627869,0.0,1
1682338763.18021297,228567502,0,3,130781200,2259,14,0.81,42.689897699999996,-84.4887854,267.27,0.487344890832901,83.28329467773438,0.03500000014901161,0.0,1
1682338763.38020992,228767499,0,3,130781400,2259,13,0.81,42.689898,-84.4887842,267.2,0.5954636931419373,71.29119873046875,0.08900000154972076,0.0,1
1682338763.60014391,228987433,0,3,130781600,2259,14,0.81,42.689898199999995,-84.48878289999999,267.14,0.5470329523086548,79.5733642578125,0.24500000476837158,0.0,1
1682338763.80051899,229187808,0,3,130781800,2259,14,0.81,42.689898299999996,-84.4887816,267.24,0.4399147629737854,111.60791778564453,0.08100000023841858,0.0,1
1682338763.99986792,229387157,0,3,130782000,2259,14,0.81,42.6898981,-84.4887806,267.3,0.4561162292957306,118.98139953613281,-0.11100000888109207,0.0,1
1682338764.17985797,229567147,0,3,130782200,2259,14,0.81,42.689897699999996,-84.4887797,267.3,0.3785828948020935,123.6900634765625,-0.04000000283122063,0.0,1
1682338764.38013196,229767421,0,3,130782400,2259,14,0.81,42.6898972,-84.4887789,267.32,0.4051234722137451,139.70550537109375,-0.09100000560283661,0.0,1
1682338764.60018301,229987472,0,3,130782600,2259,14,0.81,42.6898967,-84.4887785,267.33,0.23181243240833282,155.53558349609375,-0.07200000435113907,0.0,1
1682338764.77993488,230167224,0,3,130782800,2259,14,0.81,42.689896399999995,-84.4887782,267.36,0.18564753234386444,154.81529235839844,-0.01900000125169754,0.0,1
1682338764.99981284,230387102,0,3,130783000,2259,14,0.81,42.6898962,-84.4887779,267.4,0.13524793088436127,141.60482788085938,-0.024000000208616257,0.0,1
1682338765.19993806,230587227,0,3,130783200,2259,14,0.81,42.6898962,-84.4887777,267.43,0.05803447589278221,88.02506256103516,0.05400000140070915,0.0,1
1682338765.39996290,230787252,0,3,130783400,2259,14,0.81,42.6898963,-84.4887775,267.44,0.11276967823505402,61.3895378112793,-0.024000000208616257,0.0,1
1682338765.58015704,230967446,0,3,130783600,2259,14,0.81,42.689896399999995,-84.4887773,267.43,0.11001818627119064,62.96913528442383,0.04200000315904617,0.0,1
1682338765.78018785,231167477,0,3,130783800,2259,14,0.81,42.689896499999996,-84.4887771,267.41,0.057140178978443146,57.14427185058594,0.03100000135600567,0.0,1
1682338765.98013401,231367423,0,3,130784000,2259,14,0.81,42.689896499999996,-84.488777,267.4,0.055317267775535583,77.47118377685547,0.027000000700354576,0.0,1
1682338766.18009496,231567384,0,3,130784200,2259,14,0.81,42.6898966,-84.48877689999999,267.39,0.02941088378429413,125.31120300292969,0.0560000017285347,0.0,1
1682338766.39999104,231787280,0,3,130784400,2259,14,0.81,42.6898966,-84.48877689999999,267.36,0.00984885822981596,66.03750610351562,-0.09300000220537186,0.0,1
1682338766.57995987,231967249,0,3,130784600,2259,14,0.81,42.6898966,-84.488777,267.36,0.03220248594880104,216.15818786621094,-0.029000001028180122,0.0,1
1682338766.77995300,232167242,0,3,130784800,2259,14,0.81,42.6898967,-84.4887771,267.35,0.053535036742687225,237.20046997070312,0.00800000037997961,0.0,1
1682338767.00016594,232387455,0,3,130785000,2259,14,0.81,42.6898966,-84.4887772,267.33,0.0570087730884552,217.87498474121094,-0.06200000271201134,0.0,1
1682338767.17994785,232567237,0,3,130785200,2259,14,0.81,42.6898966,-84.48877739999999,267.33,0.07571657747030258,236.3099365234375,-0.012000000104308128,0.0,1
1682338767.38025284,232767542,0,3,130785400,2259,14,0.81,42.6898966,-84.48877759999999,267.32,0.08185963332653046,244.6871337890625,-0.013000000268220901,0.0,1
1682338767.60053587,232987825,0,3,130785600,2259,14,0.81,42.6898966,-84.4887779,267.31,0.07220111042261124,233.44754028320312,-0.01600000075995922,0.0,1
1682338767.77990484,233167194,0,3,130785800,2259,14,0.81,42.6898966,-84.48877809999999,267.3,0.04830114170908928,242.90444946289062,0.04100000113248825,0.0,1
1682338767.97991896,233367208,0,3,130786000,2259,14,0.81,42.6898966,-84.48877829999999,267.27,0.08168843388557434,230.46383666992188,0.10100000351667404,0.0,1
1682338768.18017793,233567467,0,3,130786200,2259,14,0.81,42.689896399999995,-84.4887785,267.25,0.14795947074890137,189.3350067138672,0.026000000536441803,0.0,1
1682338768.40019202,233787481,0,3,130786400,2259,14,0.81,42.6898963,-84.48877859999999,267.19,0.05664803832769394,200.67442321777344,0.2770000100135803,0.0,1
1682338768.60031390,233987603,0,3,130786600,2259,14,0.81,42.6898961,-84.48877859999999,267.08,0.19394071400165558,156.60743713378906,0.3790000081062317,0.0,1
1682338768.80017591,234187465,0,3,130786800,2259,14,0.81,42.689895799999995,-84.4887785,266.98,0.16735590994358063,194.5344696044922,0.5110000371932983,0.0,1
1682338768.99998903,234387278,0,3,130787000,2259,14,0.81,42.6898955,-84.4887787,266.89,0.18001389503479004,200.14627075195312,0.47700002789497375,0.0,1
1682338769.19996691,234587256,0,3,130787200,2259,14,0.81,42.689895199999995,-84.4887787,266.83,0.21128419041633606,164.91136169433594,0.33400002121925354,0.0,1
1682338769.38030505,234767594,0,3,130787400,2259,14,0.81,42.6898949,-84.48877859999999,266.8,0.15316006541252136,177.3804473876953,0.2070000171661377,0.0,1
1682338769.57988906,234967178,0,3,130787600,2259,14,0.81,42.689894599999995,-84.48877859999999,266.78000000000003,0.12506398558616638,178.1671600341797,0.13199999928474426,0.0,1
1682338769.77992797,235167217,0,3,130787800,2259,14,0.81,42.6898944,-84.48877859999999,266.78000000000003,0.10024470090866089,184.00418090820312,0.05400000140070915,0.0,1
1682338769.99999690,235387286,0,3,130788000,2259,14,0.81,42.6898943,-84.48877859999999,266.77,0.058137767016887665,176.0548095703125,0.04800000041723251,0.0,1
1682338770.18028188,235567571,0,3,130788200,2259,14,0.81,42.6898942,-84.48877859999999,266.76,0.07000000029802322,180.0,0.11300000548362732,0.0,1
1682338770.40010500,235787394,0,3,130788400,2259,14,0.81,42.6898941,-84.4887787,266.73,0.03945884108543396,171.2538299560547,0.10700000822544098,0.0,1
1682338770.60016799,235987457,0,3,130788600,2259,14,0.81,42.689893999999995,-84.48877859999999,266.74,0.035608988255262375,128.1572265625,0.1680000126361847,0.0,1
1682338770.77997589,236167265,0,3,130788800,2259,14,0.81,42.689893999999995,-84.48877859999999,266.74,0.0036055513191968203,213.69007873535156,0.16700001060962677,0.0,1
1682338770.97999191,236367281,0,3,130789000,2259,14,0.81,42.689893999999995,-84.4887787,266.75,0.028160257264971733,186.11550903320312,0.1340000033378601,0.0,1
1682338771.19988298,236587172,0,3,130789200,2259,14,0.81,42.689893999999995,-84.48877859999999,266.77,0.03901281952857971,181.46881103515625,0.1940000057220459,0.0,1
1682338771.39994287,236787232,0,3,130789400,2259,14,0.81,42.689893999999995,-84.48877859999999,266.77,0.05445181578397751,134.2559356689453,0.1300000101327896,0.0,1
1682338771.60019898,236987488,0,3,130789600,2259,14,0.81,42.6898941,-84.48877859999999,266.76,0.027294687926769257,28.442928314208984,0.08300000429153442,0.0,1
1682338771.80000401,237187293,0,3,130789800,2259,14,0.81,42.6898942,-84.4887785,266.75,0.03634556755423546,7.907162666320801,0.13500000536441803,0.0,1
1682338772.00030088,237387590,0,3,130790000,2259,14,0.81,42.6898943,-84.48877859999999,266.74,0.03841874748468399,308.6598205566406,0.12800000607967377,0.0,1
1682338772.20020390,237587493,0,3,130790200,2259,14,0.81,42.6898944,-84.48877859999999,266.72,0.023194829002022743,277.431396484375,0.13700000941753387,0.0,1
1682338772.40016603,237787455,0,3,130790400,2259,14,0.81,42.6898944,-84.48877859999999,266.66,0.02865309827029705,29.248825073242188,0.08800000697374344,0.0,1
1682338772.60027504,237987564,0,3,130790600,2259,14,0.81,42.6898945,-84.48877859999999,266.63,0.018439089879393578,347.47119140625,0.21900001168251038,0.0,1
1682338772.80028296,238187572,0,3,130790800,2259,14,0.81,42.689894599999995,-84.48877859999999,266.6,0.03080584481358528,324.2461242675781,0.21800000965595245,0.0,1
1682338773.00019598,238387485,0,3,130791000,2259,14,0.81,42.689894699999996,-84.48877859999999,266.58,0.00984885822981596,203.96249389648438,0.11500000208616257,0.0,1
1682338773.20017600,238587465,0,3,130791200,2259,14,0.81,42.6898948,-84.48877859999999,266.55,0.018867963925004005,32.00537872314453,0.15200001001358032,0.0,1
1682338773.40045905,238787748,0,3,130791400,2259,14,0.81,42.6898948,-84.48877859999999,266.51,0.01649242267012596,14.036242485046387,0.20000000298023224,0.0,1
1682338773.57995987,238967249,0,3,130791600,2259,14,0.81,42.6898949,-84.48877859999999,266.48,0.018601076677441597,216.25384521484375,0.14800000190734863,0.0,1
1682338773.80017185,239187461,0,3,130791800,2259,14,0.81,42.6898949,-84.4887787,266.47,0.024698181077837944,201.37062072753906,0.31200000643730164,0.0,1
1682338774.00002384,239387313,0,3,130792000,2259,14,0.81,42.6898949,-84.4887787,266.43,0.017691805958747864,312.7093811035156,0.16500000655651093,0.0,1
1682338774.20014691,239587436,0,3,130792200,2259,14,0.81,42.689895,-84.48877879999999,266.41,0.037054017186164856,273.09405517578125,0.18800000846385956,0.0,1
1682338774.40044188,239787731,0,3,130792400,2259,14,0.81,42.689895,-84.4887789,266.36,0.016763055697083473,162.64596557617188,0.18700000643730164,0.0,1
1682338774.60029984,239987589,0,3,130792600,2259,14,0.81,42.689895,-84.4887789,266.32,0.006403124891221523,218.65982055664062,0.12600000202655792,0.0,1
1682338774.79988790,240187177,0,3,130792800,2259,14,0.81,42.6898951,-84.488779,266.3,0.0305941179394722,258.6900634765625,0.1600000113248825,0.0,1
1682338774.98054290,240367832,0,3,130793000,2259,14,0.81,42.6898951,-84.488779,266.27,0.005099019967019558,11.309930801391602,0.10100000351667404,0.0,1
1682338775.20019603,240587485,0,3,130793200,2259,14,0.81,42.6898951,-84.488779,266.23,0.017720045521855354,106.38953399658203,0.1340000033378601,0.0,1
1682338775.37996507,240767254,0,3,130793400,2259,14,0.81,42.6898951,-84.4887789,266.2,0.027730850502848625,115.64099884033203,0.12400000542402267,0.0,1
1682338775.57997584,240967265,0,3,130793600,2259,14,0.81,42.6898951,-84.4887789,266.15,0.020396079868078232,11.309930801391602,0.039000000804662704,0.0,1
1682338775.77996707,241167256,0,3,130793800,2259,14,0.81,42.689895199999995,-84.4887789,266.1,0.02942787855863571,9.7824068069458,0.10900000482797623,0.0,1
1682338775.99995899,241387248,0,3,130794000,2259,14,0.81,42.689895199999995,-84.4887789,266.09000000000003,0.011704700998961926,160.0168914794922,0.2510000169277191,0.0,1
1682338776.20000100,241587290,0,3,130794200,2259,14,0.81,42.689895299999996,-84.48877879999999,266.06,0.02500000037252903,126.8698959350586,0.23600001633167267,0.0,1
1682338776.38018894,241767478,0,3,130794400,2259,14,0.81,42.689895299999996,-84.4887787,266.03000000000003,0.03324154019355774,316.2188720703125,0.1469999998807907,0.0,1
1682338776.59988189,241987171,0,3,130794600,2259,14,0.81,42.6898954,-84.48877879999999,266.01,0.03634556755423546,277.90716552734375,0.1730000078678131,0.0,1
1682338776.79991794,242187207,0,3,130794800,2259,14,0.81,42.6898955,-84.48877879999999,265.99,0.01303840521723032,94.39869689941406,0.22300000488758087,0.0,1
1682338776.99997902,242387268,0,3,130795000,2259,14,0.81,42.6898956,-84.4887787,265.96,0.021840332075953484,164.05459594726562,0.23400001227855682,0.0,1
1682338777.20026302,242587552,0,3,130795200,2259,14,0.81,42.6898956,-84.4887787,265.93,0.03214031830430031,5.3558244705200195,0.08800000697374344,0.0,1
1682338777.39993906,242787228,0,3,130795400,2259,14,0.81,42.6898957,-84.4887787,265.93,0.01835756003856659,240.6422576904297,0.21700000762939453,0.0,1
1682338777.60010886,242987398,0,3,130795600,2259,14,0.81,42.6898957,-84.48877879999999,265.89,0.027730850502848625,115.64099884033203,0.08000000566244125,0.0,1
1682338777.80021787,243187507,0,3,130795800,2259,14,0.81,42.689895799999995,-84.4887787,265.88,0.11900000274181366,28.072484970092773,-0.06000000238418579,0.0,1
1682338778.00026298,243387552,0,3,130796000,2259,14,0.81,42.689896,-84.48877859999999,265.85,0.06940460950136185,53.7905387878418,0.1420000046491623,0.0,1
1682338778.20027685,243587566,0,3,130796200,2259,14,0.81,42.6898961,-84.4887785,265.82,0.005656854715198278,45.0,0.13600000739097595,0.0,1
1682338778.40051699,243787806,0,3,130796400,2259,14,0.81,42.6898961,-84.48877859999999,265.8,0.06664083153009415,244.2039794921875,0.018000001087784767,0.0,1
1682338778.59991884,243987208,0,3,130796600,2259,14,0.81,42.6898961,-84.48877859999999,265.8,0.036674242466688156,244.1336669921875,0.06400000303983688,0.0,1
1682338778.80013585,244187425,0,3,130796800,2259,14,0.81,42.6898961,-84.48877859999999,265.8,0.021000001579523087,270.0,0.020000001415610313,0.0,1
1682338779.00016689,244387456,0,3,130797000,2259,14,0.81,42.6898961,-84.48877859999999,265.8,0.02745906263589859,146.88864135742188,-0.03700000047683716,0.0,1
1682338779.18027401,244567563,0,3,130797200,2259,14,0.81,42.6898961,-84.4887785,265.78000000000003,0.033955853432416916,76.37300109863281,-0.004000000189989805,0.0,1
1682338779.40000200,244787291,0,3,130797400,2259,14,0.81,42.6898962,-84.4887784,265.78000000000003,0.012727922759950161,315.0,-0.0010000000474974513,0.0,1
1682338779.60013485,244987424,0,3,130797600,2259,14,0.81,42.6898962,-84.4887785,265.76,0.02789265289902687,284.5344543457031,-0.003000000026077032,0.0,1
1682338779.80012107,245187410,0,3,130797800,2259,14,0.81,42.6898963,-84.4887785,265.76,0.028071338310837746,265.9143981933594,0.02800000086426735,0.0,1
1682338779.98044586,245367735,0,3,130798000,2259,14,0.81,42.6898963,-84.4887785,265.74,0.011401754803955555,105.25511169433594,0.009000000543892384,0.0,1
1682338780.17992687,245567216,0,3,130798200,2259,14,0.81,42.689896399999995,-84.4887784,265.75,0.019235385581851006,278.9726257324219,0.06800000369548798,0.0,1
1682338780.37982893,245767118,0,3,130798400,2259,14,0.81,42.689896399999995,-84.4887784,265.75,0.029068883508443832,273.9451904296875,0.029000001028180122,0.0,1
1682338780.59992790,245987217,0,3,130798600,2259,14,0.81,42.689896499999996,-84.4887784,265.73,0.017464250326156616,66.37062072753906,-0.07800000160932541,0.0,1
1682338780.78014994,246167439,0,3,130798800,2259,14,0.81,42.6898966,-84.4887784,265.74,0.009219544939696789,257.47119140625,0.09300000220537186,0.0,1
1682338780.99985695,246387146,0,3,130799000,2259,14,0.81,42.6898966,-84.4887784,265.71,0.01984943449497223,229.0856170654297,-0.04800000041723251,0.0,1
1682338781.18008804,246567377,0,3,130799200,2259,14,0.81,42.6898966,-84.4887784,265.71,0.018027756363153458,19.440032958984375,-0.04400000348687172,0.0,1
1682338781.37995386,246767243,0,3,130799400,2259,14,0.81,42.6898967,-84.48877829999999,265.7,0.004000000189989805,0.0,0.04000000283122063,0.0,1
1682338781.59994197,246987231,0,3,130799600,2259,14,0.81,42.6898967,-84.48877829999999,265.67,0.022360682487487793,153.43495178222656,0.06300000101327896,0.0,1
1682338781.78011990,247167409,0,3,130799800,2259,14,0.81,42.6898967,-84.48877829999999,265.66,0.006082762498408556,279.46234130859375,0.01600000075995922,0.0,1
1682338782.01988196,247407171,0,3,130800000,2259,14,0.81,42.6898968,-84.4887782,265.64,0.03668787330389023,72.55280303955078,-0.0820000022649765,0.0,1
1682338782.18007684,247567366,0,3,130800200,2259,14,0.81,42.6898968,-84.48877809999999,265.63,0.009219544008374214,130.60128784179688,0.04200000315904617,0.0,1
1682338782.38008189,247767371,0,3,130800400,2259,14,0.81,42.6898968,-84.48877809999999,265.62,0.005000000353902578,180.0,-0.01600000075995922,0.0,1
1682338782.60020685,247987496,0,3,130800600,2259,14,0.81,42.6898969,-84.488778,265.61,0.005099019967019558,11.309930801391602,-0.006000000052154064,0.0,1
1682338782.78020096,248167490,0,3,130800800,2259,14,0.81,42.6898969,-84.488778,265.61,0.004242640919983387,315.0,0.08500000089406967,0.0,1
1682338783.00001693,248387306,0,3,130801000,2259,14,0.81,42.689896999999995,-84.4887779,265.58,0.02009975165128708,84.28939819335938,0.032999999821186066,0.0,1
1682338783.17978597,248567075,0,3,130801200,2259,14,0.81,42.689896999999995,-84.4887779,265.57,0.03080584481358528,305.75390625,0.003000000026077032,0.0,1
1682338783.37989807,248767187,0,3,130801400,2259,14,0.81,42.689897099999996,-84.4887779,265.58,0.007615773007273674,246.80142211914062,-0.020000001415610313,0.0,1
1682338783.59990501,248987194,0,3,130801600,2259,14,0.81,42.689897099999996,-84.4887779,265.57,0.02282542549073696,331.189208984375,-0.039000000804662704,0.0,1
1682338783.79982305,249187112,0,3,130801800,2259,14,0.81,42.6898972,-84.4887779,265.55,0.03298484534025192,284.0362548828125,0.05100000277161598,0.0,1
1682338784.00013185,249387421,0,3,130802000,2259,14,0.81,42.6898972,-84.4887779,265.53000000000003,0.018601076677441597,126.25382995605469,0.010000000707805157,0.0,1
1682338784.19990492,249587194,0,3,130802200,2259,14,0.81,42.6898972,-84.4887779,265.53000000000003,0.018867963925004005,237.99462890625,0.06599999964237213,0.0,1
1682338784.40010595,249787395,0,3,130802400,2259,14,0.81,42.6898973,-84.4887779,265.51,0.018681542947888374,195.5241241455078,0.02800000086426735,0.0,1
1682338784.57990098,249967190,0,3,130802600,2259,14,0.81,42.6898973,-84.4887779,265.49,0.022472206503152847,302.275634765625,0.08900000154972076,0.0,1
1682338784.79998398,250187273,0,3,130802800,2259,14,0.81,42.6898974,-84.4887779,265.47,0.022203605622053146,262.2348327636719,0.010000000707805157,0.0,1
1682338785.00035501,250387644,0,3,130803000,2259,14,0.81,42.6898974,-84.4887779,265.45,0.004472136031836271,116.5650405883789,-0.004000000189989805,0.0,1
1682338785.20012593,250587415,0,3,130803200,2259,14,0.81,42.6898974,-84.4887779,265.44,0.00806225836277008,187.12503051757812,0.09400000423192978,0.0,1
1682338785.40013099,250787420,0,3,130803400,2259,14,0.81,42.6898975,-84.4887778,265.42,0.006000000052154064,270.0,0.04400000348687172,0.0,1
1682338785.60044503,250987734,0,3,130803600,2259,14,0.81,42.6898975,-84.4887778,265.42,0.0072111026383936405,123.6900634765625,0.01100000087171793,0.0,1
1682338785.79987693,251187166,0,3,130803800,2259,14,0.81,42.689897599999995,-84.4887778,265.4,0.012806249782443047,321.3402099609375,-0.06200000271201134,0.0,1
1682338785.98012400,251367413,0,3,130804000,2259,14,0.81,42.689897599999995,-84.4887778,265.4,0.026000000536441803,247.380126953125,-0.03200000151991844,0.0,1
1682338786.19992185,251587211,0,3,130804200,2259,14,0.81,42.689897599999995,-84.4887778,265.38,0.01615549437701702,21.801406860351562,-0.0560000017285347,0.0,1
1682338786.39984798,251787137,0,3,130804400,2259,14,0.81,42.689897699999996,-84.4887778,265.37,0.019026298075914383,183.01280212402344,0.07400000095367432,0.0,1
1682338786.59977484,251987064,0,3,130804600,2259,14,0.81,42.689897699999996,-84.4887777,265.37,0.01077033020555973,291.8014221191406,0.032999999821186066,0.0,1
1682338786.77997088,252167260,0,3,130804800,2259,14,0.81,42.6898978,-84.4887777,265.35,0.013000000268220901,112.61986541748047,0.04100000113248825,0.0,1
1682338786.98012686,252367416,0,3,130805000,2259,14,0.81,42.6898978,-84.48877759999999,265.32,0.02865309827029705,119.24880981445312,-0.03800000250339508,0.0,1
1682338787.17993593,252567225,0,3,130805200,2259,14,0.81,42.6898978,-84.4887775,265.32,0.005099019967019558,191.3099365234375,0.039000000804662704,0.0,1
1682338787.40013504,252787424,0,3,130805400,2259,14,0.81,42.6898978,-84.4887775,265.3,0.015132746659219265,262.4053649902344,-0.024000000208616257,0.0,1
1682338787.57982898,252967118,0,3,130805600,2259,14,0.81,42.6898979,-84.4887775,265.31,0.015620499849319458,230.19442749023438,0.024000000208616257,0.0,1
1682338787.79989791,253187187,0,3,130805800,2259,14,0.81,42.689898,-84.48877739999999,265.3,0.013416407629847527,26.56505012512207,-0.08300000429153442,0.0,1
1682338787.99991584,253387205,0,3,130806000,2259,14,0.81,42.689898,-84.48877739999999,265.3,0.013341664336621761,257.0054016113281,0.02200000174343586,0.0,1
1682338788.19986796,253587157,0,3,130806200,2259,14,0.81,42.6898981,-84.48877739999999,265.3,0.022360682487487793,280.30487060546875,0.032999999821186066,0.0,1
1682338788.39978385,253787073,0,3,130806400,2259,14,0.81,42.689898199999995,-84.48877739999999,265.29,0.01702938787639141,319.7636413574219,-0.07100000232458115,0.0,1
1682338788.58002591,253967315,0,3,130806600,2259,14,0.81,42.689898199999995,-84.4887773,265.29,0.013152946718037128,98.74615478515625,0.03700000047683716,0.0,1
1682338788.79994893,254187238,0,3,130806800,2259,14,0.81,42.689898299999996,-84.4887773,265.27,0.008544004522264004,110.55603790283203,-0.039000000804662704,0.0,1
1682338788.99991488,254387204,0,3,130807000,2259,14,0.81,42.689898299999996,-84.4887772,265.28000000000003,0.00984885822981596,203.96249389648438,0.046000003814697266,0.0,1
1682338789.19984102,254587130,0,3,130807200,2259,14,0.81,42.6898984,-84.4887772,265.26,0.03668787330389023,107.44718170166016,-0.05900000408291817,0.0,1
1682338789.40012598,254787415,0,3,130807400,2259,14,0.81,42.6898984,-84.4887771,265.27,0.014212671667337418,320.7106018066406,-0.023000001907348633,0.0,1
1682338789.58009386,254967383,0,3,130807600,2259,14,0.81,42.6898985,-84.4887771,265.28000000000003,0.015033296309411526,273.8140869140625,0.08000000566244125,0.0,1
1682338789.77989793,255167187,0,3,130807800,2259,14,0.81,42.6898986,-84.4887771,265.25,0.014422205276787281,326.3099365234375,-0.06800000369548798,0.0,1
1682338789.97991395,255367203,0,3,130808000,2259,14,0.81,42.6898986,-84.488777,265.25,0.005000000353902578,90.0,-0.032999999821186066,0.0,1
1682338790.17985797,255567147,0,3,130808200,2259,14,0.81,42.6898987,-84.488777,265.23,0.022561030462384224,12.804265022277832,0.024000000208616257,0.0,1
1682338790.37978292,255767072,0,3,130808400,2259,14,0.81,42.6898987,-84.488777,265.21,0.00806225836277008,29.74488067626953,0.03700000047683716,0.0,1
1682338790.58014989,255967439,0,3,130808600,2259,14,0.81,42.689898799999995,-84.48877689999999,265.21,0.018384777009487152,202.38014221191406,-0.005000000353902578,0.0,1
1682338790.77995086,256167240,0,3,130808800,2259,14,0.81,42.689898799999995,-84.48877689999999,265.2,0.00984885822981596,66.03750610351562,-0.0820000022649765,0.0,1
1682338790.99983191,256387121,0,3,130809000,2259,14,0.81,42.689898899999996,-84.48877689999999,265.2,0.008544004522264004,249.4439697265625,-0.02200000174343586,0.0,1
1682338791.17982793,256567117,0,3,130809200,2259,14,0.81,42.689898899999996,-84.48877689999999,265.18,0.0058309524320065975,59.0362434387207,-0.01900000125169754,0.0,1
1682338791.38011098,256767400,0,3,130809400,2259,14,0.81,42.689899,-84.48877689999999,265.18,0.04101219400763512,268.60284423828125,-0.02800000086426735,0.0,1
1682338791.60018587,256987475,0,3,130809600,2259,14,0.81,42.689899,-84.48877689999999,265.18,0.003162277862429619,18.434947967529297,-0.003000000026077032,0.0,1
1682338791.78010988,257167399,0,3,130809800,2259,14,0.81,42.6898991,-84.48877689999999,265.18,0.017464250326156616,103.24050903320312,-0.020000001415610313,0.0,1
1682338792.00003004,257387319,0,3,130810000,2259,14,0.81,42.6898991,-84.4887768,265.16,0.011661904864013195,149.03623962402344,-0.010000000707805157,0.0,1
1682338792.18030500,257567594,0,3,130810200,2259,14,0.81,42.6898991,-84.4887768,265.15,0.018439089879393578,139.39869689941406,-0.08900000154972076,0.0,1
1682338792.38013291,257767422,0,3,130810400,2259,14,0.81,42.6898991,-84.4887768,265.16,0.01303840521723032,85.60128784179688,-0.032999999821186066,0.0,1
1682338792.57992601,257967215,0,3,130810600,2259,14,0.81,42.6898992,-84.4887767,265.14,0.016278821974992752,100.6196517944336,-0.04700000211596489,0.0,1
1682338792.77991295,258167202,0,3,130810800,2259,14,0.81,42.6898992,-84.4887767,265.13,0.02451530285179615,78.23170471191406,-0.0690000057220459,0.0,1
1682338792.97983384,258367123,0,3,130811000,2259,14,0.81,42.6898992,-84.4887767,265.11,0.012041594833135605,94.76364135742188,-0.055000003427267075,0.0,1
1682338793.17990899,258567198,0,3,130811200,2259,14,0.81,42.6898992,-84.4887767,265.11,0.03189043700695038,138.81407165527344,-0.0010000000474974513,0.0,1
1682338793.39991999,258787209,0,3,130811400,2259,14,0.81,42.6898993,-84.4887766,265.1,0.023021729663014412,34.38034439086914,-0.024000000208616257,0.0,1
1682338793.57991695,258967206,0,3,130811600,2259,14,0.81,42.6898994,-84.4887766,265.1,0.017464250326156616,336.3706359863281,0.029000001028180122,0.0,1
1682338793.78025103,259167540,0,3,130811800,2259,14,0.81,42.6898994,-84.4887766,265.09000000000003,0.022360682487487793,79.69514465332031,-0.06599999964237213,0.0,1
1682338794.00009894,259387388,0,3,130812000,2259,14,0.81,42.6898994,-84.4887765,265.08,0.010000000707805157,270.0,-0.020000001415610313,0.0,1
1682338794.18045306,259567742,0,3,130812200,2259,14,0.81,42.689899499999996,-84.4887765,265.08,0.019235385581851006,278.9726257324219,-0.015000000596046448,0.0,1
1682338794.38017297,259767462,0,3,130812400,2259,14,0.81,42.689899499999996,-84.4887765,265.07,0.011180341243743896,10.304844856262207,-0.03700000047683716,0.0,1
1682338794.58020687,259967496,0,3,130812600,2259,14,0.81,42.6898996,-84.4887765,265.06,0.012369317002594471,345.9637451171875,-0.04100000113248825,0.0,1
1682338794.80011106,260187400,0,3,130812800,2259,14,0.81,42.6898996,-84.4887765,265.05,0.0389101542532444,25.90650749206543,-0.11600000411272049,0.0,1
