timestamp,TimeUS,Lat,Lng,Alt,RelHomeAlt,RelOriginAlt
1682338723.48064899,188867938,42.6899261,-84.4889231,270.3500061035156,0.0003893040120601654,1.0603892803192139
1682338723.58057284,188967862,42.689926,-84.4889231,270.3500061035156,0.0003308914601802826,1.060330867767334
1682338723.68079185,189068081,42.6899259,-84.4889231,270.3399963378906,-0.0011736489832401276,1.0588263273239136
1682338723.78076005,189168049,42.6899258,-84.4889231,270.3399963378906,-0.003293190151453018,1.0567067861557007
1682338723.88071799,189268007,42.689925699999996,-84.4889231,270.3399963378906,-0.0067392922937870026,1.0532606840133667
1682338723.98077297,189368062,42.689925699999996,-84.488923,270.3299865722656,-0.010466013103723526,1.0495339632034302
1682338724.08034992,189467639,42.689925599999995,-84.488923,270.3299865722656,-0.011049065738916397,1.0489509105682373
1682338724.18045402,189567743,42.6899255,-84.488923,270.3299865722656,-0.011720690876245499,1.0482792854309082
1682338724.28036690,189667656,42.6899254,-84.488923,270.3299865722656,-0.013418111950159073,1.0465818643569946
1682338724.38040400,189767693,42.6899254,-84.488923,270.3299865722656,-0.01536313071846962,1.044636845588684
1682338724.48039794,189867687,42.6899253,-84.4889231,270.3299865722656,-0.01620391383767128,1.0437960624694824
1682338724.58044291,189967732,42.6899253,-84.4889231,270.3299865722656,-0.016565237194299698,1.043434739112854
1682338724.68028903,190067578,42.6899252,-84.4889231,270.3299865722656,-0.0167868472635746,1.043213129043579
1682338724.78076100,190168050,42.689925099999996,-84.4889231,270.3299865722656,-0.017347965389490128,1.0426520109176636
1682338724.88071990,190268009,42.689924999999995,-84.4889231,270.3299865722656,-0.018798742443323135,1.0412012338638306
1682338724.98049188,190367781,42.689924999999995,-84.4889231,270.32000732421875,-0.02026740089058876,1.039732575416565
1682338725.08041286,190467702,42.6899249,-84.4889231,270.32000732421875,-0.0216544009745121,1.0383455753326416
1682338725.18038797,190567677,42.6899248,-84.4889231,270.32000732421875,-0.02342906966805458,1.0365709066390991
1682338725.28040099,190667690,42.6899247,-84.4889231,270.32000732421875,-0.021672043949365616,1.038327932357788
1682338725.38040590,190767695,42.6899246,-84.4889231,270.32000732421875,-0.021403703838586807,1.038596272468567
1682338725.48063397,190867923,42.6899246,-84.4889231,270.3299865722656,-0.017422471195459366,1.0425775051116943
1682338725.58075786,190968047,42.6899245,-84.4889231,270.3299865722656,-0.014418277889490128,1.0455816984176636
1682338725.68076587,191068055,42.689924399999995,-84.4889231,270.3299865722656,-0.010424051433801651,1.049575924873352
1682338725.78073096,191168020,42.6899243,-84.4889231,270.3399963378906,-0.007028494030237198,1.0529714822769165
1682338725.88066292,191267952,42.6899242,-84.4889231,270.3399963378906,-0.003875289112329483,1.0561246871948242
1682338725.98074389,191368033,42.6899241,-84.4889231,270.3399963378906,-0.0027764178812503815,1.0572235584259033
1682338726.08061886,191467908,42.689924,-84.4889231,270.3399963378906,-0.002407822757959366,1.0575921535491943
1682338726.18060589,191567895,42.6899239,-84.4889231,270.3399963378906,-0.002013716846704483,1.0579862594604492
1682338726.28059697,191667886,42.6899237,-84.4889231,270.3399963378906,-0.0015851594507694244,1.0584148168563843
1682338726.38067102,191767960,42.6899236,-84.4889231,270.3399963378906,-0.0015691854059696198,1.058430790901184
1682338726.48061800,191867907,42.6899235,-84.4889232,270.3399963378906,-0.005947861820459366,1.0540521144866943
1682338726.58080101,191968090,42.6899234,-84.4889232,270.3399963378906,-0.009806070476770401,1.0501939058303833
1682338726.68070698,192067996,42.6899233,-84.4889232,270.3299865722656,-0.017020974308252335,1.0429790019989014
1682338726.78093004,192168219,42.689923199999996,-84.4889232,270.32000732421875,-0.022905144840478897,1.0370948314666748
1682338726.88069296,192267982,42.6899231,-84.4889232,270.32000732421875,-0.02837589755654335,1.0316240787506104
1682338726.98043084,192367720,42.689923,-84.4889233,270.30999755859375,-0.032824549823999405,1.0271754264831543
1682338727.08040500,192467694,42.6899228,-84.4889233,270.30999755859375,-0.0391867496073246,1.020813226699829
1682338727.18045497,192567744,42.6899227,-84.4889233,270.29998779296875,-0.04438963904976845,1.0156103372573853
1682338727.28045893,192667748,42.689922599999996,-84.48892339999999,270.29998779296875,-0.04612341895699501,1.0138765573501587
1682338727.38030195,192767591,42.6899225,-84.48892339999999,270.29998779296875,-0.04696300998330116,1.0130369663238525
1682338727.48038888,192867678,42.6899224,-84.48892339999999,270.29998779296875,-0.04988769069314003,1.0101122856140137
1682338727.58045006,192967739,42.6899223,-84.4889235,270.2900085449219,-0.05348411574959755,1.0065158605575562
1682338727.68080902,193068098,42.6899221,-84.4889235,270.2900085449219,-0.05231038108468056,1.0076895952224731
1682338727.78042388,193167713,42.689921999999996,-84.48892359999999,270.2900085449219,-0.0505165196955204,1.0094834566116333
1682338727.88036799,193267657,42.689921899999995,-84.48892359999999,270.29998779296875,-0.04816082492470741,1.0118391513824463
1682338727.98043799,193367727,42.6899218,-84.48892359999999,270.29998779296875,-0.04656103625893593,1.0134389400482178
1682338728.08038998,193467679,42.6899217,-84.48892359999999,270.29998779296875,-0.04393259063363075,1.016067385673523
1682338728.18067503,193567964,42.6899216,-84.4889237,270.29998779296875,-0.04087582603096962,1.019124150276184
1682338728.28026795,193667557,42.6899215,-84.4889237,270.30999755859375,-0.03404131904244423,1.0259586572647095
1682338728.38052201,193767811,42.689921399999996,-84.4889237,270.32000732421875,-0.02872839942574501,1.0312715768814087
1682338728.48036098,193867650,42.689921299999995,-84.4889237,270.32000732421875,-0.02590254321694374,1.03409743309021
1682338728.58035588,193967645,42.6899212,-84.4889237,270.32000732421875,-0.023350272327661514,1.0366497039794922
1682338728.68041897,194067708,42.6899211,-84.4889237,270.32000732421875,-0.02103177085518837,1.0389682054519653
1682338728.78038287,194167672,42.689921,-84.4889237,270.3299865722656,-0.01903120055794716,1.0409687757492065
1682338728.88060093,194267890,42.6899209,-84.4889237,270.3299865722656,-0.016473684459924698,1.043526291847229
1682338728.98065400,194367943,42.6899209,-84.4889237,270.3299865722656,-0.014239702373743057,1.0457602739334106
1682338729.08066893,194467958,42.689920799999996,-84.4889237,270.3299865722656,-0.013134870678186417,1.0468651056289673
1682338729.18031907,194567608,42.689920699999995,-84.4889238,270.3299865722656,-0.011352334171533585,1.0486476421356201
1682338729.28074002,194668029,42.6899206,-84.4889238,270.3399963378906,-0.0030310489237308502,1.0569689273834229
1682338729.38076806,194768057,42.6899206,-84.4889238,270.3699951171875,0.02875610813498497,1.0887560844421387
1682338729.48063087,194867920,42.6899206,-84.4889238,270.44000244140625,0.09532603621482849,1.155326008796692
1682338729.58062792,194967917,42.6899205,-84.4889238,270.5299987792969,0.18050476908683777,1.2405047416687012
1682338729.68057585,195067865,42.6899205,-84.4889238,270.6199951171875,0.27358028292655945,1.3335802555084229
1682338729.78074098,195168030,42.6899205,-84.4889238,270.6999816894531,0.35917899012565613,1.4191789627075195
1682338729.88057494,195267864,42.6899206,-84.4889238,270.7699890136719,0.4281946122646332,1.4881945848464966
1682338729.98066592,195367955,42.6899206,-84.4889238,270.8299865722656,0.48688969016075134,1.5468896627426147
1682338730.08061004,195467899,42.689920699999995,-84.4889238,270.8800048828125,0.5342028737068176,1.5942028760910034
1682338730.18092799,195568217,42.689920699999995,-84.4889239,270.91998291015625,0.574432909488678,1.6344329118728638
1682338730.28071404,195668003,42.689920699999995,-84.4889238,270.9499816894531,0.6090908646583557,1.6690908670425415
1682338730.38041306,195767702,42.689920799999996,-84.4889238,270.97998046875,0.6385011076927185,1.6985011100769043
1682338730.48070884,195867998,42.689920699999995,-84.4889237,271.0099792480469,0.6638571619987488,1.7238571643829346
1682338730.58061790,195967907,42.689920699999995,-84.48892359999999,271.0299987792969,0.68636554479599,1.7463655471801758
1682338730.68060493,196067894,42.6899206,-84.4889233,271.04998779296875,0.7072896361351013,1.767289638519287
1682338730.78062296,196167912,42.6899206,-84.48892289999999,271.07000732421875,0.7292037606239319,1.7892037630081177
1682338730.88065791,196267947,42.6899206,-84.4889225,271.0899963378906,0.7487593293190002,1.808759331703186
1682338730.98071790,196368007,42.6899205,-84.488922,271.1099853515625,0.7623597979545593,1.8223598003387451
1682338731.08095384,196468243,42.6899205,-84.48892149999999,271.1199951171875,0.7739314436912537,1.8339314460754395
1682338731.18072796,196568017,42.6899204,-84.48892099999999,271.1300048828125,0.785971462726593,1.8459714651107788
1682338731.28068590,196667975,42.6899203,-84.4889204,271.1399841308594,0.7957074046134949,1.8557074069976807
1682338731.38074803,196768037,42.689920199999996,-84.48891979999999,271.1499938964844,0.8071921467781067,1.8671921491622925
1682338731.48061705,196867906,42.689920099999995,-84.48891929999999,271.16998291015625,0.8249264359474182,1.884926438331604
1682338731.58063698,196967926,42.689920099999995,-84.4889188,271.19000244140625,0.8416549563407898,1.9016549587249756
1682338731.68059897,197067888,42.68992,-84.4889182,271.2099914550781,0.864186704158783,1.9241867065429688
1682338731.78067303,197167962,42.6899198,-84.4889176,271.22998046875,0.8891794085502625,1.9491794109344482
1682338731.88070488,197267994,42.689919599999996,-84.488917,271.2599792480469,0.9126951098442078,1.9726951122283936
1682338731.98099995,197368289,42.689919499999995,-84.4889164,271.2799987792969,0.9343927502632141,1.9943927526474
1682338732.08042097,197467710,42.6899193,-84.4889158,271.29998779296875,0.9562546610832214,2.0162546634674072
1682338732.18043399,197567723,42.6899192,-84.4889152,271.3299865722656,0.9802252650260925,2.0402252674102783
1682338732.28041697,197667706,42.6899191,-84.4889146,271.3500061035156,1.0091519355773926,2.0691518783569336
1682338732.38040996,197767699,42.689918999999996,-84.4889139,271.3899841308594,1.0410020351409912,2.1010019779205322
1682338732.48042798,197867717,42.689918899999995,-84.4889132,271.41998291015625,1.0745904445648193,2.1345903873443604
1682338732.58043098,197967720,42.6899188,-84.4889125,271.4599914550781,1.111684799194336,2.171684741973877
1682338732.68052506,198067814,42.6899187,-84.4889117,271.5,1.1553072929382324,2.2153072357177734
1682338732.78031492,198167604,42.6899186,-84.4889109,271.54998779296875,1.2000689506530762,2.260068893432617
1682338732.88074899,198268038,42.6899185,-84.4889101,271.5899963378906,1.2486257553100586,2.3086256980895996
1682338732.98079300,198368082,42.689918399999996,-84.4889093,271.6399841308594,1.2982263565063477,2.3582262992858887
1682338733.08067489,198467964,42.689918299999995,-84.4889085,271.6999816894531,1.3507142066955566,2.4107141494750977
1682338733.18072605,198568015,42.6899181,-84.4889077,271.75,1.4008815288543701,2.460881471633911
1682338733.28038502,198667674,42.6899179,-84.48890689999999,271.79998779296875,1.4542956352233887,2.5142955780029297
1682338733.38041306,198767702,42.689917799999996,-84.488906,271.8500061035156,1.50620698928833,2.566206932067871
1682338733.48040295,198867692,42.6899176,-84.48890519999999,271.8999938964844,1.5597379207611084,2.6197378635406494
1682338733.58048105,198967770,42.6899175,-84.4889043,271.9599914550781,1.611992597579956,2.671992540359497
1682338733.68031096,199067600,42.6899175,-84.48890349999999,272.0099792480469,1.6626555919647217,2.7226555347442627
1682338733.78078890,199168078,42.6899174,-84.48890279999999,272.04998779296875,1.7088737487792969,2.768873691558838
1682338733.88071084,199268000,42.6899172,-84.48890229999999,272.1000061035156,1.7540605068206787,2.8140604496002197
1682338733.98059106,199367880,42.689917,-84.4889018,272.1399841308594,1.7963805198669434,2.8563804626464844
1682338734.08059692,199467886,42.6899168,-84.4889015,272.19000244140625,1.8404541015625,2.900454044342041
1682338734.18057489,199567864,42.6899167,-84.4889012,272.22998046875,1.8813810348510742,2.9413809776306152
1682338734.28054500,199667834,42.6899166,-84.488901,272.2599792480469,1.915489912033081,2.975489854812622
1682338734.38061404,199767903,42.6899166,-84.48890089999999,272.2900085449219,1.9477546215057373,3.0077545642852783
1682338734.48061204,199867901,42.6899166,-84.48890089999999,272.32000732421875,1.9792251586914062,3.0392251014709473
1682338734.58060193,199967891,42.6899166,-84.48890089999999,272.3500061035156,2.0085079669952393,3.0685079097747803
1682338734.68072295,200068012,42.6899168,-84.4889008,272.3800048828125,2.0312840938568115,3.0912840366363525
1682338734.78067398,200167963,42.6899169,-84.4889008,272.3899841308594,2.049060821533203,3.109060764312744
1682338734.88086295,200268152,42.689917099999995,-84.4889007,272.4100036621094,2.0640764236450195,3.1240763664245605
1682338734.98094606,200368235,42.6899173,-84.4889006,272.41998291015625,2.079981565475464,3.139981508255005
1682338735.08039904,200467688,42.6899176,-84.48890039999999,272.44000244140625,2.0966615676879883,3.1566615104675293
1682338735.18044496,200567734,42.689917799999996,-84.4889003,272.4599914550781,2.11147141456604,3.171471357345581
1682338735.28042102,200667710,42.6899181,-84.4889001,272.4700012207031,2.1203534603118896,3.1803534030914307
1682338735.38049507,200767784,42.6899185,-84.4888998,272.4700012207031,2.125551462173462,3.185551404953003
1682338735.48030305,200867592,42.6899187,-84.4888996,272.4700012207031,2.123486042022705,3.183485984802246
1682338735.58042598,200967715,42.689918899999995,-84.4888994,272.4700012207031,2.121206283569336,3.181206226348877
1682338735.68035889,201067648,42.6899191,-84.48889919999999,272.4599914550781,2.116990804672241,3.1769907474517822
1682338735.78070498,201167994,42.6899193,-84.4888991,272.4599914550781,2.1137707233428955,3.1737706661224365
1682338735.88070107,201267990,42.689919499999995,-84.4888989,272.4599914550781,2.110447883605957,3.170447826385498
1682338735.98044705,201367736,42.6899197,-84.4888988,272.4499816894531,2.106858491897583,3.166858434677124
1682338736.08074498,201468034,42.6899199,-84.4888986,272.4499816894531,2.1025474071502686,3.1625473499298096
1682338736.18064094,201567930,42.68992,-84.4888986,272.44000244140625,2.097599983215332,3.157599925994873
1682338736.28068995,201667979,42.689920199999996,-84.48889849999999,272.42999267578125,2.088113784790039,3.14811372756958
1682338736.38065886,201767948,42.6899205,-84.48889849999999,272.41998291015625,2.078493356704712,3.138493299484253
1682338736.48096204,201868251,42.6899205,-84.48889849999999,272.4100036621094,2.069728374481201,3.129728317260742
1682338736.58073997,201968029,42.689920699999995,-84.48889849999999,272.4100036621094,2.062502861022949,3.1225028038024902
1682338736.68039489,202067684,42.689920799999996,-84.48889849999999,272.3999938964844,2.0552659034729004,3.1152658462524414
1682338736.78043294,202167722,42.6899209,-84.48889849999999,272.3999938964844,2.050696611404419,3.11069655418396
1682338736.88038492,202267674,42.689921,-84.48889849999999,272.3999938964844,2.0501577854156494,3.1101577281951904
1682338736.98048496,202367774,42.6899211,-84.48889849999999,272.3999938964844,2.050861358642578,3.110861301422119
1682338737.08042002,202467709,42.6899211,-84.4888986,272.3999938964844,2.052487373352051,3.112487316131592
1682338737.18076801,202568057,42.6899211,-84.4888987,272.3999938964844,2.0549983978271484,3.1149983406066895
1682338737.28065205,202667941,42.6899211,-84.4888988,272.3999938964844,2.0529732704162598,3.112973213195801
1682338737.38056588,202767855,42.6899212,-84.48889899999999,272.3999938964844,2.0505928993225098,3.110592842102051
1682338737.48037601,202867665,42.6899211,-84.4888991,272.3899841308594,2.0499515533447266,3.1099514961242676
1682338737.58039594,202967685,42.6899211,-84.4888993,272.3999938964844,2.0538604259490967,3.1138603687286377
1682338737.68042803,203067717,42.6899212,-84.4888995,272.3999938964844,2.0584447383880615,3.1184446811676025
1682338737.78045106,203167740,42.689921399999996,-84.48889969999999,272.4100036621094,2.064034938812256,3.124034881591797
1682338737.88041306,203267702,42.689921399999996,-84.48889989999999,272.41998291015625,2.071268320083618,3.131268262863159
1682338737.98046184,203367751,42.6899216,-84.4889001,272.41998291015625,2.0793371200561523,3.1393370628356934
1682338738.08047891,203467768,42.6899218,-84.4889003,272.42999267578125,2.084303379058838,3.144303321838379
1682338738.18042994,203567719,42.689921899999995,-84.4889005,272.42999267578125,2.088542938232422,3.148542881011963
1682338738.28075004,203668039,42.6899221,-84.4889006,272.44000244140625,2.0909571647644043,3.1509571075439453
1682338738.38075495,203768044,42.6899222,-84.4889007,272.44000244140625,2.0936033725738525,3.1536033153533936
1682338738.48050499,203867794,42.6899223,-84.4889007,272.44000244140625,2.0995829105377197,3.1595828533172607
1682338738.58059597,203967885,42.6899223,-84.4889006,272.4499816894531,2.107328414916992,3.167328357696533
1682338738.68054795,204067837,42.6899224,-84.4889006,272.4599914550781,2.114225387573242,3.174225330352783
1682338738.78057885,204167868,42.6899224,-84.48890039999999,272.4700012207031,2.120434522628784,3.180434465408325
1682338738.88054085,204267830,42.6899224,-84.4889003,272.4700012207031,2.123237371444702,3.183237314224243
1682338738.98067904,204367968,42.6899224,-84.4889,272.4700012207031,2.1272330284118652,3.1872329711914062
1682338739.08079100,204468080,42.6899224,-84.4888998,272.4700012207031,2.1298506259918213,3.1898505687713623
1682338739.18086386,204568153,42.6899223,-84.4888995,272.47998046875,2.1325457096099854,3.1925456523895264
1682338739.28072906,204668018,42.6899223,-84.4888993,272.47998046875,2.133352041244507,3.193351984024048
1682338739.38035107,204767640,42.6899222,-84.48889899999999,272.47998046875,2.1371281147003174,3.1971280574798584
1682338739.48069692,204867986,42.6899222,-84.4888986,272.489990234375,2.141540050506592,3.201539993286133
1682338739.58062792,204967917,42.6899221,-84.4888983,272.489990234375,2.148707628250122,3.208707571029663
1682338739.68059993,205067889,42.689921999999996,-84.4888979,272.5,2.156688928604126,3.216688871383667
1682338739.78063488,205167924,42.689921899999995,-84.4888975,272.5099792480469,2.1630852222442627,3.2230851650238037
1682338739.88066196,205267951,42.6899218,-84.4888971,272.5099792480469,2.1634650230407715,3.2234649658203125
1682338739.98069096,205367980,42.6899217,-84.4888967,272.5099792480469,2.1624691486358643,3.2224690914154053
1682338740.08076096,205468050,42.6899216,-84.4888962,272.5,2.159850835800171,3.219850778579712
1682338740.18076205,205568051,42.689921399999996,-84.4888957,272.5,2.1576321125030518,3.2176320552825928
1682338740.28100300,205668292,42.689921299999995,-84.4888953,272.5,2.15706467628479,3.217064619064331
1682338740.38097787,205768267,42.689921,-84.4888948,272.5,2.1559221744537354,3.2159221172332764
1682338740.48038602,205867675,42.6899209,-84.4888943,272.5,2.1553266048431396,3.2153265476226807
1682338740.58043694,205967726,42.689920699999995,-84.48889369999999,272.5,2.1549324989318848,3.214932441711426
1682338740.68043089,206067720,42.6899205,-84.48889319999999,272.5,2.1598494052886963,3.2198493480682373
1682338740.78050303,206167792,42.6899203,-84.4888927,272.5099792480469,2.1639649868011475,3.2239649295806885
1682338740.88030887,206267598,42.689920099999995,-84.4888921,272.5099792480469,2.163782835006714,3.223782777786255
1682338740.98053598,206367825,42.6899199,-84.4888915,272.5099792480469,2.1632080078125,3.223207950592041
1682338741.08036494,206467654,42.6899197,-84.4888909,272.5099792480469,2.1637654304504395,3.2237653732299805
1682338741.18069196,206567981,42.689919499999995,-84.4888903,272.5099792480469,2.1643762588500977,3.2243762016296387
1682338741.28041697,206667706,42.6899192,-84.4888896,272.5099792480469,2.1619441509246826,3.2219440937042236
1682338741.38040090,206767690,42.689918999999996,-84.48888889999999,272.5099792480469,2.160005569458008,3.220005512237549
1682338741.48040390,206867693,42.6899186,-84.4888881,272.5099792480469,2.1607542037963867,3.2207541465759277
1682338741.58042192,206967711,42.689918399999996,-84.4888874,272.5099792480469,2.160832405090332,3.220832347869873
1682338741.68048596,207067775,42.6899181,-84.48888649999999,272.5,2.157640218734741,3.2176401615142822
1682338741.78033090,207167620,42.689917799999996,-84.4888857,272.5,2.154515504837036,3.214515447616577
1682338741.88041401,207267703,42.6899175,-84.4888848,272.5,2.1542515754699707,3.2142515182495117
1682338741.98045897,207367748,42.6899172,-84.488884,272.5,2.1527483463287354,3.2127482891082764
1682338742.08066607,207467955,42.6899169,-84.48888319999999,272.5,2.1503376960754395,3.2103376388549805
1682338742.18070102,207567990,42.6899166,-84.4888823,272.489990234375,2.1472692489624023,3.2072691917419434
1682338742.28060484,207667894,42.6899162,-84.4888814,272.47998046875,2.1345512866973877,3.1945512294769287
1682338742.38072991,207768019,42.6899158,-84.4888804,272.4700012207031,2.122126340866089,3.18212628364563
1682338742.48041797,207867707,42.689915299999996,-84.4888794,272.4499816894531,2.104398250579834,3.164398193359375
1682338742.58053493,207967824,42.6899149,-84.48887839999999,272.44000244140625,2.0904643535614014,3.1504642963409424
1682338742.68032193,208067611,42.6899143,-84.4888773,272.42999267578125,2.0802948474884033,3.1402947902679443
1682338742.78046083,208167750,42.6899138,-84.4888763,272.41998291015625,2.072559356689453,3.132559299468994
1682338742.88042092,208267710,42.6899133,-84.4888752,272.4100036621094,2.0695269107818604,3.1295268535614014
1682338742.98080707,208368096,42.6899127,-84.4888742,272.4100036621094,2.0672109127044678,3.127210855484009
1682338743.08070993,208467999,42.689912199999995,-84.4888732,272.4100036621094,2.060945749282837,3.120945692062378
1682338743.18063593,208567925,42.689911699999996,-84.4888722,272.3999938964844,2.054980754852295,3.114980697631836
1682338743.28061795,208667907,42.689911099999996,-84.48887119999999,272.3899841308594,2.0438878536224365,3.1038877964019775
1682338743.38043404,208767723,42.689910499999996,-84.4888702,272.3800048828125,2.035182476043701,3.095182418823242
1682338743.48062897,208867918,42.689909899999996,-84.4888692,272.3699951171875,2.028348207473755,3.088348150253296
1682338743.58058500,208967874,42.689909199999995,-84.4888682,272.3699951171875,2.0231339931488037,3.0831339359283447
1682338743.68071389,209068003,42.689908599999995,-84.4888673,272.3699951171875,2.022082567214966,3.082082509994507
1682338743.78067994,209167969,42.6899079,-84.48886639999999,272.3699951171875,2.0213913917541504,3.0813913345336914
1682338743.88087702,209268166,42.6899073,-84.4888654,272.3699951171875,2.0210418701171875,3.0810418128967285
1682338743.98094106,209368230,42.6899066,-84.48886449999999,272.3699951171875,2.0207107067108154,3.0807106494903564
1682338744.08039498,209467684,42.6899059,-84.4888636,272.3599853515625,2.015794515609741,3.0757944583892822
1682338744.18044496,209567734,42.6899051,-84.4888627,272.3599853515625,2.0113017559051514,3.0713016986846924
1682338744.28041697,209667706,42.689904399999996,-84.4888618,272.3399963378906,1.9996497631072998,3.059649705886841
1682338744.38048697,209767776,42.689903699999995,-84.488861,272.3399963378906,1.9899919033050537,3.0499918460845947
1682338744.48041296,209867702,42.689903099999995,-84.4888601,272.3299865722656,1.9821443557739258,3.042144298553467
1682338744.58080697,209968096,42.689902499999995,-84.4888592,272.32000732421875,1.9771344661712646,3.0371344089508057
1682338744.68037987,210067669,42.689901899999995,-84.4888584,272.32000732421875,1.9735949039459229,3.033594846725464
1682338744.78037190,210167661,42.6899014,-84.4888577,272.30999755859375,1.9699289798736572,3.0299289226531982
1682338744.88071704,210268006,42.6899008,-84.4888569,272.30999755859375,1.9689970016479492,3.0289969444274902
1682338744.98066401,210367953,42.6899003,-84.48885609999999,272.30999755859375,1.9669365882873535,3.0269365310668945
1682338745.08064795,210467937,42.6899,-84.4888555,272.30999755859375,1.9681215286254883,3.0281214714050293
1682338745.18063092,210567920,42.6898996,-84.48885489999999,272.30999755859375,1.9677708148956299,3.027770757675171
1682338745.28066897,210667958,42.6898994,-84.4888543,272.30999755859375,1.9656641483306885,3.0256640911102295
1682338745.38063097,210767920,42.6898992,-84.48885369999999,272.30999755859375,1.9628582000732422,3.022858142852783
1682338745.48092294,210868212,42.6898992,-84.4888532,272.30999755859375,1.9642224311828613,3.0242223739624023
1682338745.58094192,210968231,42.6898991,-84.48885279999999,272.30999755859375,1.9633607864379883,3.0233607292175293
1682338745.68068290,211067972,42.6898992,-84.4888524,272.30999755859375,1.96412992477417,3.024129867553711
1682338745.78072596,211168015,42.6898993,-84.4888519,272.30999755859375,1.964921474456787,3.024921417236328
1682338745.88038588,211267675,42.6898994,-84.4888513,272.30999755859375,1.9661946296691895,3.0261945724487305
1682338745.98047686,211367766,42.689899499999996,-84.4888507,272.30999755859375,1.9652233123779297,3.0252232551574707
1682338746.08043003,211467719,42.6898996,-84.4888501,272.30999755859375,1.9608588218688965,3.0208587646484375
1682338746.18046784,211567757,42.689899499999996,-84.48884939999999,272.29998779296875,1.9543015956878662,3.0143015384674072
1682338746.28028488,211667574,42.689899499999996,-84.48884869999999,272.2900085449219,1.947340965270996,3.007340908050537
1682338746.38073587,211768025,42.689899499999996,-84.48884799999999,272.2900085449219,1.940566062927246,3.000566005706787
1682338746.48069787,211867987,42.6898994,-84.4888472,272.2799987792969,1.9302759170532227,2.9902758598327637
1682338746.58083391,211968123,42.6898993,-84.4888466,272.2599792480469,1.9189305305480957,2.9789304733276367
1682338746.68070507,212067994,42.6898993,-84.488846,272.25,1.9097044467926025,2.9697043895721436
1682338746.78040195,212167691,42.6898992,-84.48884559999999,272.25,1.9027531147003174,2.9627530574798584
1682338746.88041902,212267708,42.6898992,-84.48884509999999,272.239990234375,1.8972904682159424,2.9572904109954834
1682338746.98050499,212367794,42.6898992,-84.4888448,272.239990234375,1.8942854404449463,2.9542853832244873
1682338747.08047795,212467767,42.6898992,-84.48884439999999,272.239990234375,1.8976058959960938,2.9576058387756348
1682338747.18033004,212567619,42.6898992,-84.488844,272.25,1.9021923542022705,2.9621922969818115
1682338747.28041387,212667703,42.6898994,-84.48884369999999,272.25,1.90484619140625,2.964846134185791
1682338747.38039088,212767680,42.689899499999996,-84.4888435,272.25,1.9079258441925049,2.967925786972046
1682338747.48067594,212867965,42.6898998,-84.4888433,272.25,1.908935308456421,2.968935251235962
1682338747.58071899,212968008,42.689900099999996,-84.48884319999999,272.2599792480469,1.9103894233703613,2.9703893661499023
1682338747.68039989,213067689,42.6899003,-84.4888431,272.25,1.909883737564087,2.969883680343628
1682338747.78043199,213167721,42.6899006,-84.488843,272.25,1.9092755317687988,2.96927547454834
1682338747.88054585,213267835,42.689901,-84.4888429,272.25,1.9090089797973633,2.9690089225769043
1682338747.98068905,213367978,42.6899014,-84.4888428,272.2599792480469,1.910661220550537,2.970661163330078
1682338748.08059001,213467879,42.6899018,-84.48884269999999,272.2599792480469,1.9190325736999512,2.979032516479492
1682338748.18071795,213568007,42.6899022,-84.4888426,272.2699890136719,1.9255847930908203,2.9855847358703613
1682338748.28057885,213667868,42.689902499999995,-84.4888424,272.2699890136719,1.9276535511016846,2.9876534938812256
1682338748.38067985,213767969,42.6899029,-84.4888424,272.2699890136719,1.9270555973052979,2.987055540084839
1682338748.48069596,213867985,42.689903199999996,-84.4888421,272.2699890136719,1.9241466522216797,2.9841465950012207
1682338748.58040190,213967691,42.6899035,-84.48884199999999,272.2699890136719,1.9215683937072754,2.9815683364868164
1682338748.68074107,214068030,42.689903799999996,-84.48884199999999,272.2599792480469,1.9187917709350586,2.9787917137145996
1682338748.78066206,214167951,42.689904,-84.4888419,272.2599792480469,1.914658784866333,2.974658727645874
1682338748.88065886,214267948,42.689904299999995,-84.4888418,272.25,1.9070732593536377,2.9670732021331787
1682338748.98068905,214367978,42.6899045,-84.4888417,272.25,1.9003167152404785,2.9603166580200195
1682338749.08076286,214468052,42.6899048,-84.4888417,272.239990234375,1.894540786743164,2.954540729522705
1682338749.18072200,214568011,42.689904999999996,-84.4888416,272.239990234375,1.8903939723968506,2.9503939151763916
1682338749.28091407,214668203,42.6899053,-84.4888416,272.22998046875,1.8880226612091064,2.9480226039886475
1682338749.38096786,214768257,42.6899054,-84.4888416,272.22998046875,1.8863213062286377,2.9463212490081787
1682338749.48037887,214867668,42.689905599999996,-84.4888417,272.22998046875,1.8852925300598145,2.9452924728393555
1682338749.58047104,214967760,42.6899058,-84.4888417,272.22998046875,1.8838655948638916,2.9438655376434326
1682338749.68042302,215067712,42.689906,-84.4888417,272.22998046875,1.883606195449829,2.94360613822937
1682338749.78049684,215167786,42.689906099999995,-84.4888418,272.22998046875,1.8839964866638184,2.9439964294433594
1682338749.88031101,215267600,42.6899063,-84.4888419,272.22998046875,1.880871057510376,2.940871000289917
1682338749.98054790,215367837,42.6899064,-84.4888419,272.2200012207031,1.879054069519043,2.939054012298584
1682338750.08043790,215467727,42.6899065,-84.48884199999999,272.2200012207031,1.8789780139923096,2.9389779567718506
1682338750.18044186,215567731,42.689906699999995,-84.4888421,272.2200012207031,1.879544973373413,2.939544916152954
1682338750.28042889,215667718,42.689906799999996,-84.4888422,272.22998046875,1.8810079097747803,2.9410078525543213
1682338750.38042498,215767714,42.6899069,-84.4888423,272.22998046875,1.8808183670043945,2.9408183097839355
1682338750.48060799,215867897,42.6899071,-84.4888426,272.2200012207031,1.8787975311279297,2.9387974739074707
1682338750.58043289,215967722,42.6899071,-84.48884269999999,272.2200012207031,1.876948356628418,2.936948299407959
1682338750.68049884,216067788,42.6899072,-84.4888428,272.2200012207031,1.873260736465454,2.933260679244995
1682338750.78045297,216167742,42.6899073,-84.4888428,272.2099914550781,1.8699886798858643,2.9299886226654053
1682338750.88042784,216267717,42.689907399999996,-84.4888429,272.2099914550781,1.8660106658935547,2.9260106086730957
1682338750.98053193,216367821,42.689907399999996,-84.488843,272.2099914550781,1.8620884418487549,2.922088384628296
1682338751.08040786,216467697,42.689907399999996,-84.4888431,272.1999816894531,1.8546433448791504,2.9146432876586914
1682338751.18049288,216567782,42.689907399999996,-84.48884319999999,272.19000244140625,1.8485589027404785,2.9085588455200195
1682338751.28040385,216667693,42.689907399999996,-84.4888433,272.19000244140625,1.841487169265747,2.901487112045288
1682338751.38042498,216767714,42.689907399999996,-84.4888434,272.17999267578125,1.8351969718933105,2.8951969146728516
1682338751.48056102,216867850,42.689907399999996,-84.4888436,272.16998291015625,1.829949140548706,2.889949083328247
1682338751.58061504,216967904,42.6899073,-84.4888436,272.16998291015625,1.825610876083374,2.885610818862915
1682338751.68060803,217067897,42.6899073,-84.48884369999999,272.16998291015625,1.8208448886871338,2.880844831466675
1682338751.78073001,217168019,42.6899072,-84.48884369999999,272.1600036621094,1.8172037601470947,2.8772037029266357
1682338751.88065791,217267947,42.6899071,-84.48884369999999,272.1600036621094,1.8122177124023438,2.8722176551818848
1682338751.98071384,217368003,42.689907,-84.48884369999999,272.1499938964844,1.8078618049621582,2.867861747741699
1682338752.08066988,217467959,42.6899069,-84.4888438,272.1499938964844,1.8017549514770508,2.861754894256592
1682338752.18058801,217567877,42.689906799999996,-84.4888438,272.1399841308594,1.7965328693389893,2.8565328121185303
1682338752.28078604,217668075,42.689906699999995,-84.4888438,272.1399841308594,1.7904183864593506,2.8504183292388916
1682338752.38084698,217768136,42.6899066,-84.4888438,272.1300048828125,1.785454511642456,2.845454454421997
1682338752.48066306,217867952,42.6899064,-84.48884369999999,272.1300048828125,1.782224178314209,2.84222412109375
1682338752.58034205,217967631,42.6899063,-84.48884369999999,272.1199951171875,1.779874563217163,2.839874505996704
1682338752.68046403,218067753,42.689906199999996,-84.4888436,272.1199951171875,1.7751269340515137,2.8351268768310547
1682338752.78044200,218167731,42.689906099999995,-84.4888435,272.1199951171875,1.7713444232940674,2.8313443660736084
1682338752.88051701,218267806,42.689906,-84.4888435,272.1099853515625,1.768287181854248,2.828287124633789
1682338752.98051190,218367801,42.689906,-84.4888434,272.1099853515625,1.7672040462493896,2.8272039890289307
1682338753.08041406,218467703,42.6899059,-84.4888434,272.1099853515625,1.7662138938903809,2.826213836669922
1682338753.18066907,218567958,42.6899059,-84.4888433,272.1099853515625,1.7661535739898682,2.826153516769409
1682338753.28089595,218668185,42.6899059,-84.48884319999999,272.1099853515625,1.7649586200714111,2.824958562850952
1682338753.38071704,218768006,42.689906,-84.4888431,272.1099853515625,1.7645454406738281,2.824545383453369
1682338753.48030591,218867595,42.6899059,-84.4888431,272.1099853515625,1.761254072189331,2.821254014968872
1682338753.58042598,218967715,42.689906,-84.488843,272.1000061035156,1.7564260959625244,2.8164260387420654
1682338753.68072891,219068018,42.689906,-84.488843,272.1000061035156,1.7541790008544922,2.814178943634033
1682338753.78069997,219167989,42.689906,-84.4888429,272.1000061035156,1.752284049987793,2.812283992767334
1682338753.88070393,219267993,42.689906,-84.488843,272.0899963378906,1.7499721050262451,2.809972047805786
1682338753.98067284,219367962,42.689906,-84.488843,272.0899963378906,1.748779296875,2.808779239654541
1682338754.08059692,219467886,42.6899059,-84.488843,272.0899963378906,1.7480878829956055,2.8080878257751465
1682338754.18062401,219567913,42.6899059,-84.488843,272.0899963378906,1.7476751804351807,2.8076751232147217
1682338754.28122497,219668514,42.6899059,-84.488843,272.0899963378906,1.7482507228851318,2.808250665664673
1682338754.38063407,219767923,42.6899059,-84.4888429,272.0899963378906,1.7491650581359863,2.8091650009155273
1682338754.48074985,219868039,42.6899059,-84.4888428,272.0899963378906,1.7479422092437744,2.8079421520233154
1682338754.58073592,219968025,42.6899059,-84.48884269999999,272.0899963378906,1.7458698749542236,2.8058698177337646
1682338754.68068099,220067970,42.6899058,-84.48884249999999,272.0899963378906,1.7451989650726318,2.805198907852173
1682338754.78073096,220168020,42.6899058,-84.4888422,272.0899963378906,1.7440931797027588,2.8040931224823
1682338754.88061094,220267900,42.6899058,-84.4888419,272.0799865722656,1.7392926216125488,2.79929256439209
1682338754.98077106,220368060,42.6899058,-84.4888414,272.0799865722656,1.7354192733764648,2.795419216156006
1682338755.08083296,220468122,42.6899057,-84.48884079999999,272.0799865722656,1.7325260639190674,2.7925260066986084
1682338755.18085885,220568148,42.6899057,-84.4888402,272.07000732421875,1.7292606830596924,2.7892606258392334
1682338755.28048992,220667779,42.6899057,-84.48883959999999,272.07000732421875,1.7266464233398438,2.7866463661193848
1682338755.38053393,220767823,42.6899057,-84.48883889999999,272.07000732421875,1.724015235900879,2.78401517868042
1682338755.48066688,220867956,42.689905499999995,-84.48883819999999,272.05999755859375,1.7195935249328613,2.7795934677124023
1682338755.58065104,220967940,42.6899054,-84.4888375,272.05999755859375,1.715881109237671,2.775881052017212
1682338755.68070197,221067991,42.6899053,-84.4888366,272.04998779296875,1.7085657119750977,2.7685656547546387
1682338755.78057790,221167867,42.6899052,-84.4888357,272.04998779296875,1.702202320098877,2.762202262878418
1682338755.88055897,221267848,42.689904999999996,-84.48883479999999,272.0400085449219,1.696772575378418,2.756772518157959
1682338755.98063087,221367920,42.689904899999995,-84.4888339,272.0400085449219,1.692112684249878,2.752112627029419
1682338756.08081985,221468109,42.6899047,-84.4888331,272.0400085449219,1.6905951499938965,2.7505950927734375
1682338756.18032503,221567614,42.6899045,-84.48883219999999,272.0299987792969,1.6886544227600098,2.748654365539551
1682338756.28046989,221667759,42.689904299999995,-84.4888314,272.0299987792969,1.6841645240783691,2.74416446685791
1682338756.38037992,221767669,42.6899041,-84.4888306,272.0199890136719,1.679682970046997,2.739682912826538
1682338756.48035598,221867645,42.6899039,-84.48882979999999,272.0199890136719,1.6715190410614014,2.7315189838409424
1682338756.58041787,221967707,42.689903699999995,-84.488829,272.0099792480469,1.6653647422790527,2.7253646850585938
1682338756.68038607,222067675,42.6899035,-84.4888282,272.0,1.6571290493011475,2.7171289920806885
1682338756.78041196,222167701,42.689903199999996,-84.4888273,272.0,1.650946855545044,2.710946798324585
1682338756.88040805,222267697,42.689903,-84.4888265,271.989990234375,1.6461944580078125,2.7061944007873535
1682338756.98051786,222367807,42.6899027,-84.4888256,271.989990234375,1.6430985927581787,2.7030985355377197
1682338757.08040595,222467695,42.6899024,-84.4888247,272.0,1.650331735610962,2.710331678390503
1682338757.18077803,222568067,42.6899021,-84.48882379999999,272.0,1.6564693450927734,2.7164692878723145
1682338757.28071189,222668001,42.6899018,-84.4888228,272.0099792480469,1.6609172821044922,2.720917224884033
1682338757.38035893,222767648,42.6899015,-84.4888218,272.0099792480469,1.663573980331421,2.723573923110962
1682338757.48036695,222867656,42.689901299999995,-84.4888208,272.0099792480469,1.6652653217315674,2.7252652645111084
1682338757.58039498,222967684,42.6899012,-84.4888198,272.0099792480469,1.6664326190948486,2.7264325618743896
1682338757.68042994,223067719,42.689901,-84.48881879999999,272.0199890136719,1.6704988479614258,2.730498790740967
1682338757.78043103,223167720,42.6899008,-84.48881779999999,272.0199890136719,1.673386812210083,2.733386754989624
1682338757.88046193,223267751,42.6899006,-84.4888168,272.0199890136719,1.677217960357666,2.737217903137207
1682338757.98039889,223367688,42.6899004,-84.4888158,272.0199890136719,1.6790342330932617,2.7390341758728027
1682338758.08077788,223468067,42.6899002,-84.48881469999999,272.0299987792969,1.681037187576294,2.741037130355835
1682338758.18044591,223567735,42.6899,-84.4888137,272.0299987792969,1.6845698356628418,2.744569778442383
1682338758.28069806,223667987,42.6898999,-84.4888126,272.0299987792969,1.6821889877319336,2.7421889305114746
1682338758.38072205,223768011,42.6898997,-84.48881159999999,272.0199890136719,1.6756610870361328,2.735661029815674
1682338758.48061395,223867903,42.6898996,-84.4888105,272.0199890136719,1.6763005256652832,2.736300468444824
1682338758.58067894,223967968,42.689899499999996,-84.4888095,272.0199890136719,1.6768617630004883,2.7368617057800293
1682338758.68060493,224067894,42.6898994,-84.4888083,272.0199890136719,1.6757457256317139,2.735745668411255
1682338758.78068805,224167977,42.6898993,-84.4888071,272.0199890136719,1.6776998043060303,2.7376997470855713
1682338758.88064504,224267934,42.6898993,-84.4888059,272.0299987792969,1.6822247505187988,2.74222469329834
1682338758.98100901,224368298,42.6898993,-84.4888047,272.0299987792969,1.685955286026001,2.745955228805542
1682338759.08073997,224468029,42.6898992,-84.4888035,272.0299987792969,1.688028335571289,2.74802827835083
1682338759.18085384,224568143,42.6898992,-84.4888024,272.0299987792969,1.6883916854858398,2.748391628265381
1682338759.28070688,224667996,42.6898992,-84.4888012,272.0299987792969,1.68867826461792,2.748678207397461
1682338759.38039088,224767680,42.6898992,-84.4888002,272.0400085449219,1.690096139907837,2.750096082687378
1682338759.48055506,224867844,42.6898991,-84.4887991,272.0400085449219,1.6926205158233643,2.7526204586029053
1682338759.58056498,224967854,42.6898991,-84.48879819999999,272.0400085449219,1.6966538429260254,2.7566537857055664
1682338759.68060589,225067895,42.689899,-84.4887974,272.0400085449219,1.699345350265503,2.759345293045044
1682338759.78059697,225167886,42.689898899999996,-84.4887967,272.04998779296875,1.703084945678711,2.763084888458252
1682338759.88068986,225267979,42.689898799999995,-84.4887962,272.04998779296875,1.7065649032592773,2.7665648460388184
1682338759.98073292,225368022,42.6898987,-84.4887957,272.04998779296875,1.7074179649353027,2.7674179077148438
1682338760.08060384,225467893,42.6898986,-84.4887952,272.04998779296875,1.7086513042449951,2.768651247024536
1682338760.18065906,225567948,42.6898985,-84.4887947,272.05999755859375,1.7101683616638184,2.7701683044433594
1682338760.28056192,225667851,42.6898984,-84.4887942,272.05999755859375,1.710066795349121,2.770066738128662
1682338760.38056803,225767857,42.689898299999996,-84.4887937,272.04998779296875,1.7088537216186523,2.7688536643981934
1682338760.48054600,225867835,42.689898199999995,-84.48879319999999,272.04998779296875,1.70603346824646,2.766033411026001
1682338760.58084106,225968130,42.6898981,-84.48879269999999,272.04998779296875,1.7046775817871094,2.7646775245666504
1682338760.68032193,226067611,42.689898,-84.48879219999999,272.04998779296875,1.706089735031128,2.766089677810669
1682338760.78047395,226167763,42.6898979,-84.4887916,272.04998779296875,1.7079505920410156,2.7679505348205566
1682338760.88035583,226267645,42.6898979,-84.4887912,272.04998779296875,1.7088828086853027,2.7688827514648438
1682338760.98044395,226367733,42.6898978,-84.48879079999999,272.05999755859375,1.7103497982025146,2.7703497409820557
1682338761.08042192,226467711,42.689897599999995,-84.4887905,272.05999755859375,1.7128748893737793,2.7728748321533203
1682338761.18039489,226567684,42.6898975,-84.4887902,272.05999755859375,1.7158513069152832,2.775851249694824
1682338761.28050900,226667798,42.6898974,-84.48879,272.05999755859375,1.7183856964111328,2.778385639190674
1682338761.38043189,226767721,42.6898972,-84.48878979999999,272.07000732421875,1.7217936515808105,2.7817935943603516
1682338761.48069096,226867980,42.689897099999996,-84.4887897,272.07000732421875,1.7245867252349854,2.7845866680145264
1682338761.58034086,226967630,42.689896999999995,-84.4887895,272.07000732421875,1.7290902137756348,2.789090156555176
1682338761.68042088,227067710,42.6898968,-84.4887894,272.0799865722656,1.7341015338897705,2.7941014766693115
1682338761.78036690,227167656,42.6898967,-84.4887892,272.0799865722656,1.736448049545288,2.796447992324829
1682338761.88034391,227267633,42.6898966,-84.488789,272.0799865722656,1.737342119216919,2.79734206199646
1682338761.98046899,227367758,42.6898966,-84.4887888,272.0799865722656,1.738525152206421,2.798525094985962
1682338762.08039093,227467680,42.689896499999996,-84.4887885,272.0899963378906,1.741344690322876,2.801344633102417
1682338762.18043494,227567724,42.689896499999996,-84.4887882,272.0899963378906,1.745652437210083,2.805652379989624
1682338762.28041196,227667701,42.689896499999996,-84.4887878,272.1000061035156,1.7514064311981201,2.811406373977661
1682338762.38067889,227767968,42.689896499999996,-84.48878739999999,272.1000061035156,1.758547067642212,2.818547010421753
1682338762.48063087,227867920,42.689896499999996,-84.488787,272.1099853515625,1.7684507369995117,2.8284506797790527
1682338762.58077884,227968068,42.6898966,-84.48878649999999,272.1199951171875,1.7788803577423096,2.8388803005218506
1682338762.68074203,228068031,42.6898967,-84.4887861,272.1399841308594,1.7905688285827637,2.8505687713623047
1682338762.78040791,228167697,42.6898968,-84.4887856,272.1399841308594,1.7999448776245117,2.8599448204040527
1682338762.88068891,228267978,42.689896999999995,-84.488785,272.1499938964844,1.804880142211914,2.864880084991455
1682338762.98075390,228368043,42.6898972,-84.4887845,272.1499938964844,1.8063864707946777,2.8663864135742188
1682338763.08061004,228467899,42.6898974,-84.4887839,272.1499938964844,1.804161787033081,2.864161729812622
1682338763.18062997,228567919,42.6898975,-84.4887834,272.1399841308594,1.7988524436950684,2.8588523864746094
1682338763.28095293,228668242,42.689897599999995,-84.4887828,272.1399841308594,1.7909703254699707,2.8509702682495117
1682338763.38077593,228768065,42.689897699999996,-84.4887821,272.1300048828125,1.783409595489502,2.843409538269043
1682338763.48077202,228868061,42.689897699999996,-84.4887814,272.1199951171875,1.7744507789611816,2.8344507217407227
1682338763.58081198,228968101,42.6898978,-84.48878069999999,272.1099853515625,1.7657010555267334,2.8257009983062744
1682338763.68039799,229067687,42.6898978,-84.48877999999999,272.1000061035156,1.7565991878509521,2.816599130630493
1682338763.78043389,229167723,42.6898978,-84.48877929999999,272.1000061035156,1.7516255378723145,2.8116254806518555
1682338763.88039184,229267681,42.689897599999995,-84.4887787,272.0899963378906,1.7488641738891602,2.808864116668701
1682338763.98047495,229367764,42.6898975,-84.4887782,272.0899963378906,1.7474150657653809,2.807415008544922
1682338764.08042598,229467715,42.6898974,-84.4887778,272.1000061035156,1.7502667903900146,2.8102667331695557
1682338764.18050098,229567790,42.689897099999996,-84.4887775,272.1000061035156,1.7547273635864258,2.814727306365967
1682338764.28034091,229667630,42.6898969,-84.4887773,272.1000061035156,1.7594928741455078,2.819492816925049
1682338764.38077903,229768068,42.6898966,-84.4887771,272.1099853515625,1.763929843902588,2.823929786682129
1682338764.48071790,229868007,42.6898963,-84.488777,272.1099853515625,1.7670423984527588,2.8270423412323
1682338764.58040285,229967692,42.6898961,-84.48877689999999,272.1199951171875,1.7703640460968018,2.8303639888763428
1682338764.68042803,230067717,42.689895899999996,-84.48877689999999,272.1199951171875,1.7746458053588867,2.8346457481384277
1682338764.78041005,230167699,42.689895799999995,-84.48877689999999,272.1199951171875,1.7797462940216064,2.8397462368011475
1682338764.88042593,230267715,42.689895799999995,-84.4887768,272.1300048828125,1.7853100299835205,2.8453099727630615
1682338764.98048806,230367777,42.689895799999995,-84.4887768,272.1399841308594,1.790257215499878,2.850257158279419
1682338765.08046985,230467759,42.689895799999995,-84.4887768,272.1399841308594,1.7951276302337646,2.8551275730133057
1682338765.18067884,230567968,42.689895899999996,-84.4887767,272.1499938964844,1.8015635013580322,2.8615634441375732
1682338765.28080106,230668090,42.689896,-84.4887766,272.1499938964844,1.80592942237854,2.865929365158081
1682338765.38081503,230768104,42.6898961,-84.4887765,272.1499938964844,1.808671474456787,2.868671417236328
1682338765.48076892,230868058,42.6898961,-84.48877639999999,272.1600036621094,1.8112661838531494,2.8712661266326904
1682338765.58069396,230967983,42.6898961,-84.4887763,272.1600036621094,1.8136234283447266,2.8736233711242676
1682338765.68060303,231067892,42.6898962,-84.48877619999999,272.1600036621094,1.815769910812378,2.875769853591919
1682338765.78060102,231167890,42.6898963,-84.4887761,272.1600036621094,1.818669080734253,2.878669023513794
1682338765.88058686,231267876,42.6898963,-84.488776,272.16998291015625,1.8201870918273926,2.8801870346069336
1682338765.98073006,231368019,42.6898963,-84.488776,272.16998291015625,1.8219730854034424,2.8819730281829834
1682338766.08062696,231467916,42.689896399999995,-84.4887759,272.16998291015625,1.8210875988006592,2.8810875415802
1682338766.18075490,231568044,42.689896399999995,-84.4887758,272.16998291015625,1.8203859329223633,2.8803858757019043
1682338766.28068495,231667974,42.689896399999995,-84.4887758,272.1600036621094,1.8196396827697754,2.8796396255493164
1682338766.38095093,231768240,42.689896399999995,-84.4887758,272.1600036621094,1.8197999000549316,2.8797998428344727
1682338766.48073006,231868019,42.689896399999995,-84.48877569999999,272.16998291015625,1.8219068050384521,2.881906747817993
1682338766.58041191,231967701,42.689896399999995,-84.48877569999999,272.16998291015625,1.825490951538086,2.885490894317627
1682338766.68045187,232067741,42.689896399999995,-84.48877569999999,272.16998291015625,1.8291652202606201,2.889165163040161
1682338766.78045297,232167742,42.689896399999995,-84.48877569999999,272.17999267578125,1.834477186203003,2.894477128982544
1682338766.88049388,232267783,42.6898963,-84.4887758,272.17999267578125,1.8373115062713623,2.8973114490509033
1682338766.98043799,232367727,42.6898963,-84.4887758,272.17999267578125,1.8376758098602295,2.8976757526397705
1682338767.08045793,232467747,42.6898963,-84.4887759,272.17999267578125,1.8399555683135986,2.8999555110931396
1682338767.18044496,232567734,42.6898963,-84.488776,272.19000244140625,1.842313289642334,2.902313232421875
1682338767.28069592,232667985,42.6898963,-84.488776,272.19000244140625,1.8425137996673584,2.9025137424468994
1682338767.38074183,232768031,42.6898963,-84.4887761,272.19000244140625,1.842285394668579,2.90228533744812
1682338767.48039699,232867686,42.6898962,-84.48877619999999,272.19000244140625,1.8418147563934326,2.9018146991729736
1682338767.58053589,232967825,42.6898962,-84.4887763,272.19000244140625,1.8415415287017822,2.9015414714813232
1682338767.68045092,233067740,42.6898962,-84.48877639999999,272.19000244140625,1.8416907787322998,2.901690721511841
1682338767.78057003,233167859,42.6898962,-84.4887765,272.19000244140625,1.8414547443389893,2.9014546871185303
1682338767.88033986,233267629,42.6898962,-84.4887765,272.17999267578125,1.8389155864715576,2.8989155292510986
1682338767.98062801,233367917,42.6898962,-84.4887766,272.17999267578125,1.836249589920044,2.896249532699585
1682338768.08044887,233467738,42.6898962,-84.4887766,272.17999267578125,1.831162929534912,2.891162872314453
1682338768.18070889,233567998,42.6898961,-84.4887767,272.16998291015625,1.8213958740234375,2.8813958168029785
1682338768.28046799,233667757,42.6898961,-84.4887767,272.1499938964844,1.8015503883361816,2.8615503311157227
1682338768.38043404,233767723,42.689895899999996,-84.4887767,272.1199951171875,1.7728252410888672,2.832825183868408
1682338768.48070502,233867994,42.689895799999995,-84.4887768,272.0799865722656,1.734156847000122,2.794156789779663
1682338768.58065391,233967943,42.6898957,-84.4887768,272.0400085449219,1.6921756267547607,2.7521755695343018
1682338768.68071604,234068005,42.6898956,-84.4887767,271.989990234375,1.6467909812927246,2.7067909240722656
1682338768.78067183,234167961,42.6898955,-84.4887767,271.9499816894531,1.6004862785339355,2.6604862213134766
1682338768.88080692,234268096,42.689895299999996,-84.4887767,271.8999938964844,1.5537428855895996,2.6137428283691406
1682338768.98081994,234368109,42.689895199999995,-84.4887767,271.8599853515625,1.514676570892334,2.574676513671875
1682338769.08097506,234468264,42.6898951,-84.4887767,271.8299865722656,1.4845609664916992,2.5445609092712402
1682338769.18113184,234568421,42.689895,-84.4887767,271.80999755859375,1.4607882499694824,2.5207881927490234
1682338769.28065801,234667947,42.6898949,-84.4887767,271.7900085449219,1.4425408840179443,2.5025408267974854
1682338769.38070297,234767992,42.6898948,-84.4887767,271.7699890136719,1.428666353225708,2.488666296005249
1682338769.48045993,234867749,42.689894699999996,-84.4887768,271.7599792480469,1.417314052581787,2.477313995361328
1682338769.58053398,234967823,42.689894599999995,-84.4887768,271.75,1.4067106246948242,2.4667105674743652
1682338769.68046284,235067752,42.6898945,-84.4887768,271.739990234375,1.3957586288452148,2.455758571624756
1682338769.78053093,235167820,42.6898945,-84.4887768,271.72998046875,1.3851194381713867,2.4451193809509277
1682338769.88043404,235267723,42.6898944,-84.4887768,271.7200012207031,1.375333547592163,2.435333490371704
1682338769.98080897,235368098,42.6898944,-84.4887768,271.7099914550781,1.364781379699707,2.424781322479248
1682338770.08073497,235468024,42.6898943,-84.4887768,271.6999816894531,1.3538153171539307,2.4138152599334717
1682338770.18067884,235567968,42.6898943,-84.4887768,271.69000244140625,1.343116283416748,2.403116226196289
1682338770.28069687,235667986,42.6898943,-84.4887768,271.67999267578125,1.3324365615844727,2.3924365043640137
1682338770.38047099,235767760,42.6898942,-84.4887768,271.66998291015625,1.3209412097930908,2.380941152572632
1682338770.48050690,235867796,42.6898942,-84.48877689999999,271.6499938964844,1.309600591659546,2.369600534439087
1682338770.58034801,235967637,42.6898942,-84.48877689999999,271.6399841308594,1.2974722385406494,2.3574721813201904
1682338770.68046689,236067756,42.6898942,-84.48877689999999,271.6300048828125,1.2830934524536133,2.3430933952331543
1682338770.78051805,236167807,42.6898942,-84.48877689999999,271.6099853515625,1.268892765045166,2.328892707824707
1682338770.88041592,236267705,42.6898942,-84.48877689999999,271.6000061035156,1.2537283897399902,2.3137283325195312
1682338770.98050904,236367798,42.6898942,-84.48877689999999,271.5799865722656,1.2382314205169678,2.298231363296509
1682338771.08043098,236467720,42.6898942,-84.48877689999999,271.57000732421875,1.2251553535461426,2.2851552963256836
1682338771.18069601,236567985,42.6898942,-84.48877689999999,271.55999755859375,1.2117180824279785,2.2717180252075195
1682338771.28046894,236667758,42.6898941,-84.48877689999999,271.5400085449219,1.196256160736084,2.256256103515625
1682338771.38052487,236767814,42.6898941,-84.48877689999999,271.5199890136719,1.1798491477966309,2.239849090576172
1682338771.48062801,236867917,42.689893999999995,-84.48877689999999,271.5099792480469,1.1645994186401367,2.2245993614196777
1682338771.58075786,236968047,42.689893999999995,-84.48877689999999,271.5,1.1506376266479492,2.2106375694274902
1682338771.68070793,237067997,42.689893999999995,-84.48877689999999,271.47998046875,1.13966965675354,2.199669599533081
1682338771.78080487,237168094,42.689893999999995,-84.48877689999999,271.4700012207031,1.1288666725158691,2.18886661529541
1682338771.88065600,237267945,42.689893999999995,-84.48877689999999,271.4599914550781,1.116950273513794,2.176950216293335
1682338771.98094797,237368237,42.6898941,-84.48877689999999,271.4499816894531,1.104872226715088,2.164872169494629
1682338772.08067703,237467966,42.6898941,-84.48877689999999,271.44000244140625,1.0918951034545898,2.151895046234131
1682338772.18044996,237567739,42.6898941,-84.48877689999999,271.41998291015625,1.0778486728668213,2.1378486156463623
1682338772.28050184,237667791,42.6898942,-84.488777,271.4100036621094,1.0651593208312988,2.12515926361084
1682338772.38034797,237767637,42.6898942,-84.488777,271.3999938964844,1.053342342376709,2.11334228515625
1682338772.48044491,237867734,42.6898943,-84.488777,271.3899841308594,1.0422754287719727,2.1022753715515137
1682338772.58044696,237967736,42.6898943,-84.488777,271.3699951171875,1.0293102264404297,2.0893101692199707
1682338772.68043089,238067720,42.6898943,-84.488777,271.3599853515625,1.0129594802856445,2.0729594230651855
1682338772.78044295,238167732,42.6898944,-84.488777,271.3399963378906,0.9962314963340759,2.0562314987182617
1682338772.88040400,238267693,42.6898944,-84.4887771,271.32000732421875,0.9794730544090271,2.039473056793213
1682338772.98049402,238367783,42.6898944,-84.4887771,271.30999755859375,0.9619209170341492,2.021920919418335
1682338773.08044600,238467735,42.6898945,-84.4887771,271.2900085449219,0.9454588294029236,2.0054588317871094
1682338773.18068504,238567974,42.6898945,-84.4887771,271.2699890136719,0.9288045763969421,1.988804578781128
1682338773.28035188,238667641,42.689894599999995,-84.4887771,271.2599792480469,0.9114418625831604,1.9714418649673462
1682338773.38051891,238767808,42.689894599999995,-84.4887771,271.239990234375,0.8937568068504333,1.9537568092346191
1682338773.48046184,238867751,42.689894599999995,-84.4887771,271.2200012207031,0.8753975033760071,1.9353975057601929
1682338773.58045292,238967742,42.689894599999995,-84.4887771,271.1999816894531,0.8563458323478699,1.9163458347320557
1682338773.68047190,239067761,42.689894699999996,-84.4887771,271.17999267578125,0.8373045325279236,1.8973045349121094
1682338773.78049302,239167782,42.689894699999996,-84.4887771,271.1600036621094,0.8188419938087463,1.8788419961929321
1682338773.88054585,239267835,42.689894699999996,-84.4887771,271.1399841308594,0.7959213852882385,1.8559213876724243
1682338773.98050594,239367795,42.689894699999996,-84.4887772,271.1199951171875,0.7725310921669006,1.8325310945510864
1682338774.08071184,239468001,42.689894699999996,-84.4887772,271.1000061035156,0.7502756714820862,1.810275673866272
1682338774.18034101,239567630,42.689894699999996,-84.4887772,271.07000732421875,0.7297443747520447,1.7897443771362305
1682338774.28080606,239668095,42.6898948,-84.4887772,271.04998779296875,0.7090813517570496,1.7690813541412354
1682338774.38076806,239768057,42.6898948,-84.4887772,271.0299987792969,0.689039409160614,1.7490394115447998
1682338774.48070598,239867995,42.6898948,-84.4887773,271.0099792480469,0.669553816318512,1.7295538187026978
1682338774.58073997,239968029,42.6898948,-84.4887773,271.0,0.651310384273529,1.7113103866577148
1682338774.68066096,240067950,42.6898948,-84.4887773,270.97998046875,0.6358668208122253,1.6958668231964111
1682338774.78066587,240167955,42.6898949,-84.4887773,270.9700012207031,0.6218058466911316,1.6818058490753174
1682338774.88063002,240267919,42.6898949,-84.4887773,270.9499816894531,0.6088148951530457,1.6688148975372314
1682338774.98098493,240368274,42.6898949,-84.4887773,270.94000244140625,0.5953758358955383,1.6553758382797241
1682338775.08040786,240467697,42.6898949,-84.4887773,270.92999267578125,0.5819998383522034,1.6419998407363892
1682338775.18051887,240567808,42.6898949,-84.48877739999999,270.9100036621094,0.5690430998802185,1.6290431022644043
1682338775.28045297,240667742,42.689895,-84.48877739999999,270.8999938964844,0.5568972229957581,1.6168972253799438
1682338775.38043594,240767725,42.689895,-84.48877739999999,270.8899841308594,0.5439806580543518,1.6039806604385376
1682338775.48044705,240867736,42.689895,-84.48877739999999,270.8699951171875,0.5292816758155823,1.589281678199768
1682338775.58042598,240967715,42.689895,-84.48877739999999,270.8599853515625,0.5128822922706604,1.5728822946548462
1682338775.68045402,241067743,42.689895,-84.4887773,270.8500061035156,0.5003141760826111,1.5603141784667969
1682338775.78047800,241167767,42.689895,-84.4887773,270.8299865722656,0.4845665395259857,1.5445665121078491
1682338775.88068700,241267976,42.689895,-84.4887773,270.80999755859375,0.46934959292411804,1.5293495655059814
1682338775.98081303,241368102,42.6898951,-84.4887773,270.79998779296875,0.4537317454814911,1.5137317180633545
1682338776.08079505,241468084,42.6898951,-84.4887773,270.7799987792969,0.4330455958843231,1.4930455684661865
1682338776.18077207,241568061,42.6898951,-84.4887773,270.7599792480469,0.4108138978481293,1.4708138704299927
1682338776.28068995,241667979,42.689895199999995,-84.4887773,270.739990234375,0.39057978987693787,1.4505797624588013
1682338776.38072491,241768014,42.689895199999995,-84.4887773,270.7200012207031,0.3711702525615692,1.4311702251434326
1682338776.48061705,241867906,42.689895299999996,-84.4887773,270.6999816894531,0.3527849614620209,1.4127849340438843
1682338776.58061385,241967903,42.689895299999996,-84.4887773,270.67999267578125,0.33283528685569763,1.392835259437561
1682338776.68060589,242067895,42.689895299999996,-84.48877739999999,270.6600036621094,0.31137701869010925,1.3713769912719727
1682338776.78081584,242168105,42.689895299999996,-84.48877739999999,270.6399841308594,0.29040488600730896,1.3504048585891724
1682338776.88066888,242267958,42.689895299999996,-84.48877739999999,270.6099853515625,0.2696520984172821,1.3296520709991455
