timestamp,TimeUS,C,Q1,Q2,Q3,Q4
1682338723.47958493,188866874,2,0.9925815463066101,0.0016548670828342438,0.005479621700942516,-0.1214459165930748
1682338723.57957602,188966865,2,0.9925463199615479,0.0016529145650565624,0.005516706500202417,-0.12173179537057877
1682338723.67956591,189066855,2,0.9925126433372498,0.0016311852959915996,0.00556223513558507,-0.12200423330068588
1682338723.77955389,189166843,2,0.992479681968689,0.0016000298783183098,0.00555993989109993,-0.12227266281843185
1682338723.87963295,189266922,2,0.9924405813217163,0.001592183136381209,0.005538893863558769,-0.12259048968553543
1682338723.97964001,189366929,2,0.9924106597900391,0.0015955986455082893,0.0055486829951405525,-0.12283197045326233
1682338724.07966495,189466954,2,0.9923723340034485,0.0015990566462278366,0.005580745171755552,-0.12313983589410782
1682338724.17965293,189566942,2,0.9923368096351624,0.001632917090319097,0.005572870373725891,-0.12342564761638641
1682338724.27959800,189666887,2,0.992301881313324,0.0016248198226094246,0.005568854045122862,-0.12370659410953522
1682338724.37958789,189766877,2,0.992262601852417,0.0016015885630622506,0.0055406964384019375,-0.12402283400297165
1682338724.47955394,189866843,2,0.9922206401824951,0.0016227099113166332,0.005535262171179056,-0.12435806542634964
1682338724.57955384,189966843,2,0.9921819567680359,0.0015821832930669188,0.005598803050816059,-0.12466385960578918
1682338724.67955589,190066845,2,0.992143452167511,0.0015423746081069112,0.005647946149110794,-0.12496846914291382
1682338724.77963901,190166928,2,0.9921038150787354,0.0015759681118652225,0.005644559394568205,-0.12528221309185028
1682338724.87966490,190266954,2,0.9920650124549866,0.0015175931621342897,0.005635784473270178,-0.12559060752391815
1682338724.97965288,190366942,2,0.9920242428779602,0.001475401222705841,0.005719806998968124,-0.12590870261192322
1682338725.07963300,190466922,2,0.9919918775558472,0.0014902441762387753,0.005712872836738825,-0.12616340816020966
1682338725.17960286,190566892,2,0.991958498954773,0.001467163092456758,0.005711132660508156,-0.1264263540506363
1682338725.27958584,190666875,2,0.9919255375862122,0.0014517920790240169,0.005725228227674961,-0.12668386101722717
1682338725.37955999,190766849,2,0.9918866157531738,0.0014725604560226202,0.005759465973824263,-0.12698671221733093
1682338725.47955990,190866849,2,0.9918479919433594,0.00150609842967242,0.005769214127212763,-0.1272869110107422
1682338725.57955694,190966846,2,0.9918088316917419,0.0015539953019469976,0.0058033824898302555,-0.12758995592594147
1682338725.67963886,191066928,2,0.9917672872543335,0.0015642551006749272,0.005860059522092342,-0.12790946662425995
1682338725.77966905,191166958,2,0.9917327761650085,0.0015943559119477868,0.005886604078114033,-0.1281752735376358
1682338725.87964702,191266936,2,0.9916872382164001,0.0016058088513091207,0.005892662331461906,-0.12852653861045837
1682338725.97963595,191366925,2,0.9916498064994812,0.0016033772844821215,0.005914661101996899,-0.1288144290447235
1682338726.07961297,191466902,2,0.991604745388031,0.0016217931406572461,0.00594793725758791,-0.12915895879268646
1682338726.17959189,191566881,2,0.9915574789047241,0.001560203148983419,0.005984236486256123,-0.12952032685279846
1682338726.27957296,191666862,2,0.9915160536766052,0.0015657638432458043,0.006004973314702511,-0.12983590364456177
1682338726.37956500,191766854,2,0.9914865493774414,0.0015716433990746737,0.0060367039404809475,-0.13005942106246948
1682338726.47956300,191866852,2,0.9914244413375854,0.0015542324399575591,0.006081261672079563,-0.13053038716316223
1682338726.57965302,191966942,2,0.9913840889930725,0.0016156533965840936,0.006119091063737869,-0.13083408772945404
1682338726.67968607,192066975,2,0.9913610219955444,0.0015741451643407345,0.006230261642485857,-0.13100405037403107
1682338726.77971292,192167002,2,0.9913333058357239,0.001432836172170937,0.006028948817402124,-0.13122443854808807
1682338726.87964606,192266935,2,0.9912816286087036,0.0016590470913797617,0.005913782399147749,-0.13161693513393402
1682338726.97960901,192366898,2,0.9912286996841431,0.0014146787580102682,0.006106069311499596,-0.1320090889930725
1682338727.07959700,192466886,2,0.9911800026893616,0.0014733176212757826,0.006066771224141121,-0.13237521052360535
1682338727.17957997,192566869,2,0.9911465644836426,0.0018410641932860017,0.005998324137181044,-0.13262388110160828
1682338727.27956986,192666859,2,0.9911051988601685,0.0016163032269105315,0.005967483390122652,-0.13293719291687012
1682338727.37957597,192766865,2,0.9910798072814941,0.001877233269624412,0.0059792157262563705,-0.13312238454818726
1682338727.47966003,192866949,2,0.9910426735877991,0.0016789576038718224,0.006066353525966406,-0.13339707255363464
1682338727.57966590,192966955,2,0.9910030961036682,0.0017104423604905605,0.006058096420019865,-0.13369065523147583
1682338727.67965293,193066942,2,0.9909766912460327,0.0017716342117637396,0.00608588894829154,-0.13388416171073914
1682338727.77965593,193166945,2,0.9909147024154663,0.001590930623933673,0.006062827073037624,-0.13434575498104095
1682338727.87960386,193266893,2,0.9908819794654846,0.0017103130230680108,0.0060316091403365135,-0.13458660244941711
1682338727.97959304,193366882,2,0.9908505082130432,0.0015692595625296235,0.005997832864522934,-0.13482141494750977
1682338728.07956505,193466854,2,0.990792989730835,0.0016285142628476024,0.0060182292945683,-0.1352418214082718
1682338728.17956805,193566857,2,0.990759551525116,0.0014533279463648796,0.006048200652003288,-0.1354871690273285
1682338728.27956486,193666854,2,0.9907153844833374,0.0015723675023764372,0.005972673650830984,-0.13581174612045288
1682338728.37964892,193766938,2,0.9906740188598633,0.0014861649833619595,0.00601972034201026,-0.13611212372779846
1682338728.47966599,193866955,2,0.9906301498413086,0.0014568888582289219,0.006041449960321188,-0.13643047213554382
1682338728.57964706,193966936,2,0.9905977249145508,0.0016561709344387054,0.005983290262520313,-0.13666602969169617
1682338728.67964196,194066931,2,0.9905503392219543,0.0012931604869663715,0.006129746325314045,-0.1370064914226532
1682338728.77962089,194166910,2,0.9905077815055847,0.001555189723148942,0.006075578276067972,-0.137313574552536
1682338728.87959099,194266880,2,0.9904740452766418,0.0014763588551431894,0.006200737319886684,-0.137551948428154
1682338728.97956491,194366854,2,0.9904281497001648,0.0014188137138262391,0.006182815879583359,-0.13788358867168427
1682338729.07956791,194466857,2,0.9903026223182678,0.0018657188629731536,0.006242162548005581,-0.13877399265766144
1682338729.17956901,194566858,2,0.9902940392494202,0.0012996215373277664,0.006196204107254744,-0.13884378969669342
1682338729.27965093,194666940,2,0.9902707934379578,0.0019499562913551927,0.0048467605374753475,-0.13905568420886993
1682338729.37969589,194766985,2,0.9902151823043823,0.002390816807746887,0.0022575196344405413,-0.13951006531715393
1682338729.47965097,194866940,2,0.9901386499404907,0.0049538989551365376,0.002619560342282057,-0.1399785429239273
1682338729.57965302,194966942,2,0.9900441765785217,0.005567396525293589,0.0013867993839085102,-0.14063993096351624
1682338729.67962098,195066910,2,0.9900133609771729,0.004360231105238199,-0.00014173603267408907,-0.14090603590011597
1682338729.77960896,195166898,2,0.9900215864181519,0.0013269628398120403,0.001675059786066413,-0.1408996433019638
1682338729.87956691,195266856,2,0.9901450276374817,-0.0006703433464281261,0.002559470711275935,-0.140020951628685
1682338729.97956896,195366858,2,0.9903027415275574,0.0009358617826364934,0.002969771157950163,-0.1388913094997406
1682338730.07957792,195466867,2,0.9904719591140747,0.003162729786708951,0.005159927997738123,-0.1375814825296402
1682338730.17965388,195566943,2,0.99062180519104,0.007308376021683216,0.005932899657636881,-0.13630791008472443
1682338730.27967095,195666960,2,0.9906936287879944,0.013420450501143932,0.004937312100082636,-0.1353575587272644
1682338730.37968302,195766972,2,0.9907292127609253,0.019189922139048576,0.004293391481041908,-0.13442054390907288
1682338730.47964501,195866934,2,0.9906429052352905,0.0279969722032547,0.004217419773340225,-0.1335102766752243
1682338730.57960296,195966892,2,0.9905819296836853,0.03335103765130043,0.003140635322779417,-0.13276033103466034
1682338730.67959595,196066885,2,0.9906283020973206,0.035344768315553665,0.0019741689320653677,-0.13191820681095123
1682338730.77957106,196166860,2,0.9907757639884949,0.03287431597709656,0.0015163965290412307,-0.1314546763896942
1682338730.87956405,196266853,2,0.9910969138145447,0.025070715695619583,0.002734328620135784,-0.130731999874115
1682338730.97957206,196366861,2,0.9912816882133484,0.018760355189442635,0.002156301401555538,-0.13039959967136383
1682338731.07962990,196466919,2,0.9913284778594971,0.020504601299762726,0.0017873659962788224,-0.12978534400463104
1682338731.17966890,196566958,2,0.9915454387664795,0.01554636936634779,0.0023579250555485487,-0.12880374491214752
1682338731.27965403,196666943,2,0.9918099641799927,0.007038426119834185,0.0032981042750179768,-0.127485454082489
1682338731.37965107,196766940,2,0.9921665191650391,0.006414506584405899,0.005749640520662069,-0.12462512403726578
1682338731.47960901,196866898,2,0.9928286075592041,0.00942214298993349,0.0072938790544867516,-0.11895110458135605
1682338731.57959199,196966881,2,0.9937773942947388,0.010817580856382847,0.00908852368593216,-0.11048446595668793
1682338731.67957497,197066864,2,0.9948563575744629,0.011460688896477222,0.00984839629381895,-0.10016220808029175
1682338731.77955985,197166849,2,0.9959263205528259,0.011036841198801994,0.008223720826208591,-0.08911401778459549
1682338731.87957096,197266860,2,0.9968550205230713,0.00790498312562704,0.0071439738385379314,-0.0785273015499115
1682338731.97964907,197366938,2,0.9976038336753845,0.005771210417151451,0.0006812026840634644,-0.06894061714410782
1682338732.07966590,197466955,2,0.9981737732887268,0.005040342453867197,-0.006469511426985264,-0.05984855443239212
1682338732.17969394,197566983,2,0.9986566305160522,0.004473133012652397,-0.0077857980504632,-0.05103186145424843
1682338732.27965188,197666941,2,0.9990175366401672,0.007453749421983957,-0.007293118629604578,-0.04307207092642784
1682338732.37962103,197766910,2,0.9992703795433044,0.011644238606095314,-0.005913877859711647,-0.03589081019163132
1682338732.47959900,197866888,2,0.9994623064994812,0.013397146947681904,-0.0012524659978225827,-0.02990013360977173
1682338732.57956886,197966858,2,0.9995773434638977,0.01446810644119978,0.002073003211989999,-0.025129199028015137
1682338732.67959785,198066887,2,0.9996612071990967,0.014315927401185036,0.0019263734575361013,-0.02165294624865055
1682338732.77956200,198166851,2,0.9997082948684692,0.013867160305380821,0.004274832084774971,-0.019305992871522903
1682338732.87962484,198266914,2,0.9997325539588928,0.012485798448324203,0.007223604712635279,-0.01807701773941517
1682338732.97967887,198366968,2,0.999769389629364,0.010917327366769314,0.004911677911877632,-0.01782730594277382
1682338733.07965207,198466941,2,0.9997950792312622,0.008824098855257034,0.004421510733664036,-0.01767593063414097
1682338733.17966199,198566951,2,0.9998136162757874,0.006259115878492594,0.0032676332630217075,-0.017967374995350838
1682338733.27960491,198666894,2,0.9998167753219604,0.004202614538371563,0.0005556573159992695,-0.01866668462753296
1682338733.37959790,198766887,2,0.9998175501823425,-0.0007572176400572062,5.8478482969803736e-05,-0.019087789580225945
1682338733.47956085,198866850,2,0.9997875690460205,-0.007144457194954157,0.0013344441540539265,-0.019286882132291794
1682338733.57955885,198966848,2,0.9997086524963379,-0.013293457217514515,0.003972917795181274,-0.019750628620386124
1682338733.67957187,199066861,2,0.9995425939559937,-0.02017851173877716,0.008836516179144382,-0.020721398293972015
1682338733.77965593,199166945,2,0.9993089437484741,-0.027123406529426575,0.013169490732252598,-0.02173701673746109
1682338733.87968087,199266970,2,0.9990822076797485,-0.0341460295021534,0.012434611096978188,-0.022675922140479088
1682338733.97965002,199366939,2,0.9987810850143433,-0.041712094098329544,0.01150261890143156,-0.023751147091388702
1682338734.07963896,199466928,2,0.998524010181427,-0.04768599569797516,0.008322522044181824,-0.024627842009067535
1682338734.17962885,199566918,2,0.9985822439193726,-0.04661356285214424,0.0028502275235950947,-0.025545397773385048
1682338734.27959299,199666882,2,0.9988554120063782,-0.039733484387397766,-0.003754891688004136,-0.026363171637058258
1682338734.37957501,199766864,2,0.9990593194961548,-0.03221562132239342,-0.010578088462352753,-0.027032511308789253
1682338734.47957301,199866862,2,0.9992526173591614,-0.023577282205224037,-0.012610246427357197,-0.027916187420487404
1682338734.57957292,199966862,2,0.9994335174560547,-0.014892445877194405,-0.009590315632522106,-0.028616037219762802
1682338734.67966485,200066954,2,0.9995261430740356,-0.007525155320763588,-0.0065712942741811275,-0.02911446802318096
1682338734.77966595,200166955,2,0.9995561242103577,-0.00010459539771545678,-0.003306947648525238,-0.029608139768242836
1682338734.87964988,200266939,2,0.9995455145835876,0.0043267966248095036,-0.0003185253299307078,-0.029832687228918076
1682338734.97964597,200366935,2,0.9995396733283997,0.005142939742654562,0.0003697112842928618,-0.02989775687456131
1682338735.07961607,200466905,2,0.9995418787002563,0.0044959308579564095,0.0004352363757789135,-0.029926465824246407
1682338735.17960000,200566889,2,0.9995502233505249,0.0018840553238987923,0.0019695248920470476,-0.02986559458076954
1682338735.27956796,200666857,2,0.9995307922363281,-0.0006301907123997808,0.007034936919808388,-0.029804980382323265
1682338735.37956786,200766857,2,0.9994591474533081,-0.0028162228409200907,0.014058313332498074,-0.029594188556075096
1682338735.47956300,200866852,2,0.9993939995765686,-0.0045898412354290485,0.018487513065338135,-0.02913370355963707
1682338735.57963490,200966924,2,0.9993939399719238,-0.005791931413114071,0.018890321254730225,-0.02865983359515667
1682338735.67965102,201066940,2,0.9994203448295593,-0.006319547537714243,0.01796865090727806,-0.028216328471899033
1682338735.77966094,201166950,2,0.9994722008705139,-0.00614488311111927,0.01569059118628502,-0.027773546054959297
1682338735.87965107,201266940,2,0.9995331764221191,-0.005671411287039518,0.012778772972524166,-0.027164500206708908
1682338735.97961593,201366905,2,0.9995635747909546,-0.005150181241333485,0.01176806166768074,-0.02660215087234974
1682338736.07959700,201466886,2,0.9995790123939514,-0.004692954942584038,0.011507265269756317,-0.026216521859169006
1682338736.17956686,201566856,2,0.9995821714401245,-0.004346588160842657,0.012295505963265896,-0.025795795023441315
1682338736.27956200,201666851,2,0.9995761513710022,-0.003990774508565664,0.013479969464242458,-0.025493796914815903
1682338736.37957287,201766862,2,0.9995704293251038,-0.0038978203665465117,0.014369730837643147,-0.02524462528526783
1682338736.47964001,201866929,2,0.9995526671409607,-0.003718723077327013,0.016183245927095413,-0.024874821305274963
1682338736.57966805,201966957,2,0.9995377063751221,-0.0037641748785972595,0.01758533902466297,-0.024514975026249886
1682338736.67966199,202066951,2,0.9995193481445312,-0.0034528046380728483,0.019248314201831818,-0.024055566638708115
1682338736.77964497,202166934,2,0.9994953274726868,-0.003012897213920951,0.020674869418144226,-0.023929214105010033
1682338736.87960386,202266893,2,0.9994726777076721,-0.0029014437459409237,0.021833384409546852,-0.023859085515141487
1682338736.97960687,202366896,2,0.9994458556175232,-0.002433217130601406,0.02325577661395073,-0.023691080510616302
1682338737.07957292,202466862,2,0.9994351267814636,-0.001954038627445698,0.023869719356298447,-0.023576822131872177
1682338737.17956996,202566859,2,0.9994258284568787,-0.000971268629655242,0.02431986853480339,-0.02357078529894352
1682338737.27956891,202666858,2,0.9994440078735352,-0.0005538527620956302,0.023461900651454926,-0.02368265949189663
1682338737.37965798,202766947,2,0.9997095465660095,-0.0016009181272238493,0.0011287640081718564,-0.02402070164680481
1682338737.47968602,202866975,2,0.9994609355926514,-0.0008727709064260125,-0.022010818123817444,-0.02434373088181019
1682338737.57964587,202966935,2,0.9994980096817017,0.0023904761765152216,-0.019961079582571983,-0.024486791342496872
1682338737.67964792,203066937,2,0.999586820602417,0.003825886407867074,-0.014426660723984241,-0.0245647095143795
1682338737.77961493,203166904,2,0.9995905160903931,0.005154535640031099,-0.013254918158054352,-0.024829130619764328
1682338737.87959003,203266879,2,0.9996387362480164,0.006206768099218607,-0.007268041837960482,-0.02512059547007084
1682338737.97956300,203366852,2,0.9996549487113953,0.006030109710991383,-0.002176804468035698,-0.025473371148109436
1682338738.07955885,203466848,2,0.9996410608291626,0.007021946832537651,0.0014664711197838187,-0.025811685249209404
1682338738.17956805,203566857,2,0.9995826482772827,0.009212732315063477,0.00828262884169817,-0.026097435504198074
1682338738.27962494,203666914,2,0.9993845820426941,0.018038539215922356,0.014246885664761066,-0.02649720013141632
1682338738.37966990,203766959,2,0.999167263507843,0.026334308087825775,0.01570540852844715,-0.026918187737464905
1682338738.47966003,203866949,2,0.9991298913955688,0.027697110548615456,0.015269680880010128,-0.02718857303261757
1682338738.57963991,203966929,2,0.999163806438446,0.026941783726215363,0.013453328981995583,-0.02765515260398388
1682338738.67961287,204066902,2,0.9992598295211792,0.024186311289668083,0.010585972107946873,-0.02797776646912098
1682338738.77959800,204166887,2,0.9993654489517212,0.02029467560350895,0.008554872125387192,-0.027992822229862213
1682338738.87955999,204266849,2,0.9994076490402222,0.019183024764060974,0.006428202614188194,-0.027838774025440216
1682338738.97956991,204366859,2,0.999439537525177,0.018802741542458534,0.00462366035208106,-0.02730707637965679
1682338739.07957101,204466860,2,0.9994646310806274,0.018643995746970177,0.003789762733504176,-0.02661716379225254
1682338739.17965388,204566943,2,0.9994679689407349,0.019191069528460503,0.0036666719242930412,-0.026116931810975075
1682338739.27966905,204666958,2,0.999468207359314,0.019835280254483223,0.003419204382225871,-0.02565382607281208
1682338739.37967992,204766969,2,0.9994704723358154,0.020170394331216812,0.003264580387622118,-0.025323722511529922
1682338739.47964287,204866932,2,0.9994762539863586,0.020170997828245163,0.003374665742740035,-0.025080086663365364
1682338739.57960987,204966899,2,0.9994909167289734,0.019716598093509674,0.003401690162718296,-0.02485048770904541
1682338739.67959785,205066887,2,0.9995418787002563,0.018117215484380722,0.003586148377507925,-0.0239773727953434
1682338739.77957296,205166862,2,0.9996218681335449,0.016954833641648293,0.0038540991954505444,-0.021303484216332436
1682338739.87955999,205266849,2,0.99970543384552,0.017339250072836876,0.003661984344944358,-0.016583357006311417
1682338739.97957397,205366863,2,0.999776303768158,0.017971251159906387,0.0037013404071331024,-0.010521291755139828
1682338740.07965302,205466942,2,0.9998291730880737,0.017791956663131714,0.00411555590108037,-0.0028521274216473103
1682338740.17969084,205566980,2,0.9998077154159546,0.01785939186811447,0.004563276655972004,0.006691431161016226
1682338740.27965093,205666940,2,0.9996708631515503,0.017251882702112198,0.005049306899309158,0.01830539107322693
1682338740.37963796,205766927,2,0.9993956685066223,0.01484901737421751,0.005155039485543966,0.031004508957266808
1682338740.47960687,205866896,2,0.9989356398582458,0.01335456408560276,0.0055660465732216835,0.04379783943295479
1682338740.57958984,205966879,2,0.9983513355255127,0.01297634094953537,0.005488069262355566,0.05564276501536369
1682338740.67957187,206066861,2,0.997688889503479,0.01321342121809721,0.005489927716553211,0.06642383337020874
1682338740.77956891,206166858,2,0.9969485998153687,0.013740257360041142,0.005975561216473579,0.07660894095897675
1682338740.87956500,206266854,2,0.996185302734375,0.014121733605861664,0.005995470564812422,0.08590381592512131
1682338740.97962594,206366915,2,0.995442807674408,0.013799086213111877,0.005953521467745304,0.09416890144348145
1682338741.07967496,206466964,2,0.9946424961090088,0.013924499042332172,0.006015478633344173,0.10225574672222137
1682338741.17967701,206566966,2,0.9936926960945129,0.01415280718356371,0.0056554884649813175,0.11109703034162521
1682338741.27965188,206666941,2,0.992644727230072,0.01408226229250431,0.005826957058161497,0.12010054290294647
1682338741.37962484,206766914,2,0.9915352463722229,0.013989599421620369,0.0053357891738414764,0.12897159159183502
1682338741.47959399,206866883,2,0.9902845025062561,0.013084136880934238,0.00533507252112031,0.13833649456501007
1682338741.57956386,206966853,2,0.9889621138572693,0.012491198256611824,0.005437602289021015,0.14754103124141693
1682338741.67956686,207066856,2,0.9876222610473633,0.012654751539230347,0.005169424694031477,0.15625430643558502
1682338741.77956796,207166857,2,0.9862287044525146,0.014125153422355652,0.005875213071703911,0.16467821598052979
1682338741.87964487,207266934,2,0.9847337603569031,0.016429979354143143,0.006485870573669672,0.17316889762878418
1682338741.97967601,207366965,2,0.9831541776657104,0.017901508137583733,0.007119119167327881,0.1817600429058075
1682338742.07965684,207466946,2,0.9812600612640381,0.016600823029875755,0.00846885610371828,0.1917848140001297
1682338742.17963696,207566926,2,0.9790288805961609,0.015968648716807365,0.009106755256652832,0.20289038121700287
1682338742.27960992,207666899,2,0.9766315221786499,0.015032030642032623,0.010048945434391499,0.2141585648059845
1682338742.37959290,207766882,2,0.9743287563323975,0.014196018688380718,0.01012407336384058,0.22445376217365265
1682338742.47956991,207866859,2,0.9719446301460266,0.01397036388516426,0.010537656955420971,0.23455800116062164
1682338742.57957888,207966868,2,0.9694868326187134,0.012664509937167168,0.010197984986007214,0.2446034699678421
1682338742.67956400,208066853,2,0.966858446598053,0.011481378227472305,0.009614953771233559,0.25487348437309265
1682338742.77965784,208166947,2,0.9639225006103516,0.011529015377163887,0.010325368493795395,0.26573267579078674
1682338742.87965894,208266948,2,0.9606698155403137,0.011883838102221489,0.010740539990365505,0.2772308886051178
1682338742.97965503,208366944,2,0.9570590257644653,0.011671899817883968,0.011310793459415436,0.28943708539009094
1682338743.07963896,208466928,2,0.9531441330909729,0.01127301249653101,0.012806217186152935,0.30203503370285034
1682338743.17961407,208566903,2,0.9491649270057678,0.011425742879509926,0.013715342618525028,0.3142726421356201
1682338743.27959585,208666885,2,0.9452016353607178,0.0104702552780509,0.014122027903795242,0.32601356506347656
1682338743.37958288,208766872,2,0.9413498640060425,0.00956769846379757,0.013909702189266682,0.3370095491409302
1682338743.47955990,208866849,2,0.9374743700027466,0.009429694153368473,0.013694560155272484,0.3476569652557373
1682338743.57956600,208966855,2,0.9337466955184937,0.00896899588406086,0.013584550470113754,0.35756421089172363
1682338743.67965603,209066945,2,0.9302409887313843,0.008863330818712711,0.013184327632188797,0.3666050434112549
1682338743.77967286,209166962,2,0.9270455837249756,0.008609885349869728,0.013425025157630444,0.3746092915534973
1682338743.87965202,209266941,2,0.9241155385971069,0.007802273612469435,0.01285588089376688,0.3818170726299286
1682338743.97965789,209366947,2,0.9215214252471924,0.0076421392150223255,0.012129790149629116,0.3880627453327179
1682338744.07962704,209466916,2,0.918978750705719,0.0075710732489824295,0.011565681546926498,0.39406469464302063
1682338744.17959499,209566884,2,0.916312575340271,0.0070059048011898994,0.009775285609066486,0.4002831280231476
1682338744.27956605,209666855,2,0.9133927822113037,0.006588202901184559,0.008021624758839607,0.4069470465183258
1682338744.37957001,209766859,2,0.9099286198616028,0.004497785586863756,0.007150251418352127,0.4146789014339447
1682338744.47956991,209866859,2,0.90555739402771,-0.0005174251855351031,0.005539136938750744,0.4241873323917389
1682338744.57965302,209966942,2,0.9003808498382568,-0.007341457065194845,0.0043430752120912075,0.43501901626586914
1682338744.67967987,210066969,2,0.8944574594497681,-0.014396402053534985,0.003569371299818158,0.4469069540500641
1682338744.77966905,210166958,2,0.887890636920929,-0.021142596378922462,0.002560926368460059,0.45956137776374817
1682338744.87965894,210266948,2,0.8811509013175964,-0.027460668236017227,0.0014333609724417329,0.47203490138053894
1682338744.97961307,210366902,2,0.8747698664665222,-0.03383540362119675,-0.0003435660037212074,0.48335573077201843
1682338745.07960105,210466890,2,0.8692412376403809,-0.040929462760686874,-0.0032181236892938614,0.49268051981925964
1682338745.17956805,210566857,2,0.8645541071891785,-0.0476275309920311,-0.007312687113881111,0.5002242922782898
1682338745.27956390,210666853,2,0.8607572317123413,-0.05333642661571503,-0.01147007942199707,0.5060836672782898
1682338745.37956691,210766856,2,0.8581223487854004,-0.05113426223397255,-0.01186528429389,0.5107549428939819
1682338745.47962999,210866919,2,0.856910765171051,-0.03799665719270706,-0.006323492154479027,0.5140236020088196
1682338745.57964206,210966931,2,0.8562851548194885,-0.0214474368840456,0.0001395113067701459,0.5160579085350037
1682338745.67966604,211066955,2,0.8561097979545593,-0.005786075256764889,0.007409527897834778,0.5167084336280823
1682338745.77964497,211166934,2,0.8562763929367065,0.009006376378238201,0.01438856776803732,0.5162388682365417
1682338745.87960386,211266893,2,0.8567178845405579,0.017854195088148117,0.01944817416369915,0.515109121799469
1682338745.97959995,211366889,2,0.8577129244804382,0.01736581139266491,0.021882450208067894,0.5133693814277649
1682338746.07957888,211466868,2,0.8592182993888855,0.01398779358714819,0.022738004103302956,0.5109121799468994
1682338746.17957091,211566860,2,0.8611097931861877,0.007611239328980446,0.021065549924969673,0.5079253911972046
1682338746.27956200,211666851,2,0.8631647229194641,-0.000501500500831753,0.018154649063944817,0.5045956969261169
1682338746.37962484,211766914,2,0.8653428554534912,-0.007902017794549465,0.01463931705802679,0.5009041428565979
1682338746.47969198,211866981,2,0.8676360845565796,-0.011466776952147484,0.01271766982972622,0.49690482020378113
1682338746.57964587,211966935,2,0.8700253963470459,-0.011487300507724285,0.012244628742337227,0.49272096157073975
1682338746.67964387,212066933,2,0.8723533153533936,-0.01123063638806343,0.011702132411301136,0.48860687017440796
1682338746.77961707,212166906,2,0.8747193217277527,-0.01019163429737091,0.010939807631075382,0.4843991696834564
1682338746.87959695,212266886,2,0.8768926858901978,-0.009336588904261589,0.010402311570942402,0.48048290610313416
1682338746.97956991,212366859,2,0.8788102269172668,-0.012550737708806992,0.007994163781404495,0.4769393503665924
1682338747.07956696,212466856,2,0.8803721070289612,-0.018475335091352463,0.003610448446124792,0.473909854888916
1682338747.17956185,212566851,2,0.8816949725151062,-0.023699548095464706,-0.0004235105006955564,0.47122400999069214
1682338747.27961993,212666909,2,0.88266521692276,-0.028658244758844376,-0.0041154478676617146,0.4691096246242523
1682338747.37966585,212766955,2,0.8836397528648376,-0.029735777527093887,-0.004355165176093578,0.4672018885612488
1682338747.47967887,212866968,2,0.884397566318512,-0.024660756811499596,-0.0012434811796993017,0.4660806953907013
1682338747.57964993,212966939,2,0.885019063949585,-0.01886869966983795,0.0021034444216638803,0.4651675522327423
1682338747.67962790,213066917,2,0.8853076696395874,-0.014722204767167568,0.004680129699409008,0.4647490084171295
1682338747.77959800,213166887,2,0.8853905200958252,-0.012273205444216728,0.007879621349275112,0.46461912989616394
1682338747.87956190,213266851,2,0.8852933645248413,-0.010715235024690628,0.009692846797406673,0.46480849385261536
1682338747.97956491,213366854,2,0.8851352334022522,-0.008338314481079578,0.011470792815089226,0.46511778235435486
1682338748.07957387,213466863,2,0.8847602009773254,-0.004669437184929848,0.013474785722792149,0.4658282697200775
1682338748.17964005,213566929,2,0.8843528628349304,1.7120707980211591e-06,0.016307493671774864,0.46653416752815247
1682338748.27965903,213666948,2,0.8837897777557373,0.0028180303052067757,0.01851910725235939,0.46750903129577637
1682338748.37966990,213766959,2,0.8831766247749329,0.0030892547219991684,0.018696019425988197,0.46865761280059814
1682338748.47964692,213866936,2,0.8825438618659973,0.0023810057900846004,0.018342431634664536,0.4698661267757416
1682338748.57960296,213966892,2,0.8819264769554138,0.0018295809859409928,0.01798590086400509,0.47104012966156006
1682338748.67959189,214066881,2,0.8812116980552673,0.0013943533413112164,0.01721290685236454,0.4724063277244568
1682338748.77956986,214166859,2,0.8805791735649109,0.0018331927713006735,0.01702014170587063,0.47358983755111694
1682338748.87956786,214266857,2,0.8799722790718079,0.0024807157460600138,0.016372712329030037,0.4747362732887268
1682338748.97956491,214366854,2,0.8794371485710144,0.0027169447857886553,0.015133497305214405,0.475766658782959
1682338749.07964897,214466938,2,0.8789644837379456,0.002906009554862976,0.014876163564622402,0.4766462445259094
1682338749.17967296,214566962,2,0.8785293102264404,0.003540533594787121,0.014684183523058891,0.4774496257305145
1682338749.27964497,214666934,2,0.8781356811523438,0.0046704853884875774,0.014860047958791256,0.47815796732902527
1682338749.37964392,214766933,2,0.8778499364852905,0.006509286817163229,0.01581309549510479,0.478630393743515
1682338749.47960401,214866893,2,0.8775590658187866,0.008256630972027779,0.01653875969350338,0.4791121184825897
1682338749.57960987,214966899,2,0.8773930668830872,0.008684922941029072,0.016057968139648438,0.47942477464675903
1682338749.67957187,215066861,2,0.877314567565918,0.007105773314833641,0.01498013362288475,0.4796292781829834
1682338749.77956891,215166858,2,0.877309262752533,0.0032787607051432133,0.01279582642018795,0.479743629693985
1682338749.87957096,215266860,2,0.8773822784423828,-0.0019631951581686735,0.009611653164029121,0.4796917140483856
1682338749.97965503,215366944,2,0.8775831460952759,-0.003282021265476942,0.008634350262582302,0.4793354570865631
1682338750.07970095,215466990,2,0.8778046369552612,-8.34062957437709e-05,0.009676378220319748,0.4789210855960846
1682338750.17966986,215566959,2,0.878006100654602,0.0008549529011361301,0.00939152017235756,0.4785565733909607
1682338750.27965403,215666943,2,0.8782857060432434,0.0018965319031849504,0.009927535429596901,0.4780293405056
1682338750.37964392,215766933,2,0.8784922361373901,0.004081164486706257,0.010812012478709221,0.4776167869567871
1682338750.47959399,215866883,2,0.8786414265632629,0.005152054596692324,0.01118761021643877,0.4773232936859131
1682338750.57956004,215966849,2,0.8788180351257324,0.005638923030346632,0.011832156218588352,0.4769769608974457
1682338750.67956805,216066857,2,0.8789407014846802,0.006026210263371468,0.012904072180390358,0.4767184257507324
1682338750.77957702,216166866,2,0.8790081143379211,0.005974653642624617,0.013318043202161789,0.4765833914279938
1682338750.87961292,216266902,2,0.8790445923805237,0.006789217237383127,0.013525283895432949,0.4764992892742157
1682338750.97967792,216366967,2,0.8791140913963318,0.007062982767820358,0.013918229378759861,0.47635576128959656
1682338751.07967591,216466965,2,0.8790475130081177,0.007594708818942308,0.013995965011417866,0.47646814584732056
1682338751.17967296,216566962,2,0.8788662552833557,0.008933360688388348,0.014232240617275238,0.4767721891403198
1682338751.27961087,216666900,2,0.878790557384491,0.009502646513283253,0.013876108452677727,0.4769112169742584
1682338751.37960291,216766892,2,0.8787188529968262,0.011170309968292713,0.013659978285431862,0.4770134389400482
1682338751.47956204,216866851,2,0.8787244558334351,0.012346014380455017,0.012264574877917767,0.4770120084285736
1682338751.57956195,216966851,2,0.878771185874939,0.012296585366129875,0.011594614014029503,0.4769440293312073
1682338751.67957902,217066868,2,0.8788237571716309,0.012550088576972485,0.011098526418209076,0.47685226798057556
1682338751.77963400,217166923,2,0.8789206743240356,0.01123947836458683,0.009516208432614803,0.47674059867858887
1682338751.87967587,217266965,2,0.8789638876914978,0.01003294251859188,0.007808287627995014,0.47671887278556824
1682338751.97966886,217366958,2,0.8789921998977661,0.00838497094810009,0.005781280808150768,0.47672733664512634
1682338752.07964087,217466930,2,0.8789588809013367,0.006180889438837767,0.004324621055275202,0.4768379032611847
1682338752.17964602,217566935,2,0.8788135051727295,0.0051784939132630825,0.004299084190279245,0.4771178960800171
1682338752.27959585,217666885,2,0.8786434531211853,0.004930085968226194,0.0038469722494482994,0.4774375557899475
1682338752.37957501,217766864,2,0.8785049915313721,0.004176146816462278,0.00415187980979681,0.4776969254016876
1682338752.47956491,217866854,2,0.8783372044563293,0.0034565788228064775,0.003970298916101456,0.47801265120506287
1682338752.57957101,217966860,2,0.87811279296875,0.0018798565724864602,0.0038158558309078217,0.4784347712993622
1682338752.67964792,218066937,2,0.8779253363609314,0.0008909370517358184,0.0031986914109438658,0.47878602147102356
1682338752.77967501,218166964,2,0.8776502013206482,-0.0029698610305786133,0.000916545744985342,0.4792916476726532
1682338752.87965894,218266948,2,0.8765031695365906,-0.008708096109330654,-0.003688186639919877,0.48130321502685547
1682338752.97964501,218366934,2,0.874329149723053,-0.012148942798376083,-0.007566384971141815,0.48512235283851624
1682338753.07962584,218466915,2,0.8711231350898743,-0.010257549583911896,-0.008072498254477978,0.49089112877845764
1682338753.17959785,218566887,2,0.8668716549873352,-0.00656298128888011,-0.00530735868960619,0.49845996499061584
1682338753.27956200,218666851,2,0.861644983291626,-0.0045998310670256615,0.0007750436197966337,0.5074900984764099
1682338753.37957597,218766865,2,0.8559465408325195,-0.005124745424836874,0.009420457296073437,0.5169530510902405
1682338753.47957301,218866862,2,0.850504457950592,-0.006560670677572489,0.017499364912509918,0.5256356596946716
1682338753.57965302,218966942,2,0.845387876033783,-0.0071489447727799416,0.020848851650953293,0.5336980223655701
1682338753.67965293,219066942,2,0.8405472636222839,-0.006755215581506491,0.018981238827109337,0.5413634181022644
1682338753.77967286,219166962,2,0.8361136317253113,-0.006192895583808422,0.015942120924592018,0.5482895970344543
1682338753.87965393,219266943,2,0.8320524096488953,-0.004231508821249008,0.012281183153390884,0.5545449256896973
1682338753.97961593,219366905,2,0.8284928202629089,-0.0023731680121272802,0.00892751757055521,0.559923529624939
1682338754.07959199,219466881,2,0.8255143761634827,0.00047079529031179845,0.007672673091292381,0.5643287897109985
1682338754.17956185,219566851,2,0.8231320977210999,0.002815407468006015,0.005626601167023182,0.5678151249885559
1682338754.27956390,219666853,2,0.8213175535202026,0.006455307826399803,0.002209306228905916,0.5704304575920105
1682338754.37956905,219766858,2,0.8199096918106079,0.012537411414086819,0.004545469302684069,0.5723375082015991
1682338754.47965693,219866946,2,0.8191317915916443,0.01596539281308651,0.00551947858184576,0.573356568813324
1682338754.57966805,219966957,2,0.8190145492553711,0.020196741446852684,-0.0015122926561161876,0.5734151601791382
1682338754.67967296,220066962,2,0.8191804885864258,0.02470313012599945,-0.007191759534180164,0.5729584097862244
1682338754.77964687,220166936,2,0.8197267055511475,0.02797270193696022,-0.012755242176353931,0.5719291567802429
1682338754.87960887,220266898,2,0.8205644488334656,0.031063733622431755,-0.02114676684141159,0.5703173875808716
1682338754.97959995,220366889,2,0.821860134601593,0.028525203466415405,-0.019801180809736252,0.568630039691925
1682338755.07957101,220466860,2,0.8234275579452515,0.02127947472035885,-0.009862507693469524,0.5669364333152771
1682338755.17956686,220566856,2,0.8251151442527771,0.01574469543993473,-0.0023577501997351646,0.5647402405738831
1682338755.27957296,220666862,2,0.8268970251083374,0.012146398425102234,0.0035148372408002615,0.5622111558914185
1682338755.37964201,220766931,2,0.8284581303596497,0.01159963384270668,0.006225994322448969,0.5598962306976318
1682338755.47968388,220866973,2,0.8295090794563293,0.015076892450451851,0.003269983921200037,0.5582801103591919
1682338755.57964993,220966939,2,0.830195426940918,0.01880377158522606,-0.001176255289465189,0.5571539998054504
1682338755.67963791,221066927,2,0.8304346203804016,0.01977531425654888,-0.0014779535122215748,0.5567629933357239
1682338755.77961493,221166904,2,0.8301870822906494,0.01861940696835518,-0.0007172383484430611,0.5571734309196472
1682338755.87959003,221266879,2,0.8295372128486633,0.015815528109669685,0.0012032355880364776,0.5582261085510254
1682338755.97957087,221366860,2,0.8284059166908264,0.01131411176174879,0.006688438355922699,0.5599740147590637
1682338756.07956600,221466855,2,0.826816737651825,0.006442737299948931,0.01215930562466383,0.5623031258583069
1682338756.17956495,221566854,2,0.8249319195747375,0.003787262598052621,0.015334485098719597,0.5650113224983215
1682338756.27963901,221666928,2,0.8228437900543213,0.004271737299859524,0.014634033665060997,0.5680630803108215
1682338756.37967587,221766965,2,0.8206692934036255,0.00450344430282712,0.01359830517321825,0.5712238550186157
1682338756.47965884,221866948,2,0.8186536431312561,0.0061965626664459705,0.011168526485562325,0.5741455554962158
1682338756.57964706,221966936,2,0.8167325854301453,0.010835463181138039,0.0051566525362432,0.5768916010856628
1682338756.67961502,222066904,2,0.8147649168968201,0.01322563923895359,0.002240509493276477,0.57963627576828
1682338756.77959991,222166889,2,0.8128130435943604,0.011175711639225483,0.004396073054522276,0.5824008584022522
1682338756.87957001,222266859,2,0.8109843134880066,0.009629951789975166,0.003739533480256796,0.5849766731262207
1682338756.97956800,222366857,2,0.8093941807746887,0.008907733485102654,0.0012120269238948822,0.587196946144104
1682338757.07956600,222466855,2,0.8078481554985046,0.007318591699004173,-5.8404417359270155e-05,0.5893452167510986
1682338757.17964888,222566938,2,0.8065095543861389,0.006910180207341909,-0.0013601629761978984,0.5911791324615479
1682338757.27967906,222666968,2,0.8054131865501404,0.007011803798377514,-0.003348089288920164,0.5926628112792969
1682338757.37966895,222766958,2,0.8045375347137451,0.005710887257009745,-0.003902461612597108,0.5938615202903748
1682338757.47964406,222866933,2,0.8039054870605469,0.003691523103043437,-0.0022450529504567385,0.5947413444519043
1682338757.57960701,222966896,2,0.80344557762146,0.0024638918694108725,-0.0005338870105333626,0.5953728556632996
1682338757.67959404,223066883,2,0.8031555414199829,0.0025673559866845608,0.00017238737200386822,0.5957638621330261
1682338757.77956104,223166850,2,0.8029118180274963,0.003209733637049794,0.0003597391478251666,0.5960890650749207
1682338757.87956095,223266850,2,0.802601158618927,0.0036190736573189497,-1.622125637368299e-06,0.5965051054954529
1682338757.97957087,223366860,2,0.8022864460945129,0.0042283195070922375,-0.0005530568887479603,0.5969240069389343
1682338758.07964492,223466934,2,0.801736056804657,0.004587304312735796,-0.0006928351358510554,0.5976602435112
1682338758.17968607,223566975,2,0.801037073135376,0.004465297795832157,-0.001135675935074687,0.59859699010849
1682338758.27967691,223666966,2,0.8003802299499512,0.004200128372758627,-0.0015006436733528972,0.5994760990142822
1682338758.37963605,223766925,2,0.7996557354927063,0.004396974574774504,-0.0019697733223438263,0.6004394292831421
1682338758.47962499,223866914,2,0.7990110516548157,0.005022846162319183,-0.0028412470128387213,0.6012886166572571
1682338758.57960606,223966895,2,0.7983484864234924,0.005228020250797272,-0.0048889233730733395,0.6021531820297241
1682338758.67956400,224066853,2,0.797407865524292,0.0029519519302994013,-0.007459257263690233,0.6033874154090881
1682338758.77956486,224166854,2,0.7960102558135986,0.001312408596277237,-0.008152545429766178,0.6052268147468567
1682338758.87957001,224266859,2,0.7943149209022522,0.0004644059226848185,-0.005386760924011469,0.6074821949005127
1682338758.97961903,224366908,2,0.7924626469612122,-0.0022001510951668024,-0.00014860779629088938,0.6099165081977844
1682338759.07967806,224466967,2,0.790451169013977,-0.004838981665670872,0.0062910765409469604,0.6124736070632935
1682338759.17966199,224566951,2,0.7882246375083923,-0.0073337252251803875,0.013347228989005089,0.6151991486549377
1682338759.27964687,224666936,2,0.7863410711288452,-0.011832117103040218,0.019697587937116623,0.6173651814460754
1682338759.37962389,224766913,2,0.7847502827644348,-0.015005843713879585,0.02644994482398033,0.6190656423568726
1682338759.47959590,224866885,2,0.7834497690200806,-0.017907079309225082,0.03263501077890396,0.6203392744064331
1682338759.57956195,224966851,2,0.7824479937553406,-0.02094314992427826,0.03928158059716225,0.6211227774620056
1682338759.67956996,225066859,2,0.7817405462265015,-0.021871967241168022,0.04665280506014824,0.6214715242385864
1682338759.77956295,225166852,2,0.7816548347473145,-0.01918152906000614,0.04795261099934578,0.6215692162513733
1682338759.87963986,225266929,2,0.7821238040924072,-0.012914583086967468,0.040325965732336044,0.6216827034950256
1682338759.97967100,225366960,2,0.7825158834457397,-0.0063767991960048676,0.03185253217816353,0.621782660484314
1682338760.07965803,225466947,2,0.7828532457351685,0.00026642222655937076,0.023141521960496902,0.6217758655548096
1682338760.17965698,225566946,2,0.783273458480835,0.006571225821971893,0.0126905282959342,0.6215130090713501
1682338760.27960491,225666894,2,0.7835174798965454,0.009822475723922253,0.006810477469116449,0.6212548017501831
1682338760.37959194,225766881,2,0.7837041020393372,0.009718809276819229,0.006897345185279846,0.6210200190544128
1682338760.47957706,225866866,2,0.7839861512184143,0.0072570848278701305,0.007457111030817032,0.6206910610198975
1682338760.57956195,225966851,2,0.7841255068778992,0.001684413873590529,0.01122360397130251,0.620498538017273
1682338760.67956400,226066853,2,0.7842680811882019,-0.0031725128646939993,0.016727492213249207,0.6201884746551514
1682338760.77962995,226166919,2,0.7845218181610107,-0.007361809257417917,0.02139323763549328,0.6196883320808411
1682338760.87967992,226266969,2,0.7845724821090698,-0.012215180322527885,0.026672156527638435,0.6193427443504333
1682338760.97965002,226366939,2,0.7846432328224182,-0.016612598672509193,0.03154369443655014,0.6189216375350952
1682338761.07964706,226466936,2,0.7848546504974365,-0.017812378704547882,0.03142177313566208,0.6186263561248779
1682338761.17960501,226566894,2,0.7850726246833801,-0.015715377405285835,0.027483688667416573,0.6185941100120544
1682338761.27959204,226666881,2,0.7851340770721436,-0.012107599526643753,0.02450156770646572,0.6187225580215454
1682338761.37958097,226766870,2,0.7851324677467346,-0.009115904569625854,0.019294215366244316,0.6189601421356201
1682338761.47956800,226866857,2,0.7849346399307251,-0.0061160968616604805,0.01468642894178629,0.6193743348121643
1682338761.57956696,226966856,2,0.7847010493278503,-0.00224975124001503,0.011074824258685112,0.619771420955658
1682338761.67963696,227066926,2,0.7844001650810242,0.001260291668586433,0.006686253007501364,0.6202178001403809
1682338761.77967691,227166966,2,0.7839277982711792,0.0037074186839163303,0.00268783001229167,0.6208350658416748
1682338761.87964797,227266937,2,0.7833214402198792,0.005132485646754503,-0.00011414818436605856,0.6215956211090088
1682338761.97965002,227366939,2,0.7825945615768433,0.004690526053309441,-0.0010949639836326241,0.6225131154060364
1682338762.07961106,227466900,2,0.7815212607383728,0.006077399477362633,-0.00503124063834548,0.6238287687301636
1682338762.17960095,227566890,2,0.7799615859985352,0.006928667426109314,-0.008525408804416656,0.6257309913635254
1682338762.27956200,227666851,2,0.778029203414917,0.00359233352355659,-0.008998642675578594,0.628153383731842
1682338762.37956285,227766852,2,0.7756906747817993,-0.0010338429128751159,-0.011796041391789913,0.6310021877288818
1682338762.47956395,227866853,2,0.7729840874671936,-0.006377664860337973,-0.01669476553797722,0.6341736912727356
1682338762.57963586,227966925,2,0.7703297138214111,-0.010721094906330109,-0.018145479261875153,0.6372973322868347
1682338762.67967892,228066968,2,0.7680419087409973,-0.009933282621204853,-0.015337412245571613,0.6401388049125671
1682338762.77966189,228166951,2,0.7658383250236511,-0.006490333471447229,-0.01131565310060978,0.6429008841514587
1682338762.87963986,228266929,2,0.7637636065483093,-0.0036851963959634304,-0.005821418482810259,0.6454592943191528
1682338762.97960901,228366898,2,0.761942446231842,0.001387955853715539,8.592895756009966e-05,0.6476432085037231
1682338763.07959485,228466884,2,0.7603083252906799,0.007494417484849691,0.003755151527002454,0.6495082974433899
1682338763.17956090,228566850,2,0.7588956356048584,0.012095324695110321,0.007348375394940376,0.6510584354400635
1682338763.27956796,228666857,2,0.7578473687171936,0.016452239826321602,0.010663624852895737,0.6521372199058533
1682338763.37957692,228766866,2,0.7570852041244507,0.018833255395293236,0.012802657671272755,0.6529191136360168
1682338763.47964692,228866936,2,0.7567098140716553,0.018628062680363655,0.014810576103627682,0.6533176302909851
1682338763.57969689,228966986,2,0.7565411925315857,0.015543886460363865,0.01921226643025875,0.6534789204597473
1682338763.67965889,229066948,2,0.7567430734634399,0.01042941678315401,0.024283524602651596,0.6531779766082764
1682338763.77964497,229166934,2,0.7572544813156128,0.004905199632048607,0.02913988195359707,0.6524511575698853
1682338763.87960696,229266896,2,0.7579470872879028,-0.0005771837313659489,0.03440944850444794,0.6514075994491577
1682338763.97960091,229366890,2,0.7588086724281311,-0.006500760093331337,0.03881504386663437,0.6501234769821167
1682338764.07956886,229466858,2,0.7597364783287048,-0.014524361118674278,0.04107776656746864,0.648769736289978
1682338764.17956090,229566850,2,0.760944664478302,-0.019319159910082817,0.04107559472322464,0.6472269892692566
1682338764.27956486,229666854,2,0.7624721527099609,-0.019049398601055145,0.03511577844619751,0.645786464214325
1682338764.37964201,229766931,2,0.7639076709747314,-0.020511286333203316,0.025857241824269295,0.6444810032844543
1682338764.47967887,229866968,2,0.7653069496154785,-0.02196655049920082,0.015870684757828712,0.6430947780609131
1682338764.57966089,229966950,2,0.7665371298789978,-0.021610261872410774,0.005067614838480949,0.6418163180351257
1682338764.67964602,230066935,2,0.7676014304161072,-0.02252078987658024,-0.005114439409226179,0.6405112743377686
1682338764.77961206,230166901,2,0.768438458442688,-0.024398967623710632,-0.013353845104575157,0.6393189430236816
1682338764.87959599,230266885,2,0.769298791885376,-0.02273799665272236,-0.016822369769215584,0.6382627487182617
1682338764.97957802,230366867,2,0.7701800465583801,-0.01793951727449894,-0.013615690171718597,0.6374288201332092
1682338765.07956505,230466854,2,0.7710813283920288,-0.013311837799847126,-0.008499711751937866,0.6365407705307007
1682338765.17956090,230566850,2,0.7718344926834106,-0.008807222358882427,-0.0026429672725498676,0.6357570290565491
1682338765.27964306,230666932,2,0.7724353075027466,-0.004748647566884756,0.0038216421380639076,0.6350641846656799
1682338765.37967491,230766964,2,0.772930383682251,-0.0013178506633266807,0.009368930011987686,0.6344203352928162
1682338765.47966599,230866955,2,0.7734562158584595,0.00029477488715201616,0.01250606868416071,0.6337262392044067
1682338765.57964993,230966939,2,0.7738826870918274,0.0002933357609435916,0.013889633119106293,0.6331765651702881
1682338765.67961287,231066902,2,0.774096667766571,-0.0003298489609733224,0.014304562471807003,0.6329057216644287
1682338765.77959490,231166884,2,0.7744184732437134,-0.001956390216946602,0.01356725674122572,0.6325251460075378
1682338765.87956405,231266853,2,0.7745131254196167,-0.0029051892925053835,0.01304368395358324,0.6324166655540466
1682338765.97956800,231366857,2,0.7745360136032104,-0.003494428237900138,0.012650667689740658,0.6323936581611633
1682338766.07957006,231466859,2,0.7744280099868774,-0.004206894431263208,0.01193922944366932,0.6325353980064392
1682338766.17963886,231566928,2,0.774267852306366,-0.004103468265384436,0.011960533447563648,0.6327316761016846
1682338766.27966189,231666951,2,0.7741085886955261,-0.004129719454795122,0.012435659766197205,0.6329172253608704
1682338766.37966895,231766958,2,0.7739458680152893,-0.003975457511842251,0.012420982122421265,0.6331174373626709
1682338766.47963691,231866926,2,0.7738584876060486,-0.0035077547654509544,0.012764894403517246,0.6332201957702637
1682338766.57960486,231966894,2,0.773649275302887,-0.003221330000087619,0.012990550138056278,0.633472740650177
1682338766.67961287,232066902,2,0.7735766768455505,-0.0032640749122947454,0.013219567947089672,0.6335564255714417
1682338766.77957392,232166863,2,0.7734832167625427,-0.003421846777200699,0.012970930896699429,0.6336748003959656
1682338766.87956691,232266856,2,0.7732678055763245,-0.0034190404694527388,0.013138742186129093,0.6339341998100281
1682338766.97957706,232366866,2,0.7730881571769714,-0.003214593045413494,0.012863613665103912,0.6341599822044373
1682338767.07966089,232466950,2,0.7727803587913513,-0.0029512897599488497,0.011776149272918701,0.6345574259757996
1682338767.17967105,232566960,2,0.77242112159729,-0.002794320462271571,0.010995649732649326,0.6350093483924866
1682338767.27965999,232666949,2,0.7720769643783569,-0.0021690709982067347,0.009884455241262913,0.6354484558105469
1682338767.37964606,232766935,2,0.7715606093406677,-0.0019193103071302176,0.009156360290944576,0.6360870003700256
1682338767.47961307,232866902,2,0.7710732817649841,-0.002059630583971739,0.008002053946256638,0.6366927623748779
1682338767.57959604,232966885,2,0.7705614566802979,-0.0020991612691432238,0.007127048913389444,0.6373224258422852
1682338767.67956996,233066859,2,0.770061731338501,-0.002096668118610978,0.006427123676985502,0.6379335522651672
1682338767.77958107,233166870,2,0.7697727084159851,-0.0014831554144620895,0.005745908245444298,0.638290524482727
1682338767.87956595,233266855,2,0.7694710493087769,-0.0002897917293012142,0.005380572285503149,0.6386589407920837
1682338767.97964406,233366933,2,0.7690421938896179,0.0050099617801606655,0.00452375179156661,0.6391624212265015
1682338768.07967401,233466963,2,0.7685060501098633,0.01468840055167675,0.014177557080984116,0.6395167708396912
1682338768.17965388,233566943,2,0.7682377696037292,0.01800403743982315,0.019488876685500145,0.6396145820617676
1682338768.27965188,233666941,2,0.7683345675468445,0.0148194944486022,0.017490845173597336,0.6396377682685852
1682338768.37960792,233766897,2,0.7685301303863525,0.009584605693817139,0.015500735491514206,0.639553964138031
1682338768.47961402,233866903,2,0.7688482403755188,0.003896549344062805,0.010728727094829082,0.6393293738365173
1682338768.57956100,233966850,2,0.7693290114402771,0.0005091957282274961,0.009104747325181961,0.6387876868247986
1682338768.67957091,234066860,2,0.7697576284408569,-0.0007499426137655973,0.007965990342199802,0.6382861137390137
1682338768.77957487,234166864,2,0.7702943682670593,-0.0024007924366742373,0.007488515228033066,0.6376399993896484
1682338768.87962794,234266917,2,0.7709182500839233,-0.0033120003063231707,0.007382129784673452,0.6368826627731323
1682338768.97969103,234366980,2,0.7715709209442139,-0.0038428776897490025,0.006024674978107214,0.6361031532287598
1682338769.07966900,234466958,2,0.772129476070404,-0.004963734187185764,0.005001117009669542,0.6354261636734009
1682338769.17966199,234566951,2,0.7725819945335388,-0.005349412560462952,0.0028835588600486517,0.6348859071731567
1682338769.27960587,234666895,2,0.7729071378707886,-0.006272504571825266,0.0023769403342157602,0.6344836950302124
1682338769.37960386,234766893,2,0.7731519937515259,-0.007018649950623512,0.0027024997398257256,0.6341761946678162
1682338769.47956800,234866857,2,0.7733570337295532,-0.007022866513580084,0.0029952237382531166,0.6339247822761536
1682338769.57956696,234966856,2,0.7734139561653137,-0.007061239797621965,0.003501487895846367,0.6338523030281067
1682338769.67956996,235066859,2,0.7735097408294678,-0.006954974960535765,0.002803899347782135,0.6337400078773499
1682338769.77964187,235166931,2,0.7735967636108398,-0.00629781698808074,0.00301859132014215,0.6336396932601929
1682338769.87967992,235266969,2,0.7734963297843933,-0.005692107602953911,0.003457225626334548,0.6337658166885376
1682338769.97965693,235366946,2,0.7734180688858032,-0.005330393556505442,0.0035717796999961138,0.6338638067245483
1682338770.07964396,235466933,2,0.7734150290489197,-0.005067211575806141,0.003958913031965494,0.6338673830032349
1682338770.17966485,235566954,2,0.7732288837432861,-0.005404479801654816,0.004146961495280266,0.6340904235839844
1682338770.27959800,235666887,2,0.7730746865272522,-0.005199267994612455,0.004461843520402908,0.6342779994010925
1682338770.37956905,235766858,2,0.7729262113571167,-0.005289788823574781,0.00489699887111783,0.6344549655914307
1682338770.47957397,235866863,2,0.77280592918396,-0.005363829899579287,0.005050792824476957,0.6345996260643005
1682338770.57956600,235966855,2,0.7726342678070068,-0.004652993753552437,0.005392592865973711,0.6348114013671875
1682338770.67963099,236066920,2,0.7725400328636169,-0.004392766393721104,0.005459901876747608,0.6349273920059204
1682338770.77969003,236166979,2,0.7725126147270203,-0.0038317027501761913,0.006093660835176706,0.6349586248397827
1682338770.87964797,236266937,2,0.7724761366844177,-0.0038370692636817694,0.006380429491400719,0.6350001692771912
1682338770.97964692,236366936,2,0.7724921107292175,-0.0036968060303479433,0.006326894275844097,0.6349820494651794
1682338771.07961106,236466900,2,0.7725386023521423,-0.003459491766989231,0.007093540858477354,0.634918749332428
1682338771.17959285,236566882,2,0.7727178335189819,-0.0032294667325913906,0.00641405675560236,0.6347090601921082
1682338771.27956796,236666857,2,0.7728055715560913,-0.00327063980512321,0.005712380167096853,0.6346087455749512
1682338771.37957287,236766862,2,0.7727901935577393,-0.0038930200971663,0.0050814212299883366,0.6346292495727539
1682338771.47957206,236866861,2,0.7727810144424438,-0.00444003427401185,0.004565023817121983,0.6346408128738403
1682338771.57963991,236966929,2,0.7728335857391357,-0.005865207873284817,0.004735722206532955,0.6345639824867249
1682338771.67968392,237066973,2,0.7727423906326294,-0.006611101794987917,0.004460547585040331,0.6346696615219116
1682338771.77967191,237166961,2,0.772792637348175,-0.006085636094212532,0.005358219146728516,0.6346067786216736
1682338771.87965298,237266942,2,0.7727471590042114,-0.00522323464974761,0.0063591618090868,0.6346606016159058
1682338771.97961402,237366903,2,0.7727407217025757,-0.004173140041530132,0.00646716495975852,0.634675145149231
1682338772.07959890,237466888,2,0.7726336121559143,-0.003085373668000102,0.00832396000623703,0.6347901225090027
1682338772.17957187,237566861,2,0.7724798321723938,-0.001776430057361722,0.008370312862098217,0.634981632232666
1682338772.27956605,237666855,2,0.7722590565681458,-3.054609624086879e-05,0.007760371081531048,0.6352603435516357
1682338772.37957788,237766867,2,0.7720941305160522,-0.0014325418742373586,0.007225146517157555,0.6354655027389526
1682338772.47962999,237866919,2,0.7719290256500244,-0.0023192772641777992,0.005933073814958334,0.6356768012046814
1682338772.57968402,237966973,2,0.7716599106788635,-0.003707264782860875,0.005563261918723583,0.6360002160072327
1682338772.67965102,238066940,2,0.7713825702667236,-0.004755966365337372,0.0050878580659627914,0.6363335847854614
1682338772.77965403,238166943,2,0.7711782455444336,-0.004254308994859457,0.004902990069240332,0.6365861296653748
1682338772.87960291,238266892,2,0.7708756923675537,-0.0043674129992723465,0.0050720879808068275,0.6369504332542419
1682338772.97959495,238366884,2,0.7706162929534912,-0.003477829974144697,0.005862363614141941,0.6372629404067993
1682338773.07957196,238466861,2,0.770439863204956,-0.004008353687822819,0.006327315233647823,0.6374686360359192
1682338773.17956185,238566851,2,0.7703651785850525,-0.004517683293670416,0.00641552172601223,0.6375546455383301
1682338773.27956891,238666858,2,0.7702882885932922,-0.0038286526687443256,0.005672982428222895,0.6376590728759766
1682338773.37965488,238766944,2,0.7700797915458679,-0.00357405305840075,0.0065474496223032475,0.6379039883613586
1682338773.47967100,238866960,2,0.7700338363647461,-0.0027752267196774483,0.0068752639926970005,0.6379599571228027
1682338773.57965088,238966940,2,0.7700318098068237,-0.0010293341474607587,0.007876929827034473,0.6379560232162476
1682338773.67963791,239066927,2,0.7698964476585388,-0.001416812650859356,0.008865861222147942,0.6381056308746338
1682338773.77964997,239166939,2,0.769910991191864,-0.001817491720430553,0.00861787237226963,0.6380904912948608
1682338773.87959385,239266883,2,0.7698942422866821,-0.002036575460806489,0.007317413110285997,0.6381262540817261
1682338773.97956395,239366853,2,0.7698176503181458,-0.0020224545150995255,0.005177607759833336,0.6382396817207336
1682338774.07956386,239466853,2,0.7698240280151367,-0.002741547767072916,0.004763471428304911,0.6382325291633606
1682338774.17957306,239566862,2,0.7698489427566528,-0.002917387755587697,0.00513610290363431,0.6381987929344177
1682338774.27963305,239666922,2,0.7699387669563293,-0.0026627792976796627,0.004987257532775402,0.6380927562713623
1682338774.37967300,239766962,2,0.7699694037437439,-0.0023470704909414053,0.005292123183608055,0.6380544900894165
1682338774.47965789,239866947,2,0.7700832486152649,-0.0023530747275799513,0.004089963156729937,0.637925922870636
1682338774.57965207,239966941,2,0.770157516002655,-0.0026561105623841286,0.003875898662954569,0.6378364562988281
1682338774.67960906,240066898,2,0.7703145146369934,-0.0028802775777876377,0.0048447055742144585,0.6376392245292664
1682338774.77959704,240166886,2,0.7702624201774597,-0.003659558482468128,0.004864853341132402,0.6376980543136597
1682338774.87955999,240266849,2,0.7703801989555359,-0.002807295648381114,0.0048150792717933655,0.6375604271888733
1682338774.97956800,240366857,2,0.7703644037246704,-0.003365481970831752,0.005084383767098188,0.6375746726989746
1682338775.07958293,240466872,2,0.7702570557594299,-0.001492059207521379,0.005130326841026545,0.6377111077308655
1682338775.17964888,240566938,2,0.7702099680900574,-0.002558876993134618,0.005153662525117397,0.6377644538879395
1682338775.27967191,240666961,2,0.7702175378799438,-0.0016217874363064766,0.005147289950400591,0.6377584338188171
1682338775.37968302,240766972,2,0.770103394985199,-0.0002518078836146742,0.005827520973980427,0.6378924250602722
1682338775.47965598,240866945,2,0.7700477838516235,-0.00014722972991876304,0.005769492592662573,0.6379600763320923
1682338775.57960486,240966894,2,0.7702540755271912,0.0016599087975919247,0.007721926551312208,0.6376882195472717
1682338775.67960787,241066897,2,0.7702311873435974,-0.000531944795511663,0.00724579906091094,0.637723445892334
1682338775.77957988,241166869,2,0.7704886794090271,-0.002910120412707329,0.005061382427811623,0.6374269127845764
1682338775.87956095,241266850,2,0.7704039216041565,-0.003945520613342524,0.0033361974637955427,0.6375351548194885
1682338775.97956800,241366857,2,0.7703058123588562,-0.004136111121624708,0.0034322284627705812,0.6376519799232483
1682338776.07964492,241466934,2,0.770038366317749,-0.005518971476703882,0.00265870220027864,0.6379681825637817
1682338776.17967200,241566961,2,0.7697545886039734,-0.005685131531208754,0.004774123430252075,0.6382967233657837
1682338776.27965403,241666943,2,0.7694343328475952,-0.0031473198905587196,0.005327275488525629,0.6386959552764893
