timestamp,TimeUS,C,Roll,Pitch,Yaw,VN,VE,VD,dPD,PN,PE,PD,GX,GY,GZ,OH
1682338723.47958493,188866874,2,0.11,0.64,346.04,-0.03560907393693924,-0.00022198649821802974,0.020359672605991364,-0.014231165871024132,2.6066598892211914,-12.01419448852539,-1.0794743299484253,-0.15,0.09,-0.08,271.71
1682338723.57957602,188966865,2,0.11,0.65,346.01,-0.036973461508750916,2.137417595804436e-06,0.020066123455762863,-0.01243722066283226,2.597496509552002,-12.013468742370605,-1.0796529054641724,-0.15,0.09,-0.08,271.71
1682338723.67956591,189066855,2,0.1,0.65,345.98,-0.038046374917030334,-0.001136843697167933,0.021241609007120132,0.005537762306630611,2.5865516662597656,-12.012863159179688,-1.078208327293396,-0.15,0.09,-0.08,271.71
1682338723.77955389,189166843,2,0.1,0.65,345.95,-0.03816891834139824,-0.0018797621596604586,0.021808477118611336,0.017168793827295303,2.5775651931762695,-12.012667655944824,-1.076566219329834,-0.15,0.09,-0.08,271.71
1682338723.87963295,189266922,2,0.1,0.65,345.91,-0.03799630329012871,-0.002844691276550293,0.02272850275039673,0.03213677927851677,2.567234516143799,-12.011480331420898,-1.0733522176742554,-0.15,0.09,-0.08,271.71
1682338723.97964001,189366929,2,0.1,0.65,345.88,-0.03718741983175278,-0.0028515905141830444,0.024362603202462196,0.03997072950005531,2.557929039001465,-12.01040267944336,-1.0700024366378784,-0.15,0.09,-0.08,271.71
1682338724.07966495,189466954,2,0.1,0.65,345.85,-0.0325910709798336,-0.0026824120432138443,0.02367555722594261,0.014692317694425583,2.54814076423645,-12.008830070495605,-1.0694122314453125,-0.15,0.09,-0.08,271.71
1682338724.17965293,189566942,2,0.1,0.65,345.82,-0.028632668778300285,-0.0030874977819621563,0.023323403671383858,-0.0013501733774319291,2.541348695755005,-12.00786304473877,-1.0692256689071655,-0.15,0.09,-0.08,271.71
1682338724.27959800,189666887,2,0.1,0.65,345.78000000000003,-0.023311549797654152,-0.005648111458867788,0.024267271161079407,0.0075242905877530575,2.533151626586914,-12.007466316223145,-1.067734718322754,-0.15,0.09,-0.08,271.71
1682338724.37958789,189766877,2,0.1,0.65,345.75,-0.019371982663869858,-0.007147631607949734,0.024555036798119545,0.016105076298117638,2.5267624855041504,-12.007721900939941,-1.0660892724990845,-0.15,0.09,-0.08,271.71
1682338724.47955394,189866843,2,0.1,0.65,345.71,-0.015330741181969643,-0.009085912257432938,0.02486955188214779,0.011079338379204273,2.518531084060669,-12.00794792175293,-1.0651971101760864,-0.15,0.09,-0.08,271.71
1682338724.57955384,189966843,2,0.09,0.65,345.67,-0.011419876478612423,-0.01099109835922718,0.02466430328786373,0.0018019955605268478,2.5119903087615967,-12.008543968200684,-1.0649693012237549,-0.15,0.09,-0.07,271.71
1682338724.67955589,190066845,2,0.09,0.66,345.64,-0.008950561285018921,-0.012072745710611343,0.024201612919569016,-0.0019251882331445813,2.503471612930298,-12.008891105651855,-1.0648044347763062,-0.15,0.09,-0.07,271.71
1682338724.77963901,190166928,2,0.09,0.66,345.6,-0.006120816804468632,-0.013783902861177921,0.023586999624967575,0.00048315696767531335,2.496603488922119,-12.009527206420898,-1.064468502998352,-0.15,0.09,-0.07,271.71
1682338724.87966490,190266954,2,0.09,0.66,345.57,-0.00297945155762136,-0.015563522465527058,0.024045012891292572,0.010863901115953922,2.487535238265991,-12.010444641113281,-1.0631568431854248,-0.15,0.09,-0.07,271.71
1682338724.97965288,190366942,2,0.08,0.67,345.53000000000003,0.0008627648930996656,-0.017238780856132507,0.024480830878019333,0.015701033174991608,2.481804370880127,-12.011838912963867,-1.061874270439148,-0.15,0.09,-0.07,271.71
1682338725.07963300,190466922,2,0.08,0.67,345.5,0.0011645033955574036,-0.01828933134675026,0.026168541982769966,0.01666920632123947,2.4728362560272217,-12.012588500976562,-1.0604233741760254,-0.15,0.09,-0.07,271.71
1682338725.17960286,190566892,2,0.08,0.67,345.47,0.0013147647259756923,-0.019491571933031082,0.026502877473831177,0.01772499829530716,2.4651741981506348,-12.013486862182617,-1.0587120056152344,-0.15,0.09,-0.07,271.71
1682338725.27958584,190666875,2,0.08,0.67,345.44,0.0017575275851413608,-0.02157231979072094,0.024954842403531075,-0.009880747646093369,2.454047203063965,-12.014507293701172,-1.0602775812149048,-0.15,0.09,-0.07,271.71
1682338725.37955999,190766849,2,0.08,0.67,345.40000000000003,0.0036821577232331038,-0.02345406450331211,0.024160221219062805,-0.012562809512019157,2.446479320526123,-12.016031265258789,-1.0607073307037354,-0.15,0.09,-0.07,271.71
1682338725.47955990,190866849,2,0.08,0.67,345.37,0.004084344953298569,-0.02197456546127796,0.022784769535064697,-0.034722693264484406,2.4352779388427734,-12.015652656555176,-1.064481258392334,-0.15,0.09,-0.07,271.71
1682338725.57955694,190966846,2,0.09,0.68,345.33,0.0050004515796899796,-0.021422920748591423,0.02081775851547718,-0.04254881292581558,2.4277305603027344,-12.015774726867676,-1.067679762840271,-0.15,0.09,-0.07,271.71
1682338725.67963886,191066928,2,0.09,0.68,345.3,0.004332895390689373,-0.020491531118750572,0.019392456859350204,-0.04335677996277809,2.4170992374420166,-12.015559196472168,-1.071460485458374,-0.15,0.09,-0.06,271.71
1682338725.77966905,191166958,2,0.09,0.6900000000000001,345.27,0.004098103381693363,-0.020349601283669472,0.018456319347023964,-0.041498374193906784,2.408149003982544,-12.015640258789062,-1.0750439167022705,-0.15,0.09,-0.06,271.71
1682338725.87964702,191266936,2,0.09,0.6900000000000001,345.23,0.00019399375014472753,-0.01980396918952465,0.016385739669203758,-0.03429170697927475,2.3931310176849365,-12.015664100646973,-1.0780636072158813,-0.15,0.09,-0.06,271.71
1682338725.97963595,191366925,2,0.09,0.6900000000000001,345.19,-0.000978347146883607,-0.020323002710938454,0.015609947964549065,-0.017407819628715515,2.382207155227661,-12.016222953796387,-1.0795092582702637,-0.15,0.09,-0.06,271.71
1682338726.07961297,191466902,2,0.09,0.6900000000000001,345.15000000000003,-0.0028770738281309605,-0.019806398078799248,0.014777524396777153,0.00037675892235711217,2.3676867485046387,-12.016281127929688,-1.0798373222351074,-0.15,0.09,-0.06,271.71
1682338726.17959189,191566881,2,0.08,0.7000000000000001,345.11,-0.004719655029475689,-0.01996874250471592,0.015052203088998795,0.002127588726580143,2.357175827026367,-12.016849517822266,-1.0803821086883545,-0.15,0.09,-0.06,271.71
1682338726.27957296,191666862,2,0.08,0.7000000000000001,345.08,-0.006796164903789759,-0.020794427022337914,0.015335227362811565,0.0007091074367053807,2.3424408435821533,-12.017293930053711,-1.0806727409362793,-0.15,0.09,-0.06,271.71
1682338726.37956500,191766854,2,0.08,0.7000000000000001,345.05,-0.012918209657073021,-0.01943868026137352,0.01584332436323166,0.003380449488759041,2.3317134380340576,-12.018158912658691,-1.0806570053100586,-0.15,0.09,-0.06,271.71
1682338726.47956300,191866852,2,0.08,0.71,344.99,-0.01342411432415247,-0.021921824663877487,0.0176644716411829,0.0421234630048275,2.3151113986968994,-12.019522666931152,-1.0758812427520752,-0.15,0.09,-0.06,271.71
1682338726.57965302,191966942,2,0.09,0.71,344.96,-0.012811747379601002,-0.023154985159635544,0.017366472631692886,0.05122745409607887,2.302884340286255,-12.021356582641602,-1.071978211402893,-0.15,0.09,-0.06,271.71
1682338726.67968607,192066975,2,0.08,0.73,344.94,-0.027368217706680298,-0.03394152224063873,0.01826164312660694,0.07053174823522568,2.289835214614868,-12.021872520446777,-1.0651254653930664,-0.15,0.09,-0.06,271.71
1682338726.77971292,192167002,2,0.07,0.7000000000000001,344.91,-0.03069356083869934,-0.035091351717710495,0.01671312376856804,0.07278202474117279,2.279927968978882,-12.022039413452148,-1.0591071844100952,-0.15,0.09,-0.06,271.71
1682338726.87964606,192266935,2,0.09,0.6900000000000001,344.87,-0.019314493983983994,-0.036940306425094604,0.022763682529330254,0.0669059008359909,2.266369104385376,-12.023808479309082,-1.053316354751587,-0.15,0.09,-0.05,271.71
1682338726.97960901,192366898,2,0.06,0.71,344.82,-0.037303708493709564,-0.06772010028362274,0.031170042231678963,0.05834323167800903,2.2539479732513428,-12.026559829711914,-1.0490204095840454,-0.15,0.09,-0.05,271.71
1682338727.07959700,192466886,2,0.07,0.71,344.78000000000003,-0.051029834896326065,-0.056899309158325195,0.029496923089027405,0.062463752925395966,2.2384819984436035,-12.0293550491333,-1.0425326824188232,-0.15,0.09,-0.05,271.71
1682338727.17957997,192566869,2,0.11,0.7000000000000001,344.75,-0.05478941276669502,-0.03435302525758743,0.026838893070816994,0.06013333424925804,2.224802017211914,-12.031818389892578,-1.037439227104187,-0.15,0.09,-0.05,271.71
1682338727.27956986,192666859,2,0.09,0.7000000000000001,344.72,-0.0552312508225441,-0.030947687104344368,0.02720734290778637,0.027115222066640854,2.2111048698425293,-12.034904479980469,-1.0354623794555664,-0.15,0.09,-0.05,271.71
1682338727.37957597,192766865,2,0.12,0.7000000000000001,344.7,-0.057056643068790436,-0.027827303856611252,0.023506810888648033,0.0019014498684555292,2.1997573375701904,-12.038582801818848,-1.0344692468643188,-0.15,0.09,-0.05,271.71
1682338727.47966003,192866949,2,0.09,0.71,344.66,-0.04233559966087341,-0.025422316044569016,0.02444436028599739,0.011939997784793377,2.1848909854888916,-12.042515754699707,-1.032016396522522,-0.15,0.09,-0.05,271.71
1682338727.57966590,192966955,2,0.1,0.71,344.63,-0.03826344385743141,-0.03131899982690811,0.020336708053946495,0.02159954234957695,2.1718263626098633,-12.047063827514648,-1.029079794883728,-0.15,0.09,-0.05,271.71
1682338727.67965293,193066942,2,0.1,0.71,344.61,-0.043005507439374924,-0.028610853478312492,0.021120252087712288,-0.003917704802006483,2.1559720039367676,-12.051797866821289,-1.0302729606628418,-0.15,0.09,-0.05,271.71
1682338727.77965593,193166945,2,0.08,0.71,344.55,-0.03550468012690544,-0.021418258547782898,0.02257169783115387,-0.028909744694828987,2.142033100128174,-12.056266784667969,-1.032175064086914,-0.15,0.09,-0.05,271.71
1682338727.87960386,193266893,2,0.1,0.71,344.53000000000003,-0.0333319716155529,-0.020523229613900185,0.023700663819909096,-0.02863231487572193,2.126800298690796,-12.059906959533691,-1.0342128276824951,-0.15,0.09,-0.05,271.71
1682338727.97959304,193366882,2,0.08,0.7000000000000001,344.5,-0.032082200050354004,-0.015441501513123512,0.02199731022119522,-0.02288830652832985,2.1149754524230957,-12.0633544921875,-1.0357651710510254,-0.15,0.09,-0.05,271.71
1682338728.07956505,193466854,2,0.09,0.7000000000000001,344.45,-0.030309874564409256,0.0002697463787626475,0.0251065231859684,-0.022712457925081253,2.103022813796997,-12.064520835876465,-1.0385410785675049,-0.15,0.09,-0.04,271.71
1682338728.17956805,193566857,2,0.07,0.7000000000000001,344.42,-0.022695109248161316,-0.01073437463492155,0.017020145431160927,-0.0410141758620739,2.0927000045776367,-12.064560890197754,-1.0420594215393066,-0.15,0.09,-0.04,271.71
1682338728.27956486,193666854,2,0.08,0.7000000000000001,344.38,-0.027340438216924667,-0.0055544134229421616,0.01601513847708702,-0.06573959439992905,2.0812270641326904,-12.064920425415039,-1.0484669208526611,-0.15,0.09,-0.04,271.71
1682338728.37964892,193766938,2,0.07,0.7000000000000001,344.35,-0.019454844295978546,-0.013717136345803738,0.014817124232649803,-0.06537411361932755,2.072204113006592,-12.065452575683594,-1.0537792444229126,-0.15,0.09,-0.04,271.71
1682338728.47966599,193866955,2,0.07,0.7000000000000001,344.31,-0.02643234096467495,-0.025409625843167305,0.011924867518246174,-0.0357692614197731,2.0596070289611816,-12.066753387451172,-1.0558725595474243,-0.15,0.09,-0.04,271.71
1682338728.57964706,193966936,2,0.09,0.7000000000000001,344.29,-0.034209564328193665,-0.02424764819443226,0.01146193128079176,-0.019927890971302986,2.048642635345459,-12.068552017211914,-1.0583031177520752,-0.15,0.09,-0.04,271.71
1682338728.67964196,194066931,2,0.05,0.71,344.25,-0.02544225938618183,-0.023113712668418884,0.012115231715142727,-0.019121378660202026,2.036994218826294,-12.068632125854492,-1.060508370399475,-0.15,0.09,-0.04,271.71
1682338728.77962089,194166910,2,0.08,0.71,344.21,-0.0350337028503418,-0.02488100528717041,0.010823428630828857,-0.020992334932088852,2.027343511581421,-12.069323539733887,-1.062699317932129,-0.15,0.09,-0.04,271.71
1682338728.87959099,194266880,2,0.06,0.72,344.18,-0.02966746874153614,-0.0231532733887434,0.01357852853834629,-0.019312353804707527,2.015573740005493,-12.070335388183594,-1.0649850368499756,-0.15,0.09,-0.04,271.71
1682338728.97956491,194366854,2,0.06,0.72,344.14,-0.030081136152148247,-0.014599102549254894,0.003919593524187803,-0.028492918238043785,2.006351947784424,-12.071846961975098,-1.0671279430389404,-0.15,0.09,-0.04,271.71
1682338729.07956791,194466857,2,0.11,0.73,344.04,-0.06390202790498734,-0.05196121707558632,-0.0064393943175673485,-0.02586764469742775,1.9955394268035889,-12.073837280273438,-1.068152666091919,-0.15,0.09,-0.04,271.71
1682338729.17956901,194566858,2,0.04,0.72,344.03000000000003,-0.04733094945549965,-0.01962003856897354,0.00859016738831997,-0.013940200209617615,1.9866573810577393,-12.075927734375,-1.0702664852142334,-0.15,0.09,-0.04,271.71
1682338729.27965093,194666940,2,0.14,0.58,344.01,-0.03156953677535057,-0.02304057590663433,-0.0864151194691658,-0.13313424587249756,1.9800752401351929,-12.075523376464844,-1.0783543586730957,-0.15,0.09,-0.03,271.71
1682338729.37969589,194766985,2,0.23,0.29,343.96,-0.027071142569184303,-0.010693994350731373,-0.3885694444179535,-0.4732164740562439,1.975460171699524,-12.075508117675781,-1.110079288482666,-0.15,0.09,-0.03,271.71
1682338729.47965097,194866940,2,0.52,0.37,343.90000000000003,-0.02318442612886429,-0.011950562708079815,-0.6387194991111755,-0.7880440950393677,1.9705771207809448,-12.075331687927246,-1.178227424621582,-0.16,0.09,-0.03,271.71
1682338729.57965302,194966942,2,0.6,0.24,343.83,-0.017788657918572426,-0.01982419565320015,-0.7013174295425415,-0.8953351974487305,1.9675875902175903,-12.075748443603516,-1.2641663551330566,-0.16,0.09,-0.03,271.71
1682338729.67962098,195066910,2,0.49,0.05,343.79,-0.013057367876172066,-0.017451588064432144,-0.6656790971755981,-0.9317700862884521,1.9648836851119995,-12.076447486877441,-1.3594526052474976,-0.16,0.09,-0.03,271.71
1682338729.77960896,195166898,2,0.12,0.21,343.8,-0.007607446983456612,-0.015230602584779263,-0.621033251285553,-0.8816284537315369,1.9633170366287231,-12.076972007751465,-1.44480562210083,-0.16,0.09,-0.03,271.71
1682338729.87956691,195266856,2,-0.11,0.27,343.90000000000003,0.0036838813684880733,-0.01392717007547617,-0.529803454875946,-0.6747872829437256,1.9691358804702759,-12.079078674316406,-1.512712836265564,-0.16,0.09,-0.03,271.71
1682338729.97956896,195366858,2,0.05,0.35000000000000003,344.03000000000003,0.00660834601148963,-0.018252795562148094,-0.4449005126953125,-0.5116295218467712,1.9757846593856812,-12.081193923950195,-1.570475459098816,-0.16,0.09,-0.03,271.71
1682338730.07957792,195466867,2,0.27,0.63,344.18,0.009384090080857277,-0.015307163819670677,-0.3730800747871399,-0.4049869775772095,1.9808489084243774,-12.08273983001709,-1.6166813373565674,-0.16,0.09,-0.03,271.71
1682338730.17965388,195566943,2,0.73,0.78,344.33,0.018657900393009186,-0.005020164884626865,-0.28898125886917114,-0.3224940896034241,1.98597252368927,-12.083956718444824,-1.6555505990982056,-0.16,0.09,-0.02,271.71
1682338730.27967095,195666960,2,1.44,0.76,344.44,0.021743714809417725,0.00895126536488533,-0.21737514436244965,-0.27722734212875366,1.9885923862457275,-12.080938339233398,-1.6869903802871704,-0.16,0.09,-0.02,271.71
1682338730.37968302,195766972,2,2.11,0.78,344.56,0.02681140974164009,0.038607124239206314,-0.1663663536310196,-0.2517276406288147,1.9921666383743286,-12.07624626159668,-1.714509129524231,-0.16,0.09,-0.02,271.71
1682338730.47964501,195866934,2,3.11,0.9,344.67,0.027052372694015503,0.07183057069778442,-0.12926584482192993,-0.21798859536647797,1.9880155324935913,-12.06460189819336,-1.737602710723877,-0.16,0.09,-0.02,271.71
1682338730.57960296,195966892,2,3.74,0.86,344.76,0.03586683049798012,0.12954667210578918,-0.10111717879772186,-0.19525082409381866,1.9863734245300293,-12.050104141235352,-1.758459448814392,-0.16,0.09,-0.02,271.71
1682338730.67959595,196066885,2,3.98,0.75,344.85,0.04543255269527435,0.1831655353307724,-0.07677599042654037,-0.1784883290529251,1.9803681373596191,-12.02634048461914,-1.7770549058914185,-0.16,0.09,-0.02,271.71
1682338730.77957106,196166860,2,3.71,0.66,344.90000000000003,0.04509618133306503,0.23260846734046936,-0.06132324039936066,-0.20085673034191132,1.9778499603271484,-11.999242782592773,-1.797248125076294,-0.16,0.09,-0.02,271.71
1682338730.87956405,196266853,2,2.8000000000000003,0.68,344.98,0.049161624163389206,0.26858416199684143,-0.03125961497426033,-0.18022160232067108,1.9709895849227905,-11.964371681213379,-1.8160799741744995,-0.16,0.09,-0.02,271.71
1682338730.97957206,196366861,2,2.09,0.52,345.02,0.062045831233263016,0.3339197039604187,-0.029233792796730995,-0.1433735191822052,1.9682328701019287,-11.927041053771973,-1.829005241394043,-0.16,0.09,-0.02,271.71
1682338731.07962990,196466919,2,2.3000000000000003,0.5,345.09000000000003,0.062436074018478394,0.37324830889701843,-0.04147091507911682,-0.1136731207370758,1.961708426475525,-11.885451316833496,-1.8388822078704834,-0.16,0.09,-0.02,271.71
1682338731.17966890,196566958,2,1.73,0.49,345.2,0.06787005066871643,0.38819146156311035,-0.048701513558626175,-0.1007751002907753,1.9570109844207764,-11.843169212341309,-1.8494360446929932,-0.16,0.09,-0.02,271.71
1682338731.27965403,196666943,2,0.75,0.47000000000000003,345.35,0.060466039925813675,0.40461069345474243,-0.06219039857387543,-0.09669484943151474,1.9475773572921753,-11.796692848205566,-1.8588489294052124,-0.16,0.08,-0.01,271.71
1682338731.37965107,196766940,2,0.64,0.74,345.68,0.05920134857296944,0.43055033683776855,-0.09797101467847824,-0.11214637756347656,1.939852237701416,-11.748218536376953,-1.8698722124099731,-0.16,0.09,-0.01,271.71
1682338731.47960901,196866898,2,0.97,0.9500000000000001,346.34000000000003,0.05504152178764343,0.44544702768325806,-0.1287110149860382,-0.16656076908111572,1.9321943521499634,-11.706507682800293,-1.8867696523666382,-0.16,0.09,-0.01,271.71
1682338731.57959199,196966881,2,1.11,1.17,347.32,0.043547097593545914,0.45544955134391785,-0.15512831509113312,-0.18456189334392548,1.927414894104004,-11.66370964050293,-1.9033621549606323,-0.16,0.09,-0.01,271.71
1682338731.67957497,197066864,2,1.19,1.25,348.51,0.030157724395394325,0.4654325246810913,-0.15935476124286652,-0.2028282880783081,1.9069931507110596,-11.617631912231445,-1.9249709844589233,-0.16,0.08,-0.01,271.71
1682338731.77955985,197166849,2,1.17,1.05,349.78000000000003,0.015240663662552834,0.47801801562309265,-0.1738978922367096,-0.25480595231056213,1.8915640115737915,-11.57099437713623,-1.9500999450683594,-0.16,0.08,-0.01,271.71
1682338731.87957096,197266860,2,0.8300000000000001,0.88,350.99,0.0049031637609004974,0.47752663493156433,-0.17914634943008423,-0.26160597801208496,1.8696967363357544,-11.522150039672852,-1.9741708040237427,-0.16,0.08,-0.01,271.71
1682338731.97964907,197366938,2,0.65,0.12,352.09000000000003,0.002440254669636488,0.4868362545967102,-0.20436976850032806,-0.24161458015441895,1.8535736799240112,-11.473424911499023,-1.995927095413208,-0.16,0.08,-0.01,271.71
1682338732.07966590,197466955,2,0.62,-0.7000000000000001,353.13,0.006570120807737112,0.5003308057785034,-0.22188010811805725,-0.227619931101799,1.8349382877349854,-11.425517082214355,-2.0176782608032227,-0.16,0.08,-0.01,271.71
1682338732.17969394,197566983,2,0.55,-0.86,354.14,0.01582484319806099,0.49907588958740234,-0.23991894721984863,-0.237467959523201,1.8218848705291748,-11.376824378967285,-2.0416290760040283,-0.16,0.08,-0.01,271.71
1682338732.27965188,197666941,2,0.88,-0.79,355.05,0.03221345320343971,0.5084922313690186,-0.2568936347961426,-0.2741077244281769,1.8087595701217651,-11.322724342346191,-2.070129632949829,-0.16,0.08,-0.01,271.71
1682338732.37962103,197766910,2,1.35,-0.62,355.87,0.046882353723049164,0.5184792280197144,-0.2889370620250702,-0.3292863667011261,1.8019428253173828,-11.268523216247559,-2.1017777919769287,-0.16,0.08,0.0,271.71
1682338732.47959900,197866888,2,1.53,-0.09,356.57,0.05576534941792488,0.5423216819763184,-0.32675257325172424,-0.3526419699192047,1.7878338098526,-11.213324546813965,-2.1349658966064453,-0.15,0.08,0.0,271.71
1682338732.57956886,197966858,2,1.6500000000000001,0.27,357.12,0.06227777525782585,0.5660018920898438,-0.36829960346221924,-0.38108792901039124,1.779964804649353,-11.15658187866211,-2.1718432903289795,-0.15,0.08,0.0,271.71
1682338732.67959785,198066887,2,1.6300000000000001,0.25,357.52,0.060470592230558395,0.5897557735443115,-0.40248173475265503,-0.43263715505599976,1.769516944885254,-11.09178352355957,-2.214603900909424,-0.16,0.08,0.0,271.71
1682338732.77956200,198166851,2,1.57,0.52,357.79,0.05189397558569908,0.6164546012878418,-0.4191828966140747,-0.4495046138763428,1.7635678052902222,-11.026460647583008,-2.2588772773742676,-0.16,0.08,0.0,271.71
1682338732.87962484,198266914,2,1.41,0.85,357.93,0.05317752808332443,0.6280794739723206,-0.4408020079135895,-0.48174208402633667,1.7544546127319336,-10.96119213104248,-2.307265281677246,-0.16,0.08,0.0,271.71
1682338732.97967887,198366968,2,1.24,0.58,357.96,0.054629359394311905,0.6461537480354309,-0.4826359450817108,-0.5177428126335144,1.7499781847000122,-10.89574909210205,-2.3560545444488525,-0.16,0.08,0.0,271.71
1682338733.07965207,198466941,2,1.0,0.52,357.97,0.032874397933483124,0.6602669358253479,-0.48422175645828247,-0.5263643264770508,1.7304245233535767,-10.831064224243164,-2.408682107925415,-0.15,0.08,0.0,271.71
1682338733.17966199,198566951,2,0.71,0.38,357.94,0.027078326791524887,0.6716548204421997,-0.47343674302101135,-0.5031810998916626,1.7162866592407227,-10.765671730041504,-2.45889949798584,-0.15,0.08,0.0,271.71
1682338733.27960491,198666894,2,0.48,0.07,357.86,0.02221912145614624,0.6695358753204346,-0.491622656583786,-0.5307473540306091,1.6951451301574707,-10.697982788085938,-2.5116658210754395,-0.15,0.07,0.0,271.71
1682338733.37959790,198766887,2,-0.08,0.0,357.81,0.012220540083944798,0.6608718037605286,-0.49010249972343445,-0.5290278792381287,1.67947518825531,-10.631290435791016,-2.563852071762085,-0.15,0.07,0.0,271.71
1682338733.47956085,198866850,2,-0.8200000000000001,0.13,357.78000000000003,0.014990800991654396,0.6483551859855652,-0.4765443801879883,-0.5347369909286499,1.6667827367782593,-10.560195922851562,-2.617814064025879,-0.15,0.07,0.0,271.71
1682338733.57955885,198966848,2,-1.53,0.42,357.73,0.005413670092821121,0.6238036155700684,-0.4585965871810913,-0.5240223407745361,1.6578137874603271,-10.491732597351074,-2.6701741218566895,-0.15,0.07,0.0,271.71
1682338733.67957187,199066861,2,-2.33,0.96,357.6,-0.004946595523506403,0.5910981893539429,-0.4424683749675751,-0.5037862062454224,1.6479562520980835,-10.426475524902344,-2.7205564975738525,-0.15,0.07,0.0,271.71
1682338733.77965593,199166945,2,-3.14,1.44,357.46,-0.01782279461622238,0.5400472283363342,-0.40897539258003235,-0.4536241590976715,1.6396807432174683,-10.366551399230957,-2.7665913105010986,-0.15,0.07,0.0,271.71
1682338733.87968087,199266970,2,-3.94,1.33,357.35,-0.04469715803861618,0.47007834911346436,-0.3958605229854584,-0.4410911500453949,1.6191587448120117,-10.323052406311035,-2.8110361099243164,-0.15,0.07,0.0,271.71
1682338733.97965002,199366939,2,-4.8100000000000005,1.2,357.22,-0.07114332169294357,0.3867114782333374,-0.3858899772167206,-0.42288535833358765,1.5991098880767822,-10.286684036254883,-2.8529484272003174,-0.15,0.07,0.0,271.71
1682338734.07963896,199466928,2,-5.48,0.81,357.13,-0.08550133556127548,0.303569495677948,-0.3702312111854553,-0.42767295241355896,1.5819828510284424,-10.255810737609863,-2.8973071575164795,-0.15,0.07,0.0,271.71
1682338734.17962885,199566918,2,-5.3500000000000005,0.18,357.06,-0.09100443869829178,0.21689364314079285,-0.35194459557533264,-0.4069675803184509,1.5670236349105835,-10.232704162597656,-2.9373645782470703,-0.15,0.07,0.0,271.71
1682338734.27959299,199666882,2,-4.54,-0.54,356.99,-0.07823861390352249,0.1322796791791916,-0.3264545500278473,-0.3277897834777832,1.5619322061538696,-10.219588279724121,-2.9705238342285156,-0.15,0.08,0.0,271.71
1682338734.37957501,199766864,2,-3.65,-1.31,356.94,-0.052214574068784714,0.06159357354044914,-0.3127914071083069,-0.29093074798583984,1.558974266052246,-10.21412181854248,-3.002138614654541,-0.15,0.08,0.0,271.71
1682338734.47957301,199866862,2,-2.66,-1.51,356.83,-0.03140585497021675,-0.0005009431042708457,-0.3057900369167328,-0.29233646392822266,1.5603923797607422,-10.208703994750977,-3.0332775115966797,-0.15,0.08,0.0,271.71
1682338734.57957292,199966862,2,-1.67,-1.1400000000000001,356.73,-0.0004140709061175585,-0.03601901978254318,-0.295757919549942,-0.2857312858104706,1.5644253492355347,-10.20818042755127,-3.062361717224121,-0.15,0.08,0.01,271.71
1682338734.67966485,200066954,2,-0.84,-0.77,356.66,0.03814205154776573,-0.04764372110366821,-0.2812466025352478,-0.2300812304019928,1.5792185068130493,-10.204663276672363,-3.0844531059265137,-0.15,0.08,0.01,271.71
1682338734.77966595,200166955,2,0.0,-0.37,356.6,0.06200050935149193,-0.0656682550907135,-0.25969982147216797,-0.16033540666103363,1.5956648588180542,-10.203522682189941,-3.1017258167266846,-0.15,0.08,0.01,271.71
1682338734.87964988,200266939,2,0.49,-0.02,356.58,0.08654362708330154,-0.06633336842060089,-0.25643253326416016,-0.1428908407688141,1.6222777366638184,-10.196006774902344,-3.118008852005005,-0.16,0.08,0.01,271.71
1682338734.97964597,200366935,2,0.58,0.05,356.57,0.10750468820333481,-0.0594942569732666,-0.225509375333786,-0.13469427824020386,1.6486787796020508,-10.19002628326416,-3.135007619857788,-0.16,0.08,0.01,271.71
1682338735.07961607,200466905,2,0.51,0.06,356.57,0.12485872954130173,-0.03219394385814667,-0.21566587686538696,-0.1627393215894699,1.6776378154754639,-10.178343772888184,-3.1531758308410645,-0.16,0.08,0.01,271.71
1682338735.17960000,200566889,2,0.2,0.23,356.57,0.13708855211734772,-0.023865986615419388,-0.17713327705860138,-0.14278124272823334,1.7075525522232056,-10.166175842285156,-3.1685755252838135,-0.16,0.08,0.01,271.71
1682338735.27956796,200666857,2,-0.09,0.8,356.58,0.1423705816268921,-0.016164252534508705,-0.1481904536485672,-0.08397389948368073,1.7397915124893188,-10.147505760192871,-3.1776328086853027,-0.16,0.08,0.01,271.71
1682338735.37956786,200766857,2,-0.37,1.6,356.6,0.13733753561973572,-0.01929134503006935,-0.14014285802841187,-0.047694962471723557,1.7678433656692505,-10.13335132598877,-3.1828982830047607,-0.16,0.08,0.01,271.71
1682338735.47956300,200866852,2,-0.58,2.1,356.64,0.12983044981956482,-0.011173980310559273,-0.1145486906170845,0.024953996762633324,1.8012590408325195,-10.113593101501465,-3.180438280105591,-0.16,0.08,0.01,271.71
1682338735.57963490,200966924,2,-0.72,2.14,356.7,0.11149188131093979,-0.0028323051519691944,-0.07590605318546295,0.06560253351926804,1.8287938833236694,-10.0991849899292,-3.177192211151123,-0.16,0.08,0.01,271.71
1682338735.67965102,201066940,2,-0.78,2.0300000000000002,356.75,0.09406686574220657,-0.00704274931922555,-0.06678328663110733,0.060277290642261505,1.8508186340332031,-10.08065414428711,-3.1725142002105713,-0.16,0.08,0.01,271.71
1682338735.77966094,201166950,2,-0.75,1.77,356.8,0.07496600598096848,-0.020535018295049667,-0.028972525149583817,0.0678803026676178,1.8679273128509521,-10.067614555358887,-3.1686272621154785,-0.16,0.08,0.01,271.71
1682338735.87965107,201266940,2,-0.68,1.44,356.87,0.05769890546798706,-0.02904595620930195,-0.019107574597001076,0.04836631566286087,1.8910423517227173,-10.052536010742188,-3.1648874282836914,-0.16,0.08,0.01,271.71
1682338735.97961593,201366905,2,-0.62,1.33,356.94,0.04755973443388939,-0.028992246836423874,-0.0073163555935025215,0.039441369473934174,1.9086958169937134,-10.042586326599121,-3.1608002185821533,-0.16,0.08,0.01,271.71
1682338736.07959700,201466886,2,-0.5700000000000001,1.3,356.98,0.0434253066778183,-0.03045283816754818,0.014133394695818424,0.04178079590201378,1.9300857782363892,-10.033872604370117,-3.156529426574707,-0.16,0.08,0.01,271.71
1682338736.17956686,201566856,2,-0.53,1.3900000000000001,357.03000000000003,0.03726683929562569,-0.036713093519210815,0.028213033452630043,0.04339652881026268,1.9487124681472778,-10.028399467468262,-3.151611089706421,-0.16,0.08,0.01,271.71
1682338736.27956200,201666851,2,-0.49,1.53,357.07,0.028805045410990715,-0.049849219620227814,0.048547498881816864,0.09104848653078079,1.9700422286987305,-10.024712562561035,-3.14180064201355,-0.17,0.08,0.01,271.71
1682338736.37957287,201766862,2,-0.48,1.6300000000000001,357.09000000000003,0.01621144451200962,-0.06267958879470825,0.0592469647526741,0.10570624470710754,1.9858801364898682,-10.024508476257324,-3.1317946910858154,-0.17,0.08,0.02,271.71
1682338736.47964001,201866929,2,-0.47000000000000003,1.84,357.14,0.008138946257531643,-0.0707399994134903,0.06008598953485489,0.08760149776935577,2.004030466079712,-10.02409553527832,-3.1226627826690674,-0.17,0.09,0.02,271.71
1682338736.57966805,201966957,2,-0.48,2.0,357.18,-0.008501577191054821,-0.07306937128305435,0.05791487172245979,0.06893733143806458,2.0183777809143066,-10.025857925415039,-3.1149187088012695,-0.17,0.09,0.02,271.71
1682338736.67966199,202066951,2,-0.44,2.19,357.23,-0.027802757918834686,-0.07104171067476273,0.03730694577097893,0.05298149585723877,2.0350341796875,-10.024311065673828,-3.108253240585327,-0.17,0.09,0.02,271.71
1682338736.77964497,202166934,2,-0.4,2.36,357.24,-0.053467392921447754,-0.07871205359697342,0.02518913336098194,0.04104352742433548,2.044724702835083,-10.02620792388916,-3.1037967205047607,-0.17,0.09,0.02,271.71
1682338736.87960386,202266893,2,-0.39,2.49,357.25,-0.07568046450614929,-0.09267061203718185,-0.014552678912878036,-0.012054573744535446,2.0579607486724854,-10.02855396270752,-3.1024553775787354,-0.17,0.09,0.02,271.71
1682338736.97960687,202366896,2,-0.34,2.65,357.27,-0.09847590327262878,-0.09969847649335861,-0.00281615206040442,-0.005188407376408577,2.0634548664093018,-10.033610343933105,-3.102415084838867,-0.17,0.09,0.02,271.71
1682338737.07957292,202466862,2,-0.28,2.72,357.29,-0.11967596411705017,-0.09020987153053284,-0.01808665692806244,-0.017466584220528603,2.0683836936950684,-10.040116310119629,-3.103180170059204,-0.17,0.09,0.02,271.71
1682338737.17956996,202566859,2,-0.17,2.7800000000000002,357.29,-0.15375670790672302,-0.09822940081357956,-0.02405756711959839,-0.019323358312249184,2.067629337310791,-10.048166275024414,-3.104705333709717,-0.17,0.09,0.02,271.71
1682338737.27956891,202666858,2,-0.12,2.68,357.28000000000003,-0.1704256534576416,-0.11106391251087189,-0.03530332073569298,0.013660009019076824,2.0658957958221436,-10.058791160583496,-3.1018552780151367,-0.17,0.09,0.02,271.71
1682338737.37965798,202766947,2,-0.18,0.12,357.24,-0.13996019959449768,-0.12465177476406097,-0.05468122661113739,0.049071576446294785,2.063002824783325,-10.071250915527344,-3.0980007648468018,-0.17,0.09,0.02,271.71
1682338737.47968602,202866975,2,-0.03,-2.52,357.21,-0.129966601729393,-0.12538489699363708,-0.11273851245641708,0.0025392717216163874,2.0618176460266113,-10.085694313049316,-3.09674072265625,-0.16,0.09,0.02,271.71
1682338737.57964587,202966935,2,0.33,-2.2800000000000002,357.18,-0.09873361885547638,-0.12194788455963135,-0.12152411043643951,-0.026663772761821747,2.0593349933624268,-10.10094928741455,-3.10044527053833,-0.16,0.09,0.02,271.71
1682338737.67964792,203066937,2,0.47000000000000003,-1.6400000000000001,357.17,-0.02562454156577587,-0.13141869008541107,-0.08442386239767075,-0.015117190778255463,2.073221445083618,-10.116628646850586,-3.1048765182495117,-0.17,0.09,0.02,271.71
1682338737.77961493,203166904,2,0.62,-1.5,357.14,0.014898186549544334,-0.1240774542093277,-0.09192857891321182,-0.05240562930703163,2.089214563369751,-10.132534980773926,-3.1103310585021973,-0.17,0.09,0.03,271.71
1682338737.87959003,203266879,2,0.73,-0.81,357.11,0.049934037029743195,-0.13455729186534882,-0.0885697454214096,-0.0831461176276207,2.107285499572754,-10.148246765136719,-3.11834979057312,-0.16,0.09,0.03,271.71
1682338737.97956300,203366852,2,0.6900000000000001,-0.23,357.07,0.08281096071004868,-0.1296563595533371,-0.08278356492519379,-0.09303774684667587,2.1248013973236084,-10.163818359375,-3.126457452774048,-0.16,0.09,0.03,271.71
1682338738.07955885,203466848,2,0.8,0.18,357.04,0.0937323346734047,-0.1140349805355072,-0.09270263463258743,-0.07045618444681168,2.142580270767212,-10.17819595336914,-3.1306800842285156,-0.16,0.09,0.03,271.71
1682338738.17956805,203566857,2,1.03,0.97,357.01,0.09765502065420151,-0.09060931205749512,-0.09318218380212784,-0.04337359219789505,2.157989740371704,-10.191619873046875,-3.134387969970703,-0.16,0.09,0.03,271.71
1682338738.27962494,203666914,2,2.02,1.68,356.99,0.08659438043832779,-0.0764629915356636,-0.0889613926410675,-0.018025584518909454,2.173308849334717,-10.200586318969727,-3.1360344886779785,-0.16,0.09,0.03,271.71
1682338738.37966990,203766959,2,2.96,1.87,356.96,0.08316849917173386,-0.03437141329050064,-0.08278761059045792,-0.005685656331479549,2.1858251094818115,-10.20663833618164,-3.1380796432495117,-0.16,0.09,0.03,271.71
1682338738.47966003,203866949,2,3.12,1.83,356.93,0.06515584141016006,0.002755566267296672,-0.07909159362316132,-0.028380338102579117,2.1949996948242188,-10.205448150634766,-3.1432783603668213,-0.16,0.09,0.03,271.71
1682338738.57963991,203966929,2,3.04,1.62,356.87,0.05007198080420494,0.04999372363090515,-0.086543969810009,-0.06874223053455353,2.201204538345337,-10.200727462768555,-3.1499059200286865,-0.16,0.09,0.03,271.71
1682338738.67961287,204066902,2,2.73,1.28,356.82,0.03500935807824135,0.07959279417991638,-0.08730752766132355,-0.07507973909378052,2.2057583332061768,-10.190473556518555,-3.156278610229492,-0.16,0.09,0.03,271.71
1682338738.77959800,204166887,2,2.29,1.04,356.81,0.030094465240836143,0.13416676223278046,-0.10299480706453323,-0.08017165213823318,2.2084014415740967,-10.177029609680176,-3.1621463298797607,-0.16,0.09,0.03,271.71
1682338738.87955999,204266849,2,2.17,0.79,356.82,0.022009462118148804,0.1648668795824051,-0.07965711504220963,-0.025009119883179665,2.2074198722839355,-10.16171932220459,-3.1651012897491455,-0.16,0.09,0.03,271.71
1682338738.97956991,204366859,2,2.13,0.58,356.88,0.018330227583646774,0.19134804606437683,-0.0921076089143753,-0.037720050662755966,2.205819606781006,-10.144124031066895,-3.169581890106201,-0.16,0.09,0.03,271.71
1682338739.07957101,204466860,2,2.12,0.49,356.95,0.01844744011759758,0.22966842353343964,-0.08830919861793518,-0.03720340505242348,2.2019917964935303,-10.123236656188965,-3.1728196144104004,-0.16,0.09,0.04,271.71
1682338739.17965388,204566943,2,2.18,0.47000000000000003,357.01,0.020956343039870262,0.2450234740972519,-0.07242469489574432,-0.021114997565746307,2.199270248413086,-10.099804878234863,-3.1764674186706543,-0.16,0.09,0.04,271.71
1682338739.27966905,204666958,2,2.2600000000000002,0.44,357.06,0.023129815235733986,0.27705636620521545,-0.06262281537055969,0.0003121988265775144,2.193136215209961,-10.075013160705566,-3.17795991897583,-0.16,0.09,0.04,271.71
1682338739.37967992,204766969,2,2.3000000000000003,0.43,357.1,0.025665853172540665,0.31348717212677,-0.07723615318536758,-0.028738029301166534,2.1872901916503906,-10.047348976135254,-3.18173885345459,-0.16,0.09,0.04,271.71
1682338739.47964287,204866932,2,2.3000000000000003,0.44,357.13,0.01750294491648674,0.3332252502441406,-0.0927567258477211,-0.06745948642492294,2.178677797317505,-10.018661499023438,-3.1866748332977295,-0.16,0.09,0.04,271.71
1682338739.57960987,204966899,2,2.24,0.44,357.16,0.017602337524294853,0.36451956629753113,-0.08588335663080215,-0.08393466472625732,2.170743465423584,-9.987258911132812,-3.1937484741210938,-0.16,0.09,0.04,271.71
1682338739.67959785,205066887,2,2.06,0.46,357.25,0.01063098106533289,0.37907007336616516,-0.0715756043791771,-0.08075223118066788,2.1575510501861572,-9.955809593200684,-3.200788974761963,-0.16,0.09,0.04,271.71
1682338739.77957296,205166862,2,1.93,0.48,357.56,0.008657805621623993,0.4111084043979645,-0.08086802065372467,-0.07897260040044785,2.146941661834717,-9.921299934387207,-3.2071237564086914,-0.16,0.09,0.04,271.71
1682338739.87955999,205266849,2,1.97,0.45,358.1,0.006914609111845493,0.43073639273643494,-0.07627185434103012,-0.01629984937608242,2.1324734687805176,-9.886258125305176,-3.2079529762268066,-0.16,0.08,0.04,271.71
1682338739.97957397,205366863,2,2.05,0.44,358.8,0.003568451153114438,0.4397970736026764,-0.05618762597441673,0.037903957068920135,2.119054079055786,-9.848884582519531,-3.206423759460449,-0.16,0.08,0.04,271.71
1682338740.07965302,205466942,2,2.0300000000000002,0.47000000000000003,359.68,-0.0029504122212529182,0.4544242024421692,-0.054987832903862,0.03929829224944115,2.1026663780212402,-9.811681747436523,-3.203691005706787,-0.16,0.08,0.04,271.71
1682338740.17969084,205566980,2,2.05,0.5,0.77,-0.009855344891548157,0.4698432683944702,-0.04517323151230812,0.04200777783989906,2.087552547454834,-9.771657943725586,-3.2011666297912598,-0.16,0.08,0.04,271.71
1682338740.27965093,205666940,2,1.98,0.54,2.1,-0.022260768339037895,0.4867432713508606,-0.043836552649736404,0.015556934289634228,2.067756414413452,-9.734443664550781,-3.200942039489746,-0.16,0.08,0.04,271.71
1682338740.37963796,205766927,2,1.71,0.53,3.56,-0.02764219604432583,0.5022693276405334,-0.03797483444213867,0.0037830891087651253,2.051283359527588,-9.693351745605469,-3.200572967529297,-0.16,0.08,0.04,271.71
1682338740.47960687,205866896,2,1.55,0.5700000000000001,5.0200000000000005,-0.046250276267528534,0.5177376866340637,-0.04491807147860527,-0.011014331132173538,2.0276081562042236,-9.65018367767334,-3.199760675430298,-0.16,0.08,0.04,271.71
1682338740.57958984,205966879,2,1.51,0.54,6.38,-0.047511082142591476,0.5297088623046875,-0.02234632521867752,0.003011852502822876,2.007418632507324,-9.603935241699219,-3.1998257637023926,-0.16,0.08,0.04,271.71
1682338740.67957187,206066861,2,1.55,0.52,7.62,-0.06569089740514755,0.521248459815979,-0.02265872247517109,-0.035395506769418716,1.9849437475204468,-9.566524505615234,-3.2045493125915527,-0.15,0.08,0.04,271.71
1682338740.77956891,206166858,2,1.62,0.56,8.790000000000001,-0.07182709127664566,0.534469723701477,-0.04434218257665634,-0.06893886625766754,1.9656410217285156,-9.525246620178223,-3.208341360092163,-0.15,0.08,0.04,271.71
1682338740.87956500,206266854,2,1.67,0.54,9.86,-0.07903648912906647,0.5392939448356628,-0.02514955960214138,-0.01838725246489048,1.943652868270874,-9.478378295898438,-3.2083590030670166,-0.15,0.08,0.04,271.71
1682338740.97962594,206366915,2,1.6300000000000001,0.53,10.81,-0.09460458904504776,0.5492579340934753,-0.027134248986840248,-0.0012734266929328442,1.9243613481521606,-9.428752899169922,-3.207594633102417,-0.15,0.08,0.04,271.71
1682338741.07967496,206466964,2,1.6500000000000001,0.52,11.74,-0.10196366161108017,0.5686936974525452,-0.019009815528988838,-5.2774612413486466e-05,1.902213454246521,-9.380173683166504,-3.207869529724121,-0.15,0.07,0.04,271.71
1682338741.17967701,206566966,2,1.68,0.46,12.76,-0.10436736047267914,0.569083571434021,0.007777087390422821,0.01509782113134861,1.8810577392578125,-9.329075813293457,-3.208146333694458,-0.15,0.07,0.05,271.71
1682338741.27965188,206666941,2,1.68,0.46,13.8,-0.12026158720254898,0.5865925550460815,-0.007245034910738468,0.016275811940431595,1.8485337495803833,-9.272698402404785,-3.2059051990509033,-0.15,0.07,0.05,271.71
1682338741.37962484,206766914,2,1.6600000000000001,0.39,14.82,-0.12298773229122162,0.6023911237716675,-0.02230950817465782,0.004817433655261993,1.820220708847046,-9.214463233947754,-3.2038965225219727,-0.15,0.07,0.05,271.71
1682338741.47959399,206866883,2,1.56,0.39,15.91,-0.14287804067134857,0.6061840057373047,-0.0021680034697055817,-0.010125255212187767,1.7858015298843384,-9.153888702392578,-3.206181764602661,-0.15,0.07,0.05,271.71
1682338741.57956386,206966853,2,1.5,0.4,16.97,-0.14954820275306702,0.6193004846572876,0.0017570811323821545,-0.015294032171368599,1.7555761337280273,-9.091743469238281,-3.2072412967681885,-0.15,0.07,0.05,271.71
1682338741.67956686,207066856,2,1.52,0.35000000000000003,17.98,-0.15234018862247467,0.6422519087791443,0.010221869684755802,0.020640065893530846,1.7237440347671509,-9.023239135742188,-3.2046613693237305,-0.15,0.07,0.05,271.71
1682338741.77956796,207166857,2,1.7,0.39,18.96,-0.162759467959404,0.6518590450286865,-0.004191643558442593,0.019062358886003494,1.695271611213684,-8.954240798950195,-3.2020227909088135,-0.15,0.07,0.05,271.71
1682338741.87964487,207266934,2,1.98,0.4,19.95,-0.1796770691871643,0.6798126697540283,0.017654672265052795,0.016139963641762733,1.6653225421905518,-8.887381553649902,-3.20205020904541,-0.15,0.07,0.05,271.71
1682338741.97967601,207366965,2,2.16,0.42,20.95,-0.18243999779224396,0.6727262139320374,0.030651161447167397,0.022120025008916855,1.638119101524353,-8.819490432739258,-3.2007486820220947,-0.15,0.07,0.05,271.71
1682338742.07965684,207466946,2,2.05,0.58,22.12,-0.20114129781723022,0.7040899991989136,0.019586708396673203,0.018743157386779785,1.6041481494903564,-8.749476432800293,-3.1986217498779297,-0.15,0.07,0.05,271.71
1682338742.17963696,207566926,2,2.0,0.65,23.42,-0.21510222554206848,0.7205079793930054,0.02819196693599224,0.0361085906624794,1.572676420211792,-8.677794456481934,-3.1957621574401855,-0.15,0.07,0.05,271.71
1682338742.27960992,207666899,2,1.92,0.75,24.740000000000002,-0.24088290333747864,0.7413934469223022,0.0420939140021801,0.12113539129495621,1.5270347595214844,-8.598771095275879,-3.1829583644866943,-0.15,0.06,0.05,271.71
1682338742.37959290,207766882,2,1.84,0.76,25.95,-0.27428963780403137,0.7546899318695068,0.03675518557429314,0.14342455565929413,1.4849457740783691,-8.51928424835205,-3.1704230308532715,-0.15,0.06,0.05,271.71
1682338742.47956991,207866859,2,1.83,0.79,27.14,-0.2938285171985626,0.7744682431221008,0.045477572828531265,0.18174509704113007,1.4321904182434082,-8.433263778686523,-3.15301513671875,-0.15,0.06,0.05,271.71
1682338742.57957888,207966868,2,1.69,0.77,28.330000000000002,-0.31047970056533813,0.7800043821334839,0.057376500219106674,0.1737937182188034,1.3833138942718506,-8.347789764404297,-3.139660358428955,-0.15,0.06,0.05,271.71
1682338742.67956400,208066853,2,1.55,0.72,29.54,-0.34697604179382324,0.8076390624046326,0.010044190101325512,0.08399742096662521,1.3238776922225952,-8.261882781982422,-3.129892587661743,-0.15,0.06,0.05,271.71
1682338742.77965784,208166947,2,1.58,0.78,30.830000000000002,-0.36795774102211,0.8173015713691711,0.02585579641163349,0.07171712070703506,1.2671743631362915,-8.176972389221191,-3.1225879192352295,-0.15,0.06,0.05,271.71
1682338742.87965894,208266948,2,1.6400000000000001,0.8,32.2,-0.38687369227409363,0.8206910490989685,0.02389446273446083,0.038055118173360825,1.2099642753601074,-8.091662406921387,-3.119123935699463,-0.15,0.06,0.05,271.71
1682338742.97965503,208366944,2,1.6500000000000001,0.85,33.660000000000004,-0.41318026185035706,0.8321263194084167,0.0058172764256596565,0.008083890192210674,1.155372142791748,-8.005807876586914,-3.116199493408203,-0.15,0.06,0.05,271.71
1682338743.07963896,208466928,2,1.67,1.0,35.17,-0.4370563328266144,0.8345782160758972,0.006923009175807238,0.052831344306468964,1.0983521938323975,-7.923685550689697,-3.108229875564575,-0.15,0.06,0.05,271.71
1682338743.17961407,208566903,2,1.73,1.08,36.65,-0.45078739523887634,0.8259813785552979,0.030972596257925034,0.09298624843358994,1.0428998470306396,-7.841574668884277,-3.1015877723693848,-0.15,0.06,0.05,271.71
1682338743.27959585,208666885,2,1.6600000000000001,1.1300000000000001,38.07,-0.4778711497783661,0.8312699794769287,0.029311178252100945,0.11476040631532669,0.9802297353744507,-7.757776260375977,-3.0910518169403076,-0.15,0.06,0.05,271.71
1682338743.37958288,208766872,2,1.56,1.1300000000000001,39.410000000000004,-0.49544113874435425,0.8420032858848572,0.004236137494444847,0.08139370381832123,0.9196337461471558,-7.6737494468688965,-3.0827391147613525,-0.15,0.06,0.05,271.71
1682338743.47955990,208866849,2,1.55,1.09,40.7,-0.5345238447189331,0.8474386930465698,0.013069783337414265,0.053154900670051575,0.8470158576965332,-7.593247413635254,-3.077448844909668,-0.15,0.05,0.05,271.71
1682338743.57956600,208966855,2,1.51,1.08,41.92,-0.5584526658058167,0.8408637642860413,0.0027468097396194935,0.01964697055518627,0.7774873375892639,-7.512165069580078,-3.0734376907348633,-0.15,0.05,0.05,271.71
1682338743.67965603,209066945,2,1.49,1.03,43.03,-0.5690153241157532,0.8301748633384705,0.02470044046640396,-0.00116255902685225,0.7065478563308716,-7.435545444488525,-3.07489275932312,-0.15,0.05,0.05,271.71
1682338743.77967286,209166962,2,1.49,1.05,44.01,-0.5894381999969482,0.8287411332130432,0.016882915049791336,-0.023752771317958832,0.6376380324363708,-7.359230995178223,-3.0759875774383545,-0.15,0.05,0.05,271.71
1682338743.87965202,209266941,2,1.3800000000000001,1.02,44.910000000000004,-0.6201624870300293,0.8301031589508057,0.011470998637378216,-0.006408523768186569,0.5700296759605408,-7.2803192138671875,-3.075941324234009,-0.15,0.05,0.05,271.71
1682338743.97965789,209366947,2,1.34,0.9400000000000001,45.68,-0.6346508860588074,0.8197410702705383,0.014793059788644314,0.006263058166950941,0.5033636093139648,-7.200735569000244,-3.0760159492492676,-0.15,0.05,0.05,271.71
1682338744.07962704,209466916,2,1.31,0.87,46.43,-0.6438154578208923,0.8036888837814331,0.021982315927743912,0.04403696581721306,0.4242360591888428,-7.126558780670166,-3.071937084197998,-0.15,0.05,0.05,271.71
1682338744.17959499,209566884,2,1.18,0.7000000000000001,47.2,-0.6659033298492432,0.8098915815353394,0.029584446921944618,0.06171589717268944,0.3457504212856293,-7.051932334899902,-3.067901849746704,-0.15,0.05,0.05,271.71
1682338744.27956605,209666855,2,1.06,0.53,48.03,-0.6748065948486328,0.7988618016242981,0.036119043827056885,0.11323685199022293,0.26503241062164307,-6.981180667877197,-3.057112455368042,-0.15,0.05,0.05,271.71
1682338744.37957001,209766859,2,0.8,0.53,49.0,-0.6971626877784729,0.7946932315826416,0.028486546128988266,0.10080257803201675,0.18697938323020935,-6.908827304840088,-3.048588991165161,-0.15,0.05,0.05,271.71
1682338744.47956991,209866859,2,0.21,0.59,50.2,-0.6683834195137024,0.7729108333587646,0.04129412770271301,0.09718088805675507,0.11920540034770966,-6.836677551269531,-3.0412323474884033,-0.15,0.05,0.05,271.71
1682338744.57965302,209966942,2,-0.54,0.81,51.57,-0.6572357416152954,0.7532551884651184,0.03151798993349075,0.059609491378068924,0.053304389119148254,-6.764649391174316,-3.0370090007781982,-0.15,0.05,0.05,271.71
1682338744.67967987,210066969,2,-1.29,1.1,53.08,-0.6400138139724731,0.7219081521034241,0.036365121603012085,0.03420761972665787,-0.009118329733610153,-6.69851016998291,-3.0346028804779053,-0.15,0.05,0.04,271.71
1682338744.77966905,210166958,2,-2.0100000000000002,1.37,54.7,-0.6132739186286926,0.6834912896156311,0.030063126236200333,0.012686308473348618,-0.06891240179538727,-6.634524822235107,-3.0321261882781982,-0.15,0.05,0.04,271.71
1682338744.87965894,210266948,2,-2.69,1.6300000000000001,56.31,-0.5894080996513367,0.6480721235275269,0.024787722155451775,-0.006218913476914167,-0.12644781172275543,-6.568739414215088,-3.0312137603759766,-0.15,0.05,0.04,271.71
1682338744.97961307,210366902,2,-3.41,1.83,57.79,-0.5261897444725037,0.5895198583602905,0.0324820913374424,0.010912704281508923,-0.18031755089759827,-6.506612300872803,-3.029181480407715,-0.15,0.05,0.04,271.71
1682338745.07960105,210466890,2,-4.26,1.99,59.01,-0.47758162021636963,0.5321342945098877,0.024380046874284744,-0.017817946150898933,-0.2239006608724594,-6.450897216796875,-3.0306718349456787,-0.15,0.05,0.04,271.71
1682338745.17956805,210566857,2,-5.14,2.0,60.01,-0.40029269456863403,0.46137529611587524,0.04194781929254532,-0.00714179826900363,-0.2613826394081116,-6.400472640991211,-3.03140926361084,-0.15,0.05,0.04,271.71
1682338745.27956390,210666853,2,-5.94,1.96,60.800000000000004,-0.3263118267059326,0.4013403356075287,0.039637256413698196,0.010244594886898994,-0.2849571108818054,-6.349106311798096,-3.029510021209717,-0.15,0.05,0.04,271.71
1682338745.37956691,210766856,2,-5.73,1.82,61.43,-0.24919304251670837,0.33569425344467163,0.03742317855358124,0.017638782039284706,-0.3032338619232178,-6.305159568786621,-3.0269060134887695,-0.15,0.05,0.03,271.71
1682338745.47962999,210866919,2,-4.1,1.61,61.85,-0.17078162729740143,0.291069895029068,0.04721766337752342,0.005451467353850603,-0.3102825880050659,-6.263701915740967,-3.0270802974700928,-0.15,0.05,0.03,271.71
1682338745.57964206,210966931,2,-2.09,1.28,62.120000000000005,-0.1290239542722702,0.25048741698265076,0.07644929736852646,0.023745661601424217,-0.3121051490306854,-6.22721529006958,-3.0258076190948486,-0.15,0.05,0.03,271.71
1682338745.67966604,211066955,2,-0.12,1.06,62.22,-0.10098348557949066,0.24467119574546814,0.07634923607110977,0.010269127786159515,-0.3035126030445099,-6.18699836730957,-3.026010036468506,-0.15,0.05,0.03,271.71
1682338745.77964497,211166934,2,1.73,0.87,62.18,-0.09644008427858353,0.26004883646965027,0.050169482827186584,-0.021419357508420944,-0.29482367634773254,-6.147477149963379,-3.0259294509887695,-0.15,0.05,0.02,271.71
1682338745.87960386,211266893,2,2.9,0.85,62.050000000000004,-0.10220836102962494,0.2763635218143463,0.05871858820319176,-0.017249371856451035,-0.27936458587646484,-6.097146034240723,-3.0276472568511963,-0.15,0.05,0.02,271.71
1682338745.97959995,211366889,2,2.99,1.12,61.83,-0.11974731832742691,0.2930631935596466,0.05563005805015564,-0.001453499193303287,-0.2706746459007263,-6.049588680267334,-3.027367353439331,-0.15,0.05,0.02,271.71
1682338746.07957888,211466868,2,2.71,1.41,61.5,-0.15429197251796722,0.3229714035987854,0.04976816475391388,0.0362938791513443,-0.26887449622154236,-5.995231628417969,-3.0228652954101562,-0.15,0.05,0.01,271.71
1682338746.17957091,211566860,2,1.97,1.6300000000000001,61.09,-0.17609404027462006,0.3413914442062378,0.03449283167719841,0.06027073413133621,-0.27330076694488525,-5.939442157745361,-3.01690673828125,-0.15,0.05,0.01,271.71
1682338746.27956200,211666851,2,1.0,1.82,60.63,-0.18668682873249054,0.3517609238624573,0.02046806737780571,0.06770799309015274,-0.2770322859287262,-5.878195762634277,-3.0098023414611816,-0.15,0.05,0.01,271.71
1682338746.37962484,211766914,2,0.05,1.9000000000000001,60.120000000000005,-0.18883943557739258,0.3486216068267822,0.030973736196756363,0.08583667129278183,-0.28362002968788147,-5.819870948791504,-3.0029125213623047,-0.15,0.05,0.01,271.71
1682338746.47969198,211866981,2,-0.41000000000000003,1.9100000000000001,59.59,-0.20522147417068481,0.3508795499801636,0.02409442514181137,0.10674167424440384,-0.29285043478012085,-5.761643886566162,-2.992833137512207,-0.15,0.05,0.01,271.71
1682338746.57964587,211966935,2,-0.45,1.86,59.04,-0.1952151209115982,0.3364896774291992,0.0015682296361774206,0.11048873513936996,-0.3047347664833069,-5.709841728210449,-2.981584072113037,-0.15,0.05,0.0,271.71
1682338746.67964387,212066933,2,-0.46,1.79,58.49,-0.1879732608795166,0.31676673889160156,-0.0005747124087065458,0.11343073844909668,-0.312693327665329,-5.663918495178223,-2.9714810848236084,-0.15,0.05,0.0,271.71
1682338746.77961707,212166906,2,-0.41000000000000003,1.6600000000000001,57.94,-0.1749471127986908,0.301025927066803,-0.01096649095416069,0.07852092385292053,-0.3224359452724457,-5.623438358306885,-2.9642908573150635,-0.15,0.05,0.0,271.71
1682338746.87959695,212266886,2,-0.36,1.55,57.43,-0.16125504672527313,0.27713140845298767,-0.003557130228728056,0.07710102945566177,-0.3216550350189209,-5.590673923492432,-2.9573466777801514,-0.15,0.06,0.0,271.71
1682338746.97956991,212366859,2,-0.8200000000000001,1.49,56.96,-0.12058358639478683,0.2484968900680542,-0.015889370813965797,0.0457880012691021,-0.3228003680706024,-5.5619282722473145,-2.9535787105560303,-0.15,0.06,0.0,271.71
1682338747.07956696,212466856,2,-1.6600000000000001,1.36,56.56,-0.10767389088869095,0.22974608838558197,-0.042596183717250824,-0.0324518084526062,-0.32385244965553284,-5.531017303466797,-2.956423044204712,-0.15,0.06,0.0,271.71
1682338747.17956185,212566851,2,-2.41,1.23,56.21,-0.06668506562709808,0.19820155203342438,-0.04372487589716911,-0.06690143793821335,-0.32434526085853577,-5.503138542175293,-2.9608261585235596,-0.15,0.06,0.0,271.71
1682338747.27961993,212666909,2,-3.12,1.12,55.94,-0.007014176342636347,0.15531744062900543,-0.0414792075753212,-0.03929542005062103,-0.309726357460022,-5.479964256286621,-2.9624874591827393,-0.15,0.06,0.0,271.71
1682338747.37966585,212766955,2,-3.24,1.1500000000000001,55.7,0.04477464407682419,0.1261923611164093,-0.04459593445062637,-0.026856716722249985,-0.2948262393474579,-5.461795330047607,-2.964831590652466,-0.15,0.06,0.0,271.71
1682338747.47967887,212866968,2,-2.56,1.19,55.550000000000004,0.09223329275846481,0.09559759497642517,-0.024530524387955666,0.012279758229851723,-0.2661018669605255,-5.448562145233154,-2.965306282043457,-0.15,0.06,0.0,271.71
1682338747.57964993,212966939,2,-1.8,1.21,55.43,0.12916532158851624,0.06513410061597824,-0.036046359688043594,-0.002891121432185173,-0.23798976838588715,-5.43941068649292,-2.9665749073028564,-0.15,0.06,0.0,271.71
1682338747.67962790,213066917,2,-1.24,1.25,55.38,0.16546112298965454,0.042779140174388885,-0.03319039195775986,0.0005861718091182411,-0.20124098658561707,-5.428433418273926,-2.9658820629119873,-0.15,0.06,-0.01,271.71
1682338747.77959800,213166887,2,-0.8200000000000001,1.45,55.36,0.19451265037059784,0.022184232249855995,-0.025947002694010735,0.006534161511808634,-0.16696256399154663,-5.421187877655029,-2.9651992321014404,-0.15,0.06,-0.01,271.71
1682338747.87956190,213266851,2,-0.5700000000000001,1.55,55.39,0.2205137461423874,0.009073568508028984,-0.017164206132292747,0.012835904955863953,-0.12447541952133179,-5.4109392166137695,-2.9643380641937256,-0.15,0.06,-0.01,271.71
1682338747.97956491,213366854,2,-0.23,1.6,55.43,0.23358575999736786,-0.003411529352888465,-0.008657575584948063,-0.0010644601425155997,-0.08590465039014816,-5.40437126159668,-2.966226100921631,-0.15,0.06,-0.01,271.71
1682338748.07957387,213466863,2,0.24,1.61,55.53,0.2356158345937729,-0.014105003327131271,-0.010029474273324013,-0.06125430762767792,-0.041343607008457184,-5.395279407501221,-2.973605155944824,-0.15,0.06,-0.01,271.71
1682338748.17964005,213566929,2,0.87,1.6500000000000001,55.63,0.23614230751991272,-0.01908598653972149,-0.007156769745051861,-0.07386317849159241,-0.0018970976816490293,-5.38940954208374,-2.97957181930542,-0.15,0.06,-0.01,271.71
1682338748.27965903,213666948,2,1.27,1.72,55.77,0.2303239405155182,-0.02014857530593872,-0.021772660315036774,-0.06054692715406418,0.03676333278417587,-5.37925386428833,-2.982025384902954,-0.16,0.06,-0.01,271.71
1682338748.37966990,213766959,2,1.31,1.72,55.92,0.22529266774654388,-0.01598711870610714,0.002022540895268321,0.004171725362539291,0.06959415227174759,-5.372370719909668,-2.982057809829712,-0.16,0.06,-0.02,271.71
1682338748.47964692,213866936,2,1.22,1.72,56.08,0.20322775840759277,-0.014771027490496635,0.009958440437912941,0.03706652671098709,0.10539014637470245,-5.361640453338623,-2.980149030685425,-0.16,0.06,-0.02,271.71
1682338748.57960296,213966892,2,1.1500000000000001,1.71,56.230000000000004,0.20469632744789124,-0.013644994236528873,0.01537115778774023,0.04250973090529442,0.13742898404598236,-5.352449893951416,-2.9784276485443115,-0.16,0.06,-0.02,271.71
1682338748.67959189,214066881,2,1.07,1.6600000000000001,56.4,0.18491436541080475,-0.013410751707851887,0.008170399814844131,0.03391961753368378,0.16803425550460815,-5.344794273376465,-2.976097822189331,-0.16,0.06,-0.02,271.71
1682338748.77956986,214166859,2,1.1,1.61,56.550000000000004,0.17315684258937836,-0.00983405765146017,0.008892982266843319,0.04641824588179588,0.19460688531398773,-5.339339733123779,-2.972529649734497,-0.16,0.06,-0.02,271.71
1682338748.87956786,214266857,2,1.1400000000000001,1.51,56.7,0.1650448441505432,-0.01755266636610031,-0.006004112772643566,0.06230583414435387,0.22299693524837494,-5.333172798156738,-2.965880870819092,-0.16,0.06,-0.02,271.71
1682338748.97956491,214366854,2,1.09,1.37,56.83,0.1556953489780426,-0.014752420596778393,-0.0009745530551299453,0.08276540040969849,0.24871759116649628,-5.328547477722168,-2.9593029022216797,-0.16,0.06,-0.02,271.71
1682338749.07964897,214466938,2,1.1,1.33,56.95,0.1475682407617569,-0.01581849716603756,0.0006575211882591248,0.07252738624811172,0.2748680114746094,-5.326268196105957,-2.9537439346313477,-0.16,0.06,-0.03,271.71
1682338749.17967296,214566962,2,1.16,1.28,57.050000000000004,0.13400162756443024,-0.010300912894308567,-0.016942471265792847,0.033589862287044525,0.296626478433609,-5.32529354095459,-2.9494543075561523,-0.16,0.06,-0.03,271.71
1682338749.27964497,214666934,2,1.28,1.23,57.15,0.12256807833909988,-0.010209432803094387,0.014716933481395245,0.0407399982213974,0.3212772607803345,-5.326662063598633,-2.946871280670166,-0.15,0.06,-0.03,271.71
1682338749.37964392,214766933,2,1.52,1.23,57.21,0.10948827862739563,-0.01597691886126995,-0.015586281195282936,-0.0005824171821586788,0.34109389781951904,-5.32841157913208,-2.945058822631836,-0.15,0.06,-0.03,271.71
1682338749.47960401,214866893,2,1.73,1.2,57.28,0.09819629788398743,-0.0038922904059290886,-0.0034496630541980267,0.007506299298256636,0.3638026714324951,-5.3328633308410645,-2.9433753490448,-0.15,0.06,-0.03,271.71
1682338749.57960987,214966899,2,1.75,1.1300000000000001,57.32,0.09110628068447113,-0.00429541664198041,0.019021403044462204,0.02904033288359642,0.3815685212612152,-5.336767196655273,-2.9415860176086426,-0.15,0.06,-0.03,271.71
1682338749.67957187,215066861,2,1.53,1.11,57.34,0.07660172134637833,-0.0037817228585481644,-8.811316365608945e-05,-0.003053556429222226,0.39918363094329834,-5.341619968414307,-2.941476583480835,-0.15,0.06,-0.03,271.71
1682338749.77956891,215166858,2,1.03,1.1,57.35,0.0786963701248169,-0.006375014316290617,-0.004286985378712416,-0.01820734143257141,0.4142003655433655,-5.346385478973389,-2.9417667388916016,-0.15,0.06,-0.03,271.71
1682338749.87957096,215266860,2,0.33,1.07,57.33,0.07683488726615906,-0.011837635189294815,0.014127309434115887,0.03618830814957619,0.43051135540008545,-5.354840278625488,-2.937631368637085,-0.15,0.06,-0.03,271.71
1682338749.97965503,215366944,2,0.14,1.04,57.28,0.06983480602502823,-0.013182823546230793,0.00826377235352993,0.03870205953717232,0.44369810819625854,-5.362330436706543,-2.9348998069763184,-0.15,0.06,-0.04,271.71
1682338750.07970095,215466990,2,0.52,0.97,57.230000000000004,0.07737115025520325,-0.024268394336104393,-0.008085467852652073,0.00573226111009717,0.4609021544456482,-5.374630451202393,-2.933831214904785,-0.15,0.06,-0.04,271.71
1682338750.17966986,215566959,2,0.6,0.89,57.18,0.08470244705677032,-0.032887235283851624,-0.008236582390964031,-0.007058713585138321,0.47581911087036133,-5.385774612426758,-2.9337286949157715,-0.15,0.06,-0.04,271.71
1682338750.27965403,215666943,2,0.73,0.89,57.120000000000005,0.09331342577934265,-0.035531312227249146,0.00991506315767765,0.0010011312551796436,0.49194711446762085,-5.39842414855957,-2.9342050552368164,-0.15,0.06,-0.04,271.71
1682338750.37964392,215766933,2,1.0,0.86,57.07,0.07562079280614853,-0.033887941390275955,0.009826643392443657,0.01129315048456192,0.5051105618476868,-5.409174919128418,-2.9331746101379395,-0.15,0.06,-0.04,271.71
1682338750.47959399,215866883,2,1.1300000000000001,0.84,57.03,0.07766491174697876,-0.035517897456884384,0.019881727173924446,0.04786276817321777,0.5186918377876282,-5.421332359313965,-2.929628372192383,-0.15,0.06,-0.04,271.71
1682338750.57956004,215966849,2,1.21,0.88,56.99,0.06136145070195198,-0.027476180344820023,-0.016543187201023102,0.016769737005233765,0.5292735695838928,-5.431251049041748,-2.926628351211548,-0.15,0.06,-0.04,271.71
1682338750.67956805,216066857,2,1.31,0.97,56.96,0.06361681967973709,-0.02507089450955391,0.018054751679301262,0.060827404260635376,0.5396960973739624,-5.442931652069092,-2.921781063079834,-0.15,0.06,-0.04,271.71
1682338750.77957702,216166866,2,1.32,1.01,56.94,0.04587341845035553,-0.02304649166762829,0.013394839130342007,0.051389917731285095,0.5474914312362671,-5.45233154296875,-2.917623519897461,-0.15,0.06,-0.05,271.71
