timestamp,TimeUS,DesRoll,Roll,DesPitch,Pitch,DesYaw,Yaw,ErrRP,ErrYaw,AEKF
1682339799.45942783,102933708,0.0,-0.61,0.0,0.08,356.24,356.25,0.0,0.0,3
1682339799.55953598,103033816,0.0,-0.61,0.0,0.08,356.24,356.25,0.0,0.0,3
1682339799.65945077,103133731,0.0,-0.61,0.0,0.08,356.24,356.24,0.0,0.0,3
1682339799.75918293,103233463,0.0,-0.61,0.0,0.07,356.24,356.24,0.0,0.0,3
1682339799.85918999,103333470,0.0,-0.62,0.0,0.08,356.24,356.24,0.0,0.0,3
1682339799.95927787,103433558,0.0,-0.61,0.0,0.08,356.24,356.24,0.0,0.0,3
1682339800.05920577,103533486,0.0,-0.61,0.0,0.08,356.24,356.25,0.0,0.0,3
1682339800.15913177,103633412,0.0,-0.61,0.0,0.08,356.24,356.24,0.0,0.0,3
1682339800.25906682,103733347,0.0,-0.61,0.0,0.08,356.24,356.24,0.0,0.0,3
1682339800.35910678,103833387,0.0,-0.61,0.0,0.08,356.24,356.24,0.0,0.01,3
1682339800.45914483,103933425,0.0,-0.6,0.0,0.08,356.24,356.24,0.0,0.01,3
1682339800.55918479,104033465,0.0,-0.6,0.0,0.08,356.24,356.24,0.0,0.01,3
1682339800.65947986,104133760,0.0,-0.6,0.0,0.08,356.24,356.24,0.0,0.01,3
1682339800.75946784,104233748,0.0,-0.6,0.0,0.07,356.24,356.24,0.0,0.01,3
1682339800.85918593,104333466,0.0,-0.59,0.0,0.07,356.24,356.23,0.0,0.01,3
1682339800.95928693,104433567,0.0,-0.59,0.0,0.07,356.24,356.24,0.0,0.01,3
1682339801.05914998,104533430,0.0,-0.59,0.0,0.08,356.24,356.23,0.0,0.01,3
1682339801.15917397,104633454,0.0,-0.59,0.0,0.08,356.24,356.23,0.0,0.01,3
1682339801.25906277,104733343,0.0,-0.59,0.0,0.07,356.24,356.23,0.0,0.01,3
1682339801.35915780,104833438,0.0,-0.59,0.0,0.07,356.24,356.22,0.0,0.01,3
1682339801.45915294,104933433,0.0,-0.59,0.0,0.07,356.21,356.22,0.01,0.01,3
1682339801.55948186,105033762,0.0,-0.58,0.0,0.07,356.21,356.22,0.01,0.01,3
1682339801.65928483,105133565,0.0,-0.58,0.0,0.06,356.21,356.22,0.01,0.01,3
1682339801.75919986,105233480,0.0,-0.58,0.0,0.06,356.21,356.22,0.01,0.01,3
1682339801.85948777,105333768,0.0,-0.5700000000000001,0.0,0.06,356.21,356.22,0.01,0.0,3
1682339801.95952177,105433802,0.0,-0.5700000000000001,0.0,0.06,356.21,356.21,0.01,0.01,3
1682339802.05944681,105533727,0.0,-0.56,0.0,0.06,356.21,356.21,0.01,0.01,3
1682339802.15940380,105633684,0.0,-0.56,0.0,0.06,356.21,356.21,0.01,0.01,3
1682339802.25957894,105733859,0.0,-0.56,0.0,0.06,356.21,356.21,0.0,0.01,3
1682339802.35941577,105833696,0.0,-0.55,0.0,0.06,356.21,356.22,0.0,0.01,3
1682339802.45976496,105934045,0.0,-0.56,0.0,0.05,356.21,356.2,0.0,0.01,3
1682339802.55947590,106033756,0.0,-0.55,0.0,0.05,356.21,356.22,0.0,0.01,3
1682339802.65947080,106133751,0.0,-0.53,0.0,0.05,356.21,356.22,0.0,0.01,3
1682339802.75946784,106233748,0.0,-0.48,0.0,0.04,356.21,356.19,0.0,0.01,3
1682339802.85946894,106333749,0.0,-0.49,0.0,0.06,356.21,356.23,0.01,0.01,3
1682339802.95948982,106433770,0.0,-0.5,0.0,0.05,356.21,356.23,0.01,0.01,3
1682339803.05941987,106533700,0.0,-0.44,0.0,0.05,356.21,356.18,0.01,0.01,3
1682339803.15956187,106633842,0.0,-0.48,0.0,0.06,356.21,356.23,0.01,0.01,3
1682339803.25961590,106733896,0.0,-0.45,0.0,0.06,356.21,356.22,0.01,0.01,3
1682339803.35979795,106834078,0.0,-0.52,0.0,0.05,356.21,356.19,0.01,0.01,3
1682339803.45970893,106933989,0.0,-0.47000000000000003,0.0,0.05,356.21,356.24,0.01,0.01,3
1682339803.55968785,107033968,0.0,-0.48,0.0,0.05,356.21,356.2,0.01,0.01,3
1682339803.65948176,107133762,0.0,-0.49,0.0,0.04,356.21,356.2,0.01,0.01,3
1682339803.75914598,107233426,0.0,-0.44,0.0,0.05,356.21,356.23,0.01,0.01,3
1682339803.85930490,107333585,0.0,-0.53,0.0,0.04,356.21,356.19,0.01,0.01,3
1682339803.95939183,107433672,0.0,-0.44,0.0,0.05,356.21,356.21,0.01,0.01,3
1682339804.05951977,107533800,0.0,-0.51,0.0,0.04,356.21,356.21,0.02,0.01,3
1682339804.15962291,107633903,0.0,-0.48,0.0,0.04,356.21,356.18,0.02,0.01,3
1682339804.25946999,107733750,0.0,-0.44,0.0,0.05,356.21,356.2,0.01,0.0,3
1682339804.35947180,107833752,0.0,-0.52,0.0,0.03,356.21,356.22,0.01,0.01,3
1682339804.45926189,107933542,0.0,-0.42,0.0,0.03,356.21,356.19,0.01,0.01,3
1682339804.55921078,108033491,0.0,-0.52,0.0,0.03,356.21,356.21,0.01,0.01,3
1682339804.65918398,108133464,0.0,-0.46,0.0,0.03,356.21,356.19,0.01,0.01,3
1682339804.75906682,108233347,0.0,-0.44,0.0,0.03,356.21,356.18,0.01,0.01,3
1682339804.85908389,108333364,0.0,-0.52,0.0,0.03,356.21,356.19,0.01,0.01,3
1682339804.95956683,108433847,0.0,-0.39,0.0,0.03,356.21,356.18,0.01,0.01,3
1682339805.05916691,108533447,0.0,-0.49,0.0,0.03,356.21,356.19,0.01,0.01,3
1682339805.15919995,108633480,0.0,-0.42,0.0,0.03,356.21,356.21,0.01,0.01,3
1682339805.25923896,108733519,0.0,-0.39,0.0,0.08,356.21,356.23,0.01,0.01,3
1682339805.35934591,108833626,0.0,-0.52,0.0,0.1,356.21,356.24,0.01,0.01,3
1682339805.45919895,108933479,0.0,-0.06,0.0,0.16,356.21,356.28000000000003,0.01,0.02,3
1682339805.55916190,109033442,-0.21,-0.09,0.11,0.09,356.21,356.34000000000003,0.01,0.02,3
1682339805.65911889,109133399,-0.45,0.34,0.24,0.11,356.21,356.32,0.01,0.02,3
1682339805.75914478,109233425,-0.58,0.24,0.35000000000000003,0.19,356.21,356.24,0.01,0.02,3
1682339805.85918999,109333470,-0.67,0.27,0.43,0.14,356.21,356.1,0.01,0.02,3
1682339805.95927095,109433551,-0.73,0.06,0.47000000000000003,0.31,356.21,355.93,0.01,0.02,3
1682339806.05950499,109533785,-0.78,-0.18,0.55,0.44,356.21,355.73,0.02,0.02,3
1682339806.15948796,109633768,-0.79,-0.39,0.6,0.68,356.21,355.53000000000003,0.02,0.01,3
1682339806.25943685,109733717,-0.59,-0.48,0.6,0.59,356.36,355.35,0.02,0.02,3
1682339806.35944390,109833724,-0.28,-0.2,0.6,0.31,356.36,355.17,0.02,0.02,3
1682339806.45942998,109933710,-0.14,0.07,0.51,0.41000000000000003,356.36,355.02,0.03,0.01,3
1682339806.55933094,110033611,0.04,0.16,0.43,0.48,356.36,354.91,0.03,0.01,3
1682339806.65937400,110133654,0.44,0.5,0.41000000000000003,0.32,356.36,354.79,0.02,0.01,3
1682339806.75973487,110234015,1.22,1.19,0.38,0.32,356.36,354.71,0.02,0.01,3
1682339806.85941386,110333694,1.78,2.2800000000000002,0.32,0.5,356.36,354.65000000000003,0.02,0.01,3
1682339806.95953584,110433816,2.02,2.84,0.31,0.3,356.36,354.6,0.02,0.01,3
1682339807.05950189,110533782,1.81,2.45,0.29,0.03,356.36,354.55,0.02,0.01,3
1682339807.15920782,110633488,1.31,1.9000000000000001,0.22,0.24,356.36,354.5,0.02,0.02,3
1682339807.25949788,110733778,0.62,1.1300000000000001,0.2,0.2,356.36,354.5,0.02,0.03,3
1682339807.35950279,110833783,-0.15,0.13,0.22,0.11,356.36,354.52,0.02,0.03,3
1682339807.45964193,110933922,-0.93,-0.81,0.15,0.42,356.36,354.5,0.02,0.03,3
1682339807.55942392,111033704,-1.6,-1.97,0.18,0.2,356.36,354.55,0.02,0.03,3
1682339807.65956998,111133850,-1.78,-2.46,0.19,0.25,356.36,354.63,0.01,0.05,3
1682339807.75941181,111233692,-1.6600000000000001,-2.25,0.19,0.33,356.36,354.71,0.01,0.05,3
1682339807.85980678,111334087,-1.41,-1.8900000000000001,0.22,0.37,356.36,354.81,0.01,0.04,3
1682339807.95986986,111434150,-1.11,-1.44,0.24,0.38,356.36,354.90000000000003,0.01,0.04,3
1682339808.05951190,111533792,-0.8,-0.9,0.26,0.4,356.36,354.97,0.02,0.03,3
1682339808.15950394,111633784,-0.38,-0.53,0.27,0.43,356.36,355.04,0.02,0.03,3
1682339808.25951695,111733797,0.01,-0.11,0.33,0.22,356.36,355.1,0.02,0.02,3
1682339808.35945988,111833740,0.33,0.42,0.39,0.22,356.36,355.16,0.02,0.02,3
1682339808.45941091,111933691,0.68,1.0,0.46,0.34,356.36,355.23,0.01,0.02,3
1682339808.55952382,112033804,1.06,1.58,0.5700000000000001,0.32,356.36,355.27,0.01,0.02,3
1682339808.65942788,112133708,1.3900000000000001,1.9100000000000001,0.65,0.59,356.36,355.32,0.01,0.01,3
1682339808.75977683,112234057,1.57,2.0300000000000002,0.7000000000000001,0.79,356.36,355.37,0.01,0.01,3
1682339808.85970879,112333989,1.7,1.95,0.75,0.81,356.36,355.40000000000003,0.01,0.02,3
1682339808.95953393,112433814,2.04,1.96,0.76,0.89,356.36,355.38,0.01,0.02,3
1682339809.05950785,112533788,2.5500000000000003,2.3000000000000003,0.75,0.92,356.36,355.38,0.02,0.02,3
1682339809.15950084,112633781,2.98,2.85,0.7000000000000001,0.87,356.36,355.37,0.02,0.03,3
1682339809.25946093,112733741,3.25,3.18,0.63,0.8,356.38,355.36,0.02,0.02,3
1682339809.35941076,112833691,3.38,3.41,0.5700000000000001,0.64,356.93,355.35,0.02,0.02,3
1682339809.45940089,112933681,3.44,3.5500000000000003,0.47000000000000003,0.62,357.94,355.45,0.03,0.02,3
1682339809.55956388,113033844,3.44,3.49,0.36,0.51,359.01,355.75,0.03,0.02,3
1682339809.65949583,113133776,3.47,3.49,0.29,0.37,0.0,356.19,0.03,0.02,3
1682339809.75948191,113233762,3.5500000000000003,3.48,0.22,0.33,0.74,356.77,0.03,0.02,3
1682339809.85947800,113333758,3.79,3.68,0.17,0.32,1.1300000000000001,357.43,0.03,0.02,3
1682339809.95974088,113434021,3.92,3.99,0.14,0.34,1.42,358.09000000000003,0.03,0.02,3
1682339810.05916595,113533446,3.98,4.0200000000000005,0.11,0.31,1.72,358.73,0.04,0.03,3
1682339810.15908885,113633369,4.01,3.96,0.07,0.26,2.05,359.38,0.04,0.02,3
1682339810.25913978,113733420,4.01,3.94,0.07,0.23,2.72,0.04,0.05,0.03,3
1682339810.35918379,113833464,3.96,3.83,0.04,0.27,3.7,0.81,0.05,0.03,3
1682339810.45918083,113933461,3.93,3.63,0.06,0.3,5.19,1.7,0.05,0.02,3
1682339810.55949998,114033780,3.88,3.5700000000000003,0.06,0.39,6.3100000000000005,2.7600000000000002,0.05,0.03,3
1682339810.65926981,114133550,3.83,3.54,0.09,0.4,7.54,3.91,0.05,0.02,3
1682339810.75926495,114233545,3.7800000000000002,3.52,0.09,0.47000000000000003,8.86,5.13,0.05,0.02,3
1682339810.85947990,114333760,3.73,3.4,0.11,0.49,10.02,6.45,0.04,0.02,3
1682339810.95920992,114433490,3.7,3.3200000000000003,0.15,0.48,11.15,7.8100000000000005,0.04,0.02,3
1682339811.05935287,114533633,3.68,3.3200000000000003,0.24,0.5,12.34,9.22,0.06,0.02,3
1682339811.15934992,114633630,3.67,3.35,0.29,0.5700000000000001,13.58,10.69,0.06,0.01,3
1682339811.25937986,114733660,3.62,3.3000000000000003,0.39,0.54,14.83,12.18,0.06,0.01,3
1682339811.35939693,114833677,3.44,3.27,0.46,0.6,16.15,13.69,0.06,0.01,3
1682339811.45937300,114933653,3.1,3.1,0.54,0.6900000000000001,17.42,15.23,0.05,0.01,3
1682339811.55967689,115033957,2.45,2.49,0.66,0.7000000000000001,18.69,16.78,0.05,0.01,3
1682339811.65952396,115133804,1.92,1.78,0.77,0.93,19.87,18.31,0.05,0.02,3
1682339811.75938797,115233668,1.6400000000000001,1.25,0.85,1.06,21.04,19.78,0.05,0.04,3
1682339811.85938692,115333667,1.46,1.07,0.92,1.03,22.17,21.26,0.06,0.03,3
1682339811.95970297,115433983,1.42,1.06,0.97,1.11,22.78,22.650000000000002,0.06,0.03,3
1682339812.05940390,115533684,1.34,1.19,1.11,1.17,22.84,23.88,0.07,0.04,3
1682339812.15951586,115633796,0.98,1.25,1.48,1.42,23.53,24.89,0.07,0.04,3
1682339812.25944090,115733721,0.33,0.66,1.73,1.9100000000000001,24.46,25.8,0.08,0.06,3
1682339812.35920882,115833489,-0.39,-0.18,1.87,2.22,25.5,26.7,0.08,0.07,3
1682339812.45925379,115933534,-1.1500000000000001,-1.04,1.9100000000000001,2.25,26.97,27.6,0.07,0.07,3
1682339812.55932283,116033603,-1.58,-1.94,1.87,2.21,28.59,28.560000000000002,0.07,0.09,3
1682339812.65928292,116133563,-1.55,-2.22,1.76,1.98,30.05,29.61,0.06,0.1,3
1682339812.75915194,116233432,-1.23,-1.99,1.57,1.72,31.35,30.73,0.06,0.12,3
1682339812.85908294,116333363,-0.48,-1.2,1.45,1.47,32.39,31.84,0.06,0.14,3
1682339812.95917678,116433457,0.29,-0.22,1.48,1.36,33.33,32.89,0.06,0.16,3
1682339813.05927777,116533558,0.79,0.92,1.55,1.53,33.96,33.910000000000004,0.05,0.18,3
1682339813.15917277,116633453,0.98,1.19,1.67,1.7,34.27,34.84,0.05,0.2,3
1682339813.25949883,116733779,0.88,1.19,1.79,1.9100000000000001,34.57,35.62,0.07,0.22,3
1682339813.35950994,116833790,0.8200000000000001,0.87,1.84,2.04,35.08,36.28,0.07,0.22,3
1682339813.45920181,116933482,0.79,0.65,1.87,2.0,35.94,36.9,0.07,0.22,3
1682339813.55931497,117033595,0.81,0.71,1.84,1.96,37.300000000000004,37.550000000000004,0.07,0.23,3
1682339813.65920877,117133489,0.9,0.71,1.82,1.87,38.58,38.33,0.06,0.26,3
1682339813.75923085,117233511,0.9400000000000001,0.8,1.82,1.8,39.79,39.2,0.06,0.27,3
1682339813.85912180,117333402,0.96,0.73,1.84,1.8900000000000001,41.46,40.1,0.08,0.28,3
1682339813.95930099,117433581,0.98,0.76,1.82,1.8900000000000001,43.11,41.19,0.08,0.31,3
1682339814.05919981,117533480,0.98,0.74,1.81,1.9000000000000001,44.44,42.42,0.08,0.33,3
1682339814.15949297,117633773,0.98,0.88,1.85,1.86,45.12,43.74,0.08,0.33,3
1682339814.25929689,117733577,1.1,0.92,1.87,1.96,45.74,44.96,0.08,0.35000000000000003,3
1682339814.35925388,117833534,1.3,1.29,1.8800000000000001,2.06,46.33,46.1,0.08,0.36,3
1682339814.45948386,117933764,1.37,1.55,1.84,1.97,46.9,47.21,0.08,0.38,3
1682339814.55955887,118033839,1.37,1.53,1.73,1.8800000000000001,47.44,48.24,0.08,0.39,3
1682339814.65945482,118133735,1.37,1.4000000000000001,1.6300000000000001,1.67,47.95,49.21,0.09,0.41000000000000003,3
1682339814.75941586,118233696,1.37,1.31,1.54,1.52,48.24,50.08,0.09,0.43,3
1682339814.85955381,118333834,1.37,1.34,1.52,1.3900000000000001,48.63,50.84,0.09,0.45,3
1682339814.95949197,118433772,1.42,1.43,1.53,1.3900000000000001,49.32,51.49,0.09,0.47000000000000003,3
1682339815.05981684,118534097,1.47,1.42,1.56,1.3900000000000001,50.08,52.1,0.08,0.49,3
1682339815.15972590,118634006,1.55,1.52,1.51,1.44,50.61,52.67,0.08,0.51,3
1682339815.25950289,118733783,1.51,1.6400000000000001,1.47,1.35,51.2,53.14,0.08,0.52,3
1682339815.35949492,118833775,1.43,1.6600000000000001,1.4000000000000001,1.27,51.95,53.53,0.08,0.54,3
1682339815.45917296,118933453,1.29,1.43,1.1400000000000001,1.16,52.32,53.9,0.08,0.55,3
1682339815.55908585,119033366,1.06,1.23,0.8300000000000001,0.71,52.95,54.21,0.08,0.56,3
1682339815.65913296,119133413,0.73,0.91,0.7000000000000001,0.45,54.33,54.480000000000004,0.07,0.5700000000000001,3
1682339815.75918579,119233466,0.5700000000000001,0.47000000000000003,0.74,0.5700000000000001,56.21,54.9,0.07,0.5700000000000001,3
1682339815.85925889,119333539,0.46,0.42,0.86,0.73,58.04,55.53,0.06,0.5700000000000001,3
1682339815.95956397,119433844,0.42,0.36,1.0,0.97,59.85,56.35,0.06,0.5700000000000001,3
1682339816.05952597,119533806,0.4,0.21,1.01,1.1300000000000001,61.56,57.39,0.06,0.5700000000000001,3
1682339816.15947700,119633757,0.27,0.31,0.93,1.1400000000000001,62.99,58.550000000000004,0.06,0.5700000000000001,3
1682339816.25949883,119733779,-0.17,-0.1,0.8,1.02,64.02,59.77,0.06,0.58,3
1682339816.35914183,119833422,-0.8,-0.7000000000000001,0.63,0.79,64.45,61.02,0.06,0.6,3
1682339816.45932794,119933608,-1.51,-1.49,0.54,0.52,64.6,62.18,0.05,0.61,3
1682339816.55934787,120033628,-2.22,-2.06,0.54,0.51,64.6,63.24,0.05,0.62,3
1682339816.65952682,120133807,-2.41,-2.7600000000000002,0.61,0.62,64.6,64.19,0.06,0.63,3
1682339816.75938296,120233663,-2.09,-2.5500000000000003,0.66,0.77,64.6,65.05,0.06,0.63,3
1682339816.85944486,120333725,-1.36,-1.8800000000000001,0.71,0.76,64.6,65.82000000000001,0.07,0.63,3
1682339816.95948482,120433765,-0.44,-0.71,0.6900000000000001,0.73,64.6,66.48,0.07,0.63,3
1682339817.05943990,120533720,0.53,0.43,0.62,0.5700000000000001,64.6,67.02,0.08,0.63,3
1682339817.15962577,120633906,1.06,1.43,0.54,0.34,64.6,67.45,0.08,0.63,3
1682339817.25918484,120733465,1.29,1.95,0.49,0.33,64.6,67.79,0.09,0.64,3
1682339817.35910177,120833382,1.3900000000000001,1.9000000000000001,0.66,0.38,64.6,68.0,0.09,0.65,3
1682339817.45913386,120933414,1.35,1.84,0.73,0.66,64.6,68.12,0.07,0.66,3
1682339817.55918193,121033462,1.2,1.49,0.5,0.67,64.6,68.14,0.07,0.66,3
1682339817.65918493,121133465,1.06,1.17,0.59,0.27,64.6,68.06,0.06,0.67,3
1682339817.75926280,121233543,0.9500000000000001,1.07,1.03,0.59,64.6,67.92,0.06,0.68,3
1682339817.85927391,121333554,0.89,1.02,1.6500000000000001,1.46,64.6,67.74,0.05,0.67,3
1682339817.95962596,121433906,0.86,1.0,2.35,2.25,64.6,67.46000000000001,0.05,0.66,3
1682339818.05950499,121533785,0.85,1.0,3.11,3.0300000000000002,64.6,67.12,0.05,0.66,3
1682339818.15916181,121633442,0.7000000000000001,0.86,3.6,3.86,64.63,66.7,0.05,0.65,3
1682339818.25945783,121733738,0.53,0.62,3.59,4.05,64.73,66.26,0.05,0.63,3
1682339818.35940695,121833687,0.41000000000000003,0.28,3.2800000000000002,3.56,64.8,65.83,0.05,0.62,3
1682339818.45952177,121933802,0.06,0.21,2.79,2.95,64.85,65.44,0.04,0.63,3
1682339818.55942297,122033703,-0.51,-0.21,2.24,2.21,64.94,65.09,0.04,0.62,3
1682339818.65949297,122133773,-1.19,-1.1,1.72,1.44,64.99,64.77,0.05,0.61,3
1682339818.75948882,122233769,-1.94,-1.71,1.29,0.91,65.05,64.5,0.05,0.61,3
1682339818.85967088,122333951,-2.71,-2.64,1.01,0.46,65.45,64.3,0.05,0.61,3
1682339818.95971394,122433994,-3.49,-3.47,0.89,0.18,66.54,64.23,0.05,0.6,3
1682339819.05919886,122533479,-4.2700000000000005,-4.23,0.9,0.09,67.8,64.37,0.04,0.59,3
1682339819.15909195,122633372,-4.39,-4.78,1.03,0.18,69.06,64.77,0.04,0.59,3
1682339819.25914288,122733423,-3.67,-4.68,1.2,0.38,70.61,65.36,0.04,0.5700000000000001,3
1682339819.35918283,122833463,-2.42,-3.08,1.41,0.71,72.29,66.17,0.04,0.55,3
1682339819.45917177,122933452,-1.01,-1.1500000000000001,1.58,1.06,73.7,67.19,0.04,0.52,3
1682339819.55929899,123033579,0.47000000000000003,0.41000000000000003,1.7,1.3800000000000001,74.26,68.34,0.04,0.51,3
1682339819.65927696,123133557,1.54,1.98,1.73,1.73,74.27,69.47,0.03,0.51,3
1682339819.75920987,123233490,2.04,2.88,1.74,1.84,74.27,70.5,0.03,0.52,3
1682339819.85919976,123333480,2.06,2.86,1.67,1.76,74.27,71.51,0.04,0.52,3
1682339819.95919681,123433477,1.96,2.6,1.6,1.67,74.27,72.45,0.04,0.53,3
1682339820.05963087,123533911,1.82,2.2,1.52,1.59,74.27,73.33,0.05,0.55,3
1682339820.15912700,123633407,1.6600000000000001,1.84,1.4000000000000001,1.48,74.27,74.11,0.05,0.56,3
1682339820.25920892,123733489,1.77,1.76,1.28,1.42,74.27,74.78,0.05,0.56,3
1682339820.35919785,123833478,2.08,1.99,1.17,1.29,74.27,75.34,0.05,0.56,3
1682339820.45925593,123933536,2.21,2.42,1.06,1.19,74.27,75.79,0.05,0.5700000000000001,3
1682339820.55926490,124033545,2.21,2.38,0.9500000000000001,1.05,74.27,76.13,0.05,0.58,3
1682339820.65920496,124133485,1.92,2.27,0.8300000000000001,1.0,74.27,76.36,0.04,0.59,3
1682339820.75920296,124233483,1.3900000000000001,1.81,0.66,0.86,74.27,76.49,0.04,0.59,3
1682339820.85914993,124333430,0.68,0.97,0.48,0.67,74.27,76.53,0.03,0.6,3
1682339820.95962477,124433905,-0.09,0.11,0.12,0.41000000000000003,74.27,76.49,0.03,0.61,3
1682339821.05937386,124533654,-0.88,-0.98,-0.37,-0.08,74.27,76.38,0.03,0.61,3
1682339821.15937781,124633658,-1.68,-1.79,-1.1400000000000001,-0.77,74.27,76.21000000000001,0.03,0.62,3
1682339821.25939298,124733673,-2.2600000000000002,-2.5100000000000002,-1.36,-1.6400000000000001,74.27,76.02,0.03,0.62,3
1682339821.35943794,124833718,-2.25,-2.81,-1.08,-1.61,74.27,75.76,0.03,0.62,3
1682339821.45938778,124933668,-1.92,-2.32,-0.81,-0.9,74.27,75.44,0.03,0.61,3
1682339821.55938387,125033664,-1.42,-1.56,-0.56,-0.6,74.27,75.13,0.03,0.58,3
1682339821.65944576,125133726,-0.6900000000000001,-0.93,-0.66,-0.43,74.27,74.84,0.02,0.5700000000000001,3
1682339821.75937080,125233651,0.08,0.0,-1.06,-0.6900000000000001,74.27,74.56,0.02,0.55,3
1682339821.85944486,125333725,0.62,0.96,-1.42,-1.42,74.27,74.29,0.02,0.55,3
1682339821.95949292,125433773,0.91,1.32,-1.62,-1.85,74.27,74.06,0.02,0.54,3
1682339822.05955577,125533836,1.06,1.36,-1.61,-1.82,74.29,73.84,0.02,0.53,3
1682339822.15959382,125633874,1.1400000000000001,1.35,-1.5,-1.6600000000000001,74.55,73.7,0.02,0.52,3
1682339822.25926590,125733546,1.17,1.3900000000000001,-1.54,-1.41,74.87,73.63,0.02,0.51,3
1682339822.35927296,125833553,1.19,1.27,-1.49,-1.51,75.45,73.67,0.02,0.51,3
1682339822.45924997,125933530,1.2,1.37,-1.29,-1.3800000000000001,76.2,73.82000000000001,0.01,0.49,3
1682339822.55919695,126033477,1.21,1.45,-1.07,-0.9500000000000001,77.0,74.14,0.01,0.49,3
1682339822.65950489,126133785,1.21,1.4000000000000001,-0.96,-0.72,77.82000000000001,74.59,0.02,0.48,3
1682339822.75944781,126233728,1.2,1.23,-0.86,-0.71,78.58,75.18,0.02,0.48,3
1682339822.85941195,126333692,1.17,1.24,-0.81,-0.61,78.91,75.86,0.02,0.48,3
1682339822.95957685,126433857,1.17,1.23,-0.8200000000000001,-0.62,78.91,76.56,0.02,0.48,3
1682339823.05944180,126533722,1.18,1.19,-0.81,-0.72,78.91,77.18,0.02,0.48,3
1682339823.15924883,126633529,1.2,1.2,-0.78,-0.7000000000000001,78.91,77.79,0.02,0.49,3
1682339823.25925994,126733540,1.21,1.1500000000000001,-0.73,-0.66,78.91,78.37,0.02,0.49,3
1682339823.35920477,126833485,1.21,1.07,-0.75,-0.66,78.91,78.89,0.02,0.49,3
1682339823.45914078,126933421,1.21,1.09,-0.79,-0.7000000000000001,78.91,79.39,0.03,0.48,3
1682339823.55916691,127033447,1.19,1.04,-1.11,-0.8,78.91,79.79,0.03,0.49,3
1682339823.65911198,127133392,1.17,0.9500000000000001,-1.55,-1.36,78.91,80.14,0.03,0.49,3
1682339823.75912285,127233403,1.1300000000000001,0.92,-1.6400000000000001,-1.87,78.91,80.41,0.03,0.5,3
1682339823.85954595,127333826,1.05,0.93,-1.58,-1.72,78.91,80.62,0.03,0.5,3
1682339823.95954895,127433829,0.86,0.81,-1.4000000000000001,-1.5,78.91,80.76,0.03,0.49,3
1682339824.05950880,127533789,0.73,0.74,-1.3,-1.28,78.91,80.83,0.03,0.48,3
1682339824.15949488,127633775,0.61,0.56,-1.32,-1.12,78.91,80.85000000000001,0.03,0.47000000000000003,3
1682339824.25959396,127733874,0.42,0.49,-1.41,-1.18,78.91,80.81,0.03,0.47000000000000003,3
1682339824.35949087,127833771,0.32,0.19,-1.61,-1.26,78.91,80.72,0.03,0.46,3
1682339824.45948887,127933769,0.23,0.05,-2.0,-1.53,78.91,80.61,0.03,0.46,3
1682339824.55944681,128033727,0.15,-0.09,-2.0100000000000002,-2.0,78.91,80.47,0.03,0.46,3
1682339824.65941000,128133690,0.15,-0.14,-1.83,-1.95,78.91,80.32000000000001,0.03,0.46,3
1682339824.75986195,128234142,0.22,-0.06,-1.67,-1.6,78.91,80.13,0.03,0.46,3
1682339824.85949397,128333774,0.26,0.07,-1.51,-1.45,78.91,79.95,0.03,0.44,3
1682339824.95929193,128433572,0.35000000000000003,0.07,-1.4000000000000001,-1.3,78.91,79.79,0.03,0.44,3
1682339825.05926299,128533543,0.52,0.27,-1.33,-1.26,78.91,79.66,0.03,0.43,3
1682339825.15920877,128633489,0.8300000000000001,0.63,-1.08,-1.25,78.91,79.55,0.03,0.42,3
1682339825.25919986,128733480,0.98,1.0,-0.89,-0.92,78.91,79.44,0.03,0.41000000000000003,3
1682339825.35915899,128833439,1.06,1.1500000000000001,-0.7000000000000001,-0.6900000000000001,78.91,79.39,0.03,0.41000000000000003,3
1682339825.45910096,128933381,1.06,1.0,-0.46,-0.55,78.91,79.32000000000001,0.03,0.41000000000000003,3
1682339825.55913782,129033418,0.75,0.91,0.05,-0.15,78.91,79.27,0.03,0.4,3
1682339825.65926886,129133549,0.27,0.45,0.71,0.5700000000000001,78.91,79.28,0.04,0.4,3
1682339825.75916696,129233447,-0.37,-0.19,1.43,1.4000000000000001,78.91,79.26,0.04,0.39,3
1682339825.85948777,129333768,-1.09,-0.96,2.19,2.19,78.91,79.24,0.04,0.37,3
1682339825.95953488,129433815,-1.86,-1.76,2.7800000000000002,3.04,78.91,79.25,0.04,0.36,3
1682339826.05926180,129533542,-2.58,-2.54,2.74,3.44,78.91,79.26,0.04,0.35000000000000003,3
1682339826.15921879,129633499,-2.7600000000000002,-3.22,2.37,2.94,78.91,79.31,0.04,0.35000000000000003,3
1682339826.25916386,129733444,-2.5500000000000003,-3.02,1.83,2.13,78.91,79.39,0.04,0.36,3
1682339826.35922885,129833509,-1.8800000000000001,-2.33,1.2,1.46,78.91,79.45,0.04,0.35000000000000003,3
1682339826.45913792,129933418,-0.86,-1.3800000000000001,0.72,0.62,78.91,79.49,0.03,0.34,3
1682339826.55920696,130033487,0.26,0.1,0.79,0.35000000000000003,78.91,79.5,0.03,0.33,3
1682339826.65947485,130133755,1.37,1.45,0.9400000000000001,0.78,78.91,79.53,0.04,0.32,3
1682339826.75927281,130233553,2.33,2.6,1.08,1.09,78.91,79.55,0.04,0.3,3
1682339826.85944486,130333725,2.77,3.4,1.22,1.16,78.91,79.56,0.04,0.29,3
1682339826.95949578,130433776,3.0,3.5100000000000002,1.34,1.33,78.91,79.59,0.04,0.29,3
1682339827.05940199,130533682,3.04,3.4,1.78,1.54,78.91,79.57000000000001,0.04,0.29,3
1682339827.15944481,130633725,2.57,3.2800000000000002,2.9,2.21,78.91,79.59,0.04,0.28,3
1682339827.25936389,130733644,1.93,2.44,3.44,3.75,78.91,79.63,0.04,0.28,3
1682339827.35941792,130833698,1.58,1.44,3.64,4.24,78.91,79.58,0.04,0.27,3
1682339827.45940590,130933686,1.43,1.04,3.66,3.77,78.91,79.52,0.04,0.29,3
1682339827.55940795,131033688,1.4000000000000001,1.27,3.48,3.52,78.91,79.46000000000001,0.04,0.29,3
1682339827.65967298,131133953,1.3800000000000001,1.25,3.41,3.2,78.91,79.4,0.05,0.29,3
1682339827.75966692,131233947,1.46,1.3800000000000001,4.19,3.25,78.91,79.33,0.05,0.28,3
1682339827.85948181,131333762,1.5,1.59,4.71,4.51,78.91,79.3,0.06,0.27,3
1682339827.95953798,131433818,1.35,1.6,4.5,5.25,78.91,79.26,0.06,0.24,3
1682339828.05916476,131533445,0.92,1.2,4.33,4.29,78.91,79.17,0.06,0.23,3
1682339828.15909386,131633374,0.23,0.54,4.01,3.72,79.03,79.11,0.06,0.25,3
1682339828.25912189,131733402,-0.5,-0.47000000000000003,3.66,3.5100000000000002,79.19,79.10000000000001,0.06,0.26,3
1682339828.35919094,131833471,-1.27,-1.2,3.45,3.06,79.34,79.15,0.06,0.27,3
1682339828.45926285,131933543,-2.04,-1.92,3.2800000000000002,2.89,79.47,79.22,0.05,0.26,3
1682339828.55949378,132033774,-2.41,-2.8000000000000003,3.19,2.86,79.58,79.34,0.05,0.26,3
1682339828.65949798,132133778,-2.25,-2.88,3.11,2.8000000000000003,79.68,79.46000000000001,0.04,0.26,3
1682339828.75948882,132233769,-1.83,-2.3000000000000003,3.0500000000000003,2.75,79.73,79.59,0.04,0.24,3
1682339828.85947800,132333758,-1.31,-1.62,2.88,2.72,79.74,79.76,0.03,0.23,3
1682339828.95918489,132433465,-0.73,-1.03,2.79,2.48,79.74,79.9,0.03,0.22,3
1682339829.05946183,132533742,-0.19,-0.29,2.86,2.5100000000000002,79.74,80.05,0.03,0.21,3
1682339829.15941596,132633696,0.33,0.26,2.86,2.68,79.74,80.17,0.03,0.19,3
1682339829.25956798,132733848,0.81,0.86,2.82,2.65,79.74,80.27,0.04,0.19,3
1682339829.35944796,132833728,1.01,1.3800000000000001,2.79,2.57,79.74,80.39,0.04,0.19,3
1682339829.45950580,132933786,1.1500000000000001,1.3800000000000001,2.72,2.52,79.74,80.47,0.04,0.18,3
1682339829.55950594,133033786,1.22,1.4000000000000001,2.69,2.38,79.74,80.53,0.04,0.17,3
1682339829.65949678,133133777,1.26,1.43,2.66,2.34,79.74,80.60000000000001,0.04,0.16,3
1682339829.75968099,133233961,1.09,1.34,2.59,2.4,79.74,80.61,0.04,0.16,3
1682339829.85915279,133333433,0.6900000000000001,0.91,2.23,2.21,79.74,80.63,0.03,0.15,3
1682339829.95923281,133433513,0.76,0.41000000000000003,1.6400000000000001,1.6500000000000001,79.74,80.62,0.03,0.14,3
1682339830.05913281,133533413,1.1500000000000001,0.72,0.91,0.8,79.74,80.61,0.03,0.15,3
1682339830.15917993,133633460,1.46,1.55,0.1,-0.02,79.74,80.55,0.03,0.15,3
1682339830.25916696,133733447,1.62,1.78,-0.6900000000000001,-0.93,79.74,80.47,0.04,0.16,3
1682339830.35949397,133833774,1.69,1.84,-1.49,-1.7,79.74,80.37,0.04,0.17,3
1682339830.45952487,133933805,1.6600000000000001,1.77,-2.29,-2.46,79.74,80.27,0.03,0.17,3
1682339830.55958390,134033864,1.56,1.73,-3.09,-3.22,79.74,80.15,0.03,0.16,3
1682339830.65948582,134133766,1.43,1.48,-3.89,-3.94,79.74,80.02,0.03,0.14,3
1682339830.75917697,134233457,1.27,1.3800000000000001,-4.34,-4.65,79.74,79.89,0.03,0.14,3
1682339830.85937500,134333655,1.12,1.17,-4.18,-4.8,79.74,79.77,0.03,0.14,3
1682339830.95949984,134433780,0.97,0.96,-3.7,-4.07,79.74,79.68,0.03,0.12,3
1682339831.05946398,134533744,0.8,0.93,-3.0700000000000003,-3.21,79.74,79.59,0.03,0.1,3
1682339831.15936589,134633646,0.63,0.67,-2.35,-2.33,79.74,79.51,0.03,0.08,3
1682339831.25942898,134733709,0.5,0.65,-1.6,-1.3800000000000001,79.74,79.42,0.02,0.07,3
1682339831.35944390,134833724,0.4,0.37,-0.8200000000000001,-0.6,79.74,79.38,0.02,0.06,3
1682339831.45944285,134933723,0.34,0.22,-0.03,0.23,79.74,79.32000000000001,0.02,0.05,3
1682339831.55946684,135033747,0.25,0.25,0.7000000000000001,1.03,79.74,79.32000000000001,0.02,0.05,3
1682339831.65947795,135133758,0.21,0.21,1.09,1.6500000000000001,79.74,79.3,0.02,0.04,3
1682339831.75971580,135233996,0.17,0.09,1.24,1.72,79.74,79.31,0.02,0.04,3
1682339831.85912895,135333409,0.14,0.01,1.18,1.6,79.74,79.32000000000001,0.02,0.04,3
1682339831.95930576,135433586,0.13,0.05,1.01,1.32,79.74,79.35000000000001,0.02,0.05,3
1682339832.05918980,135533470,0.1,0.09,0.84,0.9500000000000001,79.74,79.37,0.02,0.05,3
1682339832.15925598,135633536,0.11,-0.01,0.72,0.76,79.74,79.38,0.02,0.06,3
1682339832.25926590,135733546,0.07,0.03,0.64,0.64,79.74,79.42,0.01,0.06,3
1682339832.35926199,135833542,0.0,-0.05,0.63,0.58,79.74,79.43,0.01,0.06,3
1682339832.45925689,135933537,-0.05,-0.06,0.64,0.65,79.74,79.44,0.01,0.05,3
1682339832.55918097,136033461,-0.15,-0.06,0.6900000000000001,0.71,79.74,79.47,0.01,0.04,3
1682339832.65964794,136133928,-0.2,-0.14,0.73,0.79,79.74,79.49,0.01,0.04,3
1682339832.75914693,136233427,-0.28,-0.24,0.73,0.85,79.74,79.49,0.01,0.04,3
1682339832.85918999,136333470,-0.29,-0.22,0.73,0.8,79.74,79.52,0.01,0.04,3
1682339832.95926285,136433543,-0.31,-0.23,0.71,0.77,79.74,79.53,0.01,0.04,3
1682339833.05926585,136533546,-0.27,-0.37,0.6900000000000001,0.73,79.74,79.56,0.01,0.03,3
1682339833.15926600,136633546,-0.21,-0.22,0.66,0.68,79.74,79.57000000000001,0.01,0.03,3
1682339833.25926280,136733543,-0.12,-0.16,0.61,0.64,79.74,79.59,0.01,0.03,3
1682339833.35924983,136833530,-0.08,-0.12,0.54,0.59,79.74,79.57000000000001,0.01,0.03,3
1682339833.45917296,136933453,-0.02,-0.01,0.47000000000000003,0.51,79.74,79.58,0.01,0.03,3
1682339833.55949688,137033777,0.0,0.09,0.4,0.43,79.74,79.57000000000001,0.01,0.03,3
1682339833.65949178,137133772,0.09,0.03,0.35000000000000003,0.37,79.74,79.56,0.01,0.03,3
1682339833.75956678,137233847,0.12,0.21,0.31,0.32,79.74,79.55,0.01,0.02,3
1682339833.85953283,137333813,0.25,0.28,0.29,0.3,79.74,79.55,0.01,0.02,3
1682339833.95958877,137433869,1.49,0.48,0.35000000000000003,0.29,79.74,79.54,0.01,0.03,3
1682339834.05953884,137533819,3.67,2.37,0.44,0.4,79.74,79.52,0.01,0.03,3
1682339834.15952682,137633807,4.65,5.4,0.5,0.52,79.74,79.55,0.01,0.03,3
1682339834.25952697,137733807,4.94,6.38,0.51,0.61,79.75,79.58,0.01,0.04,3
1682339834.35953784,137833818,4.38,5.47,0.47000000000000003,0.6,79.74,79.55,0.01,0.04,3
1682339834.45950079,137933781,3.3200000000000003,3.95,0.43,0.51,79.74,79.52,0.02,0.03,3
1682339834.55943990,138033720,2.43,2.44,0.36,0.46,79.74,79.52,0.02,0.03,3
1682339834.65955377,138133834,1.8800000000000001,1.4000000000000001,0.33,0.36,79.74,79.49,0.02,0.03,3
1682339834.75960398,138233884,1.5,1.04,0.31,0.32,79.73,79.5,0.02,0.04,3
1682339834.85925388,138333534,1.26,0.97,0.29,0.29,79.73,79.47,0.03,0.04,3
1682339834.95932889,138433609,0.92,0.74,0.22,0.3,79.73,79.45,0.03,0.04,3
1682339835.05927992,138533560,0.62,0.44,0.19,0.16,79.73,79.42,0.03,0.04,3
1682339835.15926600,138633546,0.23,0.15,0.13,0.15,79.73,79.39,0.03,0.03,3
1682339835.25919986,138733480,-0.09,-0.1,0.15,0.09,79.73,79.36,0.03,0.03,3
1682339835.35918593,138833466,-0.38,-0.44,0.16,0.14,79.73,79.32000000000001,0.03,0.03,3
1682339835.45916200,138933442,-0.58,-0.71,0.21,0.23,79.73,79.26,0.02,0.03,3
1682339835.55956793,139033848,-0.6900000000000001,-0.81,0.24,0.24,79.73,79.22,0.02,0.03,3
1682339835.65947795,139133758,-0.76,-0.86,0.26,0.28,79.73,79.18,0.02,0.03,3
1682339835.75927997,139233560,-0.75,-0.87,0.31,0.35000000000000003,79.73,79.14,0.02,0.03,3
1682339835.85927987,139333560,-0.6900000000000001,-0.8,0.31,0.4,79.73,79.10000000000001,0.02,0.03,3
1682339835.95931292,139433593,-0.66,-0.58,0.33,0.35000000000000003,79.73,79.09,0.02,0.04,3
1682339836.05929279,139533573,-0.59,-0.44,0.35000000000000003,0.33,79.73,79.05,0.02,0.03,3
1682339836.15919995,139633480,-0.52,-0.54,0.36,0.37,79.73,79.02,0.02,0.04,3
1682339836.25917387,139733454,-0.44,-0.42,0.38,0.33,79.73,78.99,0.01,0.06,3
1682339836.35918498,139833465,-0.38,-0.41000000000000003,0.38,0.35000000000000003,79.73,78.97,0.01,0.06,3
1682339836.45956898,139933849,-0.29,-0.33,0.37,0.39,79.73,78.96000000000001,0.01,0.07,3
1682339836.55948997,140033770,-0.18,-0.28,0.4,0.45,79.73,78.95,0.01,0.06,3
1682339836.65946889,140133749,-0.07,-0.14,0.41000000000000003,0.45,79.73,78.98,0.01,0.06,3
1682339836.75946593,140233746,0.01,0.02,0.4,0.45,79.73,78.99,0.01,0.06,3
1682339836.85955286,140333833,0.08,0.19,0.37,0.38,79.73,79.02,0.01,0.06,3
1682339836.95951486,140433795,0.14,0.24,0.33,0.3,79.73,79.03,0.01,0.05,3
1682339837.05955982,140533840,0.17,0.27,0.36,0.26,79.73,79.06,0.01,0.06,3
1682339837.15938878,140633669,0.17,0.32,0.38,0.3,79.73,79.07000000000001,0.01,0.06,3
1682339837.25940681,140733687,0.17,0.17,0.47000000000000003,0.39,79.73,79.09,0.01,0.06,3
1682339837.35960197,140833882,0.19,0.1,0.5,0.48,79.73,79.10000000000001,0.01,0.06,3
1682339837.45947194,140933752,0.26,0.25,0.53,0.48,79.73,79.14,0.01,0.07,3
1682339837.55927682,141033557,0.27,0.29,0.56,0.44,79.73,79.14,0.01,0.07,3
1682339837.65953183,141133812,0.31,0.28,0.53,0.49,79.73,79.16,0.01,0.07,3
1682339837.75952482,141233805,0.33,0.47000000000000003,0.51,0.54,79.73,79.17,0.01,0.09,3
1682339837.85953999,141333820,0.36,0.35000000000000003,0.53,0.43,79.73,79.15,0.01,0.09,3
1682339837.95955896,141433839,0.39,0.39,0.53,0.41000000000000003,79.73,79.13,0.01,0.09,3
1682339838.05949783,141533778,0.4,0.45,0.55,0.42,79.73,79.11,0.01,0.1,3
1682339838.15946698,141633747,0.44,0.33,0.6,0.52,79.73,79.11,0.01,0.09,3
1682339838.25956178,141733842,0.45,0.42,0.62,0.66,79.73,79.10000000000001,0.01,0.09,3
1682339838.35954690,141833827,0.46,0.38,0.61,0.73,79.73,79.07000000000001,0.01,0.1,3
1682339838.45985079,141934131,0.45,0.46,0.61,0.72,79.73,79.05,0.01,0.1,3
1682339838.55986691,142034147,0.46,0.44,0.58,0.61,79.73,79.05,0.01,0.1,3
1682339838.65956879,142133849,0.49,0.28,0.62,0.58,79.73,79.03,0.01,0.1,3
1682339838.75954294,142233823,0.43,0.46,0.65,0.66,79.73,79.06,0.01,0.1,3
1682339838.85955381,142333834,0.47000000000000003,0.36,0.59,0.8300000000000001,79.73,79.03,0.02,0.1,3
1682339838.95969582,142433976,0.52,0.53,0.5700000000000001,0.73,79.73,79.03,0.02,0.1,3
1682339839.05949998,142533780,0.54,0.68,0.56,0.56,79.73,79.02,0.03,0.1,3
1682339839.15954399,142633824,0.59,0.6,0.59,0.5700000000000001,79.73,79.03,0.03,0.09,3
1682339839.25947499,142733755,0.5700000000000001,0.53,0.63,0.47000000000000003,79.73,79.02,0.04,0.08,3
1682339839.35927176,142833552,0.58,0.39,0.62,0.41000000000000003,79.73,79.06,0.04,0.08,3
1682339839.45927978,142933560,0.58,0.45,0.63,0.33,79.73,79.10000000000001,0.04,0.08,3
1682339839.55928397,143033564,0.52,0.49,0.65,0.3,79.73,79.16,0.04,0.07,3
1682339839.65928984,143133570,0.49,0.51,0.6900000000000001,0.38,79.73,79.21000000000001,0.04,0.08,3
1682339839.75919199,143233472,0.46,0.48,0.68,0.56,79.73,79.26,0.04,0.09,3
1682339839.85911798,143333398,0.48,0.4,0.65,0.71,79.73,79.32000000000001,0.03,0.09,3
1682339839.95919895,143433479,0.55,0.36,0.62,0.63,79.73,79.37,0.03,0.09,3
1682339840.05926895,143533549,0.6,0.42,0.6,0.38,79.73,79.43,0.03,0.09,3
1682339840.15920186,143633482,0.61,0.44,0.63,0.36,79.73,79.48,0.03,0.09,3
1682339840.25952888,143733809,0.55,0.56,0.59,0.68,79.73,79.5,0.03,0.09,3
1682339840.35952997,143833810,0.58,0.6,0.58,0.76,79.73,79.56,0.03,0.11,3
1682339840.45951796,143933798,0.52,0.59,0.53,0.76,79.73,79.59,0.03,0.1,3
1682339840.55952477,144033805,0.44,0.55,0.48,0.7000000000000001,79.73,79.62,0.03,0.09,3
1682339840.65918779,144133468,0.37,0.61,0.45,0.66,79.73,79.67,0.02,0.09,3
1682339840.75912094,144233401,0.43,0.5,0.43,0.63,79.73,79.72,0.02,0.09,3
1682339840.85915780,144333438,0.36,0.51,0.43,0.49,79.73,79.76,0.02,0.09,3
1682339840.95931482,144433595,0.36,0.41000000000000003,0.39,0.56,79.73,79.78,0.02,0.09,3
1682339841.05935979,144533640,0.38,0.45,0.43,0.45,79.73,79.78,0.02,0.09,3
1682339841.15952277,144633803,0.27,0.64,0.47000000000000003,0.35000000000000003,79.73,79.79,0.02,0.08,3
1682339841.25953484,144733815,0.29,0.55,0.5700000000000001,0.23,79.73,79.78,0.01,0.07,3
1682339841.35953379,144833814,0.27,0.54,0.58,0.52,79.73,79.77,0.01,0.07,3
1682339841.45950890,144933789,0.24,0.56,0.66,0.68,79.73,79.75,0.01,0.08,3
1682339841.55919480,145033475,0.38,0.08,0.65,0.85,79.73,79.74,0.01,0.08,3
1682339841.65938377,145133664,0.39,-0.01,0.54,0.92,79.73,79.7,0.02,0.08,3
1682339841.75938177,145233662,0.46,0.02,0.47000000000000003,0.76,79.73,79.65,0.02,0.09,3
1682339841.85940886,145333689,0.49,0.29,0.41000000000000003,0.6,79.73,79.59,0.01,0.1,3
1682339841.95944786,145433728,0.51,0.67,0.36,0.46,79.73,79.55,0.01,0.1,3
1682339842.05947781,145533758,0.5,0.71,0.34,0.42,79.73,79.52,0.01,0.1,3
1682339842.15947080,145633751,0.39,0.71,0.39,0.41000000000000003,79.73,79.49,0.01,0.11,3
1682339842.25947690,145733757,0.33,0.61,0.45,0.34,79.73,79.46000000000001,0.01,0.11,3
1682339842.35965300,145833933,0.61,1.62,0.45,0.48,79.73,79.46000000000001,0.01,0.11,3
1682339842.45918894,145933469,0.8300000000000001,1.6500000000000001,0.63,0.37,79.73,79.44,0.01,0.11,3
1682339842.55913091,146033411,1.6600000000000001,1.46,1.24,0.46,79.74,79.51,0.01,0.11,3
1682339842.65916991,146133450,1.19,1.18,1.02,0.41000000000000003,79.74,79.65,0.01,0.12,3
1682339842.75927687,146233557,1.23,0.49,0.8200000000000001,0.13,79.73,79.8,0.01,0.12,3
1682339842.85924792,146333528,1.8,0.51,1.01,-0.13,79.74,79.71000000000001,0.01,0.12,3
1682339842.95934296,146433623,1.58,0.16,0.8,-0.15,79.73,79.60000000000001,0.01,0.14,3
1682339843.05930686,146533587,1.59,-0.3,0.74,-0.24,79.73,79.62,0.01,0.15,3
1682339843.15961981,146633900,0.8,-0.3,0.42,-0.15,79.73,79.59,0.01,0.16,3
1682339843.25956798,146733848,0.55,-0.41000000000000003,0.42,-0.12,79.73,79.61,0.01,0.17,3
1682339843.35931993,146833600,0.64,-0.34,0.75,-0.14,79.73,79.68,0.01,0.18,3
1682339843.45947385,146933754,0.67,-0.26,0.63,-0.17,79.73,79.68,0.01,0.2,3
1682339843.55944586,147033726,0.84,-0.18,0.8300000000000001,-0.2,79.73,79.72,0.01,0.21,3
1682339843.65957093,147133851,0.75,-0.29,0.65,-0.23,79.73,79.78,0.01,0.22,3
1682339843.75950789,147233788,1.03,-0.19,0.71,-0.3,79.73,79.67,0.01,0.23,3
1682339843.85981798,147334098,0.79,-0.32,0.56,-0.28,79.73,79.75,0.01,0.25,3
1682339843.95955777,147433838,1.1,-0.19,0.59,-0.31,79.73,79.83,0.01,0.26,3
1682339844.05952191,147533802,0.86,-0.28,0.62,-0.34,79.73,79.67,0.01,0.25,3
1682339844.15950799,147633788,1.08,-0.22,0.54,-0.3,79.73,79.72,0.01,0.26,3
1682339844.25952077,147733801,0.93,-0.27,0.68,-0.3,79.73,79.75,0.01,0.26,3
1682339844.35975695,147834037,1.09,-0.22,0.58,-0.29,79.73,79.7,0.01,0.26,3
1682339844.45916295,147933443,0.97,-0.26,0.65,-0.27,79.73,79.7,0.01,0.26,3
1682339844.55928183,148033562,1.02,-0.23,0.66,-0.28,79.73,79.76,0.01,0.26,3
1682339844.65920687,148133487,0.88,-0.23,0.5700000000000001,-0.28,79.73,79.73,0.01,0.27,3
1682339844.75925183,148233532,0.87,-0.22,0.51,-0.28,79.73,79.7,0.01,0.27,3
1682339844.85952497,148333805,0.44,-0.28,0.26,-0.31,79.73,79.73,0.01,0.26,3
1682339844.95929480,148433575,0.22,-0.21,0.13,-0.33,79.7,79.7,0.01,0.27,3
1682339845.05922294,148533503,0.11,-0.28,0.06,-0.34,79.66,79.66,0.01,0.27,3
1682339845.15914989,148633430,0.05,-0.26,0.03,-0.34,79.7,79.7,0.01,0.26,3
1682339845.25962496,148733905,0.03,-0.29,0.01,-0.34,79.68,79.68,0.01,0.26,3
1682339845.35912085,148833401,0.01,-0.28,0.0,-0.34,79.67,79.67,0.01,0.26,3
1682339845.45920777,148933488,0.0,-0.31,0.0,-0.35000000000000003,79.68,79.68,0.01,0.27,3
1682339845.55916882,149033449,0.0,-0.3,0.0,-0.35000000000000003,79.68,79.68,0.01,0.27,3
1682339845.65925789,149133538,0.0,-0.31,0.0,-0.34,79.63,79.63,0.01,0.26,3
1682339845.75926590,149233546,0.0,-0.3,0.0,-0.35000000000000003,79.68,79.68,0.01,0.26,3
1682339845.85949397,149333774,0.0,-0.3,0.0,-0.35000000000000003,79.63,79.63,0.0,0.25,3
1682339845.95928192,149433562,0.0,-0.32,0.0,-0.35000000000000003,79.63,79.63,0.0,0.25,3
1682339846.05915284,149533433,0.0,-0.29,0.0,-0.35000000000000003,79.64,79.64,0.0,0.25,3
1682339846.15938783,149633668,0.0,-0.32,0.0,-0.35000000000000003,79.62,79.62,0.0,0.25,3
1682339846.25941181,149733692,0.0,-0.3,0.0,-0.35000000000000003,79.61,79.61,0.0,0.25,3
1682339846.35951400,149833794,0.0,-0.31,0.0,-0.36,79.61,79.61,0.0,0.25,3
1682339846.45941377,149933694,0.0,-0.3,0.0,-0.34,79.61,79.61,0.0,0.25,3
1682339846.55928278,150033563,0.0,-0.3,0.0,-0.35000000000000003,79.58,79.58,0.0,0.26,3
1682339846.65926886,150133549,0.0,-0.29,0.0,-0.35000000000000003,79.57000000000001,79.57000000000001,0.0,0.26,3
1682339846.75921082,150233491,0.0,-0.29,0.0,-0.34,79.57000000000001,79.57000000000001,0.0,0.25,3
1682339846.85933495,150333615,0.0,-0.3,0.0,-0.35000000000000003,79.54,79.54,0.0,0.25,3
1682339846.95920086,150433481,0.0,-0.29,0.0,-0.35000000000000003,79.54,79.54,0.0,0.25,3
1682339847.05944490,150533725,0.0,-0.31,0.0,-0.35000000000000003,79.54,79.54,0.0,0.25,3
1682339847.15939283,150633673,0.0,-0.3,0.0,-0.35000000000000003,79.51,79.51,0.0,0.25,3
1682339847.25955296,150733833,0.0,-0.31,0.0,-0.34,79.51,79.51,0.0,0.24,3
1682339847.35959983,150833880,0.0,-0.31,0.0,-0.34,79.52,79.52,0.0,0.24,3
1682339847.45944190,150933722,0.0,-0.31,0.0,-0.34,79.49,79.49,0.0,0.23,3
1682339847.55947185,151033752,0.0,-0.31,0.0,-0.34,79.49,79.49,0.0,0.23,3
1682339847.65945196,151133732,0.0,-0.31,0.0,-0.34,79.48,79.48,0.0,0.22,3
1682339847.75939488,151233675,0.0,-0.31,0.0,-0.34,79.46000000000001,79.46000000000001,0.0,0.23,3
1682339847.85950279,151333783,0.0,-0.31,0.0,-0.34,79.47,79.47,0.0,0.23,3
1682339847.95944190,151433722,0.0,-0.31,0.0,-0.34,79.46000000000001,79.46000000000001,0.0,0.23,3
1682339848.05935693,151533637,0.0,-0.31,0.0,-0.33,79.43,79.43,0.0,0.24,3
1682339848.15973687,151634017,0.0,-0.32,0.0,-0.34,79.42,79.42,0.0,0.23,3
1682339848.25945783,151733738,0.0,-0.32,0.0,-0.33,79.41,79.41,0.0,0.22,3
1682339848.35920596,151833486,0.0,-0.32,0.0,-0.34,79.38,79.38,0.0,0.21,3
1682339848.45925879,151933539,0.0,-0.32,0.0,-0.34,79.38,79.38,0.0,0.21,3
1682339848.55920887,152033489,0.0,-0.32,0.0,-0.34,79.38,79.38,0.0,0.21,3
1682339848.65919280,152133473,0.0,-0.33,0.0,-0.34,79.35000000000001,79.35000000000001,0.0,0.21,3
1682339848.75915599,152233436,0.0,-0.33,0.0,-0.34,79.35000000000001,79.35000000000001,0.0,0.2,3
1682339848.85908699,152333367,0.0,-0.33,0.0,-0.34,79.35000000000001,79.35000000000001,0.0,0.2,3
1682339848.95917892,152433459,0.0,-0.32,0.0,-0.35000000000000003,79.32000000000001,79.32000000000001,0.0,0.2,3
1682339849.05956888,152533849,0.0,-0.32,0.0,-0.35000000000000003,79.32000000000001,79.32000000000001,0.0,0.19,3
1682339849.15943289,152633713,0.0,-0.32,0.0,-0.35000000000000003,79.31,79.31,0.0,0.19,3
1682339849.25948286,152733763,0.0,-0.32,0.0,-0.36,79.28,79.28,0.0,0.19,3
1682339849.35948491,152833765,0.0,-0.33,0.0,-0.36,79.28,79.28,0.0,0.18,3
1682339849.45955896,152933839,0.0,-0.33,0.0,-0.36,79.28,79.28,0.0,0.18,3
1682339849.55948091,153033761,0.0,-0.33,0.0,-0.36,79.26,79.26,0.0,0.16,3
1682339849.65949893,153133779,0.0,-0.33,0.0,-0.36,79.26,79.26,0.0,0.16,3
1682339849.75938797,153233668,0.0,-0.33,0.0,-0.36,79.26,79.26,0.0,0.17,3
1682339849.85940981,153333690,0.0,-0.33,0.0,-0.36,79.24,79.24,0.0,0.16,3
1682339849.95991778,153434198,0.0,-0.33,0.0,-0.37,79.24,79.24,0.0,0.16,3
1682339850.05944681,153533727,0.0,-0.34,0.0,-0.37,79.24,79.24,0.0,0.16,3
1682339850.15925884,153633539,0.0,-0.34,0.0,-0.37,79.22,79.22,0.0,0.16,3
1682339850.25926781,153733548,0.0,-0.34,0.0,-0.37,79.22,79.22,0.0,0.17,3
1682339850.35920787,153833488,0.0,-0.34,0.0,-0.37,79.21000000000001,79.21000000000001,0.0,0.17,3
1682339850.45920396,153933484,0.0,-0.34,0.0,-0.37,79.18,79.18,0.0,0.17,3
1682339850.55914593,154033426,0.0,-0.34,0.0,-0.37,79.17,79.17,0.0,0.17,3
1682339850.65908289,154133363,0.0,-0.34,0.0,-0.38,79.16,79.16,0.0,0.16,3
1682339850.75911999,154233400,0.0,-0.34,0.0,-0.38,79.14,79.14,0.0,0.17,3
1682339850.85930586,154333586,0.0,-0.34,0.0,-0.38,79.13,79.13,0.0,0.17,3
1682339850.95928383,154433564,0.0,-0.34,0.0,-0.38,79.12,79.12,0.0,0.16,3
1682339851.05947685,154533757,0.0,-0.35000000000000003,0.0,-0.38,79.09,79.09,0.0,0.15,3
1682339851.15946078,154633741,0.0,-0.35000000000000003,0.0,-0.39,79.08,79.08,0.0,0.15,3
1682339851.25922394,154733504,0.0,-0.35000000000000003,0.0,-0.39,79.08,79.08,0.0,0.16,3
1682339851.35920477,154833485,0.0,-0.35000000000000003,0.0,-0.39,79.06,79.06,0.0,0.16,3
1682339851.45917583,154933456,0.0,-0.35000000000000003,0.0,-0.39,79.05,79.05,0.0,0.15,3
1682339851.55922389,155033504,0.0,-0.36,0.0,-0.39,79.03,79.03,0.0,0.13,3
1682339851.65913177,155133412,0.0,-0.36,0.0,-0.39,79.01,79.01,0.0,0.13,3
1682339851.75918984,155233470,0.0,-0.36,0.0,-0.39,79.0,79.0,0.0,0.14,3
1682339851.85920382,155333484,0.0,-0.36,0.0,-0.4,79.0,79.0,0.0,0.14,3
1682339851.95952797,155433808,0.0,-0.36,0.0,-0.4,78.98,78.98,0.0,0.15,3
1682339852.05929089,155533571,0.0,-0.36,0.0,-0.4,78.97,78.97,0.0,0.14,3
1682339852.15925598,155633536,0.0,-0.36,0.0,-0.4,78.96000000000001,78.96000000000001,0.0,0.15,3
1682339852.25944996,155733730,0.0,-0.36,0.0,-0.41000000000000003,78.93,78.93,0.0,0.14,3
1682339852.35945797,155833738,0.0,-0.36,0.0,-0.41000000000000003,78.92,78.92,0.0,0.14,3
1682339852.45931888,155933599,0.0,-0.37,0.0,-0.41000000000000003,78.9,78.9,0.0,0.14,3
1682339852.55937290,156033653,0.0,-0.37,0.0,-0.41000000000000003,78.88,78.88,0.0,0.14,3
1682339852.65952492,156133805,0.0,-0.37,0.0,-0.42,78.87,78.87,0.0,0.13,3
1682339852.75937581,156233656,0.0,-0.37,0.0,-0.42,78.86,78.86,0.0,0.14,3
1682339852.85968995,156333970,0.0,-0.37,0.0,-0.42,78.83,78.83,0.0,0.13,3
1682339852.95970488,156433985,0.0,-0.37,0.0,-0.42,78.83,78.83,0.0,0.12,3
1682339853.05947495,156533755,0.0,-0.38,0.0,-0.42,78.82000000000001,78.82000000000001,0.0,0.12,3
1682339853.15946698,156633747,0.0,-0.37,0.0,-0.42,78.8,78.8,0.0,0.12,3
1682339853.25919390,156733474,0.0,-0.37,0.0,-0.42,78.79,78.79,0.0,0.12,3
1682339853.35908985,156833370,0.0,-0.38,0.0,-0.42,78.79,78.79,0.0,0.12,3
1682339853.45911884,156933399,0.0,-0.38,0.0,-0.42,78.77,78.77,0.0,0.11,3
1682339853.55918097,157033461,0.0,-0.38,0.0,-0.42,78.76,78.76,0.0,0.12,3
1682339853.65924883,157133529,0.0,-0.38,0.0,-0.42,78.75,78.75,0.0,0.12,3
1682339853.75946879,157233749,0.0,-0.38,0.0,-0.42,78.72,78.72,0.0,0.12,3
1682339853.85947394,157333754,0.0,-0.38,0.0,-0.42,78.71000000000001,78.71000000000001,0.0,0.12,3
1682339853.95928693,157433567,0.0,-0.38,0.0,-0.42,78.7,78.7,0.0,0.11,3
1682339854.05947685,157533757,0.0,-0.38,0.0,-0.42,78.68,78.68,0.0,0.11,3
1682339854.15946078,157633741,0.0,-0.38,0.0,-0.42,78.68,78.68,0.0,0.11,3
1682339854.25944686,157733727,0.0,-0.37,0.0,-0.42,78.67,78.67,0.0,0.1,3
1682339854.35941482,157833695,0.0,-0.38,0.0,-0.42,78.65,78.65,0.0,0.1,3
1682339854.45958591,157933866,0.0,-0.38,0.0,-0.42,78.64,78.64,0.0,0.11,3
1682339854.55948997,158033770,0.0,-0.38,0.0,-0.41000000000000003,78.63,78.63,0.0,0.11,3
1682339854.65948582,158133766,0.0,-0.38,0.0,-0.42,78.60000000000001,78.60000000000001,0.0,0.11,3
1682339854.75946999,158233750,0.0,-0.38,0.0,-0.42,78.59,78.59,0.0,0.12,3
1682339854.85947990,158333760,0.0,-0.38,0.0,-0.42,78.57000000000001,78.57000000000001,0.0,0.12,3
1682339854.95970178,158433982,0.0,-0.38,0.0,-0.42,78.54,78.54,0.0,0.12,3
1682339855.05917096,158533451,0.0,-0.38,0.0,-0.42,78.52,78.52,0.0,0.12,3
1682339855.15908098,158633361,0.0,-0.38,0.0,-0.41000000000000003,78.5,78.5,0.0,0.11,3
1682339855.25911880,158733399,0.0,-0.38,0.0,-0.41000000000000003,78.48,78.48,0.0,0.1,3
1682339855.35915780,158833438,0.0,-0.38,0.0,-0.41000000000000003,78.47,78.47,0.0,0.09,3
1682339855.45914388,158933424,0.0,-0.38,0.0,-0.41000000000000003,78.46000000000001,78.46000000000001,0.0,0.1,3
1682339855.55922484,159033505,0.0,-0.38,0.0,-0.41000000000000003,78.44,78.44,0.0,0.1,3
1682339855.65922594,159133506,0.0,-0.38,0.0,-0.41000000000000003,78.43,78.43,0.0,0.1,3
1682339855.75955176,159233832,0.0,-0.38,0.0,-0.41000000000000003,78.42,78.42,0.0,0.11,3
1682339855.85947084,159333751,0.0,-0.39,0.0,-0.41000000000000003,78.39,78.39,0.0,0.11,3
1682339855.95919895,159433479,0.0,-0.39,0.0,-0.4,78.38,78.38,0.0,0.11,3
1682339856.05933094,159533611,0.0,-0.4,0.0,-0.4,78.36,78.36,0.0,0.1,3
1682339856.15936780,159633648,0.0,-0.4,0.0,-0.4,78.34,78.34,0.0,0.09,3
1682339856.25953579,159733816,0.0,-0.4,0.0,-0.4,78.32000000000001,78.32000000000001,0.0,0.09,3
1682339856.35937095,159833651,0.0,-0.39,0.0,-0.4,78.31,78.31,0.0,0.1,3
1682339856.45942998,159933710,0.0,-0.39,0.0,-0.4,78.29,78.29,0.0,0.1,3
1682339856.55944395,160033724,0.0,-0.4,0.0,-0.4,78.27,78.27,0.0,0.09,3
1682339856.65945196,160133732,0.0,-0.4,0.0,-0.4,78.25,78.25,0.0,0.08,3
1682339856.75944400,160233724,0.0,-0.4,0.0,-0.4,78.23,78.23,0.0,0.08,3
1682339856.85946798,160333748,0.0,-0.4,0.0,-0.39,78.22,78.22,0.0,0.09,3
1682339856.95970488,160433985,0.0,-0.4,0.0,-0.4,78.2,78.2,0.0,0.08,3
1682339857.05911493,160533395,0.0,-0.4,0.0,-0.39,78.19,78.19,0.0,0.08,3
1682339857.15917397,160633454,0.0,-0.39,0.0,-0.39,78.18,78.18,0.0,0.08,3
1682339857.25917578,160733456,0.0,-0.39,0.0,-0.39,78.16,78.16,0.0,0.07,3
1682339857.35918999,160833470,0.0,-0.39,0.0,-0.39,78.14,78.14,0.0,0.07,3
1682339857.45920181,160933482,0.0,-0.39,0.0,-0.39,78.13,78.13,0.0,0.07,3
1682339857.55920196,161033482,0.0,-0.39,0.0,-0.39,78.12,78.12,0.0,0.08,3
1682339857.65946198,161133742,0.0,-0.38,0.0,-0.39,78.10000000000001,78.10000000000001,0.0,0.07,3
1682339857.75913978,161233420,0.0,-0.38,0.0,-0.38,78.09,78.09,0.0,0.08,3
1682339857.85924077,161333521,0.0,-0.38,0.0,-0.38,78.07000000000001,78.07000000000001,0.0,0.07,3
1682339857.95920181,161433482,0.0,-0.38,0.0,-0.38,78.05,78.05,0.0,0.07,3
1682339858.05928087,161533561,0.0,-0.38,0.0,-0.38,78.04,78.04,0.0,0.07,3
1682339858.15915179,161633432,0.0,-0.38,0.0,-0.39,78.02,78.02,0.0,0.07,3
1682339858.25919485,161733475,0.0,-0.38,0.0,-0.39,78.0,78.0,0.0,0.07,3
1682339858.35919881,161833479,0.0,-0.38,0.0,-0.38,77.98,77.98,0.0,0.07,3
1682339858.45920277,161933483,0.0,-0.38,0.0,-0.38,77.97,77.97,0.0,0.06,3
1682339858.55914378,162033424,0.0,-0.38,0.0,-0.38,77.95,77.95,0.0,0.06,3
1682339858.65917993,162133460,0.0,-0.39,0.0,-0.38,77.94,77.94,0.0,0.06,3
1682339858.75938296,162233663,0.0,-0.39,0.0,-0.37,77.92,77.92,0.0,0.06,3
1682339858.85941696,162333697,0.0,-0.39,0.0,-0.38,77.91,77.91,0.0,0.05,3
1682339858.95957398,162433854,0.0,-0.39,0.0,-0.37,77.9,77.9,0.0,0.05,3
1682339859.05942583,162533706,0.0,-0.39,0.0,-0.37,77.88,77.88,0.0,0.06,3
1682339859.15946198,162633742,0.0,-0.39,0.0,-0.37,77.86,77.86,0.0,0.07,3
1682339859.25947595,162733756,0.0,-0.39,0.0,-0.37,77.85000000000001,77.85000000000001,0.0,0.06,3
1682339859.35946798,162833748,0.0,-0.38,0.0,-0.37,77.83,77.83,0.0,0.06,3
1682339859.45947194,162933752,0.0,-0.38,0.0,-0.37,77.81,77.81,0.0,0.05,3
1682339859.55947399,163033754,0.0,-0.38,0.0,-0.38,77.79,77.79,0.0,0.04,3
1682339859.65943694,163133717,0.0,-0.38,0.0,-0.38,77.78,77.78,0.0,0.04,3
1682339859.75940394,163233684,0.0,-0.38,0.0,-0.38,77.76,77.76,0.0,0.04,3
1682339859.85954785,163333828,0.0,-0.37,0.0,-0.38,77.76,77.76,0.0,0.04,3
