timestamp,TimeUS,I,Status,GMS,GWk,NSats,HDop,Lat,Lng,Alt,Spd,GCrs,VZ,Yaw,U
1682339799.39899993,102873280,0,3,131817399,2259,15,0.68,42.6899606,-84.4889127,263.98,0.01077033020555973,21.801406860351562,-0.0020000000949949026,0.0,1
1682339799.59934878,103073629,0,3,131817599,2259,15,0.68,42.6899607,-84.48891259999999,264.01,0.016552945598959923,244.98312377929688,0.07800000160932541,0.0,1
1682339799.79932690,103273607,0,3,131817799,2259,15,0.68,42.6899607,-84.48891259999999,264.03000000000003,0.009486833587288857,161.56504821777344,-0.017000000923871994,0.0,1
1682339799.99921298,103473493,0,3,131817999,2259,14,0.68,42.6899607,-84.48891259999999,264.06,0.008602325804531574,35.53767776489258,0.03500000014901161,0.0,1
1682339800.19928980,103673570,0,3,131818199,2259,14,0.68,42.6899607,-84.4889125,264.09000000000003,0.013892444781959057,300.2564392089844,0.03200000151991844,0.0,1
1682339800.39979982,103874080,0,3,131818399,2259,14,0.68,42.6899608,-84.4889125,264.12,0.005099019967019558,258.6900634765625,0.01600000075995922,0.0,1
1682339800.59938478,104073665,0,3,131818599,2259,14,0.72,42.6899608,-84.4889125,264.16,0.024698181077837944,291.3706359863281,0.05900000408291817,0.0,1
1682339800.79883385,104273114,0,3,131818799,2259,14,0.72,42.6899608,-84.48891239999999,264.17,0.027658633887767792,77.47118377685547,0.009000000543892384,0.0,1
1682339800.99893188,104473212,0,3,131818999,2259,14,0.72,42.689960899999996,-84.48891239999999,264.21,0.009999999776482582,36.869895935058594,0.02200000174343586,0.0,1
1682339801.19938397,104673664,0,3,131819199,2259,14,0.72,42.689960899999996,-84.4889123,264.24,0.019646884873509407,75.25643157958984,-0.0010000000474974513,0.0,1
1682339801.39942884,104873709,0,3,131819399,2259,14,0.72,42.689960899999996,-84.4889123,264.27,0.031906113028526306,302.19573974609375,0.017000000923871994,0.0,1
1682339801.59883380,105073114,0,3,131819599,2259,14,0.72,42.689960899999996,-84.4889123,264.28000000000003,0.004472136031836271,116.5650405883789,-0.03200000151991844,0.0,1
1682339801.79888177,105273162,0,3,131819799,2259,14,0.72,42.689960899999996,-84.4889123,264.3,0.009433981962502003,237.99462890625,0.06000000238418579,0.0,1
1682339802.01899886,105493279,0,3,131819999,2259,14,0.72,42.689960899999996,-84.4889122,264.32,0.004472136031836271,63.4349479675293,0.12700000405311584,0.0,1
1682339802.19897485,105673255,0,3,131820199,2259,14,0.72,42.689960899999996,-84.4889122,264.32,0.01486606989055872,42.273685455322266,-0.023000001907348633,0.0,1
1682339802.39939785,105873678,0,3,131820399,2259,14,0.72,42.689960899999996,-84.4889122,264.35,0.00412310566753149,284.0362548828125,0.04000000283122063,0.0,1
1682339802.59883690,106073117,0,3,131820599,2259,14,0.72,42.689960899999996,-84.4889122,264.38,0.023086795583367348,287.6501159667969,0.0,0.0,1
1682339802.79893684,106273217,0,3,131820799,2259,14,0.72,42.689960899999996,-84.4889122,264.39,0.011704700998961926,109.98310089111328,-0.058000002056360245,0.0,1
1682339802.99943781,106473718,0,3,131820999,2259,14,0.72,42.689960899999996,-84.4889121,264.42,0.024413112550973892,325.00799560546875,-0.005000000353902578,0.0,1
1682339803.19944191,106673722,0,3,131821199,2259,14,0.72,42.689960899999996,-84.4889121,264.45,0.022472206503152847,20.854454040527344,-0.10400000214576721,0.0,1
1682339803.39881492,106873095,0,3,131821399,2259,14,0.72,42.689960899999996,-84.4889121,264.48,0.02529822289943695,198.43495178222656,-0.015000000596046448,0.0,1
1682339803.59888577,107073166,0,3,131821599,2259,14,0.72,42.6899608,-84.4889121,264.51,0.01486606989055872,317.726318359375,0.01900000125169754,0.0,1
1682339803.79939294,107273673,0,3,131821799,2259,14,0.72,42.689960899999996,-84.4889122,264.53000000000003,0.02332380972802639,329.0362548828125,-0.02800000086426735,0.0,1
1682339803.99945998,107473740,0,3,131821999,2259,14,0.72,42.689960899999996,-84.4889122,264.56,0.010440307669341564,163.30075073242188,-0.039000000804662704,0.0,1
1682339804.19939685,107673677,0,3,131822199,2259,14,0.72,42.689960899999996,-84.4889121,264.59000000000003,0.007000000216066837,270.0,0.02500000037252903,0.0,1
1682339804.39935088,107873631,0,3,131822399,2259,14,0.72,42.689960899999996,-84.4889121,264.62,0.007810249924659729,309.8055725097656,0.0010000000474974513,0.0,1
1682339804.59940791,108073688,0,3,131822599,2259,14,0.72,42.689960899999996,-84.4889121,264.65,0.0070710680447518826,278.1300964355469,-0.0430000014603138,0.0,1
1682339804.79995990,108274240,0,3,131822799,2259,14,0.72,42.689960899999996,-84.4889121,264.67,0.009000000543892384,180.0,-0.007000000216066837,0.0,1
1682339804.97912979,108453410,0,3,131822999,2259,14,0.72,42.689960899999996,-84.488912,264.69,0.03101612627506256,88.15238189697266,-0.02800000086426735,0.0,1
1682339805.19886684,108673147,0,3,131823199,2259,14,0.72,42.689960899999996,-84.48891189999999,264.72,0.013341664336621761,77.00537872314453,0.021000001579523087,0.0,1
1682339805.39889193,108873172,0,3,131823399,2259,14,0.72,42.689960899999996,-84.48891189999999,264.74,0.008544004522264004,69.4439468383789,-0.09700000286102295,0.0,1
1682339805.59897685,109073257,0,3,131823599,2259,14,0.72,42.689960899999996,-84.4889117,264.78000000000003,0.053460270166397095,82.4761734008789,-0.10400000214576721,0.0,1
1682339805.79902983,109273310,0,3,131823799,2259,14,0.72,42.689960899999996,-84.4889116,264.88,0.05185557156801224,140.4773712158203,-0.706000030040741,0.0,1
1682339805.99947190,109473752,0,3,131823999,2259,14,0.72,42.689960899999996,-84.4889115,264.96,0.11980818957090378,37.539432525634766,-0.4320000112056732,0.0,1
1682339806.19886184,109673142,0,3,131824199,2259,14,0.72,42.689961,-84.4889113,265.1,0.056435808539390564,60.25511169433594,-0.44200003147125244,0.0,1
1682339806.37945580,109853736,0,3,131824399,2259,14,0.72,42.6899611,-84.4889113,265.18,0.047423623502254486,294.94390869140625,-0.320000022649765,0.0,1
1682339806.59947181,110073752,0,3,131824599,2259,14,0.72,42.6899611,-84.4889113,265.23,0.02657066099345684,19.79887580871582,-0.22100001573562622,0.0,1
1682339806.79894090,110273221,0,3,131824799,2259,14,0.72,42.6899612,-84.4889113,265.29,0.03939543291926384,336.0375061035156,-0.07500000298023224,0.0,1
1682339806.99938488,110473665,0,3,131824999,2259,15,0.72,42.6899613,-84.48891119999999,265.34000000000003,0.040804412215948105,143.97262573242188,-0.005000000353902578,0.0,1
1682339807.19923782,110673518,0,3,131825199,2259,15,0.72,42.6899612,-84.4889111,265.35,0.048826225101947784,124.99201965332031,-0.00800000037997961,0.0,1
1682339807.39930987,110873590,0,3,131825399,2259,15,0.72,42.6899612,-84.4889109,265.38,0.08052950352430344,114.97390747070312,-0.032999999821186066,0.0,1
1682339807.59936500,111073645,0,3,131825599,2259,15,0.68,42.6899612,-84.4889106,265.43,0.08841380476951599,133.62515258789062,-0.02200000174343586,0.0,1
1682339807.79974794,111274028,0,3,131825799,2259,15,0.68,42.6899611,-84.4889104,265.47,0.023345235735177994,133.26429748535156,-0.04200000315904617,0.0,1
1682339808.01917386,111493454,0,3,131825999,2259,15,0.68,42.6899612,-84.4889103,265.52,0.0723394826054573,354.447021484375,-0.14300000667572021,0.0,1
1682339808.19896698,111673247,0,3,131826199,2259,15,0.68,42.6899614,-84.4889104,265.59000000000003,0.09818350523710251,326.6336364746094,-0.2600000202655792,0.0,1
1682339808.39899397,111873274,0,3,131826399,2259,14,0.68,42.6899616,-84.4889105,265.66,0.1469966024160385,303.9062805175781,-0.28600001335144043,0.0,1
1682339808.59895086,112073231,0,3,131826599,2259,14,0.72,42.6899617,-84.48891069999999,265.73,0.08746428042650223,300.9637451171875,-0.2770000100135803,0.0,1
1682339808.79885888,112273139,0,3,131826799,2259,14,0.72,42.6899619,-84.48891069999999,265.83,0.07976214587688446,352.07305908203125,-0.30100002884864807,0.0,1
1682339808.99891591,112473196,0,3,131826999,2259,15,0.72,42.689962,-84.48891069999999,265.94,0.010198039934039116,191.3099365234375,-0.289000004529953,0.0,1
1682339809.19897485,112673255,0,3,131827199,2259,15,0.72,42.689962,-84.4889105,266.03000000000003,0.15041610598564148,74.57783508300781,-0.48900002241134644,0.0,1
1682339809.39903092,112873311,0,3,131827399,2259,15,0.72,42.6899619,-84.4889101,266.12,0.1492648720741272,125.18069458007812,-0.4000000059604645,0.0,1
1682339809.59886479,113073145,0,3,131827599,2259,15,0.68,42.6899616,-84.4889097,266.18,0.3310377597808838,121.91365051269531,-0.34800001978874207,0.0,1
1682339809.79935789,113273638,0,3,131827799,2259,15,0.68,42.6899613,-84.4889089,266.29,0.3464130759239197,123.46070098876953,-0.34300002455711365,0.0,1
1682339809.99898982,113473270,0,3,131827999,2259,15,0.68,42.689960899999996,-84.4889082,266.37,0.36857566237449646,131.03968811035156,-0.32600000500679016,0.0,1
1682339810.19938183,113673662,0,3,131828199,2259,15,0.68,42.689960299999996,-84.48890709999999,266.43,0.7025817036628723,116.27328491210938,-0.35500001907348633,0.0,1
1682339810.39953685,113873817,0,3,131828399,2259,15,0.68,42.689959699999996,-84.4889055,266.42,0.752600908279419,118.40386199951172,-0.07400000095367432,0.0,1
1682339810.59980989,114074090,0,3,131828599,2259,15,0.68,42.6899589,-84.4889039,266.49,0.8587339520454407,123.02385711669922,-0.12400000542402267,0.0,1
1682339810.79888797,114273168,0,3,131828799,2259,15,0.68,42.6899581,-84.488902,266.54,0.9561935067176819,118.41438293457031,-0.09200000762939453,0.0,1
1682339810.99897790,114473258,0,3,131828999,2259,14,0.68,42.689957,-84.4889,266.52,1.1614409685134888,125.29106903076172,0.04500000178813934,0.0,1
1682339811.21886897,114693149,0,3,131829199,2259,14,0.68,42.6899558,-84.48889779999999,266.48,1.064934253692627,122.6156005859375,0.22800001502037048,0.0,1
1682339811.39885378,114873134,0,3,131829399,2259,15,0.68,42.689954799999995,-84.4888955,266.49,1.15102219581604,124.02140808105469,0.07300000637769699,0.0,1
1682339811.59885287,115073133,0,3,131829599,2259,15,0.68,42.6899535,-84.4888928,266.49,1.3764485120773315,120.9066390991211,-0.06599999964237213,0.0,1
1682339811.79899383,115273274,0,3,131829799,2259,15,0.68,42.689952299999995,-84.4888902,266.45,1.2775778770446777,118.57108306884766,0.12700000405311584,0.0,1
1682339812.01895595,115493236,0,3,131829999,2259,15,0.68,42.689951199999996,-84.48888699999999,266.54,1.552423357963562,114.4683837890625,-0.12300000339746475,0.0,1
1682339812.19935989,115673640,0,3,131830199,2259,15,0.68,42.689949999999996,-84.48888389999999,266.58,1.3559588193893433,119.5142593383789,-0.29200002551078796,0.0,1
1682339812.39935994,115873640,0,3,131830399,2259,15,0.68,42.689948799999996,-84.48888099999999,266.6,1.4129420518875122,118.8143310546875,-0.08700000494718552,0.0,1
1682339812.59923577,116073516,0,3,131830599,2259,15,0.68,42.689947499999995,-84.4888781,266.62,1.3934605121612549,118.55138397216797,-0.11500000208616257,0.0,1
1682339812.79930282,116273583,0,3,131830799,2259,15,0.68,42.689946299999995,-84.4888752,266.58,1.2992497682571411,115.87477111816406,0.005000000353902578,0.0,1
1682339812.99988580,116474166,0,3,131830999,2259,15,0.68,42.6899453,-84.4888727,266.65,1.1800957918167114,121.97962951660156,-0.04100000113248825,0.0,1
1682339813.19945097,116673731,0,3,131831199,2259,15,0.68,42.6899443,-84.4888702,266.68,1.231386661529541,111.3348159790039,-0.07000000029802322,0.0,1
1682339813.39886189,116873142,0,3,131831399,2259,15,0.68,42.6899434,-84.4888677,266.7,1.1260595321655273,118.13533020019531,-0.003000000026077032,0.0,1
1682339813.59902287,117073303,0,3,131831599,2259,15,0.68,42.6899423,-84.4888653,266.73,1.209246039390564,121.95515441894531,-0.11600000411272049,0.0,1
1682339813.79946399,117273744,0,3,131831799,2259,15,0.68,42.6899412,-84.48886279999999,266.73,1.2497376203536987,111.59707641601562,-0.029000001028180122,0.0,1
1682339813.99947596,117473756,0,3,131831999,2259,14,0.68,42.689940299999996,-84.4888604,266.73,1.0281575918197632,113.62299346923828,-0.039000000804662704,0.0,1
1682339814.19886494,117673145,0,3,131832199,2259,15,0.68,42.6899393,-84.48885829999999,266.78000000000003,1.0826804637908936,126.17133331298828,-0.16200000047683716,0.0,1
1682339814.39891291,117873193,0,3,131832399,2259,15,0.68,42.6899381,-84.48885609999999,266.81,1.2208997011184692,123.84625244140625,-0.21300001442432404,0.0,1
1682339814.59902191,118073302,0,3,131832599,2259,15,0.68,42.689937,-84.4888538,266.8,1.101192593574524,115.61096954345703,-0.020000001415610313,0.0,1
1682339814.79899883,118273279,0,3,131832799,2259,14,0.68,42.689935999999996,-84.4888517,266.81,1.041408658027649,124.910888671875,0.1080000028014183,0.0,1
1682339814.99945498,118473735,0,3,131832999,2259,15,0.68,42.6899349,-84.4888497,266.76,0.9843435287475586,119.58602905273438,0.13900001347064972,0.0,1
1682339815.19885588,118673136,0,3,131833199,2259,15,0.68,42.6899338,-84.4888477,266.73,1.097361445426941,130.9354248046875,0.23100000619888306,0.0,1
1682339815.39938378,118873664,0,3,131833399,2259,15,0.68,42.6899325,-84.4888457,266.71,1.05964195728302,128.52468872070312,0.125,0.0,1
1682339815.59947085,119073751,0,3,131833599,2259,15,0.68,42.689931099999995,-84.4888438,266.66,1.142405390739441,132.4457550048828,0.07100000232458115,0.0,1
1682339815.79984498,119274125,0,3,131833799,2259,15,0.68,42.6899298,-84.4888418,266.69,1.0790959596633911,129.88714599609375,0.08900000154972076,0.0,1
1682339815.99886799,119473148,0,3,131833999,2259,15,0.68,42.6899285,-84.4888398,266.64,1.1698222160339355,127.98665618896484,0.02500000037252903,0.0,1
1682339816.19889379,119673174,0,3,131834199,2259,15,0.68,42.6899271,-84.4888378,266.62,1.0693086385726929,132.68817138671875,0.04400000348687172,0.0,1
1682339816.39898682,119873267,0,3,131834399,2259,14,0.68,42.689925699999996,-84.4888361,266.59000000000003,1.112694501876831,133.4341278076172,-0.15200001001358032,0.0,1
1682339816.59903693,120073317,0,3,131834599,2259,15,0.68,42.6899245,-84.4888342,266.66,0.9071080684661865,125.98558044433594,-0.04800000041723251,0.0,1
1682339816.79885578,120273136,0,3,131834799,2259,15,0.68,42.6899234,-84.4888325,266.63,1.047065019607544,125.16236114501953,-0.04200000315904617,0.0,1
1682339816.99938178,120473662,0,3,131834999,2259,15,0.68,42.6899227,-84.4888307,266.7,0.7466331124305725,108.02239990234375,-0.2200000137090683,0.0,1
1682339817.19897389,120673254,0,3,131835199,2259,15,0.68,42.6899222,-84.4888288,266.76,0.8939133286476135,114.0991439819336,-0.16200000047683716,0.0,1
1682339817.39936399,120873644,0,3,131835399,2259,15,0.68,42.6899216,-84.4888268,266.91,0.8777904510498047,114.93013763427734,-0.4750000238418579,0.0,1
1682339817.59936094,121073641,0,3,131835599,2259,15,0.68,42.689920799999996,-84.4888249,266.96,0.9138933420181274,118.78056335449219,-0.328000009059906,0.0,1
1682339817.79933596,121273616,0,3,131835799,2259,15,0.68,42.6899199,-84.4888229,267.0,0.9725703597068787,121.07487487792969,-0.2410000115633011,0.0,1
1682339817.99935293,121473633,0,3,131835999,2259,15,0.68,42.689918999999996,-84.488821,267.1,0.882261335849762,126.19448852539062,-0.32600000500679016,0.0,1
1682339818.19932199,121673602,0,3,131836199,2259,15,0.68,42.6899181,-84.4888194,267.11,0.7913697361946106,122.82657623291016,-0.13199999928474426,0.0,1
1682339818.39938593,121873666,0,3,131836399,2259,14,0.68,42.6899174,-84.4888179,267.14,0.681719183921814,129.1060791015625,-0.11500000208616257,0.0,1
1682339818.59937382,122073654,0,3,131836599,2259,15,0.68,42.689916499999995,-84.4888168,267.12,0.7190946340560913,131.44827270507812,-0.04400000348687172,0.0,1
1682339818.79988980,122274170,0,3,131836799,2259,15,0.68,42.6899157,-84.48881569999999,267.14,0.5426389575004578,133.13311767578125,0.013000000268220901,0.0,1
1682339818.99898481,122473265,0,3,131836999,2259,15,0.68,42.6899152,-84.4888149,267.15,0.43188539147377014,122.80696105957031,-0.046000003814697266,0.0,1
1682339819.19946194,122673742,0,3,131837199,2259,15,0.68,42.689914699999996,-84.48881399999999,267.07,0.45064955949783325,107.83184814453125,0.13300000131130219,0.0,1
1682339819.39943385,122873714,0,3,131837399,2259,15,0.68,42.6899146,-84.488813,267.11,0.4168896973133087,96.74996948242188,0.07800000160932541,0.0,1
1682339819.59945083,123073731,0,3,131837599,2259,15,0.68,42.6899146,-84.4888122,267.08,0.3876402974128723,73.6688461303711,0.05400000140070915,0.0,1
1682339819.79989100,123274171,0,3,131837799,2259,15,0.68,42.689914699999996,-84.4888113,267.05,0.4077744781970978,84.65291595458984,0.07500000298023224,0.0,1
1682339819.99943089,123473711,0,3,131837999,2259,15,0.68,42.689915,-84.4888106,267.13,0.2108672559261322,82.36943817138672,-0.005000000353902578,0.0,1
1682339820.19902182,123673302,0,3,131838199,2259,15,0.68,42.689915,-84.4888102,267.14,0.2621907889842987,87.81419372558594,-0.049000002443790436,0.0,1
1682339820.39892387,123873204,0,3,131838399,2259,15,0.68,42.689915,-84.48880969999999,267.15,0.16211415827274323,119.56953430175781,0.07000000029802322,0.0,1
1682339820.59887791,124073158,0,3,131838599,2259,15,0.68,42.6899148,-84.4888094,267.17,0.15628500282764435,135.77772521972656,-0.01900000125169754,0.0,1
1682339820.79950690,124273787,0,3,131838799,2259,15,0.68,42.689914699999996,-84.4888091,267.22,0.15666845440864563,155.88897705078125,0.08500000089406967,0.0,1
1682339820.99903393,124473314,0,3,131838999,2259,15,0.68,42.6899144,-84.48880899999999,267.21,0.24446268379688263,170.3450164794922,0.07100000232458115,0.0,1
1682339821.21885490,124693135,0,3,131839199,2259,15,0.68,42.689914099999996,-84.4888089,267.2,0.16443844139575958,161.56504821777344,0.03800000250339508,0.0,1
1682339821.39882088,124873101,0,3,131839399,2259,15,0.68,42.6899139,-84.48880869999999,267.21,0.12453514337539673,124.20047760009766,0.058000002056360245,0.0,1
1682339821.59888482,125073165,0,3,131839599,2259,15,0.68,42.6899139,-84.4888083,267.23,0.13011534512043,97.50733947753906,0.032999999821186066,0.0,1
1682339821.79939890,125273679,0,3,131839799,2259,15,0.68,42.689913999999995,-84.4888079,267.21,0.1859516203403473,79.77782440185547,0.09300000220537186,0.0,1
1682339822.01885986,125493140,0,3,131839999,2259,15,0.68,42.689913999999995,-84.4888074,267.19,0.23317375779151917,92.2120361328125,0.023000001907348633,0.0,1
1682339822.19934177,125673622,0,3,131840199,2259,15,0.68,42.689914099999996,-84.4888069,267.2,0.25407084822654724,88.64679718017578,0.004000000189989805,0.0,1
1682339822.39928699,125873567,0,3,131840399,2259,15,0.68,42.689913999999995,-84.48880609999999,267.17,0.3295603394508362,97.14657592773438,0.05900000408291817,0.0,1
1682339822.59996891,126074249,0,3,131840599,2259,15,0.68,42.689913999999995,-84.4888053,267.18,0.30829858779907227,101.60150146484375,-0.03500000014901161,0.0,1
1682339822.79936194,126273642,0,3,131840799,2259,15,0.68,42.6899139,-84.48880439999999,267.17,0.3984934389591217,104.38496398925781,0.036000002175569534,0.0,1
1682339822.99946380,126473744,0,3,131840999,2259,15,0.68,42.6899137,-84.4888033,267.19,0.499985009431839,107.81887817382812,-0.06700000166893005,0.0,1
1682339823.19932485,126673605,0,3,131841199,2259,15,0.68,42.689913499999996,-84.4888021,267.23,0.4309071898460388,105.61663055419922,-0.015000000596046448,0.0,1
1682339823.39922881,126873509,0,3,131841399,2259,15,0.68,42.6899131,-84.48880109999999,267.22,0.45598796010017395,123.09761047363281,-0.06300000101327896,0.0,1
1682339823.59932995,127073610,0,3,131841599,2259,15,0.68,42.6899126,-84.48880009999999,267.16,0.5402342081069946,116.61247253417969,0.125,0.0,1
1682339823.79989195,127274172,0,3,131841799,2259,15,0.68,42.6899121,-84.4887988,267.16,0.6283351182937622,116.5650405883789,-0.039000000804662704,0.0,1
1682339823.99892378,127473204,0,3,131841999,2259,15,0.68,42.6899115,-84.48879749999999,267.11,0.6378597617149353,125.23485565185547,0.10000000149011612,0.0,1
1682339824.19884586,127673126,0,3,131842199,2259,15,0.68,42.689910999999995,-84.4887961,267.12,0.669122576713562,114.26677703857422,0.14400000870227814,0.0,1
1682339824.39897585,127873256,0,3,131842399,2259,15,0.68,42.689910499999996,-84.4887947,267.16,0.6516786217689514,117.50875091552734,-0.005000000353902578,0.0,1
1682339824.59946489,128073745,0,3,131842599,2259,15,0.68,42.68991,-84.4887931,267.16,0.7510825395584106,109.03802490234375,-0.0820000022649765,0.0,1
1682339824.79894090,128273221,0,3,131842799,2259,15,0.68,42.6899096,-84.4887913,267.19,0.8083081841468811,107.9417953491211,-0.07300000637769699,0.0,1
1682339824.99944782,128473728,0,3,131842999,2259,15,0.68,42.6899091,-84.4887893,267.15,0.9321292638778687,106.00448608398438,0.049000002443790436,0.0,1
1682339825.19938779,128673668,0,3,131843199,2259,15,0.68,42.6899087,-84.4887871,267.16,0.8902460336685181,99.8961181640625,0.027000000700354576,0.0,1
1682339825.37888098,128853161,0,3,131843399,2259,15,0.68,42.6899084,-84.48878479999999,267.15,0.9860193133354187,98.57386016845703,0.13700000941753387,0.0,1
1682339825.59996486,129074245,0,3,131843599,2259,15,0.68,42.689907999999996,-84.4887825,267.13,0.9689298868179321,104.0362319946289,0.07500000298023224,0.0,1
1682339825.79945588,129273736,0,3,131843799,2259,15,0.68,42.6899077,-84.4887803,267.21,0.9227724671363831,99.54397583007812,-0.03200000151991844,0.0,1
1682339826.01919198,129493472,0,3,131843999,2259,15,0.68,42.6899075,-84.4887782,267.24,0.8233426213264465,97.11637878417969,-0.027000000700354576,0.0,1
1682339826.19898295,129673263,0,3,131844199,2259,15,0.68,42.6899072,-84.4887763,267.28000000000003,0.798782229423523,101.40839385986328,-0.1210000067949295,0.0,1
1682339826.39945889,129873739,0,3,131844399,2259,15,0.68,42.6899071,-84.48877449999999,267.33,0.7497265934944153,92.52274322509766,-0.19500000774860382,0.0,1
1682339826.59894490,130073225,0,3,131844599,2259,15,0.68,42.6899072,-84.48877279999999,267.36,0.8045135736465454,75.53192901611328,-0.13700000941753387,0.0,1
1682339826.79885983,130273140,0,3,131844799,2259,15,0.68,42.6899075,-84.4887711,267.35,0.7309309840202332,67.64544677734375,0.03100000135600567,0.0,1
1682339826.99889779,130473178,0,3,131844999,2259,15,0.68,42.6899079,-84.4887696,267.4,0.6474079489707947,79.22811126708984,-0.036000002175569534,0.0,1
1682339827.19898582,130673266,0,3,131845199,2259,15,0.68,42.689907999999996,-84.4887682,267.44,0.5117128491401672,86.9754409790039,-0.08700000494718552,0.0,1
1682339827.39902878,130873309,0,3,131845399,2259,15,0.68,42.689907999999996,-84.48876709999999,267.45,0.45713236927986145,88.62115478515625,0.006000000052154064,0.0,1
1682339827.59946084,131073741,0,3,131845599,2259,15,0.68,42.6899078,-84.4887662,267.45,0.49324437975883484,121.40201568603516,0.017000000923871994,0.0,1
1682339827.79884696,131273127,0,3,131845799,2259,15,0.68,42.689907399999996,-84.48876539999999,267.41,0.3273301124572754,107.60462188720703,-0.007000000216066837,0.0,1
1682339827.99936390,131473644,0,3,131845999,2259,15,0.68,42.6899071,-84.488765,267.42,0.22174085676670074,162.95425415039062,0.18700000643730164,0.0,1
1682339828.19936299,131673643,0,3,131846199,2259,15,0.68,42.689906799999996,-84.48876489999999,267.39,0.1829371601343155,159.18734741210938,0.004000000189989805,0.0,1
1682339828.39979386,131874074,0,3,131846399,2259,15,0.68,42.6899066,-84.488765,267.4,0.15786704421043396,215.20016479492188,0.021000001579523087,0.0,1
1682339828.59886193,132073142,0,3,131846599,2259,15,0.68,42.6899064,-84.48876539999999,267.38,0.1883215457201004,249.15908813476562,0.010000000707805157,0.0,1
1682339828.79888582,132273166,0,3,131846799,2259,15,0.68,42.6899064,-84.48876589999999,267.37,0.24593089520931244,281.4927062988281,0.023000001907348633,0.0,1
1682339828.99898100,132473261,0,3,131846999,2259,15,0.68,42.6899066,-84.4887667,267.37,0.3239459991455078,298.3846130371094,0.0,0.0,1
1682339829.19899797,132673278,0,3,131847199,2259,15,0.68,42.6899069,-84.4887676,267.39,0.4589390456676483,283.0975341796875,0.006000000052154064,0.0,1
1682339829.39885497,132873135,0,3,131847399,2259,15,0.68,42.6899071,-84.4887686,267.35,0.39720022678375244,287.8875732421875,0.10700000822544098,0.0,1
1682339829.59938383,133073664,0,3,131847599,2259,15,0.68,42.6899073,-84.48876969999999,267.29,0.5274865031242371,288.91583251953125,0.07600000500679016,0.0,1
1682339829.79898286,133273263,0,3,131847799,2259,15,0.68,42.6899076,-84.4887711,267.3,0.6194553971290588,279.4775390625,0.1120000034570694,0.0,1
1682339829.99948478,133473765,0,3,131847999,2259,15,0.68,42.6899078,-84.48877259999999,267.3,0.6177669763565063,281.2008056640625,-0.012000000104308128,0.0,1
1682339830.19947386,133673754,0,3,131848199,2259,15,0.68,42.6899081,-84.4887741,267.27,0.6360031962394714,290.4295349121094,0.05100000277161598,0.0,1
1682339830.39945698,133873737,0,3,131848399,2259,15,0.68,42.6899084,-84.4887755,267.25,0.6213767528533936,283.96917724609375,0.125,0.0,1
1682339830.59938884,134073669,0,3,131848599,2259,15,0.68,42.6899084,-84.4887768,267.23,0.46338972449302673,267.65008544921875,0.0430000014603138,0.0,1
1682339830.79940486,134273685,0,3,131848799,2259,15,0.68,42.6899083,-84.4887777,267.2,0.33066752552986145,266.35882568359375,-0.009000000543892384,0.0,1
1682339830.99945593,134473736,0,3,131848999,2259,15,0.68,42.6899082,-84.48877829999999,267.19,0.21986587345600128,257.9234619140625,0.06700000166893005,0.0,1
1682339831.21884990,134693130,0,3,131849199,2259,15,0.68,42.689907999999996,-84.4887785,267.16,0.05685947835445404,203.8601837158203,0.012000000104308128,0.0,1
1682339831.39993191,134874212,0,3,131849399,2259,15,0.68,42.6899077,-84.4887784,267.12,0.1226743757724762,150.71856689453125,0.036000002175569534,0.0,1
1682339831.59940195,135073682,0,3,131849599,2259,15,0.68,42.689907399999996,-84.4887782,267.07,0.12427791953086853,124.84093475341797,-0.005000000353902578,0.0,1
1682339831.79926276,135273543,0,3,131849799,2259,15,0.68,42.6899072,-84.4887779,267.05,0.0688839703798294,129.69906616210938,0.0560000017285347,0.0,1
1682339831.99936891,135473649,0,3,131849999,2259,15,0.68,42.689907,-84.4887778,267.02,0.06902898102998734,141.46981811523438,-0.02800000086426735,0.0,1
1682339832.19935179,135673632,0,3,131850199,2259,15,0.68,42.689906799999996,-84.4887777,267.01,0.07223572582006454,158.05130004882812,0.0430000014603138,0.0,1
1682339832.39987779,135874158,0,3,131850399,2259,15,0.68,42.6899066,-84.48877759999999,266.99,0.022671569138765335,138.5763397216797,0.032999999821186066,0.0,1
1682339832.59942484,136073705,0,3,131850599,2259,15,0.68,42.6899065,-84.48877759999999,266.97,0.04904080182313919,200.28256225585938,0.013000000268220901,0.0,1
1682339832.79903579,136273316,0,3,131850799,2259,15,0.68,42.6899063,-84.4887777,266.95,0.022135945037007332,288.4349365234375,0.012000000104308128,0.0,1
1682339832.99899387,136473274,0,3,131850999,2259,15,0.68,42.6899063,-84.4887777,266.93,0.02475883811712265,313.3634338378906,0.03500000014901161,0.0,1
1682339833.19887686,136673157,0,3,131851199,2259,15,0.68,42.6899063,-84.4887778,266.94,0.05536244437098503,290.071533203125,-0.03800000250339508,0.0,1
1682339833.39940190,136873682,0,3,131851399,2259,15,0.68,42.6899063,-84.488778,266.95,0.082879438996315,311.5761413574219,-0.07200000435113907,0.0,1
1682339833.59900999,137073290,0,3,131851599,2259,15,0.68,42.6899064,-84.48877809999999,266.97,0.1028250977396965,319.3382568359375,-0.055000003427267075,0.0,1
1682339833.79894495,137273225,0,3,131851799,2259,15,0.68,42.6899065,-84.48877829999999,266.98,0.08504117280244827,318.8140869140625,-0.04000000283122063,0.0,1
1682339833.99890184,137473182,0,3,131851999,2259,15,0.68,42.6899066,-84.4887785,266.99,0.08132036030292511,314.5018005371094,0.014000000432133675,0.0,1
1682339834.19890785,137673188,0,3,131852199,2259,15,0.68,42.6899066,-84.48877859999999,267.01,0.06705222278833389,252.64598083496094,0.0820000022649765,0.0,1
1682339834.39943290,137873713,0,3,131852399,2259,15,0.68,42.6899064,-84.48877859999999,266.97,0.06090156361460686,209.51150512695312,0.19600000977516174,0.0,1
1682339834.59948993,138073770,0,3,131852599,2259,15,0.68,42.689906,-84.48877859999999,266.9,0.26036322116851807,172.2744598388672,0.4140000343322754,0.0,1
1682339834.79948878,138273769,0,3,131852799,2259,15,0.68,42.6899054,-84.4887787,266.81,0.2825544476509094,194.13461303710938,0.4830000102519989,0.0,1
1682339834.99945188,138473732,0,3,131852999,2259,15,0.68,42.6899048,-84.48877879999999,266.69,0.30166372656822205,187.6197509765625,0.4100000262260437,0.0,1
1682339835.19950891,138673789,0,3,131853199,2259,15,0.68,42.6899042,-84.48877879999999,266.63,0.24041007459163666,173.79139709472656,0.4130000174045563,0.0,1
1682339835.39997888,138874259,0,3,131853399,2259,15,0.68,42.6899036,-84.48877879999999,266.53000000000003,0.27611592411994934,181.66029357910156,0.3850000202655792,0.0,1
1682339835.59897900,139073259,0,3,131853599,2259,15,0.68,42.689903099999995,-84.48877879999999,266.44,0.24678939580917358,171.37738037109375,0.34300002455711365,0.0,1
1682339835.79889798,139273178,0,3,131853799,2259,15,0.68,42.689902599999996,-84.4887787,266.39,0.203305184841156,173.50418090820312,0.08100000023841858,0.0,1
1682339835.99893188,139473212,0,3,131853999,2259,15,0.68,42.6899022,-84.4887787,266.36,0.1185116097331047,174.67425537109375,0.02800000086426735,0.0,1
1682339836.19900393,139673284,0,3,131854199,2259,15,0.68,42.689901899999995,-84.4887787,266.36,0.1066770851612091,173.5411834716797,0.013000000268220901,0.0,1
1682339836.39947200,139873752,0,3,131854399,2259,15,0.68,42.6899017,-84.48877859999999,266.36,0.06356099992990494,167.275634765625,0.08400000631809235,0.0,1
1682339836.59896779,140073248,0,3,131854599,2259,15,0.68,42.6899015,-84.48877859999999,266.33,0.054037027060985565,182.12110900878906,0.15000000596046448,0.0,1
1682339836.79888487,140273165,0,3,131854799,2259,15,0.68,42.6899014,-84.4887787,266.31,0.06537584215402603,186.14662170410156,0.16200000047683716,0.0,1
1682339836.99904299,140473323,0,3,131854999,2259,15,0.68,42.689901299999995,-84.4887787,266.27,0.04104875400662422,145.9228057861328,0.1900000125169754,0.0,1
1682339837.19947696,140673757,0,3,131855199,2259,15,0.68,42.6899012,-84.4887787,266.25,0.018110772594809532,173.65980529785156,0.17500001192092896,0.0,1
1682339837.39927888,140873559,0,3,131855399,2259,15,0.68,42.6899012,-84.4887787,266.2,0.04810405150055885,136.68467712402344,0.22800001502037048,0.0,1
1682339837.59940577,141073686,0,3,131855599,2259,15,0.68,42.6899012,-84.48877859999999,266.16,0.023021729663014412,145.61965942382812,0.2330000102519989,0.0,1
1682339837.79924679,141273527,0,3,131855799,2259,15,0.68,42.689901299999995,-84.48877859999999,266.12,0.0072111026383936405,33.690067291259766,0.24300001561641693,0.0,1
1682339838.01905894,141493339,0,3,131855999,2259,15,0.68,42.689901299999995,-84.48877859999999,266.07,0.05423098802566528,95.29007720947266,0.1720000058412552,0.0,1
1682339838.19990778,141674188,0,3,131856199,2259,15,0.68,42.689901299999995,-84.4887785,266.04,0.010816654190421104,123.6900634765625,0.21700000762939453,0.0,1
1682339838.39948988,141873770,0,3,131856399,2259,15,0.68,42.689901299999995,-84.48877859999999,266.01,0.011045361869037151,275.1944274902344,0.21300001442432404,0.0,1
1682339838.59889293,142073173,0,3,131856599,2259,15,0.68,42.6899014,-84.4887785,265.97,0.05393515154719353,79.31507873535156,0.3070000112056732,0.0,1
1682339838.79901481,142273295,0,3,131856799,2259,15,0.68,42.6899014,-84.4887785,265.91,0.0382099486887455,312.87890625,0.3720000088214874,0.0,1
1682339838.99948287,142473763,0,3,131856999,2259,15,0.68,42.6899015,-84.4887784,265.84000000000003,0.09835141152143478,71.01237487792969,0.4270000159740448,0.0,1
1682339839.19898891,142673269,0,3,131857199,2259,15,0.68,42.6899016,-84.4887784,265.77,0.07779460400342941,287.9691467285156,0.2840000092983246,0.0,1
1682339839.39948893,142873769,0,3,131857399,2259,15,0.68,42.6899016,-84.4887784,265.73,0.0655209943652153,164.05459594726562,0.2840000092983246,0.0,1
1682339839.59940481,143073685,0,3,131857599,2259,15,0.68,42.6899016,-84.4887784,265.68,0.022360682487487793,259.6951599121094,0.19500000774860382,0.0,1
1682339839.79953885,143273819,0,3,131857799,2259,15,0.68,42.6899017,-84.4887784,265.65,0.02024845778942108,302.9052429199219,0.1860000044107437,0.0,1
1682339839.99948287,143473763,0,3,131857999,2259,15,0.68,42.6899017,-84.48877829999999,265.63,0.06095900759100914,131.0090789794922,0.14600001275539398,0.0,1
1682339840.19988179,143674162,0,3,131858199,2259,15,0.68,42.6899017,-84.4887782,265.62,0.016552945598959923,64.98310089111328,0.27000001072883606,0.0,1
1682339840.39887094,143873151,0,3,131858399,2259,15,0.68,42.6899017,-84.4887782,265.58,0.03471311181783676,168.36634826660156,0.15600000321865082,0.0,1
1682339840.59900188,144073282,0,3,131858599,2259,15,0.68,42.6899016,-84.4887782,265.55,0.02340940199792385,250.01690673828125,0.15200001001358032,0.0,1
1682339840.79903889,144273319,0,3,131858799,2259,15,0.68,42.6899016,-84.48877829999999,265.5,0.056080300360918045,183.06649780273438,0.1990000158548355,0.0,1
1682339840.99950600,144473786,0,3,131858999,2259,15,0.68,42.6899015,-84.48877829999999,265.45,0.05491812154650688,190.49148559570312,0.19700001180171967,0.0,1
1682339841.19888997,144673170,0,3,131859199,2259,15,0.68,42.6899014,-84.48877829999999,265.4,0.03201562166213989,181.7899169921875,0.16600000858306885,0.0,1
1682339841.39891195,144873192,0,3,131859399,2259,15,0.68,42.6899014,-84.4887784,265.34000000000003,0.02080865204334259,324.78240966796875,0.28300002217292786,0.0,1
1682339841.59903288,145073313,0,3,131859599,2259,15,0.68,42.6899014,-84.4887784,265.27,0.05108816176652908,176.63352966308594,0.2160000056028366,0.0,1
1682339841.79907584,145273356,0,3,131859799,2259,15,0.68,42.6899014,-84.4887785,265.24,0.04743416607379913,198.43495178222656,0.21400001645088196,0.0,1
1682339841.99900985,145473290,0,3,131859999,2259,15,0.68,42.689901299999995,-84.4887785,265.22,0.05408327281475067,199.44004821777344,0.24900001287460327,0.0,1
1682339842.19944692,145673727,0,3,131860199,2259,15,0.68,42.6899012,-84.4887785,265.18,0.03544009104371071,196.38954162597656,0.21800000965595245,0.0,1
1682339842.39898491,145873265,0,3,131860399,2259,15,0.68,42.6899011,-84.4887785,265.16,0.00806225836277008,150.25511169433594,0.0860000029206276,0.0,1
1682339842.59938097,146073661,0,3,131860599,2259,15,0.68,42.6899012,-84.4887784,265.15,0.06920260936021805,37.36666488647461,-0.027000000700354576,0.0,1
1682339842.79937696,146273657,0,3,131860799,2259,15,0.68,42.6899012,-84.4887784,265.16,0.04775981605052948,19.5731258392334,0.0020000000949949026,0.0,1
1682339842.99937391,146473654,0,3,131860999,2259,15,0.68,42.689901299999995,-84.48877829999999,265.17,0.08823265135288239,17.81888771057129,-0.036000002175569534,0.0,1
1682339843.19924498,146673525,0,3,131861199,2259,15,0.68,42.6899014,-84.48877829999999,265.16,0.0642884150147438,344.6667175292969,-0.007000000216066837,0.0,1
1682339843.39932799,146873608,0,3,131861399,2259,15,0.68,42.6899014,-84.4887784,265.16,0.02402082458138466,357.6140441894531,-0.00800000037997961,0.0,1
1682339843.59944296,147073723,0,3,131861599,2259,15,0.68,42.6899014,-84.4887784,265.15,0.012041594833135605,318.366455078125,-0.010000000707805157,0.0,1
1682339843.79937696,147273657,0,3,131861799,2259,15,0.68,42.689901299999995,-84.4887785,265.15,0.011661904864013195,300.9637451171875,-0.058000002056360245,0.0,1
1682339844.01903582,147493316,0,3,131861999,2259,15,0.68,42.6899012,-84.4887785,265.16,0.04360045865178108,216.60708618164062,0.08800000697374344,0.0,1
1682339844.19954777,147673828,0,3,131862199,2259,15,0.68,42.6899011,-84.48877859999999,265.15,0.02451530285179615,191.76829528808594,0.01600000075995922,0.0,1
1682339844.39904189,147873322,0,3,131862399,2259,15,0.68,42.6899009,-84.48877859999999,265.14,0.019999999552965164,126.8698959350586,0.010000000707805157,0.0,1
1682339844.59949994,148073780,0,3,131862599,2259,15,0.68,42.6899008,-84.48877859999999,265.14,0.015620499849319458,219.8055877685547,0.014000000432133675,0.0,1
1682339844.79943585,148273716,0,3,131862799,2259,15,0.68,42.689900699999995,-84.4887787,265.11,0.018384777009487152,225.0,-0.03100000135600567,0.0,1
1682339845.01897097,148493251,0,3,131862999,2259,15,0.68,42.6899006,-84.4887787,265.11,0.007615773007273674,113.1985855102539,0.06400000303983688,0.0,1
1682339845.19933677,148673617,0,3,131863199,2259,15,0.68,42.6899005,-84.4887787,265.09000000000003,0.004000000189989805,0.0,0.09800000488758087,0.0,1
1682339845.39901090,148873291,0,3,131863399,2259,15,0.68,42.6899004,-84.48877879999999,265.07,0.04382921755313873,235.22216796875,0.10600000619888306,0.0,1
1682339845.59884977,149073130,0,3,131863599,2259,15,0.68,42.6899003,-84.48877879999999,265.06,0.025079872459173203,184.5739288330078,0.055000003427267075,0.0,1
1682339845.79883790,149273118,0,3,131863799,2259,15,0.68,42.6899002,-84.4887789,265.04,0.024351593106985092,70.82098388671875,0.03200000151991844,0.0,1
1682339845.99939680,149473677,0,3,131863999,2259,15,0.68,42.689900099999996,-84.4887789,265.04,0.019235385581851006,242.10275268554688,0.010000000707805157,0.0,1
1682339846.19900084,149673281,0,3,131864199,2259,15,0.68,42.6899,-84.4887789,265.03000000000003,0.03590264543890953,192.875,-0.012000000104308128,0.0,1
1682339846.39891791,149873198,0,3,131864399,2259,15,0.68,42.6898999,-84.488779,265.03000000000003,0.014422205276787281,213.69007873535156,0.029000001028180122,0.0,1
1682339846.59880495,150073085,0,3,131864599,2259,15,0.68,42.6898997,-84.4887791,265.0,0.026683328673243523,167.00537109375,-0.01100000087171793,0.0,1
1682339846.79886580,150273146,0,3,131864799,2259,15,0.68,42.6898997,-84.4887791,265.0,0.08876936882734299,345.6506652832031,0.06200000271201134,0.0,1
1682339846.99933290,150473613,0,3,131864999,2259,15,0.68,42.6898996,-84.4887792,264.98,0.037854988127946854,192.2004852294922,0.058000002056360245,0.0,1
1682339847.19899893,150673279,0,3,131865199,2259,15,0.68,42.689899499999996,-84.48877929999999,264.96,0.013601471669971943,216.02737426757812,0.017000000923871994,0.0,1
1682339847.39883494,150873115,0,3,131865399,2259,15,0.68,42.6898993,-84.4887794,264.95,0.01615549437701702,158.19857788085938,0.04100000113248825,0.0,1
1682339847.59883380,151073114,0,3,131865599,2259,15,0.68,42.6898992,-84.4887794,264.94,0.02800000086426735,180.0,0.05100000277161598,0.0,1
1682339847.79895997,151273240,0,3,131865799,2259,15,0.68,42.6898991,-84.48877949999999,264.92,0.017804494127631187,321.8427734375,0.09100000560283661,0.0,1
1682339847.99937797,151473658,0,3,131865999,2259,15,0.68,42.689899,-84.48877949999999,264.91,0.01603122055530548,273.57635498046875,0.0430000014603138,0.0,1
1682339848.19893098,151673211,0,3,131866199,2259,15,0.68,42.689898899999996,-84.4887796,264.9,0.015620499849319458,320.1944274902344,0.06800000369548798,0.0,1
1682339848.39932179,151873602,0,3,131866399,2259,15,0.68,42.689898799999995,-84.4887797,264.89,0.004999999888241291,216.86990356445312,-0.003000000026077032,0.0,1
1682339848.59921789,152073498,0,3,131866599,2259,15,0.68,42.6898987,-84.4887797,264.88,0.006324555724859238,108.43494415283203,-0.029000001028180122,0.0,1
1682339848.79929185,152273572,0,3,131866799,2259,15,0.68,42.6898985,-84.4887798,264.87,0.011704700998961926,199.9831085205078,0.003000000026077032,0.0,1
1682339848.99935889,152473639,0,3,131866999,2259,15,0.68,42.6898984,-84.4887798,264.85,0.016401220113039017,127.5685806274414,0.05400000140070915,0.0,1
1682339849.19933796,152673618,0,3,131867199,2259,15,0.68,42.689898299999996,-84.4887799,264.85,0.02765863575041294,220.60130310058594,0.06200000271201134,0.0,1
1682339849.39927697,152873557,0,3,131867399,2259,15,0.68,42.6898981,-84.4887799,264.85,0.014317821711301804,347.9052429199219,0.046000003814697266,0.0,1
1682339849.59935594,153073636,0,3,131867599,2259,15,0.68,42.689898,-84.48877999999999,264.85,0.028160257264971733,196.50437927246094,0.08000000566244125,0.0,1
1682339849.79984379,153274124,0,3,131867799,2259,15,0.68,42.6898979,-84.48877999999999,264.83,0.007615773007273674,66.80140686035156,-0.017000000923871994,0.0,1
1682339850.01883078,153493111,0,3,131867999,2259,15,0.68,42.6898978,-84.4887801,264.84000000000003,0.031400639563798904,260.837646484375,0.08000000566244125,0.0,1
1682339850.19935894,153673639,0,3,131868199,2259,15,0.68,42.689897599999995,-84.4887802,264.82,0.012529964558780193,298.6104736328125,-0.09000000357627869,0.0,1
1682339850.39929390,153873574,0,3,131868399,2259,15,0.68,42.6898975,-84.4887803,264.82,0.03764306381344795,163.0091552734375,-0.01600000075995922,0.0,1
1682339850.59938383,154073664,0,3,131868599,2259,15,0.68,42.6898974,-84.4887804,264.8,0.027294687926769257,298.44293212890625,-0.01600000075995922,0.0,1
1682339850.79990888,154274189,0,3,131868799,2259,15,0.68,42.6898973,-84.4887804,264.8,0.007000000216066837,270.0,-0.03200000151991844,0.0,1
1682339850.99938989,154473670,0,3,131868999,2259,15,0.68,42.6898972,-84.48878049999999,264.8,0.02009975165128708,185.71060180664062,-0.05100000277161598,0.0,1
1682339851.21916080,154693441,0,3,131869199,2259,15,0.68,42.689897099999996,-84.48878049999999,264.8,0.009486833587288857,341.5650634765625,0.049000002443790436,0.0,1
1682339851.39896894,154873249,0,3,131869399,2259,15,0.68,42.689896999999995,-84.4887806,264.77,0.019235385581851006,188.97262573242188,-0.07400000095367432,0.0,1
1682339851.59899688,155073277,0,3,131869599,2259,15,0.68,42.6898969,-84.48878069999999,264.77,0.032280027866363525,163.81077575683594,0.009000000543892384,0.0,1
1682339851.79892397,155273204,0,3,131869799,2259,15,0.68,42.6898968,-84.48878069999999,264.76,0.02154066041111946,21.801406860351562,0.029000001028180122,0.0,1
1682339851.99880886,155473089,0,3,131869999,2259,15,0.68,42.6898968,-84.48878069999999,264.75,0.0058309524320065975,120.96373748779297,0.05100000277161598,0.0,1
1682339852.19887400,155673154,0,3,131870199,2259,15,0.68,42.6898967,-84.48878069999999,264.74,0.01664331741631031,212.7352294921875,0.03200000151991844,0.0,1
1682339852.39899993,155873280,0,3,131870399,2259,15,0.68,42.6898967,-84.4887808,264.73,0.018973667174577713,288.4349365234375,0.030000001192092896,0.0,1
1682339852.59898782,156073268,0,3,131870599,2259,15,0.68,42.6898966,-84.4887809,264.72,0.019723083823919296,149.53443908691406,0.032999999821186066,0.0,1
1682339852.79937077,156273651,0,3,131870799,2259,15,0.68,42.689896499999996,-84.4887809,264.71,0.009055386297404766,276.3402099609375,0.003000000026077032,0.0,1
1682339852.99882483,156473105,0,3,131870999,2259,15,0.68,42.689896499999996,-84.488781,264.7,0.030016662552952766,299.98162841796875,0.003000000026077032,0.0,1
1682339853.19934988,156673630,0,3,131871199,2259,15,0.68,42.689896499999996,-84.4887811,264.69,0.015811389312148094,288.4349365234375,0.0820000022649765,0.0,1
1682339853.39933777,156873618,0,3,131871399,2259,15,0.68,42.689896399999995,-84.48878119999999,264.67,0.02147091180086136,62.241455078125,-0.030000001192092896,0.0,1
1682339853.59977293,157074053,0,3,131871599,2259,15,0.68,42.689896399999995,-84.48878119999999,264.67,0.01702938787639141,319.7636413574219,-0.0020000000949949026,0.0,1
1682339853.79880190,157273082,0,3,131871799,2259,15,0.68,42.689896399999995,-84.4887813,264.68,0.027730850502848625,205.64100646972656,0.05300000309944153,0.0,1
1682339853.99886894,157473149,0,3,131871999,2259,15,0.68,42.6898963,-84.4887813,264.67,0.020518286153674126,133.02505493164062,0.017000000923871994,0.0,1
1682339854.19896078,157673241,0,3,131872199,2259,15,0.68,42.6898963,-84.4887814,264.67,0.010630146600306034,221.18592834472656,0.04200000315904617,0.0,1
1682339854.39897585,157873256,0,3,131872399,2259,15,0.68,42.6898963,-84.4887814,264.67,0.02102379873394966,182.726318359375,0.03400000184774399,0.0,1
1682339854.59883881,158073119,0,3,131872599,2259,15,0.68,42.6898963,-84.4887815,264.68,0.01702938787639141,319.7636413574219,0.06300000101327896,0.0,1
1682339854.79929876,158273579,0,3,131872799,2259,15,0.68,42.6898963,-84.4887816,264.68,0.020000001415610313,270.0,0.046000003814697266,0.0,1
1682339854.99896598,158473246,0,3,131872999,2259,15,0.68,42.6898963,-84.48878169999999,264.68,0.019723083823919296,239.53445434570312,0.06300000101327896,0.0,1
1682339855.19943690,158673717,0,3,131873199,2259,15,0.68,42.6898962,-84.4887818,264.67,0.014764823950827122,208.30076599121094,0.03200000151991844,0.0,1
1682339855.39937782,158873658,0,3,131873399,2259,15,0.68,42.6898962,-84.48878189999999,264.67,0.02202271670103073,140.52752685546875,0.006000000052154064,0.0,1
1682339855.59938097,159073661,0,3,131873599,2259,15,0.68,42.6898962,-84.488782,264.66,0.033060550689697266,273.4682312011719,0.04100000113248825,0.0,1
1682339855.79924989,159273530,0,3,131873799,2259,15,0.68,42.6898961,-84.4887821,264.65,0.004472136031836271,116.5650405883789,0.006000000052154064,0.0,1
1682339856.01936984,159493650,0,3,131873999,2259,15,0.68,42.6898961,-84.4887822,264.65,0.017000000923871994,151.927490234375,0.036000002175569534,0.0,1
1682339856.19937992,159673660,0,3,131874199,2259,15,0.68,42.6898961,-84.4887822,264.66,0.01702938787639141,220.23635864257812,0.0430000014603138,0.0,1
1682339856.39936185,159873642,0,3,131874399,2259,15,0.68,42.689896,-84.4887823,264.65,0.013341664336621761,192.99462890625,-0.009000000543892384,0.0,1
1682339856.59988785,160074168,0,3,131874599,2259,15,0.68,42.689896,-84.48878239999999,264.66,0.018110772594809532,96.34017944335938,-0.01100000087171793,0.0,1
1682339856.79933190,160273612,0,3,131874799,2259,15,0.68,42.689896,-84.48878239999999,264.67,0.015652475878596306,116.5650405883789,-0.039000000804662704,0.0,1
1682339856.99920487,160473485,0,3,131874999,2259,15,0.68,42.689895899999996,-84.4887825,264.67,0.00806225836277008,262.875,0.02500000037252903,0.0,1
1682339857.19933486,160673615,0,3,131875199,2259,15,0.68,42.689895899999996,-84.4887826,264.68,0.011401754803955555,195.255126953125,0.04700000211596489,0.0,1
1682339857.39925385,160873534,0,3,131875399,2259,15,0.68,42.689895899999996,-84.4887826,264.69,0.03313608095049858,174.80557250976562,0.024000000208616257,0.0,1
1682339857.59984684,161074127,0,3,131875599,2259,15,0.68,42.689895799999995,-84.4887827,264.68,0.029068883508443832,183.9451904296875,-0.0560000017285347,0.0,1
1682339857.79896498,161273245,0,3,131875799,2259,15,0.68,42.6898957,-84.4887827,264.7,0.0022360680159181356,296.5650634765625,0.05100000277161598,0.0,1
1682339857.99897385,161473254,0,3,131875999,2259,15,0.68,42.6898957,-84.4887827,264.71,0.018248289823532104,99.46231842041016,-0.125,0.0,1
1682339858.19884086,161673121,0,3,131876199,2259,15,0.68,42.6898957,-84.4887828,264.72,0.0187882948666811,334.79888916015625,-0.02800000086426735,0.0,1
1682339858.39882684,161873107,0,3,131876399,2259,15,0.68,42.6898957,-84.48878289999999,264.73,0.013000000268220901,112.61986541748047,0.026000000536441803,0.0,1
1682339858.59935379,162073634,0,3,131876599,2259,15,0.68,42.689895799999995,-84.48878289999999,264.72,0.031144823879003525,354.47247314453125,-0.05000000074505806,0.0,1
1682339858.79896998,162273250,0,3,131876799,2259,15,0.68,42.689895799999995,-84.488783,264.73,0.013416407629847527,243.43496704101562,0.027000000700354576,0.0,1
1682339858.99891496,162473195,0,3,131876999,2259,15,0.68,42.689895799999995,-84.488783,264.75,0.013038406148552895,302.47119140625,-0.0010000000474974513,0.0,1
1682339859.19879580,162673076,0,3,131877199,2259,15,0.68,42.689895799999995,-84.48878309999999,264.75,0.020591260865330696,29.054601669311523,-0.03700000047683716,0.0,1
1682339859.39923978,162873520,0,3,131877399,2259,15,0.68,42.689895799999995,-84.48878309999999,264.76,0.030413813889026642,152.5924072265625,-0.03800000250339508,0.0,1
1682339859.59932280,163073603,0,3,131877599,2259,15,0.68,42.689895799999995,-84.48878309999999,264.78000000000003,0.007000000216066837,180.0,-0.05100000277161598,0.0,1
1682339859.79937792,163273658,0,3,131877799,2259,15,0.68,42.689895899999996,-84.4887832,264.8,0.01077033020555973,338.1986083984375,-0.007000000216066837,0.0,1
