timestamp,TimeUS,Lat,Lng,Alt,RelHomeAlt,RelOriginAlt
1682339799.45975590,102934036,42.689961499999995,-84.4889132,254.87998962402344,0.008212624117732048,-0.10178737342357635
1682339799.55976796,103034048,42.689961499999995,-84.4889132,254.87998962402344,0.008139966055750847,-0.10186003148555756
1682339799.65970898,103133989,42.689961499999995,-84.48891309999999,254.87998962402344,0.006415007635951042,-0.10358498990535736
1682339799.75936985,103233650,42.689961499999995,-84.48891309999999,254.87998962402344,0.003580210730433464,-0.10641978681087494
1682339799.85937381,103333654,42.689961499999995,-84.48891309999999,254.87998962402344,0.0019980650395154953,-0.10800193250179291
1682339799.95946789,103433748,42.6899616,-84.48891309999999,254.87998962402344,0.0014957170933485031,-0.1085042804479599
1682339800.05939579,103533676,42.6899616,-84.488913,254.87998962402344,0.0004809480160474777,-0.10951904952526093
1682339800.15937281,103633653,42.6899616,-84.488913,254.8699951171875,-0.0010617990046739578,-0.11106179654598236
1682339800.25929880,103733579,42.6899616,-84.488913,254.8699951171875,-0.0033311862498521805,-0.11333118379116058
1682339800.35929489,103833575,42.6899616,-84.488913,254.8699951171875,-0.005618991330265999,-0.1156189888715744
1682339800.45936179,103933642,42.6899616,-84.488913,254.8699951171875,-0.007643582299351692,-0.1176435798406601
1682339800.55941296,104033693,42.6899616,-84.4889129,254.8699951171875,-0.00956195779144764,-0.11956195533275604
1682339800.65965986,104133940,42.6899617,-84.488913,254.86000061035156,-0.012043477967381477,-0.12204347550868988
1682339800.75964880,104233929,42.6899617,-84.488913,254.86000061035156,-0.014692725613713264,-0.12469272315502167
1682339800.85936689,104333647,42.6899617,-84.488913,254.86000061035156,-0.016428055241703987,-0.1264280527830124
1682339800.95948076,104433761,42.6899617,-84.4889129,254.86000061035156,-0.017793776467442513,-0.12779377400875092
1682339801.05944395,104533724,42.6899617,-84.4889129,254.86000061035156,-0.018373312428593636,-0.12837330996990204
1682339801.15943980,104633720,42.6899617,-84.4889129,254.86000061035156,-0.019078852608799934,-0.12907885015010834
1682339801.25924993,104733530,42.6899618,-84.4889129,254.86000061035156,-0.01889568753540516,-0.12889568507671356
1682339801.35937881,104833659,42.6899618,-84.4889128,254.86000061035156,-0.018646182492375374,-0.12864618003368378
1682339801.45932889,104933609,42.6899618,-84.4889128,254.86000061035156,-0.018636764958500862,-0.12863676249980927
1682339801.55967283,105033953,42.6899618,-84.4889128,254.86000061035156,-0.01959085650742054,-0.12959085404872894
1682339801.65947795,105133758,42.6899618,-84.4889128,254.86000061035156,-0.01976853795349598,-0.12976853549480438
1682339801.75937676,105233657,42.6899619,-84.4889128,254.86000061035156,-0.018658282235264778,-0.12865827977657318
1682339801.85963678,105333917,42.6899619,-84.4889127,254.86000061035156,-0.01919347234070301,-0.1291934698820114
1682339801.95967579,105433956,42.6899619,-84.4889127,254.84999084472656,-0.020566584542393684,-0.1305665820837021
1682339802.05967784,105533958,42.6899619,-84.4889127,254.84999084472656,-0.0245553869754076,-0.134555384516716
1682339802.15969777,105633978,42.6899619,-84.4889127,254.83999633789062,-0.030398191884160042,-0.14039818942546844
1682339802.25989294,105734173,42.6899619,-84.4889127,254.83999633789062,-0.033363401889801025,-0.14336340129375458
1682339802.35962892,105833909,42.6899619,-84.48891259999999,254.83999633789062,-0.03450453281402588,-0.14450453221797943
1682339802.45997977,105934260,42.6899619,-84.48891259999999,254.83999633789062,-0.036097586154937744,-0.1460975855588913
1682339802.55966997,106033950,42.6899619,-84.48891259999999,254.83999633789062,-0.037876248359680176,-0.14787624776363373
1682339802.65961599,106133896,42.6899619,-84.48891259999999,254.83999633789062,-0.038747429847717285,-0.14874742925167084
1682339802.75961781,106233898,42.6899619,-84.48891259999999,254.83999633789062,-0.03992277383804321,-0.14992277324199677
1682339802.85962081,106333901,42.6899619,-84.48891259999999,254.83999633789062,-0.038469791412353516,-0.14846979081630707
1682339802.95972300,106434003,42.689962,-84.48891259999999,254.83999633789062,-0.036033034324645996,-0.14603303372859955
1682339803.05974483,106534025,42.689962,-84.4889125,254.83999633789062,-0.03435558080673218,-0.14435558021068573
1682339803.15979385,106634074,42.689962,-84.4889125,254.83999633789062,-0.03164643049240112,-0.14164642989635468
1682339803.25988698,106734167,42.689962,-84.4889125,254.84999084472656,-0.024371327832341194,-0.1343713253736496
1682339803.35999894,106834279,42.689962,-84.4889125,254.86000061035156,-0.016082050278782845,-0.12608204782009125
1682339803.45995378,106934234,42.689962,-84.4889125,254.8699951171875,-0.008131386712193489,-0.11813138425350189
1682339803.55987191,107034152,42.689962,-84.4889125,254.8699951171875,-0.001019420102238655,-0.11101941764354706
1682339803.65962791,107133908,42.689962,-84.48891239999999,254.87998962402344,0.0041352491825819016,-0.1058647483587265
1682339803.75936890,107233649,42.689962,-84.48891239999999,254.87998962402344,0.009583888575434685,-0.10041610896587372
1682339803.85961795,107333898,42.689962,-84.48891239999999,254.88999938964844,0.014408348128199577,-0.09559164941310883
1682339803.95961595,107433896,42.689962,-84.48891239999999,254.88999938964844,0.01892930082976818,-0.09107069671154022
1682339804.05974483,107534025,42.689962,-84.48891239999999,254.89999389648438,0.023753343150019646,-0.08624665439128876
1682339804.15990186,107634182,42.689962,-84.48891239999999,254.89999389648438,0.02855282835662365,-0.08144716918468475
1682339804.25966477,107733945,42.689962,-84.48891239999999,254.9099884033203,0.03188943862915039,-0.07811056077480316
1682339804.35965586,107833936,42.689962,-84.48891239999999,254.9099884033203,0.03420567512512207,-0.07579432427883148
1682339804.45946097,107933741,42.689962,-84.48891239999999,254.9099884033203,0.03637516498565674,-0.07362483441829681
1682339804.55944991,108033730,42.689962,-84.48891239999999,254.9099884033203,0.03847658634185791,-0.07152341306209564
1682339804.65945888,108133739,42.689962,-84.48891239999999,254.9199981689453,0.04228717088699341,-0.06771282851696014
1682339804.75932884,108233609,42.689962,-84.48891239999999,254.9199981689453,0.04662984609603882,-0.06337015330791473
1682339804.85929990,108333580,42.689962,-84.48891239999999,254.92999267578125,0.05032336711883545,-0.059676628559827805
1682339804.95987678,108434157,42.689962,-84.4889123,254.92999267578125,0.05445587635040283,-0.05554411932826042
1682339805.05938888,108533669,42.689962,-84.4889123,254.92999267578125,0.05941641330718994,-0.05058358237147331
1682339805.15937686,108633657,42.689962,-84.4889123,254.9399871826172,0.06414216756820679,-0.04585782811045647
1682339805.25943995,108733720,42.689962,-84.4889122,254.9399871826172,0.06890475749969482,-0.04109523817896843
1682339805.35953689,108833817,42.689962,-84.4889122,254.9499969482422,0.07328033447265625,-0.036719661206007004
1682339805.45944285,108933723,42.689962,-84.4889121,254.95999145507812,0.08334589004516602,-0.026654105633497238
1682339805.55945086,109033731,42.689962,-84.4889121,254.989990234375,0.11005216836929321,5.2172690629959106e-05
1682339805.65944099,109133721,42.689962,-84.488912,255.0399932861328,0.1692216992378235,0.05922170355916023
1682339805.75938988,109233670,42.689962,-84.488912,255.1199951171875,0.24788528680801392,0.13788528740406036
1682339805.85940480,109333685,42.689962,-84.48891189999999,255.20999145507812,0.3385174572467804,0.22851745784282684
1682339805.95944190,109433722,42.689962,-84.4889118,255.29998779296875,0.42703691124916077,0.3170369267463684
1682339806.05972385,109534004,42.689962099999995,-84.4889118,255.3699951171875,0.4978303611278534,0.38783037662506104
1682339806.15966988,109633950,42.689962099999995,-84.4889117,255.42999267578125,0.5572752356529236,0.4472752511501312
1682339806.25957990,109733860,42.689962099999995,-84.4889116,255.47999572753906,0.6071193814277649,0.49711939692497253
1682339806.35959291,109833873,42.6899622,-84.4889116,255.5399932861328,0.6604354381561279,0.5504354238510132
1682339806.45957899,109933859,42.6899622,-84.4889116,255.58999633789062,0.7116245031356812,0.6016244888305664
1682339806.55964899,110033929,42.6899622,-84.4889115,255.62998962402344,0.7515974640846252,0.6415974497795105
1682339806.65959978,110133880,42.6899622,-84.4889115,255.6599884033203,0.7802997827529907,0.670299768447876
1682339806.75996900,110234249,42.6899622,-84.4889115,255.67999267578125,0.8037943840026855,0.6937943696975708
1682339806.85963082,110333911,42.6899622,-84.4889115,255.6899871826172,0.8188693523406982,0.7088693380355835
1682339806.95980096,110434081,42.6899623,-84.48891139999999,255.6999969482422,0.8278936743736267,0.717893660068512
1682339807.05969000,110533970,42.6899623,-84.4889113,255.70999145507812,0.8337432742118835,0.7237432599067688
1682339807.15943599,110633716,42.6899623,-84.4889111,255.70999145507812,0.8381919860839844,0.7281919717788696
1682339807.25964594,110733926,42.6899623,-84.4889109,255.72000122070312,0.844609260559082,0.7346092462539673
1682339807.35965586,110833936,42.6899623,-84.48891069999999,255.72000122070312,0.8499614000320435,0.7399613857269287
1682339807.45978785,110934068,42.6899623,-84.4889106,255.72000122070312,0.8489512205123901,0.7389512062072754
1682339807.55973887,111034019,42.6899623,-84.4889105,255.72999572753906,0.8506823182106018,0.7406823039054871
1682339807.65984583,111134126,42.6899623,-84.4889104,255.72999572753906,0.8572900891304016,0.7472900748252869
1682339807.75962687,111233907,42.6899622,-84.4889104,255.739990234375,0.8697628974914551,0.7597628831863403
1682339807.86000991,111334290,42.6899622,-84.4889104,255.75999450683594,0.8835822343826294,0.7735822200775146
1682339807.96001577,111434296,42.6899622,-84.4889105,255.76998901367188,0.8965628147125244,0.7865628004074097
1682339808.05966878,111533949,42.6899622,-84.4889106,255.77999877929688,0.9080849289894104,0.7980849146842957
1682339808.15965295,111633933,42.6899622,-84.48891069999999,255.79998779296875,0.922171950340271,0.8121719360351562
1682339808.25966787,111733948,42.6899622,-84.4889108,255.80999755859375,0.9387398362159729,0.8287398219108582
1682339808.35969996,111833980,42.6899623,-84.4889109,255.83999633789062,0.9603012204170227,0.850301206111908
1682339808.45971680,111933997,42.6899623,-84.488911,255.86000061035156,0.9840596914291382,0.8740596771240234
1682339808.55977988,112034060,42.6899624,-84.4889111,255.88999938964844,1.0102719068527222,0.9002718925476074
1682339808.65969896,112133979,42.6899625,-84.4889111,255.9099884033203,1.038296103477478,0.9282960891723633
1682339808.76000595,112234286,42.6899626,-84.48891119999999,255.9399871826172,1.0696614980697632,0.9596615433692932
1682339808.85996294,112334243,42.689962699999995,-84.4889111,255.97999572753906,1.102372169494629,0.9923722147941589
1682339808.95968080,112433961,42.689962699999995,-84.488911,256.0099792480469,1.139176845550537,1.0291768312454224
1682339809.05966687,112533947,42.689962799999996,-84.4889109,256.04998779296875,1.1746007204055786,1.0646007061004639
1682339809.15965390,112633934,42.6899629,-84.4889108,256.0799865722656,1.2095648050308228,1.099564790725708
1682339809.25970578,112733986,42.6899629,-84.4889105,256.1199951171875,1.2481744289398193,1.1381744146347046
1682339809.35973382,112834014,42.689963,-84.48891019999999,256.1600036621094,1.2862374782562256,1.1762374639511108
1682339809.45966387,112933944,42.689963,-84.4889098,256.1999816894531,1.3232744932174683,1.2132744789123535
1682339809.55984187,113034122,42.689963,-84.4889094,256.22998046875,1.358216643333435,1.2482166290283203
1682339809.65970278,113133983,42.6899629,-84.4889089,256.2699890136719,1.3908861875534058,1.280886173248291
1682339809.75966287,113233943,42.6899629,-84.4889084,256.29998779296875,1.423415184020996,1.3134151697158813
1682339809.85962677,113333907,42.689962799999996,-84.48890779999999,256.3299865722656,1.455399751663208,1.3453997373580933
1682339809.95992780,113434208,42.689962799999996,-84.48890709999999,256.3599853515625,1.485866904258728,1.3758668899536133
1682339810.05946898,113533749,42.689962699999995,-84.4889065,256.3899841308594,1.5145554542541504,1.4045554399490356
1682339810.15934181,113633622,42.6899624,-84.4889058,256.41998291015625,1.5424166917800903,1.4324166774749756
1682339810.25936985,113733650,42.6899622,-84.4889049,256.4499816894531,1.5700531005859375,1.4600530862808228
1682339810.35939384,113833674,42.689962099999995,-84.48890399999999,256.4700012207031,1.5949569940567017,1.484956979751587
1682339810.45939779,113933678,42.6899619,-84.488903,256.489990234375,1.6152150630950928,1.505215048789978
1682339810.55976796,114034048,42.6899616,-84.488902,256.5099792480469,1.630673885345459,1.5206738710403442
1682339810.65946198,114133742,42.6899612,-84.48890089999999,256.5199890136719,1.6423972845077515,1.5323972702026367
1682339810.75945783,114233738,42.689960899999996,-84.4888998,256.5299987792969,1.6506377458572388,1.540637731552124
1682339810.85963392,114333914,42.6899605,-84.4888986,256.5299987792969,1.6592988967895508,1.549298882484436
1682339810.95949984,114433780,42.68996,-84.4888974,256.5400085449219,1.6664257049560547,1.55642569065094
1682339811.05964088,114533921,42.6899595,-84.48889609999999,256.5400085449219,1.6674498319625854,1.5574498176574707
1682339811.15956879,114633849,42.6899589,-84.4888947,256.5400085449219,1.6670787334442139,1.5570787191390991
1682339811.25964689,114733927,42.689958399999995,-84.4888933,256.5400085449219,1.6640398502349854,1.5540398359298706
1682339811.35960889,114833889,42.689957799999995,-84.48889199999999,256.5299987792969,1.657019019126892,1.5470190048217773
1682339811.45959687,114933877,42.6899571,-84.48889059999999,256.5199890136719,1.6496623754501343,1.5396623611450195
1682339811.55993080,115034211,42.6899565,-84.4888892,256.5199890136719,1.6441744565963745,1.5341744422912598
1682339811.65967393,115133954,42.6899557,-84.48888769999999,256.5199890136719,1.6438425779342651,1.5338425636291504
1682339811.75958776,115233868,42.689955,-84.4888862,256.5199890136719,1.646828532218933,1.5368285179138184
1682339811.85957694,115333857,42.6899543,-84.4888847,256.5199890136719,1.6498000621795654,1.5398000478744507
1682339811.95984483,115434125,42.6899535,-84.4888833,256.5299987792969,1.6536955833435059,1.5436955690383911
1682339812.05974388,115534024,42.6899528,-84.4888817,256.5400085449219,1.6602355241775513,1.5502355098724365
1682339812.15973687,115634017,42.6899521,-84.4888802,256.5400085449219,1.6688138246536255,1.5588138103485107
1682339812.25970197,115733982,42.6899513,-84.4888787,256.54998779296875,1.679622769355774,1.5696227550506592
1682339812.35943198,115833712,42.689950599999996,-84.48887719999999,256.55999755859375,1.6896101236343384,1.5796101093292236
1682339812.45944691,115933727,42.6899498,-84.4888757,256.57000732421875,1.6983494758605957,1.588349461555481
1682339812.55952883,116033809,42.689949,-84.48887429999999,256.5799865722656,1.7066223621368408,1.596622347831726
1682339812.65947485,116133755,42.6899483,-84.488873,256.5899963378906,1.7171173095703125,1.6071172952651978
1682339812.75943589,116233716,42.689947499999995,-84.48887169999999,256.6000061035156,1.7272047996520996,1.6172047853469849
1682339812.85931492,116333595,42.6899468,-84.4888704,256.6099853515625,1.7361987829208374,1.6261987686157227
1682339812.95941591,116433696,42.6899461,-84.4888692,256.6199951171875,1.7425936460494995,1.6325936317443848
1682339813.05951786,116533798,42.6899454,-84.488868,256.6199951171875,1.7489142417907715,1.6389142274856567
1682339813.15939379,116633674,42.6899447,-84.4888667,256.6300048828125,1.754667043685913,1.6446670293807983
1682339813.25976181,116734042,42.6899441,-84.4888655,256.6399841308594,1.761535882949829,1.6515358686447144
1682339813.35968900,116833969,42.6899434,-84.4888642,256.6399841308594,1.7671619653701782,1.6571619510650635
1682339813.45938897,116933669,42.6899428,-84.488863,256.6499938964844,1.7722095251083374,1.6622095108032227
1682339813.55952978,117033810,42.6899422,-84.4888618,256.6499938964844,1.7773053646087646,1.66730535030365
1682339813.65948176,117133762,42.689941499999996,-84.4888606,256.6600036621094,1.782678484916687,1.6726784706115723
1682339813.75949192,117233772,42.689940799999995,-84.4888594,256.6600036621094,1.7876678705215454,1.6776678562164307
1682339813.85935283,117333633,42.689940199999995,-84.4888582,256.6600036621094,1.7897238731384277,1.679723858833313
1682339813.95953679,117433817,42.689939599999995,-84.488857,256.66998291015625,1.79116952419281,1.6811695098876953
1682339814.05942178,117533702,42.689938999999995,-84.4888558,256.66998291015625,1.7920907735824585,1.6820907592773438
1682339814.15968680,117633967,42.6899385,-84.48885469999999,256.66998291015625,1.7905447483062744,1.6805447340011597
1682339814.25949097,117733771,42.6899379,-84.4888536,256.66998291015625,1.7905335426330566,1.680533528327942
1682339814.35945296,117833733,42.6899373,-84.4888525,256.66998291015625,1.79096257686615,1.6809625625610352
1682339814.45963478,117933915,42.6899367,-84.4888514,256.66998291015625,1.7927846908569336,1.6827846765518188
1682339814.55972600,118034006,42.689935999999996,-84.4888503,256.66998291015625,1.793362021446228,1.6833620071411133
1682339814.65968180,118133962,42.689935399999996,-84.48884919999999,256.66998291015625,1.7918401956558228,1.681840181350708
1682339814.75973296,118234013,42.689934699999995,-84.48884799999999,256.6600036621094,1.78787362575531,1.6778736114501953
1682339814.85978699,118334067,42.689934099999995,-84.48884699999999,256.6499938964844,1.7787384986877441,1.6687384843826294
1682339814.95974994,118434030,42.689933499999995,-84.4888459,256.6399841308594,1.7667967081069946,1.6567966938018799
1682339815.06003690,118534317,42.689932899999995,-84.48884489999999,256.6300048828125,1.7527775764465332,1.6427775621414185
1682339815.15996981,118634250,42.689932299999995,-84.48884389999999,256.6099853515625,1.7372713088989258,1.627271294593811
1682339815.25964999,118733930,42.689931699999995,-84.4888429,256.6000061035156,1.720641851425171,1.6106418371200562
1682339815.35965490,118833935,42.689931,-84.4888419,256.5799865722656,1.7032902240753174,1.5932902097702026
1682339815.45945787,118933738,42.6899304,-84.488841,256.55999755859375,1.6877574920654297,1.577757477760315
1682339815.55937099,119033651,42.6899298,-84.48884,256.54998779296875,1.6756670475006104,1.5656670331954956
1682339815.65936589,119133646,42.6899291,-84.48883909999999,256.5400085449219,1.6695997714996338,1.559599757194519
1682339815.75939894,119233679,42.6899284,-84.4888381,256.5400085449219,1.6685420274734497,1.558542013168335
1682339815.85944581,119333726,42.6899278,-84.48883719999999,256.54998779296875,1.6719073057174683,1.5619072914123535
1682339815.95981693,119434097,42.6899272,-84.4888363,256.54998779296875,1.6770204305648804,1.5670204162597656
1682339816.05971384,119533994,42.6899266,-84.48883529999999,256.55999755859375,1.683024525642395,1.5730245113372803
1682339816.15962696,119633907,42.6899259,-84.4888344,256.55999755859375,1.689030647277832,1.5790306329727173
1682339816.25965190,119733932,42.6899253,-84.48883339999999,256.57000732421875,1.695286750793457,1.5852867364883423
1682339816.35937595,119833656,42.6899247,-84.4888326,256.5799865722656,1.7038723230361938,1.593872308731079
1682339816.45961380,119933894,42.6899241,-84.48883169999999,256.5899963378906,1.716578483581543,1.6065784692764282
1682339816.55959082,120033871,42.6899235,-84.4888308,256.6099853515625,1.730286717414856,1.6202867031097412
1682339816.65980387,120134084,42.689923,-84.48883,256.6199951171875,1.7437469959259033,1.6337469816207886
1682339816.75959277,120233873,42.689922599999996,-84.48882929999999,256.6300048828125,1.7569787502288818,1.646978735923767
1682339816.85963082,120333911,42.6899221,-84.4888285,256.6399841308594,1.7690151929855347,1.65901517868042
1682339816.95966482,120433945,42.6899217,-84.4888277,256.6600036621094,1.7825452089309692,1.6725451946258545
1682339817.05959582,120533876,42.689921399999996,-84.48882689999999,256.67999267578125,1.8014121055603027,1.691412091255188
1682339817.15976691,120634047,42.6899212,-84.4888261,256.6999816894531,1.8214828968048096,1.7114828824996948
1682339817.25947499,120733755,42.6899209,-84.4888253,256.7200012207031,1.841373324394226,1.7313733100891113
1682339817.35936189,120833642,42.6899206,-84.4888244,256.739990234375,1.8612821102142334,1.7512820959091187
1682339817.45936394,120933644,42.689920199999996,-84.4888235,256.7599792480469,1.8865292072296143,1.7765291929244995
1682339817.55947685,121033757,42.6899199,-84.48882259999999,256.7900085449219,1.9133363962173462,1.8033363819122314
1682339817.65939188,121133672,42.689919499999995,-84.4888217,256.82000732421875,1.9408572912216187,1.830857276916504
1682339817.75944877,121233729,42.6899191,-84.4888208,256.8399963378906,1.9674829244613647,1.85748291015625
1682339817.85946393,121333744,42.6899187,-84.4888198,256.8599853515625,1.9880210161209106,1.878021001815796
1682339817.95980978,121434090,42.689918299999995,-84.4888189,256.8800048828125,2.005450963973999,1.8954510688781738
1682339818.05966091,121533941,42.689917799999996,-84.488818,256.8999938964844,2.0254476070404053,1.9154475927352905
1682339818.15944695,121633727,42.6899174,-84.4888172,256.91998291015625,2.045959234237671,1.9359592199325562
1682339818.25968981,121733970,42.6899169,-84.48881639999999,256.94000244140625,2.064441204071045,1.9544413089752197
1682339818.35970378,121833984,42.6899164,-84.4888158,256.9599914550781,2.080246925354004,1.9702469110488892
1682339818.45974398,121934024,42.689916,-84.48881519999999,256.9700012207031,2.0914242267608643,1.981424331665039
1682339818.55969691,122033977,42.6899155,-84.48881469999999,256.9700012207031,2.0984387397766113,1.9884388446807861
1682339818.65968800,122133968,42.6899152,-84.4888142,256.97998046875,2.101550817489624,1.9915509223937988
1682339818.75967193,122233952,42.6899148,-84.4888138,256.97998046875,2.101101875305176,1.9911019802093506
1682339818.85984588,122334126,42.6899145,-84.4888134,256.9700012207031,2.0972373485565186,1.9872373342514038
1682339818.95989799,122434178,42.6899142,-84.488813,256.9700012207031,2.0931107997894287,1.9831109046936035
1682339819.05948377,122533764,42.689913999999995,-84.4888127,256.9599914550781,2.0895280838012695,1.9795281887054443
1682339819.15935493,122633635,42.689913999999995,-84.4888124,256.9599914550781,2.084196090698242,1.974196195602417
1682339819.25938082,122733661,42.689913999999995,-84.48881209999999,256.9499816894531,2.0773725509643555,1.9673725366592407
1682339819.35939980,122833680,42.689914099999996,-84.4888118,256.9499816894531,2.0704026222229004,1.9604027271270752
1682339819.45937395,122933654,42.6899142,-84.4888115,256.94000244140625,2.0645782947540283,1.9545783996582031
1682339819.55949879,123033779,42.6899144,-84.48881109999999,256.92999267578125,2.0593597888946533,1.9493598937988281
1682339819.65946889,123133749,42.6899145,-84.4888108,256.92999267578125,2.053684711456299,1.943684697151184
1682339819.75938582,123233666,42.6899146,-84.4888105,256.91998291015625,2.048200845718384,1.938200831413269
1682339819.85940194,123333682,42.689914699999996,-84.4888101,256.91998291015625,2.042492151260376,1.9324921369552612
1682339819.95949292,123433773,42.689914699999996,-84.48880969999999,256.9100036621094,2.0375349521636963,1.9275349378585815
1682339820.05979180,123534072,42.689914699999996,-84.4888094,256.9100036621094,2.0340192317962646,1.92401921749115
1682339820.15937281,123633653,42.6899146,-84.4888091,256.9100036621094,2.0310072898864746,1.9210072755813599
1682339820.25948787,123733768,42.6899145,-84.4888088,256.9100036621094,2.030212879180908,1.920212984085083
1682339820.35939693,123833677,42.6899144,-84.48880849999999,256.9100036621094,2.030120372772217,1.920120358467102
1682339820.45944095,123933721,42.6899143,-84.4888082,256.8999938964844,2.02799654006958,1.9179965257644653
1682339820.55946994,124033750,42.6899142,-84.48880799999999,256.8999938964844,2.0244579315185547,1.9144580364227295
1682339820.65939188,124133672,42.689913999999995,-84.48880779999999,256.8999938964844,2.0216174125671387,1.911617398262024
1682339820.75938892,124233669,42.6899139,-84.4888076,256.8899841308594,2.018476963043213,1.9084769487380981
1682339820.85937595,124333656,42.6899137,-84.4888075,256.8899841308594,2.013810157775879,1.9038102626800537
1682339820.95977283,124434053,42.6899136,-84.4888074,256.8800048828125,2.008570909500122,1.8985708951950073
1682339821.05960488,124533885,42.689913399999995,-84.48880729999999,256.8800048828125,2.003096580505371,1.893096685409546
1682339821.15964890,124633929,42.6899133,-84.4888072,256.8699951171875,1.997672438621521,1.8876724243164062
1682339821.25961280,124733893,42.6899133,-84.4888071,256.8699951171875,1.9922195672988892,1.8822195529937744
1682339821.35962176,124833902,42.6899133,-84.488807,256.8599853515625,1.9873731136322021,1.8773730993270874
1682339821.45961499,124933895,42.6899133,-84.48880679999999,256.8599853515625,1.981591820716858,1.8715918064117432
1682339821.55958295,125033863,42.689913499999996,-84.4888067,256.8500061035156,1.9757435321807861,1.8657435178756714
1682339821.65958881,125133869,42.6899136,-84.4888065,256.8500061035156,1.971726655960083,1.8617266416549683
1682339821.75957394,125233854,42.6899137,-84.4888063,256.8399963378906,1.968682050704956,1.8586820363998413
1682339821.85967493,125333955,42.6899138,-84.48880609999999,256.8399963378906,1.964070200920105,1.8540701866149902
1682339821.95978999,125434070,42.689913999999995,-84.4888058,256.8399963378906,1.960047721862793,1.8500477075576782
1682339822.05986190,125534142,42.689914099999996,-84.4888055,256.8299865722656,1.9563485383987427,1.846348524093628
1682339822.15984583,125634126,42.6899142,-84.4888051,256.8299865722656,1.9525831937789917,1.842583179473877
1682339822.25945997,125733740,42.6899143,-84.4888047,256.8299865722656,1.9500340223312378,1.840034008026123
1682339822.35946584,125833746,42.6899144,-84.48880419999999,256.82000732421875,1.9485878944396973,1.8385878801345825
1682339822.45944285,125933723,42.6899144,-84.48880369999999,256.82000732421875,1.9462306499481201,1.8362306356430054
1682339822.55946279,126033743,42.6899144,-84.4888031,256.82000732421875,1.9445784091949463,1.8345783948898315
1682339822.65965080,126133931,42.6899144,-84.4888026,256.82000732421875,1.9433343410491943,1.8333343267440796
1682339822.75965691,126233937,42.6899144,-84.4888021,256.82000732421875,1.94245445728302,1.8324544429779053
1682339822.85974193,126334022,42.6899143,-84.4888015,256.82000732421875,1.9413166046142578,1.831316590309143
1682339822.95989585,126434176,42.6899142,-84.4888009,256.80999755859375,1.9378008842468262,1.8278008699417114
1682339823.05970979,126533990,42.689914099999996,-84.4888003,256.80999755859375,1.9379464387893677,1.827946424484253
1682339823.15945482,126633735,42.689913999999995,-84.4887997,256.82000732421875,1.9411805868148804,1.8311805725097656
1682339823.25945687,126733737,42.6899139,-84.488799,256.82000732421875,1.94200599193573,1.8320059776306152
1682339823.35938478,126833665,42.6899137,-84.4887984,256.82000732421875,1.9442954063415527,1.834295392036438
1682339823.45938587,126933666,42.6899137,-84.4887978,256.8299865722656,1.9501506090164185,1.8401505947113037
1682339823.55945492,127033735,42.689913499999996,-84.4887971,256.8299865722656,1.9554575681686401,1.8454575538635254
1682339823.65937400,127133654,42.6899132,-84.48879649999999,256.8299865722656,1.9547652006149292,1.8447651863098145
1682339823.75935793,127233638,42.689913,-84.48879579999999,256.8299865722656,1.950967788696289,1.8409677743911743
1682339823.85984087,127334121,42.6899127,-84.48879509999999,256.82000732421875,1.9462882280349731,1.8362882137298584
1682339823.95984578,127434126,42.6899125,-84.4887943,256.82000732421875,1.9440590143203735,1.8340590000152588
1682339824.05977178,127534052,42.689912199999995,-84.4887935,256.82000732421875,1.9404149055480957,1.830414891242981
1682339824.15967798,127633958,42.6899118,-84.48879269999999,256.80999755859375,1.9346526861190796,1.8246526718139648
1682339824.25977778,127734058,42.689911599999995,-84.4887919,256.79998779296875,1.928125023841858,1.8181250095367432
1682339824.35963798,127833918,42.6899113,-84.4887911,256.79998779296875,1.9233325719833374,1.8133325576782227
1682339824.45963883,127933919,42.689910999999995,-84.4887902,256.79998779296875,1.9207661151885986,1.8107661008834839
1682339824.55968380,128033964,42.6899108,-84.4887894,256.79998779296875,1.9211008548736572,1.8111008405685425
1682339824.65974498,128134025,42.689910499999996,-84.4887885,256.79998779296875,1.9245795011520386,1.8145794868469238
1682339824.76003194,128234312,42.6899103,-84.4887876,256.79998779296875,1.9288522005081177,1.818852186203003
1682339824.85972881,128334009,42.6899101,-84.4887866,256.80999755859375,1.9340465068817139,1.8240464925765991
1682339824.95948887,128433769,42.689909899999996,-84.4887856,256.80999755859375,1.9389382600784302,1.8289382457733154
1682339825.05946398,128533744,42.6899097,-84.4887845,256.82000732421875,1.9423397779464722,1.8323397636413574
1682339825.15943480,128633715,42.6899095,-84.4887834,256.82000732421875,1.9444756507873535,1.8344756364822388
1682339825.25945091,128733731,42.6899093,-84.4887823,256.82000732421875,1.9453632831573486,1.8353632688522339
1682339825.35943484,128833715,42.6899091,-84.48878119999999,256.82000732421875,1.945691704750061,1.8356916904449463
1682339825.45934677,128933627,42.6899089,-84.48877999999999,256.82000732421875,1.9414905309677124,1.8314905166625977
1682339825.55938292,129033663,42.6899087,-84.48877879999999,256.80999755859375,1.9370853900909424,1.8270853757858276
1682339825.65947795,129133758,42.6899085,-84.48877759999999,256.80999755859375,1.9323179721832275,1.8223179578781128
1682339825.75938988,129233670,42.6899082,-84.4887765,256.79998779296875,1.9277997016906738,1.817799687385559
1682339825.85970187,129333982,42.6899081,-84.4887754,256.79998779296875,1.925070881843567,1.8150708675384521
1682339825.95972776,129434008,42.6899079,-84.4887743,256.79998779296875,1.9230774641036987,1.813077449798584
1682339826.05946493,129533745,42.6899078,-84.4887734,256.79998779296875,1.9219766855239868,1.811976671218872
1682339826.15940285,129633683,42.6899077,-84.4887725,256.79998779296875,1.9215301275253296,1.8115301132202148
1682339826.25944591,129733726,42.6899077,-84.4887718,256.79998779296875,1.9244118928909302,1.8144118785858154
1682339826.35946989,129833750,42.6899077,-84.488771,256.79998779296875,1.9287422895431519,1.818742275238037
1682339826.45938277,129933663,42.6899077,-84.4887703,256.80999755859375,1.9363977909088135,1.8263977766036987
1682339826.55949092,130033771,42.6899078,-84.4887696,256.82000732421875,1.9438512325286865,1.8338512182235718
1682339826.65973687,130134017,42.6899079,-84.4887689,256.8299865722656,1.9528703689575195,1.8428703546524048
1682339826.75945878,130233739,42.689907999999996,-84.4887681,256.8399963378906,1.9603145122528076,1.8503144979476929
1682339826.85962892,130333909,42.689907999999996,-84.48876729999999,256.8399963378906,1.9657176733016968,1.855717658996582
1682339826.95964479,130433925,42.6899081,-84.48876659999999,256.8500061035156,1.9716968536376953,1.8616968393325806
1682339827.05961585,130533896,42.6899081,-84.4887658,256.8500061035156,1.9792171716690063,1.8692171573638916
1682339827.15959477,130633875,42.6899082,-84.4887651,256.8599853515625,1.9878009557724,1.8778009414672852
1682339827.25963688,130733917,42.6899081,-84.4887645,256.8699951171875,1.9986364841461182,1.8886364698410034
1682339827.35974479,130834025,42.689907999999996,-84.4887639,256.8800048828125,2.0071325302124023,1.8971326351165771
1682339827.45972776,130934008,42.6899079,-84.48876349999999,256.8899841308594,2.0132527351379395,1.9032527208328247
1682339827.55962896,131033909,42.6899078,-84.4887631,256.8899841308594,2.014906883239746,1.904906988143921
1682339827.65994883,131134229,42.6899076,-84.48876279999999,256.8899841308594,2.0119941234588623,1.901994228363037
1682339827.75992584,131234206,42.689907399999996,-84.48876249999999,256.8800048828125,2.007338762283325,1.8973387479782104
1682339827.85963082,131333911,42.6899072,-84.48876229999999,256.8800048828125,2.0037388801574707,1.893738865852356
1682339827.95969081,131433971,42.6899069,-84.4887622,256.8800048828125,2.003086805343628,1.8930869102478027
1682339828.05945277,131533733,42.689906699999995,-84.4887622,256.8699951171875,1.9989670515060425,1.8889670372009277
1682339828.15936685,131633647,42.6899065,-84.48876229999999,256.8699951171875,1.9918698072433472,1.8818697929382324
1682339828.25936484,131733645,42.6899063,-84.48876249999999,256.8599853515625,1.9835492372512817,1.873549222946167
1682339828.35940480,131833685,42.689906099999995,-84.4887627,256.8500061035156,1.9737846851348877,1.863784670829773
1682339828.45944786,131933728,42.6899059,-84.4887629,256.8399963378906,1.96540367603302,1.8554036617279053
1682339828.55976295,132034043,42.6899059,-84.4887633,256.8299865722656,1.9594876766204834,1.8494876623153687
1682339828.65967798,132133958,42.6899058,-84.48876369999999,256.8299865722656,1.9557914733886719,1.8457914590835571
1682339828.75963998,132233920,42.6899059,-84.4887641,256.8299865722656,1.9533846378326416,1.8433846235275269
1682339828.85963082,132333911,42.689906,-84.4887646,256.8299865722656,1.9514074325561523,1.8414074182510376
1682339828.95948887,132433769,42.689906099999995,-84.4887652,256.8299865722656,1.950387716293335,1.8403877019882202
1682339829.05968785,132533968,42.6899063,-84.4887657,256.8299865722656,1.9511393308639526,1.841139316558838
1682339829.15972590,132634006,42.6899065,-84.4887663,256.8299865722656,1.953067421913147,1.8430674076080322
1682339829.25985384,132734134,42.6899066,-84.488767,256.8299865722656,1.954318881034851,1.8443188667297363
1682339829.35970283,132833983,42.689906699999995,-84.4887677,256.8299865722656,1.9547855854034424,1.8447855710983276
1682339829.45976686,132934047,42.689906799999996,-84.4887684,256.8299865722656,1.9530575275421143,1.8430575132369995
1682339829.55969691,133033977,42.689907,-84.4887691,256.8299865722656,1.9507232904434204,1.8407232761383057
1682339829.65964389,133133924,42.6899071,-84.4887698,256.82000732421875,1.9473578929901123,1.8373578786849976
1682339829.75986481,133234145,42.6899072,-84.4887705,256.82000732421875,1.9437446594238281,1.8337446451187134
1682339829.85944200,133333722,42.6899073,-84.4887713,256.80999755859375,1.9388926029205322,1.8288925886154175
1682339829.95945692,133433737,42.689907399999996,-84.48877209999999,256.80999755859375,1.933405876159668,1.8234058618545532
1682339830.05938983,133533670,42.6899075,-84.488773,256.80999755859375,1.930022954940796,1.8200229406356812
1682339830.15939689,133633677,42.6899077,-84.48877379999999,256.79998779296875,1.9275563955307007,1.817556381225586
1682339830.25938082,133733661,42.6899077,-84.4887746,256.79998779296875,1.9239170551300049,1.8139170408248901
1682339830.35975289,133834033,42.6899078,-84.4887753,256.7900085449219,1.9193642139434814,1.8093641996383667
1682339830.45970798,133933988,42.689907999999996,-84.4887759,256.7900085449219,1.91291344165802,1.8029134273529053
1682339830.55977178,134034052,42.6899081,-84.4887765,256.7799987792969,1.9063758850097656,1.7963758707046509
1682339830.65963483,134133915,42.6899082,-84.488777,256.7799987792969,1.900567650794983,1.7905676364898682
1682339830.75945091,134233731,42.6899083,-84.4887773,256.7699890136719,1.8957065343856812,1.7857065200805664
1682339830.85964394,134333924,42.6899083,-84.4887775,256.7699890136719,1.8923547267913818,1.782354712486267
1682339830.95978785,134434068,42.6899084,-84.4887777,256.7599792480469,1.8896492719650269,1.779649257659912
1682339831.05973792,134534018,42.6899084,-84.4887777,256.7599792480469,1.8864573240280151,1.7764573097229004
1682339831.15956593,134633846,42.6899084,-84.48877759999999,256.7599792480469,1.8836498260498047,1.77364981174469
1682339831.25961995,134733900,42.6899084,-84.4887775,256.7599792480469,1.8822101354599,1.7722101211547852
1682339831.35962081,134833901,42.6899084,-84.48877739999999,256.7599792480469,1.8813878297805786,1.7713878154754639
1682339831.45959687,134933877,42.6899084,-84.4887772,256.7599792480469,1.8807783126831055,1.7707782983779907
1682339831.55963278,135033913,42.6899084,-84.4887771,256.7599792480469,1.880022644996643,1.7700226306915283
1682339831.65962481,135133905,42.6899083,-84.488777,256.75,1.8798701763153076,1.7698701620101929
1682339831.75985980,135234140,42.6899083,-84.4887768,256.75,1.8798962831497192,1.7698962688446045
1682339831.85937786,135333658,42.6899083,-84.4887767,256.75,1.8799687623977661,1.7699687480926514
1682339831.95954680,135433827,42.6899082,-84.4887767,256.75,1.8792544603347778,1.769254446029663
1682339832.05939889,135533679,42.6899081,-84.4887766,256.75,1.8797928094863892,1.7697927951812744
1682339832.15944386,135633724,42.689907999999996,-84.4887766,256.7599792480469,1.8806205987930298,1.770620584487915
1682339832.25946093,135733741,42.6899079,-84.4887766,256.7599792480469,1.880672574043274,1.7706725597381592
1682339832.35945392,135833734,42.6899078,-84.4887766,256.7599792480469,1.8804795742034912,1.7704795598983765
1682339832.45946193,135933742,42.6899078,-84.4887766,256.7599792480469,1.8804329633712769,1.770432949066162
1682339832.55947995,136033760,42.6899078,-84.4887765,256.7599792480469,1.8812028169631958,1.771202802658081
1682339832.65981197,136134092,42.6899077,-84.4887765,256.7599792480469,1.8848143815994263,1.7748143672943115
1682339832.75939178,136233672,42.6899077,-84.4887765,256.7599792480469,1.8889853954315186,1.7789853811264038
1682339832.85940790,136333688,42.6899076,-84.4887766,256.7599792480469,1.88983154296875,1.7798315286636353
1682339832.95943880,136433719,42.6899076,-84.4887766,256.7599792480469,1.889400839805603,1.7794008255004883
1682339833.05946279,136533743,42.6899076,-84.4887766,256.7599792480469,1.8891510963439941,1.7791510820388794
1682339833.15945292,136633733,42.6899075,-84.4887766,256.7599792480469,1.8893004655838013,1.7793004512786865
1682339833.25945687,136733737,42.6899075,-84.4887766,256.7699890136719,1.8917601108551025,1.7817600965499878
1682339833.35945582,136833736,42.6899075,-84.4887767,256.7699890136719,1.8954240083694458,1.785423994064331
1682339833.45944881,136933729,42.6899075,-84.4887767,256.7799987792969,1.9002641439437866,1.7902641296386719
1682339833.55973697,137034017,42.6899075,-84.4887768,256.7900085449219,1.9103062152862549,1.8003062009811401
1682339833.65978885,137134069,42.6899075,-84.4887768,256.79998779296875,1.920888900756836,1.8108888864517212
1682339833.75984597,137234126,42.6899076,-84.48877689999999,256.79998779296875,1.9284863471984863,1.8184863328933716
1682339833.85983491,137334115,42.6899076,-84.488777,256.80999755859375,1.9320451021194458,1.822045087814331
1682339833.95983100,137434111,42.6899076,-84.488777,256.80999755859375,1.935665249824524,1.8256652355194092
1682339834.05973387,137534014,42.6899076,-84.4887771,256.80999755859375,1.9375163316726685,1.8275163173675537
1682339834.15967584,137633956,42.6899076,-84.4887771,256.80999755859375,1.9338291883468628,1.823829174041748
1682339834.25968599,137733966,42.689907399999996,-84.4887772,256.79998779296875,1.9203120470046997,1.810312032699585
1682339834.35968494,137833965,42.689907399999996,-84.4887772,256.7699890136719,1.8954185247421265,1.7854185104370117
1682339834.45971680,137933997,42.6899071,-84.4887772,256.739990234375,1.8610759973526,1.7510759830474854
1682339834.55976796,138034048,42.689906799999996,-84.4887772,256.69000244140625,1.8197424411773682,1.7097424268722534
1682339834.65979290,138134073,42.6899065,-84.4887771,256.6499938964844,1.7741669416427612,1.6641669273376465
1682339834.75985885,138234139,42.689906199999996,-84.4887771,256.6000061035156,1.726151943206787,1.6161519289016724
1682339834.85944676,138333727,42.6899058,-84.4887771,256.54998779296875,1.6764252185821533,1.5664252042770386
1682339834.95952177,138433802,42.689905499999995,-84.4887771,256.5,1.6254544258117676,1.5154544115066528
1682339835.05948782,138533768,42.6899052,-84.4887771,256.4499816894531,1.5768846273422241,1.4668846130371094
1682339835.15946484,138633745,42.6899048,-84.4887771,256.4100036621094,1.5318983793258667,1.421898365020752
1682339835.25949597,138733776,42.6899045,-84.4887771,256.3599853515625,1.4894568920135498,1.379456877708435
1682339835.35944796,138833728,42.689904299999995,-84.4887771,256.3299865722656,1.4504824876785278,1.340482473373413
1682339835.45941591,138933696,42.689904,-84.4887771,256.29998779296875,1.420008659362793,1.3100086450576782
1682339835.55985880,139034139,42.689903799999996,-84.4887771,256.2699890136719,1.399249792098999,1.2892497777938843
1682339835.65974283,139134023,42.6899035,-84.488777,256.2599792480469,1.3834420442581177,1.273442029953003
1682339835.75947285,139233753,42.6899033,-84.488777,256.25,1.3717488050460815,1.2617487907409668
1682339835.85947585,139333756,42.689903199999996,-84.488777,256.239990234375,1.3658967018127441,1.2558966875076294
1682339835.95951080,139433791,42.689903,-84.488777,256.239990234375,1.3629659414291382,1.2529659271240234
1682339836.05949783,139533778,42.6899029,-84.48877689999999,256.239990234375,1.3617820739746094,1.2517820596694946
1682339836.15948296,139633763,42.6899028,-84.48877689999999,256.22998046875,1.3592798709869385,1.2492798566818237
1682339836.25944090,139733721,42.689902599999996,-84.48877689999999,256.22998046875,1.3545275926589966,1.2445275783538818
1682339836.35942578,139833706,42.689902599999996,-84.48877689999999,256.2200012207031,1.3484268188476562,1.2384268045425415
1682339836.45984983,139934130,42.689902499999995,-84.48877689999999,256.2200012207031,1.3402655124664307,1.230265498161316
1682339836.55975389,140034034,42.6899024,-84.48877689999999,256.2099914550781,1.3303710222244263,1.2203710079193115
1682339836.65965080,140133931,42.6899024,-84.48877689999999,256.19000244140625,1.3169422149658203,1.2069422006607056
1682339836.75965595,140233936,42.6899023,-84.48877689999999,256.17999267578125,1.301356315612793,1.1913563013076782
1682339836.85972977,140334010,42.6899023,-84.488777,256.1600036621094,1.2826586961746216,1.1726586818695068
1682339836.95966196,140433942,42.6899022,-84.488777,256.1399841308594,1.2630348205566406,1.1530348062515259
1682339837.05973387,140534014,42.6899022,-84.488777,256.1199951171875,1.2416094541549683,1.1316094398498535
1682339837.15965581,140633936,42.6899021,-84.488777,256.0899963378906,1.2197635173797607,1.109763503074646
1682339837.25973296,140734013,42.6899021,-84.488777,256.07000732421875,1.199493169784546,1.0894931554794312
1682339837.35985184,140834132,42.689902,-84.488777,256.04998779296875,1.1794220209121704,1.0694220066070557
1682339837.45973396,140934014,42.689902,-84.488777,256.0299987792969,1.1571338176727295,1.0471338033676147
1682339837.55947590,141033756,42.689902,-84.488777,256.0099792480469,1.1352510452270508,1.025251030921936
1682339837.65972686,141134007,42.689901899999995,-84.488777,255.989990234375,1.1128181219100952,1.0028181076049805
1682339837.75967193,141233952,42.689901899999995,-84.488777,255.97000122070312,1.0903767347335815,0.9803767204284668
1682339837.85969090,141333971,42.6899018,-84.488777,255.9399871826172,1.0683767795562744,0.9583767652511597
1682339837.95971179,141433992,42.6899018,-84.488777,255.9199981689453,1.0476937294006348,0.9376937747001648
1682339838.05973291,141534013,42.6899018,-84.488777,255.89999389648438,1.0286412239074707,0.918641209602356
1682339838.15976596,141634046,42.6899018,-84.48877689999999,255.88999938964844,1.010826826095581,0.9008268117904663
1682339838.25988388,141734164,42.6899018,-84.48877689999999,255.8699951171875,0.9920898675918579,0.8820898532867432
1682339838.35982680,141834107,42.6899017,-84.48877689999999,255.84999084472656,0.9719803333282471,0.8619803190231323
1682339838.46005297,141934333,42.6899017,-84.48877689999999,255.8199920654297,0.9477646350860596,0.8377646207809448
1682339838.56002283,142034303,42.6899017,-84.48877689999999,255.7899932861328,0.9182868003845215,0.8082867860794067
1682339838.65975189,142134032,42.6899017,-84.48877689999999,255.75999450683594,0.8836480975151062,0.7736480832099915
1682339838.75970483,142233985,42.6899017,-84.48877689999999,255.72000122070312,0.845546305179596,0.7355462908744812
1682339838.85970378,142333984,42.6899017,-84.48877689999999,255.67999267578125,0.8063337802886963,0.6963337659835815
1682339838.95983791,142434118,42.6899017,-84.48877689999999,255.63999938964844,0.7660343647003174,0.6560343503952026
1682339839.05980587,142534086,42.6899017,-84.48877689999999,255.59999084472656,0.7270071506500244,0.6170071363449097
1682339839.15977383,142634054,42.6899017,-84.4887768,255.5699920654297,0.692781388759613,0.5827813744544983
1682339839.25974298,142734023,42.6899017,-84.4887768,255.5399932861328,0.6641643047332764,0.5541642904281616
1682339839.35946083,142833741,42.6899018,-84.4887768,255.50999450683594,0.6391326189041138,0.529132604598999
1682339839.45946884,142933749,42.6899018,-84.4887768,255.489990234375,0.6172928214073181,0.5072928071022034
1682339839.55950093,143033781,42.6899018,-84.4887768,255.47000122070312,0.5991634726524353,0.48916348814964294
1682339839.65949082,143133771,42.6899018,-84.4887768,255.45999145507812,0.5843020677566528,0.4743020534515381
1682339839.75948095,143233761,42.6899017,-84.4887768,255.4499969482422,0.5716919898986816,0.4616920053958893
1682339839.85938287,143333663,42.6899018,-84.4887768,255.42999267578125,0.5584864020347595,0.44848641753196716
1682339839.95943499,143433715,42.6899018,-84.4887768,255.4199981689453,0.5441364049911499,0.43413642048835754
1682339840.05951500,143533795,42.6899018,-84.4887768,255.39999389648438,0.5284515619277954,0.41845157742500305
1682339840.15941882,143633699,42.6899018,-84.4887768,255.38999938964844,0.5114442110061646,0.4014442265033722
1682339840.25978184,143734062,42.6899018,-84.4887768,255.3699951171875,0.4906720817089081,0.3806720972061157
1682339840.35970879,143833989,42.6899018,-84.4887768,255.33999633789062,0.4670069217681885,0.3570069372653961
1682339840.45967197,143933952,42.6899018,-84.4887768,255.3199920654297,0.44569024443626404,0.3356902599334717
1682339840.55969787,144033978,42.6899018,-84.4887768,255.29998779296875,0.4250664710998535,0.31506648659706116
1682339840.65948296,144133763,42.6899018,-84.4887768,255.27999877929688,0.4067980647087097,0.29679808020591736
1682339840.75938582,144233666,42.6899018,-84.4887768,255.25999450683594,0.38795405626296997,0.2779540717601776
1682339840.85938978,144333670,42.6899017,-84.4887768,255.239990234375,0.36943319439888,0.25943320989608765
1682339840.95954800,144433828,42.6899017,-84.4887768,255.22999572753906,0.35212814807891846,0.2421281486749649
1682339841.05961490,144533895,42.6899017,-84.4887768,255.20999145507812,0.33427947759628296,0.2242794781923294
1682339841.15979385,144634074,42.6899017,-84.4887768,255.1899871826172,0.3163693845272064,0.20636938512325287
1682339841.25973392,144734014,42.6899016,-84.4887768,255.1699981689453,0.29568418860435486,0.1856841892004013
1682339841.35968494,144833965,42.6899016,-84.4887768,255.14999389648438,0.27508559823036194,0.1650855988264084
1682339841.45965886,144933939,42.6899016,-84.4887768,255.12998962402344,0.2521476149559021,0.14214761555194855
1682339841.55948281,145033763,42.6899016,-84.4887768,255.09999084472656,0.22812390327453613,0.11812390387058258
1682339841.65965080,145133931,42.6899016,-84.4887768,255.0800018310547,0.2061946988105774,0.09619469940662384
1682339841.75968289,145233963,42.6899016,-84.4887768,255.05999755859375,0.1868951916694641,0.07689519226551056
1682339841.85971498,145333995,42.6899016,-84.4887768,255.0399932861328,0.16667455434799194,0.05667455866932869
1682339841.95971084,145433991,42.6899016,-84.4887768,255.01998901367188,0.1456926465034485,0.03569265082478523
1682339842.05967188,145533952,42.6899015,-84.48877689999999,255.0,0.12352597713470459,0.013525981456041336
1682339842.15965295,145633933,42.6899015,-84.48877689999999,254.97000122070312,0.09922873973846436,-0.010771255940198898
1682339842.25962877,145733909,42.6899015,-84.48877689999999,254.9499969482422,0.07653611898422241,-0.03346387669444084
1682339842.35979795,145834078,42.6899015,-84.48877689999999,254.9399871826172,0.06005173921585083,-0.049948256462812424
1682339842.45946383,145933744,42.6899015,-84.48877689999999,254.9199981689453,0.04851269721984863,-0.06148729845881462
1682339842.55945182,146033732,42.6899015,-84.48877689999999,254.9199981689453,0.04770863056182861,-0.06229136511683464
1682339842.65941882,146133699,42.6899015,-84.48877689999999,254.92999267578125,0.05021268129348755,-0.059787314385175705
1682339842.75951290,146233793,42.6899016,-84.48877689999999,254.9199981689453,0.04697614908218384,-0.06302385032176971
1682339842.85942793,146333708,42.6899016,-84.48877689999999,254.9199981689453,0.047920048236846924,-0.06207994744181633
1682339842.95953488,146433815,42.6899017,-84.48877689999999,254.9199981689453,0.04637426137924194,-0.06362573802471161
1682339843.05950880,146533789,42.6899017,-84.48877689999999,254.9199981689453,0.04793107509613037,-0.06206892058253288
1682339843.15979600,146634076,42.6899017,-84.48877689999999,254.92999267578125,0.051997482776641846,-0.05800251290202141
1682339843.25971794,146733998,42.6899017,-84.4887768,254.92999267578125,0.05568993091583252,-0.054310064762830734
1682339843.35956693,146833847,42.6899017,-84.4887768,254.92999267578125,0.05712181329727173,-0.052878182381391525
1682339843.45970392,146933984,42.6899017,-84.4887768,254.92999267578125,0.05782759189605713,-0.052172403782606125
1682339843.55978799,147034068,42.6899017,-84.4887768,254.92999267578125,0.056501567363739014,-0.05349842831492424
1682339843.65989184,147134172,42.6899017,-84.4887768,254.92999267578125,0.05456823110580444,-0.05543176457285881
1682339843.75974989,147234030,42.6899018,-84.4887768,254.92999267578125,0.052249789237976074,-0.05775020644068718
1682339843.86003280,147334313,42.6899018,-84.4887768,254.92999267578125,0.05263274908065796,-0.057367246598005295
1682339843.95974183,147434022,42.6899018,-84.4887768,254.92999267578125,0.05317068099975586,-0.056829314678907394
1682339844.05968094,147533961,42.6899018,-84.4887768,254.92999267578125,0.050838470458984375,-0.05916152521967888
1682339844.15965986,147633940,42.6899018,-84.4887768,254.9199981689453,0.047318339347839355,-0.0626816600561142
1682339844.25968385,147733964,42.6899017,-84.4887768,254.9199981689453,0.04380691051483154,-0.06619308888912201
1682339844.35989881,147834179,42.6899017,-84.4887768,254.9199981689453,0.04086261987686157,-0.06913737952709198
1682339844.45939493,147933675,42.6899017,-84.4887768,254.9099884033203,0.03853261470794678,-0.07146738469600677
1682339844.55952597,148033806,42.6899017,-84.48877689999999,254.9099884033203,0.036499083042144775,-0.07350091636180878
1682339844.65942883,148133709,42.6899017,-84.48877689999999,254.9099884033203,0.03526860475540161,-0.07473139464855194
1682339844.75943899,148233719,42.6899017,-84.48877689999999,254.9099884033203,0.03474152088165283,-0.07525847852230072
1682339844.85970688,148333987,42.6899016,-84.48877689999999,254.9099884033203,0.0352175235748291,-0.07478247582912445
1682339844.95949578,148433776,42.6899016,-84.48877689999999,254.9099884033203,0.038425445556640625,-0.07157455384731293
1682339845.05944991,148533730,42.6899016,-84.48877689999999,254.9199981689453,0.04140192270278931,-0.06859807670116425
1682339845.15943885,148633719,42.6899015,-84.48877689999999,254.9199981689453,0.04616832733154297,-0.06383167207241058
1682339845.25977397,148734054,42.6899015,-84.48877689999999,254.9199981689453,0.047102272510528564,-0.06289772689342499
1682339845.35935092,148833631,42.6899015,-84.488777,254.9199981689453,0.045934975147247314,-0.06406502425670624
1682339845.45946789,148933748,42.6899014,-84.488777,254.9099884033203,0.038829803466796875,-0.07117019593715668
1682339845.55939198,149033672,42.6899014,-84.488777,254.89999389648438,0.028891442343592644,-0.08110855519771576
1682339845.65946579,149133746,42.689901299999995,-84.488777,254.89999389648438,0.020011303946375847,-0.08998869359493256
1682339845.75945783,149233738,42.689901299999995,-84.4887771,254.88999938964844,0.012177644297480583,-0.09782235324382782
1682339845.85964584,149333926,42.6899012,-84.4887771,254.87998962402344,0.00521993450820446,-0.10478006303310394
1682339845.95948482,149433765,42.6899012,-84.4887771,254.8699951171875,-0.0012536663562059402,-0.11125366389751434
1682339846.05946088,149533741,42.6899011,-84.4887771,254.8699951171875,-0.004790009930729866,-0.11479000747203827
1682339846.15964985,149633930,42.689901,-84.4887771,254.8699951171875,-0.0059175509959459305,-0.11591754853725433
1682339846.25974798,149734028,42.689901,-84.4887772,254.8699951171875,-0.00688106007874012,-0.11688105762004852
1682339846.35979199,149834072,42.6899009,-84.4887772,254.8699951171875,-0.00981992669403553,-0.11981992423534393
1682339846.45962977,149933910,42.6899009,-84.4887772,254.86000061035156,-0.013207079842686653,-0.12320707738399506
1682339846.55948782,150033768,42.6899008,-84.4887772,254.86000061035156,-0.016552092507481575,-0.12655209004878998
1682339846.65946698,150133747,42.689900699999995,-84.4887773,254.86000061035156,-0.01907658763229847,-0.12907658517360687
1682339846.75943685,150233717,42.689900699999995,-84.4887773,254.84999084472656,-0.021282078698277473,-0.13128207623958588
1682339846.85953093,150333811,42.6899006,-84.4887773,254.84999084472656,-0.02529478259384632,-0.13529478013515472
1682339846.95948482,150433765,42.6899006,-84.4887773,254.83999633789062,-0.030810298398137093,-0.1408102959394455
1682339847.05969977,150533980,42.6899005,-84.48877739999999,254.83999633789062,-0.03636378049850464,-0.1463637799024582
1682339847.15971088,150633991,42.6899005,-84.48877739999999,254.8300018310547,-0.041132330894470215,-0.15113233029842377
1682339847.25983191,150734112,42.6899004,-84.48877739999999,254.8300018310547,-0.04320257902145386,-0.1532025784254074
1682339847.35984993,150834130,42.6899004,-84.4887775,254.8300018310547,-0.04494208097457886,-0.1549420803785324
1682339847.45963097,150933911,42.6899003,-84.4887775,254.8300018310547,-0.046090543270111084,-0.15609054267406464
1682339847.55966687,151033947,42.6899003,-84.4887775,254.8300018310547,-0.04788404703140259,-0.15788404643535614
1682339847.65960598,151133886,42.6899002,-84.4887775,254.8199920654297,-0.050730764865875244,-0.1607307642698288
1682339847.75959492,151233875,42.689900099999996,-84.48877759999999,254.8199920654297,-0.054222285747528076,-0.16422228515148163
1682339847.85965896,151333939,42.689900099999996,-84.48877759999999,254.8199920654297,-0.05916321277618408,-0.16916321218013763
1682339847.95969081,151433971,42.6899,-84.48877759999999,254.80999755859375,-0.06609994173049927,-0.17609994113445282
1682339848.05959392,151533874,42.6899,-84.4887777,254.79998779296875,-0.07133889198303223,-0.18133889138698578
1682339848.15998578,151634266,42.6898999,-84.4887777,254.79998779296875,-0.07740187644958496,-0.1874018758535385
1682339848.25972295,151734003,42.6898999,-84.4887777,254.7899932861328,-0.08259880542755127,-0.19259880483150482
1682339848.35939598,151833676,42.6898998,-84.4887778,254.7899932861328,-0.08955538272857666,-0.1995553821325302
1682339848.45944786,151933728,42.6898998,-84.4887778,254.77999877929688,-0.09805542230606079,-0.20805542171001434
1682339848.55944681,152033727,42.6898997,-84.4887779,254.76998901367188,-0.10651183128356934,-0.2165118306875229
1682339848.65938091,152133661,42.6898996,-84.4887779,254.75999450683594,-0.11171531677246094,-0.2217153161764145
1682339848.75943398,152233714,42.6898996,-84.4887779,254.75999450683594,-0.11392498016357422,-0.22392497956752777
1682339848.85932899,152333609,42.689899499999996,-84.488778,254.75999450683594,-0.11425131559371948,-0.22425131499767303
1682339848.95941687,152433697,42.689899499999996,-84.488778,254.75999450683594,-0.11298763751983643,-0.22298763692378998
1682339849.05989289,152534173,42.6898994,-84.488778,254.75999450683594,-0.1125267744064331,-0.22252677381038666
1682339849.15965390,152633934,42.6898994,-84.488778,254.75999450683594,-0.11237215995788574,-0.2223721593618393
1682339849.25968599,152733966,42.6898993,-84.48877809999999,254.75999450683594,-0.11390656232833862,-0.22390656173229218
1682339849.35966897,152833949,42.6898992,-84.48877809999999,254.75999450683594,-0.11636161804199219,-0.22636161744594574
1682339849.45973587,152934016,42.6898992,-84.48877809999999,254.75999450683594,-0.11826789379119873,-0.22826789319515228
1682339849.55964398,153033924,42.6898991,-84.4887782,254.75999450683594,-0.11901694536209106,-0.22901694476604462
1682339849.65965295,153133933,42.689899,-84.4887782,254.75999450683594,-0.11916178464889526,-0.22916178405284882
1682339849.75965691,153233937,42.689899,-84.4887782,254.75999450683594,-0.11938422918319702,-0.22938422858715057
1682339849.85974288,153334023,42.689898899999996,-84.4887782,254.75999450683594,-0.11965775489807129,-0.22965775430202484
1682339849.96006680,153434347,42.689898899999996,-84.48877829999999,254.75999450683594,-0.11929976940155029,-0.22929976880550385
1682339850.05971980,153534000,42.689898799999995,-84.48877829999999,254.75999450683594,-0.1195070743560791,-0.22950707376003265
1682339850.15944791,153633728,42.6898987,-84.48877829999999,254.75,-0.1201741099357605,-0.23017410933971405
1682339850.25946784,153733748,42.6898987,-84.4887784,254.75999450683594,-0.11862802505493164,-0.2286280244588852
1682339850.35938787,153833668,42.6898986,-84.4887784,254.75999450683594,-0.11582458019256592,-0.22582457959651947
1682339850.45939684,153933677,42.6898985,-84.4887784,254.75999450683594,-0.11206293106079102,-0.22206293046474457
1682339850.55945182,154033732,42.6898985,-84.4887785,254.76998901367188,-0.10702407360076904,-0.2170240730047226
1682339850.65935898,154133639,42.6898984,-84.4887785,254.76998901367188,-0.1033969521522522,-0.21339695155620575
1682339850.75936794,154233648,42.6898984,-84.4887785,254.76998901367188,-0.10086381435394287,-0.21086381375789642
1682339850.85953784,154333818,42.689898299999996,-84.48877859999999,254.76998901367188,-0.10059040784835815,-0.2105904072523117
1682339850.95948887,154433769,42.689898199999995,-84.48877859999999,254.76998901367188,-0.10272973775863647,-0.21272973716259003
1682339851.05967093,154533951,42.689898199999995,-84.4887787,254.76998901367188,-0.10464489459991455,-0.2146448940038681
1682339851.15964890,154633929,42.6898981,-84.4887787,254.76998901367188,-0.10608458518981934,-0.2160845845937729
1682339851.25943995,154733720,42.6898981,-84.4887787,254.76998901367188,-0.10817748308181763,-0.21817748248577118
1682339851.35939193,154833672,42.689898,-84.4887787,254.75999450683594,-0.11121773719787598,-0.22121773660182953
1682339851.45946383,154933744,42.689898,-84.48877879999999,254.75999450683594,-0.11067944765090942,-0.22067944705486298
1682339851.55955386,155033834,42.6898979,-84.48877879999999,254.75999450683594,-0.11024612188339233,-0.2202461212873459
1682339851.65936089,155133641,42.6898978,-84.48877879999999,254.75999450683594,-0.11078041791915894,-0.2207804173231125
1682339851.75940180,155233682,42.6898978,-84.48877879999999,254.76998901367188,-0.10976499319076538,-0.21976499259471893
1682339851.85943198,155333712,42.689897699999996,-84.4887789,254.76998901367188,-0.10896533727645874,-0.2189653366804123
1682339851.95979977,155434080,42.689897699999996,-84.4887789,254.76998901367188,-0.10872864723205566,-0.21872864663600922
1682339852.05950093,155533781,42.689897599999995,-84.4887789,254.76998901367188,-0.1096653938293457,-0.21966539323329926
1682339852.15944791,155633728,42.689897599999995,-84.4887789,254.75999450683594,-0.11156719923019409,-0.22156719863414764
