timestamp,TimeUS,C,Q1,Q2,Q3,Q4
1682339799.45863891,102932919,2,0.9995025992393494,-0.004917821381241083,0.0016349017387256026,-0.031106900423765182
1682339799.55864692,103032927,2,0.9995015859603882,-0.004903559572994709,0.0016119660576805472,-0.03114299103617668
1682339799.65860486,103132885,2,0.9994997978210449,-0.004911710973829031,0.0016530320281162858,-0.031198617070913315
1682339799.75864792,103232928,2,0.9995000958442688,-0.004952199291437864,0.001647939090617001,-0.0311812162399292
1682339799.85861182,103332892,2,0.9994997382164001,-0.004992803558707237,0.001707224058918655,-0.031183287501335144
1682339799.95862198,103432902,2,0.9994970560073853,-0.0050507839769124985,0.001697033061645925,-0.031261734664440155
1682339800.05858493,103532865,2,0.9994986057281494,-0.005009231623262167,0.001694018254056573,-0.031217705458402634
1682339800.15858197,103632862,2,0.9994975328445435,-0.005000049713999033,0.0017157891998067498,-0.031252387911081314
1682339800.25858688,103732867,2,0.9994962811470032,-0.00506286695599556,0.0017141717253252864,-0.031282152980566025
1682339800.35865092,103832931,2,0.9994966983795166,-0.005048147868365049,0.001708029885776341,-0.03127210587263107
1682339800.45869398,103932974,2,0.9994949102401733,-0.00506645767018199,0.001726528163999319,-0.0313250906765461
1682339800.55858779,104032868,2,0.9994950294494629,-0.005093478597700596,0.0017136754468083382,-0.031318482011556625
1682339800.65864778,104132928,2,0.9994954466819763,-0.005040128715336323,0.0016822823090478778,-0.031315721571445465
1682339800.75862384,104232904,2,0.9994924068450928,-0.005002567544579506,0.0016669287579134107,-0.03141763061285019
1682339800.85861182,104332892,2,0.99949049949646,-0.005031845066696405,0.0016734974924474955,-0.03147364780306816
1682339800.95859098,104432871,2,0.9994913339614868,-0.005054165609180927,0.0016185382846742868,-0.03144743666052818
1682339801.05858779,104532868,2,0.9994907379150391,-0.005013386253267527,0.0016538702184334397,-0.031470607966184616
1682339801.15858293,104632863,2,0.9994902014732361,-0.005006005987524986,0.0016314623644575477,-0.031490739434957504
1682339801.25863695,104732917,2,0.9994906187057495,-0.005027742590755224,0.0016107313567772508,-0.031475044786930084
1682339801.35864592,104832926,2,0.9994894862174988,-0.005023894365876913,0.0015895393444225192,-0.03151215240359306
1682339801.45861793,104932898,2,0.9994913935661316,-0.004993045702576637,0.0016049768310040236,-0.03145501762628555
1682339801.55864096,105032921,2,0.999492883682251,-0.00496488343924284,0.0015694204485043883,-0.03141435235738754
1682339801.65862679,105132907,2,0.9994920492172241,-0.0049201929941773415,0.0015187456738203764,-0.031450241804122925
1682339801.75861597,105232896,2,0.9994915127754211,-0.004922698251903057,0.001518670585937798,-0.03146752342581749
1682339801.85859179,105332872,2,0.99949049949646,-0.004950123839080334,0.001465948298573494,-0.03149649500846863
1682339801.95860291,105432883,2,0.9994897246360779,-0.004937498830258846,0.0014873285545036197,-0.03152245655655861
1682339802.05858994,105532870,2,0.9994888305664062,-0.004978981800377369,0.0014765546657145023,-0.03154464066028595
1682339802.15864587,105632926,2,0.9994877576828003,-0.004988964647054672,0.0014331716811284423,-0.03157881647348404
1682339802.25864577,105732926,2,0.9994866847991943,-0.004967482760548592,0.0014330720296129584,-0.031617421656847
1682339802.35862088,105832901,2,0.9994909763336182,-0.0049495939165353775,0.0013841865584254265,-0.03148646652698517
1682339802.45865178,105932932,2,0.9994834065437317,-0.005010860972106457,0.0014003129908815026,-0.0317145511507988
1682339802.55861878,106032899,2,0.9994898438453674,-0.004879682790488005,0.0014482846017926931,-0.03153020143508911
1682339802.65862298,106132903,2,0.9994909167289734,-0.004804403055459261,0.0013728922931477427,-0.031511735171079636
1682339802.75859094,106232871,2,0.9994838833808899,-0.004336504731327295,0.0013254516525194049,-0.0318024605512619
1682339802.85858798,106332868,2,0.9994938969612122,-0.004654926247894764,0.001446010428480804,-0.03143519163131714
1682339802.95859194,106432872,2,0.9994928240776062,-0.004661582875996828,0.001420758431777358,-0.03146892413496971
1682339803.05865788,106532938,2,0.9994804859161377,-0.004406516905874014,0.0013193004997447133,-0.03189943730831146
1682339803.15865278,106632933,2,0.9994920492172241,-0.00468520587310195,0.0014172570081427693,-0.03149053826928139
1682339803.25859880,106732879,2,0.9994902014732361,-0.004344646353274584,0.001385285286232829,-0.031600166112184525
1682339803.35865283,106832933,2,0.9994783401489258,-0.004869443830102682,0.0013273730874061584,-0.03189971670508385
1682339803.45861793,106932898,2,0.9994935989379883,-0.004315640311688185,0.0012669650604948401,-0.03150036185979843
1682339803.55862188,107032902,2,0.9994817972183228,-0.004615130368620157,0.0012888908386230469,-0.03183062747120857
1682339803.65859485,107132875,2,0.9994792342185974,-0.004752106964588165,0.0011988022597506642,-0.0318932980298996
1682339803.75858784,107232868,2,0.9994882941246033,-0.004285192582756281,0.001206041662953794,-0.031674932688474655
1682339803.85858798,107332868,2,0.9994781613349915,-0.004881095141172409,0.0011538402177393436,-0.03190942108631134
1682339803.95864677,107432927,2,0.9994831681251526,-0.004264168441295624,0.0011725376825779676,-0.03184018284082413
1682339804.05864477,107532925,2,0.9994838833808899,-0.004738480783998966,0.0011557433754205704,-0.03175269812345505
1682339804.15858984,107632870,2,0.9994755387306213,-0.004551688674837351,0.0011308691464364529,-0.032042212784290314
1682339804.25865984,107732940,2,0.9994853734970093,-0.004364460241049528,0.001154893427155912,-0.0317581370472908
1682339804.35862279,107832903,2,0.9994876384735107,-0.004944518208503723,0.0010924733942374587,-0.03160472586750984
1682339804.45862293,107932903,2,0.999484658241272,-0.0041345893405377865,0.0010644921567291021,-0.031814467161893845
1682339804.55859900,108032879,2,0.9994848370552063,-0.004895109683275223,0.0011577190598472953,-0.03169775754213333
1682339804.65859890,108132879,2,0.9994801878929138,-0.004557854495942593,0.00120463443454355,-0.03189202770590782
1682339804.75859189,108232872,2,0.999477744102478,-0.0043478612788021564,0.0011797549668699503,-0.03199894353747368
1682339804.85864592,108332926,2,0.999477207660675,-0.005110446829348803,0.0011342479847371578,-0.03190455585718155
1682339804.95865083,108432931,2,0.9994808435440063,-0.004048851318657398,0.0011247238144278526,-0.03194402530789375
1682339805.05862379,108532904,2,0.9994773864746094,-0.004953728523105383,0.001080341637134552,-0.03192634508013725
1682339805.15864778,108632928,2,0.9994829297065735,-0.004371169954538345,0.0011295557487756014,-0.03183596208691597
1682339805.25861979,108732900,2,0.999488890171051,-0.00383256608620286,0.0014481410617008805,-0.03170471265912056
1682339805.35866189,108832942,2,0.9994837641716003,-0.0051831831224262714,0.0015804620925337076,-0.031668420881032944
1682339805.45859289,108932873,2,0.9995046257972717,-0.0022232092451304197,0.0018970179371535778,-0.03133554384112358
1682339805.55859590,109032876,2,0.9995242953300476,-0.0003629400162026286,0.001619428861886263,-0.030796147882938385
1682339805.65860677,109132887,2,0.9995166659355164,0.0016357807908207178,0.0017999045085161924,-0.03099142760038376
1682339805.75865197,109232932,2,0.9994924664497375,0.0018482276936993003,0.0021570399403572083,-0.03172915428876877
1682339805.85863996,109332920,2,0.9994524121284485,0.002054740209132433,0.0020826696418225765,-0.03295886144042015
1682339805.95859885,109432879,2,0.9993965029716492,-0.00010274639498675242,0.0034128683619201183,-0.034569110721349716
1682339806.05864882,109532929,2,0.9993315935134888,-0.001927909324876964,0.004770953673869371,-0.03619203716516495
1682339806.15861797,109632898,2,0.9992498159408569,-0.0037625220138579607,0.006788766011595726,-0.03794140741229057
1682339806.25862193,109732902,2,0.9991903901100159,-0.004569734446704388,0.006114718038588762,-0.03950003534555435
1682339806.35859084,109832871,2,0.9991482496261597,-0.0022281366400420666,0.003638980444520712,-0.04104308411478996
1682339806.45858788,109932868,2,0.9990943074226379,9.112754923989996e-05,0.0044201635755598545,-0.0423201322555542
1682339806.55859494,110032875,2,0.999047577381134,0.0008481001132167876,0.004969184752553701,-0.043342474848032
1682339806.65864897,110132929,2,0.9989988803863525,0.004045512061566114,0.0036070134956389666,-0.04440518096089363
1682339806.75871277,110232993,2,0.9989199042320251,0.009896989911794662,0.003510333364829421,-0.04526306688785553
1682339806.85862398,110332904,2,0.998749315738678,0.019436663016676903,0.004742760676890612,-0.04582010209560394
1682339806.95866084,110432941,2,0.9986384510993958,0.02372135780751705,0.0025600844528526068,-0.0463889017701149
1682339807.05863690,110532917,2,0.998685896396637,0.020741557702422142,0.0005118491244502366,-0.046861182898283005
1682339807.15862393,110632904,2,0.9987534880638123,0.015935122966766357,0.002335821744054556,-0.04724432900547981
1682339807.25859785,110732878,2,0.9988393783569336,0.008661868050694466,0.0023928515147417784,-0.04731973260641098
1682339807.35859489,110832875,2,0.9988829493522644,0.0004317979619372636,0.0021416449453681707,-0.04720240831375122
1682339807.45859385,110932874,2,0.9988362789154053,-0.008125344291329384,0.005058223381638527,-0.04727083817124367
1682339807.55865192,111032932,2,0.9987396001815796,-0.017481748014688492,0.0036094060633331537,-0.046910252422094345
1682339807.65864897,111132929,2,0.9986740946769714,-0.022308507934212685,0.003914206754416227,-0.046227917075157166
1682339807.75861597,111232896,2,0.998744547367096,-0.020476629957556725,0.004650674760341644,-0.045480404049158096
1682339807.85864496,111332925,2,0.9988456964492798,-0.01706949807703495,0.004645077511668205,-0.04465854912996292
1682339807.95862579,111432906,2,0.9989383220672607,-0.013157328590750694,0.004797409754246473,-0.043886948376894
1682339808.05862689,111532907,2,0.9990108013153076,-0.008784440346062183,0.004829667042940855,-0.04332418367266655
1682339808.15860391,111632884,2,0.9990604519844055,-0.005351327359676361,0.004785256925970316,-0.042740147560834885
1682339808.25859189,111732872,2,0.9991075992584229,-0.0007893001311458647,0.002929097041487694,-0.04212871193885803
1682339808.35859489,111832875,2,0.9991234540939331,0.0034560502972453833,0.002655139658600092,-0.04163368418812752
1682339808.45864892,111932929,2,0.9991121888160706,0.008265639655292034,0.0035203995648771524,-0.041159600019454956
1682339808.55864191,112032922,2,0.9990735054016113,0.013557549566030502,0.003238400211557746,-0.04071611538529396
1682339808.65863299,112132913,2,0.9990405440330505,0.016082877293229103,0.005238212179392576,-0.040396202355623245
1682339808.75864983,112232930,2,0.9990170001983643,0.017467886209487915,0.007210361305624247,-0.040098369121551514
1682339808.85861897,112332899,2,0.9990348219871521,0.01696385070681572,0.00723573612049222,-0.03986639901995659
1682339808.95862889,112432909,2,0.9990293383598328,0.016860149800777435,0.007778709288686514,-0.03994569554924965
1682339809.05859280,112532873,2,0.9989643096923828,0.02017412707209587,0.00801842287182808,-0.03998814523220062
1682339809.15859389,112632874,2,0.998860776424408,0.024652203544974327,0.007592468522489071,-0.04014712944626808
1682339809.25859189,112732872,2,0.9987871646881104,0.027502916753292084,0.006894917692989111,-0.040252793580293655
1682339809.35864997,112832930,2,0.9987457394599915,0.029147621244192123,0.0055213081650435925,-0.04033491760492325
1682339809.45868278,112932963,2,0.9987565875053406,0.02993178926408291,0.005262595135718584,-0.03951846808195114
1682339809.55861878,113032899,2,0.9988591074943542,0.02995632030069828,0.0043237353675067425,-0.03693833202123642
1682339809.65866399,113132944,2,0.9989974498748779,0.03007601946592331,0.0032595000229775906,-0.03299934044480324
1682339809.75861692,113232897,2,0.9991546869277954,0.030019566416740417,0.0029047902207821608,-0.027934789657592773
1682339809.85861897,113332899,2,0.9992603063583374,0.031213294714689255,0.002926006680354476,-0.022271834313869476
1682339809.95859289,113432873,2,0.9992979764938354,0.03346646577119827,0.0030798024963587523,-0.01655559241771698
1682339810.05859399,113532874,2,0.9993577003479004,0.03398715704679489,0.0030483121518045664,-0.010944669134914875
1682339810.15858793,113632868,2,0.9994162321090698,0.033639807254076004,0.0028227984439581633,-0.00525174755603075
1682339810.25865984,113732940,2,0.999439001083374,0.03337383270263672,0.0027503955643624067,0.0005773875745944679
1682339810.35864496,113832925,2,0.9994467496871948,0.03233732655644417,0.003150525037199259,0.007112968247383833
1682339810.45862579,113932906,2,0.9993981719017029,0.031117083504796028,0.0036029627081006765,0.014899571426212788
1682339810.55864596,114032926,2,0.9992367029190063,0.030325230211019516,0.004439215641468763,0.024221979081630707
1682339810.65863180,114132912,2,0.998967170715332,0.029479313641786575,0.00492451386526227,0.034224484115839005
1682339810.75862598,114232906,2,0.9985615015029907,0.028796805068850517,0.005388257093727589,0.044907521456480026
1682339810.85858798,114332868,2,0.997994065284729,0.028285594657063484,0.00568076316267252,0.05635151267051697
1682339810.95858979,114432870,2,0.9972548484802246,0.028061486780643463,0.00576015654951334,0.06827957928180695
1682339811.05859184,114532872,2,0.9963396191596985,0.027880389243364334,0.006114278919994831,0.0805768147110939
1682339811.15863776,114632918,2,0.995225727558136,0.027847962453961372,0.007065995596349239,0.09327569603919983
1682339811.25870490,114732985,2,0.9939482808113098,0.02755948342382908,0.007319136057049036,0.10608365386724472
1682339811.35860181,114832882,2,0.9924846291542053,0.02659723535180092,0.008037577383220196,0.11917304992675781
1682339811.45864391,114932924,2,0.9908421039581299,0.024127528071403503,0.008480577729642391,0.1325816512107849
1682339811.55862188,115032902,2,0.9890792369842529,0.019326861947774887,0.00839510839432478,0.14587056636810303
1682339811.65863681,115132917,2,0.9871604442596436,0.011876814067363739,0.009198465384542942,0.15902383625507355
1682339811.75859785,115232878,2,0.9850465655326843,0.007152529899030924,0.008966204710304737,0.17190620303153992
1682339811.85859299,115332873,2,0.9827794432640076,0.006476145703345537,0.009166277013719082,0.1844414621591568
1682339811.95859480,115432875,2,0.9804516434669495,0.005785588640719652,0.009679551236331463,0.1964368224143982
1682339812.05864787,115532928,2,0.9782682061195374,0.006615638267248869,0.010596229694783688,0.20696674287319183
1682339812.15864182,115632922,2,0.9764145612716675,0.006166437175124884,0.012465912848711014,0.21545575559139252
1682339812.25862288,115732903,2,0.9746349453926086,0.00022717277170158923,0.01579013094305992,0.22324274480342865
1682339812.35864377,115832924,2,0.9727485179901123,-0.008401797153055668,0.016018375754356384,0.23115620017051697
1682339812.45862079,115932901,2,0.9708202481269836,-0.01602647453546524,0.014537503011524677,0.23883023858070374
1682339812.55861688,116032897,2,0.9686568379402161,-0.023117439821362495,0.01238241232931614,0.24701465666294098
1682339812.65859890,116132879,2,0.966313898563385,-0.025807645171880722,0.00918915867805481,0.2559041380882263
1682339812.75858998,116232870,2,0.9638702273368835,-0.022295618429780006,0.007577686570584774,0.2653293311595917
1682339812.85859394,116332874,2,0.9614364504814148,-0.01575135812163353,0.006928726565092802,0.27448827028274536
1682339812.95866799,116432948,2,0.9589852690696716,-0.005856467876583338,0.008976842276751995,0.28325319290161133
1682339813.05872583,116533006,2,0.9564663767814636,0.002040867693722248,0.013007672503590584,0.29154548048973083
1682339813.15862298,116632903,2,0.9540460109710693,0.003918458241969347,0.015189740806818008,0.29924920201301575
1682339813.25865483,116732935,2,0.9519631266593933,0.002783315721899271,0.016692200675606728,0.3057447373867035
1682339813.35863185,116832912,2,0.9501577615737915,-0.0002315869933227077,0.017046190798282623,0.31130313873291016
1682339813.45861983,116932900,2,0.9484443068504333,-0.0019516933243721724,0.016428066417574883,0.31651175022125244
1682339813.55859184,117032872,2,0.9466544389724731,-0.0018205512315034866,0.01603638008236885,0.32184603810310364
1682339813.65859485,117132875,2,0.9445022344589233,-0.0014325681841000915,0.015449200756847858,0.3281383812427521
1682339813.75858784,117232868,2,0.9420284032821655,-0.00037976380554027855,0.015556191094219685,0.3351721465587616
1682339813.85864496,117332925,2,0.9393273591995239,-0.00042189747910015285,0.016262970864772797,0.3426360785961151
1682339813.95865297,117432933,2,0.9360995888710022,-0.0009085448691621423,0.016398215666413307,0.35135138034820557
1682339814.05860090,117532881,2,0.932259738445282,-0.0010191007750108838,0.016476832330226898,0.36141279339790344
1682339814.15865993,117632940,2,0.9280754327774048,-0.0006047073984518647,0.01637798175215721,0.3720315098762512
1682339814.25862980,117732910,2,0.924033522605896,-0.0005046086735092103,0.01733984239399433,0.3819177448749542
1682339814.35862494,117832905,2,0.9201784133911133,0.0008846810087561607,0.018844762817025185,0.39104440808296204
1682339814.45860577,117932886,2,0.9164199829101562,0.003061674302443862,0.019489949569106102,0.399731308221817
1682339814.55859494,118032875,2,0.9128104448318481,0.0030720876529812813,0.01866576448082924,0.4079451858997345
1682339814.65859199,118132872,2,0.9094187021255493,0.0025673096533864737,0.01670103892683983,0.4155382812023163
1682339814.75867891,118232959,2,0.9062351584434509,0.0031484425999224186,0.015385323204100132,0.4224821925163269
1682339814.85873485,118333015,2,0.9035279750823975,0.003391512669622898,0.014563794247806072,0.4282681941986084
1682339814.95862079,118432901,2,0.901098370552063,0.0034986473619937897,0.014517993666231632,0.4333575367927551
1682339815.05865192,118532932,2,0.8987858295440674,0.004112829454243183,0.015109574422240257,0.4381082057952881
1682339815.15862083,118632901,2,0.8966022729873657,0.004510153084993362,0.016056161373853683,0.4425226151943207
1682339815.25863194,118732912,2,0.894812822341919,0.005573845002800226,0.016032114624977112,0.4461187422275543
1682339815.35860395,118832884,2,0.8933551907539368,0.005140187684446573,0.015083872713148594,0.449068546295166
1682339815.45860982,118932890,2,0.8919824361801147,0.003969878423959017,0.013568920083343983,0.45184895396232605
1682339815.55858994,119032870,2,0.8909074068069458,0.004572282545268536,0.009733372367918491,0.4540576934814453
1682339815.65865493,119132935,2,0.8899213075637817,0.0029990551993250847,0.006140942219644785,0.4560629427433014
1682339815.75864887,119232929,2,0.8883261680603027,-0.0009083355544134974,0.0054239025339484215,0.4591800570487976
1682339815.85862279,119332903,2,0.8858097791671753,-0.0022633213084191084,0.006718327756971121,0.4639943242073059
1682339815.95864987,119432930,2,0.8824587464332581,-0.0032720768358558416,0.008239250630140305,0.47030627727508545
1682339816.05862498,119532905,2,0.8781540393829346,-0.004913709592074156,0.009225722402334213,0.4782637357711792
1682339816.15861988,119632900,2,0.8732892274856567,-0.004763689357787371,0.009400611743330956,0.487088143825531
1682339816.25859189,119732872,2,0.868068277835846,-0.006396941374987364,0.007215564139187336,0.4963512122631073
1682339816.35859179,119832872,2,0.8626832962036133,-0.011164942756295204,0.0020278559532016516,0.5056172013282776
1682339816.45858693,119932867,2,0.8575289845466614,-0.015846863389015198,-0.003332508960738778,0.5141807794570923
1682339816.55864286,120032923,2,0.8526748418807983,-0.02055356651544571,-0.006540260277688503,0.5219965577125549
1682339816.65865397,120132934,2,0.848235547542572,-0.02538631297647953,-0.008742524310946465,0.5289381742477417
1682339816.75860691,120232887,2,0.844249963760376,-0.02464028261601925,-0.007053828798234463,0.535336434841156
1682339816.85865283,120332933,2,0.8407843708992004,-0.01872476004064083,-0.0031721529085189104,0.5410369634628296
1682339816.95862293,120432903,2,0.8378281593322754,-0.010709743946790695,0.0014376278268173337,0.5458270311355591
1682339817.05864286,120532923,2,0.8352907299995422,-0.0016522730002179742,0.005840202793478966,0.5497750043869019
1682339817.15860391,120632884,2,0.8332793116569519,0.006461292039602995,0.009416968561708927,0.5527342557907104
1682339817.25859284,120732873,2,0.8316457867622375,0.009683722630143166,0.011091622523963451,0.5551112294197083
1682339817.35860395,120832884,2,0.8306748270988464,0.009462572634220123,0.011785579845309258,0.5565527081489563
1682339817.45865583,120932936,2,0.830078125,0.007761988323181868,0.013791972771286964,0.5574225187301636
1682339817.55864787,121032928,2,0.8300079703330994,0.005357642192393541,0.012503378093242645,0.557585597038269
1682339817.65863585,121132916,2,0.8304298520088196,0.004606926813721657,0.00802941620349884,0.5570462346076965
1682339817.75864792,121232928,2,0.8310642242431641,0.002541733207181096,0.009809416718780994,0.556084156036377
1682339817.85862398,121332904,2,0.8319209218025208,-0.0022479589097201824,0.015887847170233727,0.5546621680259705
1682339817.95862293,121432903,2,0.8331348299980164,-0.006378584541380405,0.021314702928066254,0.5526221990585327
1682339818.05859780,121532878,2,0.8346738815307617,-0.010359480045735836,0.02723439782857895,0.54997318983078
1682339818.15859485,121632875,2,0.8364250063896179,-0.014802464284002781,0.033009450882673264,0.546886146068573
1682339818.25859880,121732879,2,0.8383894562721252,-0.01785689778625965,0.03308004513382912,0.5437738299369812
1682339818.35865188,121832932,2,0.8405551910400391,-0.017440833151340485,0.02842910960316658,0.540698230266571
1682339818.45864582,121932926,2,0.8425900340080261,-0.015398750081658363,0.023530565202236176,0.5378208160400391
1682339818.55862689,122032907,2,0.8444332480430603,-0.015471969731152058,0.016055045649409294,0.5351966023445129
1682339818.65865278,122132933,2,0.8460016846656799,-0.01792169362306595,0.006958688609302044,0.5328335165977478
1682339818.75863290,122232913,2,0.8472425937652588,-0.020247699692845345,-0.0007039541960693896,0.5308197140693665
1682339818.85862994,122332910,2,0.8481572270393372,-0.024174807593226433,-0.007615900132805109,0.5291378498077393
1682339818.95859385,122432874,2,0.848365843296051,-0.02904164418578148,-0.013223362155258656,0.5284478068351746
1682339819.05859685,122532877,2,0.8475345969200134,-0.03459899500012398,-0.017414016649127007,0.5293248891830444
1682339819.15858889,122632869,2,0.8455175757408142,-0.039696671068668365,-0.020263925194740295,0.5320841670036316
1682339819.25866890,122732949,2,0.8428316116333008,-0.03893265128135681,-0.01755351386964321,0.536480188369751
1682339819.35864997,122832930,2,0.8394627571105957,-0.029502972960472107,-0.008770175278186798,0.5425448417663574
1682339819.45862794,122932908,2,0.8349132537841797,-0.01688504032790661,0.0028026264626532793,0.5501153469085693
1682339819.55864596,123032926,2,0.8294238448143005,-0.006483331322669983,0.013922958634793758,0.5584086179733276
1682339819.65863180,123132912,2,0.8238904476165771,0.0025193199981004,0.023914407938718796,0.5662387013435364
1682339819.75863695,123232917,2,0.8186869621276855,0.008124946616590023,0.02873026207089424,0.5734633803367615
1682339819.85860181,123332882,2,0.8136821985244751,0.007680648937821388,0.028271887451410294,0.5805712342262268
1682339819.95860982,123432890,2,0.8089433312416077,0.005827943328768015,0.02592720277607441,0.5872857570648193
1682339820.05859280,123532873,2,0.8045019507408142,0.0038695912808179855,0.02378189191222191,0.5934610366821289
1682339820.15864897,123632929,2,0.8003799915313721,0.0021645245142281055,0.021754879504442215,0.5990942716598511
1682339820.25866294,123732943,2,0.7969192862510681,0.0013486527604982257,0.020186936482787132,0.6037468910217285
1682339820.35860682,123832887,2,0.7939457893371582,0.003545684041455388,0.02085505984723568,0.6076204180717468
1682339820.45865178,123932932,2,0.7915338277816772,0.006980733945965767,0.02236967906355858,0.6106758713722229
1682339820.55862093,124032901,2,0.789759635925293,0.007652668282389641,0.021703513339161873,0.6129845976829529
1682339820.65862298,124132903,2,0.7885476350784302,0.006678186357021332,0.020293569192290306,0.6146025061607361
1682339820.75859284,124232873,2,0.787908136844635,0.004071575589478016,0.016767891123890877,0.6155509948730469
1682339820.85858893,124332869,2,0.7877036929130554,-0.000601325067691505,0.010945187881588936,0.6159567832946777
1682339820.95859790,124432878,2,0.7879670858383179,-0.005566384643316269,0.004380424972623587,0.6156766414642334
1682339821.05866385,124532944,2,0.788530707359314,-0.009445187635719776,-0.00409295130521059,0.6149091720581055
1682339821.15864587,124632926,2,0.7894685864448547,-0.011505101807415485,-0.01344790868461132,0.6135357618331909
1682339821.25861883,124732899,2,0.7905508279800415,-0.012189512141048908,-0.023759236559271812,0.6118139624595642
1682339821.35866785,124832948,2,0.7918974757194519,-0.014756059274077415,-0.025111442431807518,0.609959065914154
1682339821.45862198,124932902,2,0.793626070022583,-0.015318759717047215,-0.017576219514012337,0.607958972454071
1682339821.55862999,125032910,2,0.7952520251274109,-0.012136457487940788,-0.011530258692800999,0.6060478687286377
1682339821.65860200,125132882,2,0.7968398332595825,-0.007963249459862709,-0.006378492806106806,0.6041044592857361
1682339821.75860476,125232885,2,0.7983288168907166,-0.0001247221080120653,-0.0034433116670697927,0.6022119522094727
1682339821.85858893,125332869,2,0.7996760010719299,0.009897306561470032,-0.0038485752884298563,0.6003378033638
1682339821.95867682,125432957,2,0.8008360862731934,0.014790408313274384,-0.0043545495718717575,0.598685085773468
1682339822.05866194,125532942,2,0.8018697500228882,0.014908104203641415,-0.003991988021880388,0.5972994565963745
1682339822.15863395,125632914,2,0.8026028275489807,0.01414248812943697,-0.0026494129560887814,0.5963402390480042
1682339822.25864577,125732926,2,0.8029574751853943,0.012945648282766342,-0.00095628626877442,0.5958949327468872
1682339822.35862780,125832908,2,0.802804708480835,0.012942598201334476,-0.0016588595462962985,0.596099317073822
1682339822.45862293,125932903,2,0.8019933104515076,0.012676740996539593,-0.0005935116787441075,0.5971981883049011
1682339822.55859089,126032871,2,0.8003054261207581,0.010650184005498886,0.0023035018239170313,0.5994935035705566
1682339822.65859389,126132874,2,0.7979148626327515,0.009067704901099205,0.003731550183147192,0.6026903986930847
1682339822.75859785,126232878,2,0.794844925403595,0.008310399018228054,0.0036325212568044662,0.6067448258399963
1682339822.85864687,126332927,2,0.7912107706069946,0.0074851177632808685,0.004059460014104843,0.6114842295646667
1682339822.95865178,126432932,2,0.7875013947486877,0.007171998731791973,0.003822590224444866,0.6162593364715576
1682339823.05863285,126532913,2,0.7841538190841675,0.007468608673661947,0.0029183959122747183,0.6205146908760071
1682339823.15864897,126632929,2,0.7807053327560425,0.007314737886190414,0.003030291059985757,0.6248492002487183
1682339823.25862694,126732907,2,0.7775441408157349,0.007224643137305975,0.0030742210801690817,0.6287793517112732
1682339823.35862398,126832904,2,0.7746262550354004,0.006910700350999832,0.003053822088986635,0.6323741674423218
1682339823.45858693,126932867,2,0.7719447016716003,0.006894867401570082,0.002614926313981414,0.6356468796730042
1682339823.55859494,127032875,2,0.7696841359138489,0.007013088557869196,0.001663255039602518,0.638384222984314
1682339823.65860200,127132882,2,0.7677777409553528,0.009580986574292183,-0.0024443853180855513,0.6406399607658386
1682339823.75864792,127232928,2,0.7662420868873596,0.012616252526640892,-0.005749402567744255,0.6424024105072021
1682339823.85866880,127332949,2,0.7651034593582153,0.011884112842381,-0.0049321576952934265,0.6437788009643555
1682339823.95860887,127432889,2,0.7643606662750244,0.009780610911548138,-0.004232208244502544,0.6447008848190308
1682339824.05865288,127532933,2,0.7639854550361633,0.007598055060952902,-0.0033921801950782537,0.645179808139801
1682339824.15862179,127632902,2,0.7638773918151855,0.006296870764344931,-0.00277997856028378,0.64532470703125
1682339824.25862885,127732909,2,0.7640921473503113,0.00594324991106987,-0.0040902188047766685,0.6450667977333069
1682339824.35860586,127832886,2,0.764582633972168,0.004635728895664215,-0.0061400835402309895,0.6444798111915588
1682339824.45860195,127932882,2,0.7652047276496887,0.005283352918922901,-0.008481645956635475,0.6437094211578369
1682339824.55859089,128032871,2,0.7660318613052368,0.006993503775447607,-0.012917891144752502,0.6426346898078918
1682339824.65865684,128132937,2,0.7668946385383606,0.0056367600336670876,-0.013047819025814533,0.641615629196167
1682339824.75864792,128232928,2,0.7679381370544434,0.004102027043700218,-0.010325252078473568,0.6404277086257935
1682339824.85859990,128332880,2,0.7688824534416199,0.00432643061503768,-0.008523297496140003,0.6393187046051025
1682339824.95864177,128432922,2,0.7697816491127014,0.0038697156123816967,-0.00711020128801465,0.6382559537887573
1682339825.05863190,128532912,2,0.7705248594284058,0.0049739559181034565,-0.005672566592693329,0.6373652815818787
1682339825.15862393,128632904,2,0.7711814641952515,0.007127888035029173,-0.0034787042532116175,0.6365659832954407
1682339825.25859380,128732874,2,0.7718051075935364,0.007666518911719322,0.00083621108205989,0.6358124017715454
1682339825.35860586,128832886,2,0.772182047367096,0.006716492585837841,0.0027160565368831158,0.635360062122345
1682339825.45859694,128932877,2,0.7725079655647278,0.00565956300124526,0.0037552251014858484,0.6349687576293945
1682339825.55865288,129032933,2,0.7727198004722595,0.0030360212549567223,0.005651683546602726,0.6347148418426514
1682339825.65865493,129132935,2,0.7726706266403198,-0.0042852237820625305,0.007855983451008797,0.6347441077232361
1682339825.75862694,129232907,2,0.7725496888160706,-0.013584243133664131,0.009661411866545677,0.6347354650497437
1682339825.85865998,129332940,2,0.7723332047462463,-0.023155972361564636,0.010873724706470966,0.6347022652626038
1682339825.95862484,129432905,2,0.7718675136566162,-0.03331802412867546,0.012047765776515007,0.6347954869270325
1682339826.05862880,129532909,2,0.7714410424232483,-0.040845826268196106,0.010319121181964874,0.6349045634269714
1682339826.15859485,129632875,2,0.7711203098297119,-0.04195548966526985,0.0034174821339547634,0.6352964043617249
1682339826.25859594,129732876,2,0.7711027264595032,-0.03678000718355179,-0.0009527908987365663,0.6356468200683594
1682339826.35859895,129832879,2,0.7711224555969238,-0.028331097215414047,-0.0019460468320176005,0.6360532641410828
1682339826.45866990,129932950,2,0.7712822556495667,-0.016920754685997963,-0.0015519532607868314,0.6362664103507996
1682339826.55864382,130032924,2,0.7713909149169922,-0.005493901204317808,0.004382542334496975,0.6363227963447571
1682339826.65862298,130132903,2,0.7712934613227844,0.0010049287229776382,0.015121287666261196,0.6362992525100708
1682339826.75865984,130232940,2,0.7711154818534851,0.006979602854698896,0.023693501949310303,0.6362159848213196
1682339826.85861778,130332898,2,0.7709429860115051,0.01247572060674429,0.028870826587080956,0.6361271739006042
1682339826.95862293,130432903,2,0.7708181738853455,0.011892740614712238,0.03069852851331234,0.636203944683075
1682339827.05860686,130532887,2,0.770869255065918,0.010450227186083794,0.03131503239274025,0.6361373662948608
1682339827.15860486,130632885,2,0.7707727551460266,0.005655426997691393,0.03502560406923294,0.6361215114593506
1682339827.25858998,130732870,2,0.7702935338020325,-0.009174647741019726,0.040350425988435745,0.6363455057144165
1682339827.35867381,130832954,2,0.7703966498374939,-0.01855476386845112,0.0379248708486557,0.6361653804779053
1682339827.45863795,130932918,2,0.7708333730697632,-0.01760469377040863,0.033484309911727905,0.6359125971794128
1682339827.55859995,131032880,2,0.7711585164070129,-0.015446232631802559,0.03264828398823738,0.6356177926063538
1682339827.65865278,131132933,2,0.7716302871704102,-0.013625492341816425,0.030577363446354866,0.6351897716522217
1682339827.75862980,131232910,2,0.7719792723655701,-0.012870331294834614,0.03163841366767883,0.6347293853759766
1682339827.85863185,131332912,2,0.7718659043312073,-0.018642546609044075,0.041396137326955795,0.6341623067855835
1682339827.95860481,131432885,2,0.7718958854675293,-0.02300814352929592,0.0459885336458683,0.6336658000946045
1682339828.05859494,131532875,2,0.772611677646637,-0.020206976681947708,0.03765500709414482,0.6334390044212341
1682339828.15858698,131632867,2,0.7730357646942139,-0.0211062990128994,0.030315231531858444,0.6332860589027405
1682339828.25864291,131732923,2,0.7730081081390381,-0.026340879499912262,0.023623190820217133,0.6334087252616882
1682339828.35864496,131832925,2,0.772753894329071,-0.029556384310126305,0.015679558739066124,0.6338232755661011
1682339828.45862079,131932901,2,0.7722107172012329,-0.0338231660425663,0.010338046588003635,0.6343814134597778
1682339828.55865192,132032932,2,0.771421492099762,-0.03889146074652672,0.005746310576796532,0.6351088881492615
1682339828.65862179,132132902,2,0.7708173394203186,-0.039328545331954956,0.004402605816721916,0.6358258128166199
1682339828.75862980,132232910,2,0.7702658176422119,-0.03484094887971878,0.007264507468789816,0.6367291212081909
1682339828.85858893,132332869,2,0.7695801258087158,-0.03017176315188408,0.010629602707922459,0.6377484202384949
1682339828.95859385,132432874,2,0.7690131664276123,-0.02474752441048622,0.012940450571477413,0.6386226415634155
1682339829.05859900,132532879,2,0.7683610916137695,-0.019971003755927086,0.016956670209765434,0.6394801139831543
1682339829.15864778,132632928,2,0.7677428722381592,-0.017114736139774323,0.021425215527415276,0.6401709914207458
1682339829.25864697,132732927,2,0.7672273516654968,-0.012852903455495834,0.024252885952591896,0.640787661075592
1682339829.35863400,132832914,2,0.7667031288146973,-0.009480375796556473,0.0261678546667099,0.6413981914520264
1682339829.45865679,132932937,2,0.7662997245788574,-0.00917347427457571,0.026224713772535324,0.6418823003768921
1682339829.55862880,133032909,2,0.766021192073822,-0.00832840334624052,0.025096749886870384,0.6422712206840515
1682339829.65863895,133132919,2,0.7657012939453125,-0.008158886805176735,0.02499726600944996,0.6426585912704468
1682339829.75859189,133232872,2,0.7656331658363342,-0.008853506296873093,0.02456165850162506,0.6427473425865173
1682339829.85858893,133332869,2,0.7655508518218994,-0.010318070650100708,0.021467968821525574,0.6429343819618225
1682339829.95860481,133432885,2,0.7656704187393188,-0.010436169803142548,0.014678962528705597,0.6429808735847473
1682339830.05864382,133532924,2,0.7659870386123657,-0.003781564300879836,0.010756881907582283,0.642754852771759
1682339830.15864277,133632923,2,0.7663230299949646,0.00616625277325511,0.009291592054069042,0.642358660697937
1682339830.25862098,133732901,2,0.7667831182479858,0.01323673129081726,0.004635696765035391,0.6417530179023743
1682339830.35865998,133832940,2,0.7672684788703918,0.01820596121251583,-0.0001432156568625942,0.6410675644874573
1682339830.45866394,133932944,2,0.7678152918815613,0.022625010460615158,-0.0050284890457987785,0.640251874923706
1682339830.55861998,134032900,2,0.7684210538864136,0.025963731110095978,-0.010851263999938965,0.6393256187438965
1682339830.65859199,134132872,2,0.7690610885620117,0.028893914073705673,-0.016795678064227104,0.638300895690918
1682339830.75859880,134232879,2,0.7696474194526672,0.03168700262904167,-0.022504767403006554,0.6372851133346558
1682339830.85859489,134332875,2,0.7703671455383301,0.031162312254309654,-0.024645891040563583,0.6363614797592163
1682339830.95865893,134432939,2,0.7711876034736633,0.02586873061954975,-0.02047954499721527,0.6357523798942566
1682339831.05865192,134532932,2,0.7718706130981445,0.020077737048268318,-0.01557386014610529,0.6352716684341431
1682339831.15861988,134632900,2,0.77243971824646,0.014007903635501862,-0.010847514495253563,0.6348409652709961
1682339831.25865197,134732932,2,0.7729235887527466,0.0077082691714167595,-0.00532155716791749,0.6344299912452698
1682339831.35862899,134832909,2,0.7732020616531372,0.0023889474105089903,-0.0005047608283348382,0.6341550946235657
1682339831.45862889,134932909,2,0.7734396457672119,-0.0029602781869471073,0.004282587673515081,0.6338486075401306
1682339831.55858994,135032870,2,0.7734748125076294,-0.007715477142482996,0.009555037133395672,0.6337080597877502
1682339831.65859890,135132879,2,0.7734187841415405,-0.011711685918271542,0.013104375451803207,0.6336517333984375
1682339831.75858879,135232869,2,0.7734043598175049,-0.01254053320735693,0.01372415479272604,0.6336403489112854
1682339831.85863590,135332916,2,0.7733328342437744,-0.011889958754181862,0.01261612307280302,0.6337631940841675
1682339831.95865393,135432934,2,0.7732884287834167,-0.010679002851247787,0.010476299561560154,0.6338779330253601
1682339832.05862188,135532902,2,0.7732409238815308,-0.008656480349600315,0.008018028922379017,0.6340025067329407
1682339832.15864897,135632929,2,0.7731727361679077,-0.007554963231086731,0.006544577889144421,0.6341167092323303
1682339832.25862193,135732902,2,0.7730094790458679,-0.007004119921475649,0.005888285581022501,0.6343284249305725
1682339832.35863876,135832919,2,0.772934079170227,-0.006997785065323114,0.005383457988500595,0.6344248652458191
1682339832.45860291,135932883,2,0.7728530168533325,-0.00754505442455411,0.005381733179092407,0.6345174312591553
1682339832.55860090,136032881,2,0.7727595567703247,-0.008181380107998848,0.00539354095235467,0.6346232295036316
1682339832.65859199,136132872,2,0.7726565003395081,-0.009095842018723488,0.0055463588796556,0.6347349286079407
1682339832.75864577,136232926,2,0.7726178169250488,-0.009600702673196793,0.005575249902904034,0.634774386882782
1682339832.85864091,136332921,2,0.7725279927253723,-0.009793566539883614,0.004963132087141275,0.6348857879638672
1682339832.95862484,136432905,2,0.7724933624267578,-0.0096897566691041,0.0048350002616643906,0.6349304914474487
1682339833.05865097,136532931,2,0.7724027633666992,-0.00935375690460205,0.004419179633259773,0.6350488066673279
1682339833.15861797,136632898,2,0.7724097967147827,-0.008602803573012352,0.004411394242197275,0.635050892829895
1682339833.25862288,136732903,2,0.7723663449287415,-0.007525280583649874,0.004803333431482315,0.6351145505905151
1682339833.35859394,136832874,2,0.7724686861038208,-0.006666512228548527,0.0049974643625319,0.6349982023239136
1682339833.45858788,136932868,2,0.7724995017051697,-0.0059559959918260574,0.004440253134816885,0.6349719166755676
1682339833.55858994,137032870,2,0.772559404373169,-0.00499843992292881,0.004271809011697769,0.6349084377288818
1682339833.65867686,137132957,2,0.7726849317550659,-0.0045226034708321095,0.003980872221291065,0.6347610950469971
1682339833.75865293,137232933,2,0.7727334499359131,-0.0036150438245385885,0.004242069087922573,0.6347061395645142
1682339833.85861993,137332900,2,0.7727550268173218,-0.003125215647742152,0.004200662486255169,0.6346827745437622
1682339833.95864677,137432927,2,0.7728180289268494,-0.0011623513419181108,0.005789709743112326,0.6346002221107483
1682339834.05863190,137532912,2,0.7727802395820618,0.010845979675650597,0.017133185639977455,0.6343497037887573
1682339834.15863681,137632917,2,0.7720914483070374,0.03031676821410656,0.034595612436532974,0.6338444948196411
1682339834.25859094,137732871,2,0.7717880010604858,0.03621698170900345,0.0404885970056057,0.6335552930831909
1682339834.35859084,137832871,2,0.7721867561340332,0.030082784593105316,0.03522344306111336,0.6337049603462219
1682339834.45859194,137932872,2,0.7726970911026001,0.020978251472115517,0.026689855381846428,0.633866548538208
1682339834.55864692,138032927,2,0.7730099558830261,0.010713010095059872,0.01765625923871994,0.6340576410293579
1682339834.65870190,138132982,2,0.7731891870498657,0.004592205863445997,0.011280998587608337,0.6340584754943848
1682339834.75862479,138232905,2,0.7732252478599548,0.0027186470106244087,0.009207715280354023,0.6340588331222534
1682339834.85863781,138332918,2,0.7733911275863647,0.0015934525290504098,0.00818770844489336,0.633874237537384
1682339834.95862484,138432905,2,0.7735618948936462,0.0006458089919760823,0.0071755219250917435,0.6336798071861267
1682339835.05863094,138532911,2,0.7738212943077087,-0.0006953842821530998,0.004877189174294472,0.6333848237991333
1682339835.15859079,138632871,2,0.7739602327346802,-0.002177936490625143,0.003064749762415886,0.6332230567932129
1682339835.25858879,138732869,2,0.7742040157318115,-0.004156400449573994,0.0005380897200666368,0.6329222321510315
1682339835.35859585,138832876,2,0.7744386196136475,-0.006712527479976416,-0.0008914281497709453,0.6326128244400024
1682339835.45865583,138932936,2,0.7747361063957214,-0.008218225091695786,-0.0014204656472429633,0.632229745388031
1682339835.55864477,139032925,2,0.7749887108802795,-0.009382356889545918,-0.0020337761379778385,0.6319021582603455
1682339835.65862393,139132904,2,0.7752057313919067,-0.009923048317432404,-0.0016581250820308924,0.6316287517547607
1682339835.75864887,139232929,2,0.7754242420196533,-0.009979361668229103,-0.0012215555179864168,0.6313605904579163
1682339835.85861778,139332898,2,0.7756545543670654,-0.009963794611394405,-0.000679033575579524,0.6310786604881287
1682339835.95862293,139432903,2,0.7757930755615234,-0.00877503864467144,-0.00015154022548813373,0.6309263110160828
1682339836.05860591,139532886,2,0.7760250568389893,-0.007972924038767815,0.00026634192909114063,0.6306516528129578
1682339836.15858889,139632869,2,0.7762535214424133,-0.007897891104221344,0.0008056839578785002,0.6303709149360657
1682339836.25859499,139732875,2,0.7764223217964172,-0.007500723470002413,0.0006209860439412296,0.6301680207252502
1682339836.35867095,139832951,2,0.7765346765518188,-0.007710020057857037,0.001018781797029078,0.6300265192985535
1682339836.45865488,139932935,2,0.7766430377960205,-0.007519034668803215,0.0014511225745081902,0.6298944354057312
1682339836.55863190,140032912,2,0.7767752408981323,-0.006946135312318802,0.0023899786174297333,0.6297350525856018
1682339836.65864277,140132923,2,0.7766832113265991,-0.006128441076725721,0.0032509001903235912,0.6298532485961914
1682339836.75862479,140232905,2,0.7766035795211792,-0.005137061234563589,0.004161175340414047,0.6299549341201782
1682339836.85861897,140332899,2,0.7764647006988525,-0.003426177892833948,0.004571861587464809,0.6301348805427551
1682339836.95859098,140432871,2,0.776410698890686,-0.0026362561620771885,0.00447505759075284,0.6302059292793274
1682339837.05863285,140532913,2,0.7762934565544128,-0.0022199570666998625,0.0040514348074793816,0.6303547620773315
1682339837.15858984,140632870,2,0.7762405276298523,-0.0024061002768576145,0.004203845746815205,0.6304182410240173
1682339837.25865197,140732932,2,0.7761543393135071,-0.0033240392804145813,0.004468630533665419,0.63051837682724
1682339837.35866189,140832942,2,0.7760142683982849,-0.003986230585724115,0.00517168128862977,0.630681574344635
1682339837.45862484,140932905,2,0.7758698463439941,-0.0037600714713335037,0.005359713453799486,0.6308590769767761
1682339837.55865598,141032936,2,0.7758389711380005,-0.003246661275625229,0.005331576801836491,0.6309001445770264
1682339837.65862989,141132910,2,0.7758132815361023,-0.003071887418627739,0.0058486005291342735,0.6309279203414917
1682339837.75862598,141232906,2,0.7758098840713501,-0.0027294582687318325,0.006513179745525122,0.6309272050857544
1682339837.85859895,141332879,2,0.7759164571762085,-0.0022876360453665257,0.006089774891734123,0.6308021545410156
1682339837.95859790,141432878,2,0.776105523109436,-0.0022675045765936375,0.005780320148915052,0.630572497844696
1682339838.05859494,141532875,2,0.776199996471405,-0.0024553071707487106,0.005638040602207184,0.6304567456245422
1682339838.15865493,141632935,2,0.7762466669082642,-0.0030637921299785376,0.006381717510521412,0.6303895115852356
1682339838.25871491,141732995,2,0.7763085961341858,-0.0035606257151812315,0.007527864072471857,0.6302980184555054
1682339838.35869980,141832980,2,0.7764212489128113,-0.003927373327314854,0.00809720903635025,0.6301500201225281
1682339838.45865083,141932931,2,0.7765967845916748,-0.003374845255166292,0.008269784040749073,0.6299346685409546
1682339838.55862284,142032903,2,0.7765897512435913,-0.00331925880163908,0.007350057829171419,0.6299550533294678
1682339838.65862298,142132903,2,0.7766582369804382,-0.0038246484473347664,0.006436777766793966,0.6298777461051941
1682339838.75859880,142232879,2,0.776626467704773,-0.0038439857307821512,0.00726768234744668,0.6299077272415161
1682339838.85859394,142332874,2,0.7767215371131897,-0.004798481706529856,0.00834203977137804,0.6297706365585327
1682339838.95859194,142432872,2,0.7768190503120422,-0.0032445997931063175,0.008516951464116573,0.6296579837799072
1682339839.05864787,142532928,2,0.7768999338150024,-0.0014905447605997324,0.007925574667751789,0.6295723915100098
1682339839.15871477,142632995,2,0.7768571972846985,-0.002094005700200796,0.00735615286976099,0.6296303868293762
1682339839.25861979,142732900,2,0.7769088745117188,-0.0023771526757627726,0.00631556985899806,0.6295769214630127
1682339839.35865188,142832932,2,0.7767435908317566,-0.002660128055140376,0.005277285352349281,0.6297892332077026
1682339839.45862794,142932908,2,0.7765081524848938,-0.0017545373411849141,0.0050409152172505856,0.6300846338272095
1682339839.55862594,143032906,2,0.7762168645858765,-0.0013243750436231494,0.005089904181659222,0.6304440498352051
1682339839.65859389,143132874,2,0.7759404182434082,-0.001717382576316595,0.005627591162919998,0.6307787299156189
1682339839.75859284,143232873,2,0.7757116556167603,-0.0029278674628585577,0.006656409241259098,0.6310455799102783
1682339839.85858893,143332869,2,0.7754169702529907,-0.004351118579506874,0.007489567622542381,0.6313901543617249
1682339839.95864177,143432922,2,0.7751871943473816,-0.0038951297756284475,0.00663751270622015,0.6316847205162048
1682339840.05870891,143532989,2,0.7748790979385376,-0.0024760079104453325,0.0051864502020180225,0.6320833563804626
1682339840.15862489,143632905,2,0.7746668457984924,-0.00221446854993701,0.005079786293208599,0.6323452591896057
1682339840.25865078,143732931,2,0.7745078206062317,-0.0026467128191143274,0.007998752407729626,0.6325082182884216
1682339840.35862398,143832904,2,0.7742159962654114,-0.003356074681505561,0.008627488277852535,0.6328538060188293
1682339840.45862484,143932905,2,0.7740824818611145,-0.003142910310998559,0.00856778584420681,0.633018970489502
1682339840.55858898,144032869,2,0.7739107608795166,-0.003089746693149209,0.008326566778123379,0.6332324147224426
1682339840.65859079,144132871,2,0.7736297845840454,-0.0025835917331278324,0.008307673037052155,0.6335781812667847
1682339840.75859499,144232875,2,0.773362934589386,-0.0028974723536521196,0.007027173414826393,0.6339179277420044
1682339840.85864592,144332926,2,0.7731977701187134,-0.0023824814707040787,0.006286561954766512,0.6341293454170227
1682339840.95870996,144432990,2,0.7730593085289001,-0.0031442788895219564,0.006225169636309147,0.6342954039573669
1682339841.05860090,144532881,2,0.773030161857605,-0.002635184908285737,0.005610199179500341,0.6343389749526978
1682339841.15866184,144632942,2,0.7730215787887573,-0.0003713782352861017,0.00617727916687727,0.6343495845794678
1682339841.25861979,144732900,2,0.7731840014457703,-0.0003759041428565979,0.004974355921149254,0.6341621279716492
1682339841.35862494,144832905,2,0.7732191681861877,-0.0022132948506623507,0.00685186916962266,0.6340979933738708
1682339841.45858979,144932870,2,0.7733176350593567,-0.0032276322599500418,0.007815704680979252,0.6339623928070068
1682339841.55859089,145032871,2,0.7733922600746155,-0.006902793888002634,0.006216543260961771,0.6338596940040588
1682339841.65859294,145132873,2,0.7736043930053711,-0.008673088625073433,0.0062584783881902695,0.6335785984992981
1682339841.75864697,145232927,2,0.7739158868789673,-0.007542936131358147,0.0054656993597745895,0.6332198977470398
1682339841.85871196,145332992,2,0.7743088603019714,-0.004498941358178854,0.006197005044668913,0.632761538028717
1682339841.95862198,145432902,2,0.7745856046676636,-0.001663107075728476,0.007047279737889767,0.6324276328086853
1682339842.05865383,145532934,2,0.7747243046760559,-0.000950617075432092,0.0070853084325790405,0.6322587728500366
1682339842.15862489,145632905,2,0.7749180793762207,-0.00035276374546810985,0.0072655873373150826,0.6320198178291321
1682339842.25862384,145732904,2,0.7751202583312988,-0.0007838114397600293,0.0066621312871575356,0.6317781209945679
1682339842.35859084,145832871,2,0.7751225233078003,0.0047980439849197865,0.012605276890099049,0.6316669583320618
1682339842.45859385,145932874,2,0.7752313017845154,0.005617510061711073,0.011645442806184292,0.6315451264381409
1682339842.55859590,146032876,2,0.7749152183532715,0.004035793244838715,0.01202281005680561,0.6319379806518555
1682339842.65866494,146132945,2,0.7741645574569702,0.0021974912378937006,0.00962238572537899,0.6329074501991272
1682339842.75872684,146233007,2,0.7733414769172668,-0.0005512672360055149,0.004317886661738157,0.6339747905731201
1682339842.85863590,146332916,2,0.7739499807357788,0.000588571245316416,0.002187649719417095,0.633242666721344
1682339842.95864677,146432927,2,0.7745277881622314,-0.0010456267045810819,0.0004830719262827188,0.6325388550758362
1682339843.05862784,146532908,2,0.7745007872581482,-0.003962291870266199,-0.0029468927532434464,0.6325536370277405
1682339843.15861988,146632900,2,0.7746665477752686,-0.004575221799314022,-0.0025084458757191896,0.6323484182357788
1682339843.25859094,146732871,2,0.7745266556739807,-0.005377496127039194,-0.0026332370471209288,0.6325129270553589
1682339843.35865688,146832937,2,0.7741940021514893,-0.004925144370645285,-0.002440465847030282,0.632924497127533
1682339843.45858979,146932870,2,0.7742547988891602,-0.0044224560260772705,-0.0023772886488586664,0.6328541040420532
1682339843.55864978,147032930,2,0.7740009427070618,-0.0035906226839870214,-0.0021642502397298813,0.6331705451011658
1682339843.65863991,147132920,2,0.7736669778823853,-0.004292178433388472,-0.003010811982676387,0.6335707306861877
1682339843.75860000,147232880,2,0.7743704915046692,-0.00328135397285223,-0.0028375843539834023,0.6327175498008728
1682339843.85864997,147332930,2,0.7739244103431702,-0.004204754251986742,-0.0034048021771013737,0.633254885673523
1682339843.95862079,147432901,2,0.7734972238540649,-0.0033556148409843445,-0.0028817905113101006,0.6337842345237732
1682339844.05862880,147532909,2,0.7743859887123108,-0.003828526707366109,-0.003584543475881219,0.6326917409896851
1682339844.15858984,147632870,2,0.774113655090332,-0.003515643300488591,-0.0029506634455174208,0.6330299973487854
1682339844.25859094,147732871,2,0.7739705443382263,-0.003907181788235903,-0.0033432310447096825,0.6332007646560669
1682339844.35859394,147832874,2,0.7743101716041565,-0.0036633345298469067,-0.002976386807858944,0.6327886581420898
1682339844.45864582,147932926,2,0.7742968797683716,-0.003977298270910978,-0.0030631106346845627,0.6328026056289673
1682339844.55864191,148032922,2,0.7740224003791809,-0.0037942102644592524,-0.0031179178040474653,0.6331391930580139
1682339844.65864086,148132921,2,0.7742214798927307,-0.0038474048487842083,-0.0030798986554145813,0.6328955292701721
1682339844.75865698,148232937,2,0.7743942737579346,-0.0038403307553380728,-0.0030791331082582474,0.6326842308044434
1682339844.85862184,148332902,2,0.7742109298706055,-0.004056205973029137,-0.0035255143884569407,0.6329048871994019
1682339844.95862293,148432903,2,0.7744288444519043,-0.00361721427179873,-0.0034106718376278877,0.6326414942741394
1682339845.05858779,148532868,2,0.7746421694755554,-0.004000499844551086,-0.003889689687639475,0.632375180721283
1682339845.15858388,148632864,2,0.7745026350021362,-0.003827590961009264,-0.0036776696797460318,0.632548451423645
1682339845.25858092,148732861,2,0.7746586799621582,-0.003995461389422417,-0.003921216819435358,0.6323547959327698
1682339845.35864186,148832922,2,0.7747462391853333,-0.0038921325467526913,-0.0039118495769798756,0.6322482228279114
1682339845.45865488,148932935,2,0.7747111916542053,-0.0039067561738193035,-0.004018903709948063,0.6322903633117676
1682339845.55861378,149032894,2,0.774794340133667,-0.0038505461998283863,-0.004004376474767923,0.6321889162063599
1682339845.65864277,149132923,2,0.7750542759895325,-0.0040166666731238365,-0.004052506759762764,0.6318688988685608
1682339845.75861382,149232894,2,0.7748575210571289,-0.003930253908038139,-0.003966591786593199,0.6321112513542175
1682339845.85861087,149332891,2,0.7751308083534241,-0.0038840288762003183,-0.003992341924458742,0.6317762732505798
1682339845.95858192,149432862,2,0.7751792073249817,-0.00401871744543314,-0.004101204220205545,0.6317152976989746
1682339846.05858278,149532863,2,0.7751402854919434,-0.0038284866604954004,-0.004023030865937471,0.6317647695541382
1682339846.15858698,149632867,2,0.7752707004547119,-0.004014870151877403,-0.004127976018935442,0.6316028237342834
1682339846.25865793,149732938,2,0.7753444910049438,-0.003913157153874636,-0.003998511470854282,0.6315137147903442
1682339846.35863280,149832913,2,0.7753247022628784,-0.0038783366326242685,-0.0041151889599859715,0.6315375566482544
1682339846.45861888,149932899,2,0.7753216624259949,-0.0038877727929502726,-0.004006074275821447,0.631541907787323
1682339846.55863500,150032915,2,0.7754720449447632,-0.0039140828885138035,-0.0040958174504339695,0.6313564777374268
1682339846.65861797,150132898,2,0.7755460143089294,-0.0038149587344378233,-0.004053759388625622,0.6312664747238159
1682339846.75861597,150232896,2,0.7755739092826843,-0.003860262455418706,-0.004032242111861706,0.6312321424484253
1682339846.85858178,150332862,2,0.7757720351219177,-0.0038780206814408302,-0.004183703102171421,0.6309874653816223
1682339846.95858383,150432864,2,0.7758162021636963,-0.0038903076201677322,-0.004069654271006584,0.6309338212013245
1682339847.05858684,150532867,2,0.7758179903030396,-0.004005417227745056,-0.004181427415460348,0.6309301853179932
1682339847.15863776,150632918,2,0.776045024394989,-0.003965642768889666,-0.004242300987243652,0.6306507587432861
1682339847.25865197,150732932,2,0.7760617733001709,-0.004071805160492659,-0.004301132168620825,0.6306290626525879
1682339847.35860491,150832885,2,0.7760855555534363,-0.004032692406326532,-0.004319604951888323,0.6305999755859375
1682339847.45863080,150932911,2,0.7762446403503418,-0.004101122263818979,-0.0043076504953205585,0.6304037570953369
1682339847.55860996,151032890,2,0.7762327790260315,-0.004048861097544432,-0.004284297581762075,0.6304188370704651
1682339847.65861678,151132897,2,0.7762883305549622,-0.004064557142555714,-0.004347505513578653,0.6303499341011047
1682339847.75857997,151232860,2,0.7764323353767395,-0.004042152781039476,-0.004322635009884834,0.630172848701477
1682339847.85858178,151332862,2,0.7764599323272705,-0.004035661928355694,-0.0043152207508683205,0.6301388740539551
1682339847.95858192,151432862,2,0.7764585614204407,-0.004070847295224667,-0.004394178278744221,0.6301398873329163
1682339848.05864191,151532922,2,0.776619553565979,-0.004052814096212387,-0.004401915706694126,0.629941463470459
1682339848.15863681,151632917,2,0.7766895294189453,-0.004036272410303354,-0.004492531530559063,0.629854679107666
1682339848.25859880,151732879,2,0.7767829895019531,-0.0040544248186051846,-0.004509157966822386,0.6297391653060913
1682339848.35863495,151832915,2,0.7769845128059387,-0.004057721700519323,-0.004575642757117748,0.6294900178909302
1682339848.45861387,151932894,2,0.7769955992698669,-0.004093594383448362,-0.004600943997502327,0.6294758915901184
1682339848.55860996,152032890,2,0.7770353555679321,-0.0041436185128986835,-0.004564606584608555,0.6294267773628235
1682339848.65858197,152132862,2,0.7772086262702942,-0.004175412934273481,-0.004595758859068155,0.6292123794555664
1682339848.75858283,152232863,2,0.7772386074066162,-0.004195652902126312,-0.00459623709321022,0.6291751861572266
1682339848.85858893,152332869,2,0.7772682309150696,-0.004225507378578186,-0.004624575842171907,0.629138171672821
1682339848.95863795,152432918,2,0.7774497866630554,-0.004201394505798817,-0.004641013685613871,0.6289138793945312
1682339849.05864978,152532930,2,0.7775008678436279,-0.004208535421639681,-0.004650110844522715,0.6288505792617798
1682339849.15859699,152632877,2,0.777496874332428,-0.004164886195212603,-0.004668927751481533,0.6288557052612305
1682339849.25863385,152732914,2,0.777666449546814,-0.0041466038674116135,-0.004656581208109856,0.628646194934845
1682339849.35862279,152832903,2,0.7777117490768433,-0.004145989194512367,-0.004669304471462965,0.6285900473594666
1682339849.45860887,152932889,2,0.7777461409568787,-0.004117247182875872,-0.004703480750322342,0.6285474300384521
1682339849.55858493,153032865,2,0.7779012322425842,-0.004130513407289982,-0.004744851030409336,0.628355085849762
1682339849.65859389,153132874,2,0.7779515385627747,-0.004119251389056444,-0.004780548624694347,0.6282926201820374
1682339849.75858092,153232861,2,0.7779578566551208,-0.004092869348824024,-0.004835855681449175,0.6282845139503479
1682339849.85865688,153332937,2,0.7780861854553223,-0.004088783636689186,-0.004904905799776316,0.6281250715255737
1682339849.95863795,153432918,2,0.7781396508216858,-0.004086971748620272,-0.004968907218426466,0.6280583739280701
1682339850.05862093,153532901,2,0.7781771421432495,-0.004046508111059666,-0.004987281281501055,0.6280120015144348
1682339850.15863776,153632918,2,0.7783007025718689,-0.0040662954561412334,-0.005042347125709057,0.6278582811355591
1682339850.25861382,153732894,2,0.7783185839653015,-0.00408563669770956,-0.005056119989603758,0.6278359293937683
1682339850.35861397,153832894,2,0.7783722281455994,-0.004074705298990011,-0.0050618574023246765,0.627769410610199
1682339850.45858788,153932868,2,0.7785782217979431,-0.004059154540300369,-0.005092293489724398,0.6275138258934021
1682339850.55858397,154032864,2,0.7786461710929871,-0.003982181195169687,-0.005178962368518114,0.6274292469024658
1682339850.65858388,154132864,2,0.7787389159202576,-0.004011322744190693,-0.00520603870972991,0.6273137331008911
1682339850.75864387,154232924,2,0.7788891792297363,-0.004002418834716082,-0.005144945811480284,0.6271277666091919
1682339850.85866594,154332946,2,0.7789359092712402,-0.003982570022344589,-0.005142366047948599,0.6270698308944702
1682339850.95863986,154432920,2,0.7789633870124817,-0.0039494941011071205,-0.005139477550983429,0.627035915851593
1682339851.05863881,154532919,2,0.7791376709938049,-0.003970470279455185,-0.0052030934020876884,0.6268186569213867
1682339851.15861297,154632893,2,0.7792420387268066,-0.003977549262344837,-0.005205769557505846,0.6266888380050659
1682339851.25861382,154732894,2,0.7793031334877014,-0.003989741671830416,-0.005222788546234369,0.626612663269043
1682339851.35858583,154832866,2,0.7794123888015747,-0.003998873755335808,-0.005227494053542614,0.6264766454696655
1682339851.45858097,154932861,2,0.7794811725616455,-0.004068213514983654,-0.005255063530057669,0.6263903975486755
1682339851.55857992,155032860,2,0.7795422673225403,-0.004042046144604683,-0.005245437379926443,0.626314640045166
1682339851.65864897,155132929,2,0.7796759605407715,-0.004068555310368538,-0.005213757511228323,0.6261482834815979
1682339851.75864196,155232922,2,0.7797305583953857,-0.004096124786883593,-0.005155932158231735,0.6260805726051331
1682339851.85859394,155332874,2,0.7797256708145142,-0.004116857424378395,-0.005167933646589518,0.6260864734649658
1682339851.95863986,155432920,2,0.779862642288208,-0.004104085732251406,-0.005176270380616188,0.6259158253669739
1682339852.05861282,155532893,2,0.7799280881881714,-0.004094749689102173,-0.00517604686319828,0.6258343458175659
1682339852.15861297,155632893,2,0.7800233364105225,-0.004048011265695095,-0.005143207497894764,0.6257162094116211
