timestamp,TimeUS,C,Roll,Pitch,Yaw,VN,VE,VD,dPD,PN,PE,PD,GX,GY,GZ,OH
1682339799.45863891,102932919,2,-0.56,0.16,356.43,-0.00401702243834734,0.008701685816049576,0.018122239038348198,0.0007135173655115068,0.6061471700668335,0.20678836107254028,0.1329016238451004,0.0,0.0,0.0,255.62
1682339799.55864692,103032927,2,-0.56,0.16,356.42,-0.0032859432976692915,0.009266027249395847,0.018775833770632744,0.0021351950708776712,0.6071521043777466,0.20979350805282593,0.13316603004932404,0.0,0.0,0.0,255.62
1682339799.65860486,103132885,2,-0.56,0.17,356.42,-0.002674660412594676,0.008676499128341675,0.01876472495496273,0.01429352629929781,0.6081929206848145,0.2124204933643341,0.13493819534778595,0.0,0.0,0.0,255.62
1682339799.75864792,103232928,2,-0.5700000000000001,0.17,356.42,-0.0023583760485053062,0.00836277473717928,0.01886179856956005,0.0345623753964901,0.6091583371162415,0.2145807445049286,0.13814134895801544,0.0,0.0,0.0,255.62
1682339799.85861182,103332892,2,-0.5700000000000001,0.17,356.42,-0.0026216558180749416,0.00767168402671814,0.01972701959311962,0.030258769169449806,0.6100213527679443,0.21686071157455444,0.14019723236560822,0.0,0.0,0.0,255.62
1682339799.95862198,103432902,2,-0.58,0.17,356.41,-0.0032428642734885216,0.007102173753082752,0.019404083490371704,0.009803544729948044,0.6106977462768555,0.21904997527599335,0.14090605080127716,0.0,0.0,0.0,255.62
1682339800.05858493,103532865,2,-0.5700000000000001,0.17,356.42,-0.0029191491194069386,0.006299029570072889,0.019154785200953484,0.006371831987053156,0.6116889715194702,0.22124487161636353,0.1420457512140274,0.0,0.0,0.0,255.62
1682339800.15858197,103632862,2,-0.5700000000000001,0.17,356.41,-0.0025924737565219402,0.004792924504727125,0.019263798370957375,0.015099023468792439,0.6128859519958496,0.2232521027326584,0.1438109427690506,0.0,0.0,0.0,255.62
1682339800.25858688,103732867,2,-0.58,0.17,356.41,-0.001994422636926174,0.0033047699835151434,0.019175447523593903,0.023505453020334244,0.6142593622207642,0.22490572929382324,0.14620746672153473,0.0,0.0,0.0,255.62
1682339800.35865092,103832931,2,-0.58,0.17,356.41,-0.0010161347454413772,0.001476580509915948,0.01939398981630802,0.028150662779808044,0.6157966256141663,0.2260870486497879,0.14871962368488312,0.0,0.0,0.0,255.62
1682339800.45869398,103932974,2,-0.58,0.17,356.40000000000003,-4.742560849990696e-05,-0.0005309020052663982,0.019886212423443794,0.0252668559551239,0.6174381375312805,0.22716231644153595,0.1509198695421219,0.0,0.0,0.0,255.62
1682339800.55858779,104032868,2,-0.58,0.17,356.40000000000003,0.00019897305173799396,-0.0022613692563027143,0.020392486825585365,0.02200617827475071,0.6190462708473206,0.2280091941356659,0.1530407816171646,0.0,0.0,0.0,255.62
1682339800.65864778,104132928,2,-0.58,0.17,356.40000000000003,7.303535312530585e-06,-0.004570923745632172,0.0206774789839983,0.025072511285543442,0.6210148930549622,0.22829154133796692,0.15568478405475616,0.0,0.0,0.0,255.62
1682339800.75862384,104232904,2,-0.5700000000000001,0.17,356.39,-0.0002586987102404237,-0.00658167339861393,0.021921291947364807,0.03061799705028534,0.6228696703910828,0.22795391082763672,0.1586342602968216,0.0,0.0,0.0,255.62
1682339800.85861182,104332892,2,-0.58,0.17,356.39,0.0008453766349703074,-0.006413251161575317,0.023985976353287697,0.02546064928174019,0.6248302459716797,0.22933560609817505,0.16076327860355377,0.0,0.0,0.0,255.62
1682339800.95859098,104432871,2,-0.58,0.16,356.39,0.0011828986462205648,-0.005576753057539463,0.02435484528541565,0.017105035483837128,0.626642644405365,0.23135149478912354,0.16262276470661163,0.0,0.0,0.0,255.62
1682339801.05858779,104532868,2,-0.58,0.17,356.39,0.002147191669791937,-0.004369788337498903,0.02446622960269451,0.008279620669782162,0.6288689970970154,0.23379823565483093,0.16347916424274445,0.0,0.0,0.0,255.62
1682339801.15858293,104632863,2,-0.5700000000000001,0.16,356.38,0.0033087385818362236,-0.003447636030614376,0.02393263578414917,0.003711430123075843,0.6310683488845825,0.23619024455547333,0.16440971195697784,0.0,0.0,0.0,255.62
1682339801.25863695,104732917,2,-0.58,0.16,356.39,0.004496854264289141,-0.0019532490987330675,0.02348814159631729,-0.002048137132078409,0.6334402561187744,0.23949003219604492,0.1642574816942215,0.0,0.0,0.0,255.62
1682339801.35864592,104832926,2,-0.58,0.16,356.38,0.005223965737968683,0.0012393116485327482,0.022749848663806915,-0.008099154569208622,0.635661244392395,0.2429780662059784,0.16401918232440948,0.0,0.0,0.0,255.62
1682339801.45861793,104932898,2,-0.5700000000000001,0.16,356.39,0.007193000987172127,0.00038226612377911806,0.022494830191135406,-0.003499654121696949,0.6383944153785706,0.2453451305627823,0.16399754583835602,0.0,0.0,0.0,255.62
1682339801.55864096,105032921,2,-0.5700000000000001,0.16,356.39,0.00956990011036396,-0.00226595182903111,0.022473305463790894,0.005328139755874872,0.6412349939346313,0.2465946227312088,0.1648193746805191,0.0,0.0,0.0,255.62
1682339801.65862679,105132907,2,-0.56,0.15,356.39,0.0103982575237751,-0.003465967485681176,0.020832056179642677,0.003317255061119795,0.6436328887939453,0.24803419411182404,0.16480542719364166,0.0,0.0,0.0,255.62
1682339801.75861597,105232896,2,-0.56,0.15,356.39,0.01144714467227459,-0.004050885327160358,0.020054204389452934,-0.011244770139455795,0.6456340551376343,0.24927076697349548,0.16363097727298737,0.0,0.0,0.0,255.62
1682339801.85859179,105332872,2,-0.5700000000000001,0.15,356.38,0.011104939505457878,-0.003961125388741493,0.019800379872322083,-0.005105790216475725,0.6472074389457703,0.2503829896450043,0.16382397711277008,0.0,0.0,0.0,255.62
1682339801.95860291,105432883,2,-0.5700000000000001,0.15,356.38,0.00973236933350563,-0.00437115179374814,0.020745227113366127,0.01145858597010374,0.6483117938041687,0.25121787190437317,0.16493047773838043,0.0,0.0,0.0,255.62
1682339802.05858994,105532870,2,-0.5700000000000001,0.15,356.38,0.009995492175221443,-0.004950459115207195,0.022307051345705986,0.029101630672812462,0.649246871471405,0.25222083926200867,0.1681699901819229,0.0,0.0,0.0,255.62
1682339802.15864587,105632926,2,-0.5700000000000001,0.14,356.37,0.00916342344135046,-0.0046924445778131485,0.024563761427998543,0.06778306514024734,0.6501096487045288,0.25372135639190674,0.17415572702884674,0.0,0.0,0.0,255.62
1682339802.25864577,105732926,2,-0.5700000000000001,0.14,356.37,0.010131217539310455,-0.003972408827394247,0.025026731193065643,0.04940500855445862,0.6511539220809937,0.25586676597595215,0.17725570499897003,0.0,0.0,0.0,255.62
1682339802.35862088,105832901,2,-0.5700000000000001,0.14,356.39,0.009329086169600487,-0.0015986410435289145,0.025549251586198807,0.016266001388430595,0.6522645950317383,0.25790998339653015,0.178568497300148,0.0,0.0,0.0,255.62
1682339802.45865178,105932932,2,-0.5700000000000001,0.14,356.36,0.005956241395324469,-0.0032614516094326973,0.02501225844025612,0.007835832424461842,0.653087317943573,0.25998640060424805,0.18014170229434967,0.0,0.0,0.0,255.62
1682339802.55861878,106032899,2,-0.56,0.14,356.38,0.012700218707323074,-0.00010222038690699264,0.02525503933429718,0.01263425499200821,0.6538441777229309,0.2615897059440613,0.18181206285953522,0.0,0.0,0.0,255.62
1682339802.65862298,106132903,2,-0.55,0.13,356.38,0.012502876110374928,0.0008564024465158582,0.025203095749020576,0.007701576687395573,0.6549211740493774,0.26254895329475403,0.18259353935718536,0.0,0.0,0.0,255.62
1682339802.75859094,106232871,2,-0.5,0.13,356.35,0.014608871191740036,0.002346605295315385,0.02667882852256298,0.006784165743738413,0.6556742787361145,0.26266157627105713,0.1836450845003128,0.0,0.0,0.0,255.62
1682339802.85858798,106332868,2,-0.53,0.14,356.39,0.026223765686154366,0.013964987359941006,0.025307679548859596,-0.008061020635068417,0.6564908027648926,0.2644862234592438,0.18223901093006134,0.0,0.0,0.0,255.62
1682339802.95859194,106432872,2,-0.53,0.14,356.39,0.03345603868365288,-0.0029604339506477118,0.030240146443247795,-0.02533944509923458,0.6572688817977905,0.26626694202423096,0.179806187748909,0.0,0.0,0.0,255.62
1682339803.05865788,106532938,2,-0.5,0.13,356.34000000000003,0.007043876219540834,-0.018377434462308884,0.03234955668449402,-0.01947835087776184,0.6587427258491516,0.26735761761665344,0.17793776094913483,0.0,0.0,0.0,255.62
1682339803.15865278,106632933,2,-0.54,0.14,356.39,-0.007538763806223869,0.006752450950443745,0.020152539014816284,-0.0317486897110939,0.6602466106414795,0.2683580219745636,0.1752021461725235,0.0,0.0,0.0,255.62
1682339803.25859880,106732879,2,-0.5,0.14,356.37,-0.005757222883403301,-0.000763817923143506,0.017735974863171577,-0.06740064173936844,0.662683367729187,0.2695107161998749,0.16779054701328278,0.0,0.0,0.0,255.62
1682339803.35865283,106832933,2,-0.56,0.13,356.34000000000003,0.00738747650757432,-0.02480412647128105,0.01713491976261139,-0.10085178911685944,0.6655298471450806,0.2707936465740204,0.15935231745243073,0.0,0.0,0.0,255.62
1682339803.45861793,106932898,2,-0.49,0.12,356.38,0.013930900022387505,-0.001200015307404101,0.011919382028281689,-0.09762556850910187,0.666372537612915,0.27168771624565125,0.15136225521564484,0.0,0.0,0.0,255.62
1682339803.55862188,107032902,2,-0.53,0.13,356.35,0.014703270979225636,0.005093133542686701,0.011475721374154091,-0.08252926915884018,0.6661349534988403,0.27362173795700073,0.14425159990787506,0.0,0.0,0.0,255.62
1682339803.65859485,107132875,2,-0.54,0.11,356.34000000000003,0.0033065390307456255,-0.002524371026083827,0.011112655512988567,-0.062432970851659775,0.6658690571784973,0.27446919679641724,0.1383913904428482,0.0,0.0,0.0,255.62
1682339803.75858784,107232868,2,-0.49,0.12,356.36,-0.019693955779075623,-0.021551061421632767,0.003229200839996338,-0.05650429055094719,0.6652838587760925,0.2742433249950409,0.13300569355487823,0.0,0.0,0.0,255.62
1682339803.85858798,107332868,2,-0.56,0.11,356.34000000000003,-0.0031224850099533796,0.009955194778740406,0.0051146699115633965,-0.04470948129892349,0.6651762127876282,0.274565190076828,0.12799771130084991,0.0,0.0,0.0,255.62
1682339803.95864677,107432927,2,-0.49,0.11,356.35,0.009653869085013866,0.00829002633690834,0.0026855135802179575,-0.04567864537239075,0.6658318638801575,0.2742886245250702,0.12324411422014236,0.0,0.0,0.0,255.62
1682339804.05864477,107532925,2,-0.54,0.11,356.36,0.013233489356935024,-0.004783782176673412,0.004891292657703161,-0.044626738876104355,0.6652435064315796,0.27436789870262146,0.1179857924580574,0.0,0.0,0.0,255.62
1682339804.15858984,107632870,2,-0.52,0.11,356.32,0.005597598385065794,0.008899636566638947,0.00041338385199196637,-0.050955235958099365,0.663937509059906,0.2734391391277313,0.11310447007417679,0.0,0.0,0.0,255.62
1682339804.25865984,107732940,2,-0.5,0.11,356.35,0.0066211530938744545,-0.01675216294825077,-0.0022582781966775656,-0.0366852767765522,0.6629705429077148,0.2729731500148773,0.11028177291154861,0.0,0.0,0.0,255.62
1682339804.35862279,107832903,2,-0.5700000000000001,0.1,356.37,0.009178885258734226,0.002365007298067212,-0.00026782957138493657,-0.018878767266869545,0.6620796322822571,0.2728816270828247,0.10805458575487137,0.0,0.0,0.0,255.62
1682339804.45862293,107932903,2,-0.47000000000000003,0.1,356.35,0.006853010971099138,-0.006070741917937994,0.00035269002546556294,-0.016185341402888298,0.6609324812889099,0.27215805649757385,0.10584176331758499,0.0,0.0,0.0,255.62
1682339804.55859900,108032879,2,-0.56,0.11,356.36,0.013423984870314598,-0.008218670263886452,0.0026483971159905195,-0.017201881855726242,0.6603640913963318,0.272476464509964,0.1035156324505806,0.0,0.0,0.0,255.62
1682339804.65859890,108132879,2,-0.52,0.12,356.34000000000003,0.020422905683517456,0.008876856416463852,0.0021851258352398872,-0.03570790961384773,0.6596649885177612,0.2725231945514679,0.0992475226521492,0.0,0.0,0.0,255.62
1682339804.75859189,108232872,2,-0.5,0.11,356.33,0.02009108103811741,-0.007522244937717915,0.002054995158687234,-0.04886634275317192,0.6591628789901733,0.2729126811027527,0.09468264132738113,0.0,0.0,0.0,255.62
1682339804.85864592,108332926,2,-0.58,0.11,356.34000000000003,0.022305944934487343,0.010952555574476719,-0.004704256542026997,-0.04833238944411278,0.6587789058685303,0.274597704410553,0.09050548821687698,0.0,0.0,0.0,255.62
1682339804.95865083,108432931,2,-0.46,0.11,356.33,0.017489153891801834,-0.011670219711959362,-0.0029977322556078434,-0.04663274064660072,0.6582614779472351,0.2751111686229706,0.08584607392549515,0.0,0.0,0.0,255.62
1682339805.05862379,108532904,2,-0.5700000000000001,0.1,356.34000000000003,0.01852010004222393,-0.016530608758330345,-0.005571311805397272,-0.05679399147629738,0.6581653952598572,0.2787620723247528,0.08032781630754471,0.0,0.0,0.0,255.62
1682339805.15864778,108632928,2,-0.5,0.11,356.35,0.01630227081477642,0.006075393874198198,-0.009652070701122284,-0.06025293469429016,0.6581368446350098,0.28117960691452026,0.07510346919298172,0.0,0.0,0.0,255.62
1682339805.25861979,108732900,2,-0.44,0.15,356.36,0.001730499672703445,-0.017466485500335693,-0.0015953176189213991,-0.043698642402887344,0.6580025553703308,0.2842744290828705,0.07018179446458817,0.0,0.0,0.0,255.62
1682339805.35866189,108832942,2,-0.59,0.16,356.36,0.001226921333000064,0.02180418185889721,-0.009992129169404507,-0.043114736676216125,0.6581034064292908,0.2865089178085327,0.06574369221925735,0.0,0.0,0.0,255.62
1682339805.45859289,108932873,2,-0.26,0.2,356.40000000000003,0.025985609740018845,0.02185407094657421,-0.0613032691180706,-0.11929962038993835,0.6601073145866394,0.2897445261478424,0.05559951812028885,0.0,0.0,0.0,255.62
1682339805.55859590,109032876,2,-0.04,0.18,356.47,0.019615670666098595,0.0190966185182333,-0.3184869885444641,-0.428873747587204,0.6624871492385864,0.2930662930011749,0.02771718241274357,0.0,0.0,0.0,255.62
1682339805.65860677,109132887,2,0.18,0.21,356.44,0.03110552579164505,0.013889193534851074,-0.5725277662277222,-0.7234205007553101,0.6650256514549255,0.2980634868144989,-0.031829409301280975,0.0,0.0,0.0,255.62
1682339805.75865197,109232932,2,0.2,0.25,356.36,0.030543925240635872,0.012848679907619953,-0.6649461984634399,-0.8484578132629395,0.6679142713546753,0.3032171428203583,-0.11047052592039108,0.0,0.0,0.0,255.62
1682339805.85863996,109332920,2,0.22,0.24,356.22,0.03175326809287071,0.0027724700048565865,-0.6450170278549194,-0.884769082069397,0.6690859198570251,0.3088614344596863,-0.20076005160808563,0.0,0.0,0.0,255.62
1682339805.95859885,109432879,2,-0.02,0.39,356.03000000000003,0.03117178939282894,0.0008741610217839479,-0.579797625541687,-0.8847053647041321,0.6697703003883362,0.31364309787750244,-0.2895759642124176,0.0,0.0,0.0,255.62
1682339806.05864882,109532929,2,-0.24,0.53,355.85,0.03700917586684227,-0.0040406109765172005,-0.5078979730606079,-0.7354697585105896,0.6731448173522949,0.31912901997566223,-0.3611815273761749,0.0,0.0,0.0,255.62
1682339806.15861797,109632898,2,-0.46,0.76,355.64,0.03602698817849159,-0.005644175224006176,-0.4145466685295105,-0.543415367603302,0.677610456943512,0.32394805550575256,-0.42119666934013367,0.0,0.0,0.0,255.62
1682339806.25862193,109732902,2,-0.55,0.67,355.46,0.03553306683897972,-0.004673035815358162,-0.3472007215023041,-0.45347073674201965,0.6812177300453186,0.3283253014087677,-0.4711921811103821,0.0,0.0,0.0,255.62
1682339806.35859084,109832871,2,-0.27,0.4,355.29,0.03055831603705883,-0.009198635816574097,-0.29677894711494446,-0.47753313183784485,0.684377908706665,0.33195045590400696,-0.5262163281440735,0.0,0.0,0.0,255.62
1682339806.45858788,109932868,2,-0.01,0.5,355.14,0.024936523288488388,-0.01494804210960865,-0.238198921084404,-0.49250033497810364,0.6859374642372131,0.33267515897750854,-0.5763504505157471,0.0,0.0,0.0,255.62
1682339806.55859494,110032875,2,0.07,0.5700000000000001,355.03000000000003,0.019552478566765785,-0.01747502014040947,-0.18451139330863953,-0.39423075318336487,0.6873290538787842,0.3321666419506073,-0.6149357557296753,0.0,0.0,0.0,255.62
1682339806.65864897,110132929,2,0.44,0.43,354.91,0.020922545343637466,-0.00979555957019329,-0.16797636449337006,-0.2851181924343109,0.6889146566390991,0.33278271555900574,-0.642291784286499,0.0,0.0,0.0,255.62
1682339806.75871277,110232993,2,1.11,0.45,354.81,0.017138203606009483,0.004238675348460674,-0.13728469610214233,-0.18943150341510773,0.6906073093414307,0.3342459797859192,-0.6645086407661438,0.0,0.0,0.0,255.62
1682339806.85862398,110332904,2,2.2,0.64,354.75,0.020883511751890182,0.03897803649306297,-0.0944405272603035,-0.10574252903461456,0.692513644695282,0.3378702998161316,-0.6785116791725159,0.0,0.0,0.0,255.62
1682339806.95866084,110432941,2,2.7,0.41000000000000003,354.69,0.02747504413127899,0.05805549398064613,-0.0855429396033287,-0.052837491035461426,0.6952034831047058,0.3439416289329529,-0.6870765686035156,0.0,0.0,0.0,255.62
1682339807.05863690,110532917,2,2.37,0.16,354.63,0.01891985535621643,0.09244222193956375,-0.09194876998662949,-0.044249050319194794,0.6967116594314575,0.3532964289188385,-0.6930210590362549,0.0,0.0,0.0,255.62
1682339807.15862393,110632904,2,1.81,0.35000000000000003,354.58,0.019070474430918694,0.11746294796466827,-0.06301382929086685,-0.012376089580357075,0.6971094608306885,0.36628326773643494,-0.6974635720252991,0.0,0.0,0.0,255.62
1682339807.25859785,110732878,2,0.97,0.32,354.57,0.0282171331346035,0.13035869598388672,-0.07420747727155685,-0.05318848788738251,0.6973447203636169,0.3804125189781189,-0.7036864161491394,0.0,0.0,0.0,255.62
1682339807.35859489,110832875,2,0.03,0.24,354.58,0.018222402781248093,0.14604419469833374,-0.06939519941806793,-0.06272537261247635,0.6973804235458374,0.39485087990760803,-0.7092928886413574,0.0,0.0,0.0,255.62
1682339807.45859385,110932874,2,-0.9500000000000001,0.53,354.57,0.020613811910152435,0.12327134609222412,-0.06127998232841492,-0.01969539001584053,0.6961846351623535,0.4074127972126007,-0.7096565365791321,0.0,0.0,0.0,255.62
1682339807.55865192,111032932,2,-2.02,0.31,354.61,0.01923283189535141,0.09706751257181168,-0.05252102017402649,0.0029178927652537823,0.6950366497039795,0.41650235652923584,-0.7115024328231812,0.0,0.0,0.0,255.62
1682339807.65864897,111132929,2,-2.57,0.32,354.69,0.012992502190172672,0.054621849209070206,-0.10266993939876556,-0.08082255721092224,0.6927353739738464,0.421558678150177,-0.718239963054657,0.0,0.0,0.0,255.62
1682339807.75861597,111232896,2,-2.36,0.42,354.77,0.010109439492225647,0.02164490520954132,-0.13578914105892181,-0.14151531457901,0.6896373629570007,0.42257848381996155,-0.730812668800354,0.0,0.0,0.0,255.62
1682339807.85864496,111332925,2,-1.97,0.44,354.87,0.010699797421693802,-0.01418326050043106,-0.16462761163711548,-0.1645449697971344,0.6869045495986938,0.41957321763038635,-0.7448448538780212,0.0,0.0,0.0,255.62
1682339807.95862579,111432906,2,-1.53,0.48,354.96,0.0115504777058959,-0.04859175905585289,-0.21531307697296143,-0.16686271131038666,0.6844879388809204,0.4127371609210968,-0.7579514384269714,0.0,0.0,0.0,255.62
1682339808.05862689,111532907,2,-1.02,0.5,355.02,0.0011264004278928041,-0.06911086291074753,-0.21870462596416473,-0.11322689056396484,0.6840830445289612,0.40459299087524414,-0.7697503566741943,0.0,0.0,0.0,255.62
1682339808.15860391,111632884,2,-0.63,0.52,355.09000000000003,0.009072713553905487,-0.08972723037004471,-0.2394641488790512,-0.11544904112815857,0.6857110857963562,0.39572784304618835,-0.7835515737533569,0.0,0.0,0.0,255.62
1682339808.25859189,111732872,2,-0.1,0.33,355.17,0.013683388009667397,-0.0904787927865982,-0.26366958022117615,-0.16090314090251923,0.6899569630622864,0.38711458444595337,-0.7999891042709351,0.0,0.0,0.0,255.62
1682339808.35859489,111832875,2,0.38,0.32,355.22,0.010115797631442547,-0.09480484575033188,-0.27664458751678467,-0.2038252055644989,0.6950985193252563,0.3784583806991577,-0.8210377097129822,0.0,0.0,0.0,255.62
1682339808.45864892,111932929,2,0.92,0.44,355.28000000000003,0.022408869117498398,-0.07649178057909012,-0.28477635979652405,-0.2370336353778839,0.7023770213127136,0.3703145384788513,-0.8447436094284058,0.0,0.0,0.0,255.62
1682339808.55864191,112032922,2,1.53,0.43,355.33,0.03650406002998352,-0.06224944442510605,-0.3130490183830261,-0.2784355580806732,0.7107384204864502,0.3637293875217438,-0.8702096343040466,0.0,0.0,0.0,255.62
1682339808.65863299,112132913,2,1.81,0.67,355.37,0.032355133444070816,-0.04730425029993057,-0.32664424180984497,-0.29434001445770264,0.7189755439758301,0.36001351475715637,-0.8981173038482666,0.0,0.0,0.0,255.62
1682339808.75864983,112232930,2,1.96,0.9,355.41,0.03698532655835152,-0.015515649691224098,-0.34034836292266846,-0.3136116564273834,0.7268559336662292,0.3592945635318756,-0.9291607737541199,0.0,0.0,0.0,255.62
1682339808.85861897,112332899,2,1.9000000000000001,0.9,355.44,0.04053300619125366,0.020195160061120987,-0.341457337141037,-0.3308431804180145,0.7356305122375488,0.3635375201702118,-0.9617854356765747,0.0,0.0,0.0,255.62
1682339808.95862889,112432909,2,1.8900000000000001,0.96,355.43,0.03669501468539238,0.05442339554429054,-0.37204253673553467,-0.37825891375541687,0.7440467476844788,0.37179073691368103,-0.9981839656829834,0.0,0.0,0.0,255.62
1682339809.05859280,112532873,2,2.27,1.01,355.43,0.038422081619501114,0.09980153292417526,-0.3698861002922058,-0.3734443783760071,0.7506289482116699,0.3837571442127228,-1.0342873334884644,0.0,0.0,0.0,255.62
1682339809.15859389,112632874,2,2.7800000000000002,0.98,355.42,0.03509485349059105,0.1413552612066269,-0.382693350315094,-0.3568522334098816,0.7558926343917847,0.39927414059638977,-1.0692174434661865,0.0,0.0,0.0,255.62
1682339809.25859189,112732872,2,3.11,0.91,355.40000000000003,0.03257341310381889,0.1832047700881958,-0.38275671005249023,-0.37235027551651,0.7611230611801147,0.4211485683917999,-1.1076431274414062,0.0,0.0,0.0,255.62
1682339809.35864997,112832930,2,3.31,0.76,355.39,0.0354895144701004,0.24938343465328217,-0.3823087513446808,-0.390851765871048,0.7660565376281738,0.44822245836257935,-1.1459214687347412,0.0,0.0,0.0,255.62
1682339809.45868278,112932963,2,3.4,0.73,355.49,0.030456801876425743,0.2937321364879608,-0.3805367648601532,-0.3755982220172882,0.767181396484375,0.4789627194404602,-1.1825200319290161,0.0,0.0,0.0,255.62
1682339809.55861878,113032899,2,3.41,0.62,355.78000000000003,0.02762264385819435,0.3689868450164795,-0.37094107270240784,-0.3504820168018341,0.766887366771698,0.5144060850143433,-1.2174456119537354,0.0,0.0,0.0,255.62
1682339809.65866399,113132944,2,3.43,0.48,356.23,0.02524244226515293,0.4118479788303375,-0.3509668707847595,-0.31287482380867004,0.761544406414032,0.55549156665802,-1.2500513792037964,0.0,0.0,0.0,255.62
1682339809.75861692,113232897,2,3.42,0.42,356.8,0.020339930430054665,0.46043893694877625,-0.33116239309310913,-0.298875093460083,0.7546150088310242,0.6015897393226624,-1.2822595834732056,0.0,0.0,0.0,255.62
1682339809.85861897,113332899,2,3.56,0.41000000000000003,357.45,0.014331940561532974,0.5213239192962646,-0.32028070092201233,-0.3097694218158722,0.7437198758125305,0.6508488655090332,-1.3140019178390503,0.0,0.0,0.0,255.62
1682339809.95859289,113432873,2,3.8200000000000003,0.41000000000000003,358.11,0.012894428335130215,0.5756933689117432,-0.3007637560367584,-0.30360695719718933,0.732160747051239,0.7043161988258362,-1.3444768190383911,0.0,0.0,0.0,255.62
1682339810.05859399,113532874,2,3.89,0.39,358.75,0.0024324129335582256,0.6234919428825378,-0.2713841497898102,-0.2786515951156616,0.7159984707832336,0.758314311504364,-1.37286376953125,0.0,-0.01,0.0,255.62
1682339810.15858793,113632868,2,3.85,0.34,359.40000000000003,0.0010140477679669857,0.6731297373771667,-0.2337253838777542,-0.2550129294395447,0.6994087100028992,0.8161388635635376,-1.4006057977676392,0.0,-0.01,0.0,255.62
1682339810.25865984,113732940,2,3.8200000000000003,0.31,0.07,-0.009667893871665001,0.7213996648788452,-0.21852847933769226,-0.26150867342948914,0.6770395040512085,0.8821969628334045,-1.4275681972503662,0.0,-0.01,0.0,255.62
1682339810.35864496,113832925,2,3.7,0.33,0.8200000000000001,-0.022032883018255234,0.7845747470855713,-0.2011050134897232,-0.24218203127384186,0.6541233062744141,0.9553483128547668,-1.4510524272918701,0.0,-0.01,0.0,255.62
1682339810.45862579,113932906,2,3.5700000000000003,0.35000000000000003,1.71,-0.03365213796496391,0.8385719060897827,-0.17321616411209106,-0.19310200214385986,0.6250965595245361,1.0348153114318848,-1.4705369472503662,0.0,-0.01,0.0,255.62
1682339810.55864596,114032926,2,3.48,0.42,2.79,-0.04710593819618225,0.8858519196510315,-0.1468753218650818,-0.14026063680648804,0.5955369472503662,1.1200053691864014,-1.4857853651046753,0.0,-0.01,0.0,255.62
1682339810.65863180,114132912,2,3.39,0.44,3.93,-0.06488541513681412,0.9320603013038635,-0.12593376636505127,-0.10145923495292664,0.5574855208396912,1.208394169807434,-1.4968987703323364,0.0,-0.02,0.0,255.62
1682339810.75862598,114232906,2,3.3200000000000003,0.46,5.16,-0.08497443050146103,0.980209469795227,-0.09559226781129837,-0.05758838355541229,0.5182637572288513,1.300916075706482,-1.5047553777694702,0.0,-0.02,0.0,255.62
1682339810.85858798,114332868,2,3.27,0.46,6.47,-0.1138303354382515,1.0301685333251953,-0.08317450433969498,-0.07022982090711594,0.4727156162261963,1.397284746170044,-1.514322280883789,0.01,-0.02,0.0,255.62
1682339810.95858979,114432870,2,3.25,0.43,7.84,-0.1366065889596939,1.0749379396438599,-0.07431051135063171,-0.07332171499729156,0.42731186747550964,1.4982715845108032,-1.5215116739273071,0.01,-0.02,0.0,255.62
1682339811.05859184,114532872,2,3.24,0.44,9.25,-0.17144612967967987,1.1154159307479858,-0.06590443849563599,-0.027353869751095772,0.37014344334602356,1.6033825874328613,-1.5225988626480103,0.01,-0.03,-0.01,255.62
1682339811.15863776,114632918,2,3.25,0.5,10.72,-0.19630120694637299,1.1580663919448853,-0.0481129065155983,0.01776539720594883,0.31118202209472656,1.7131773233413696,-1.522818684577942,0.01,-0.03,-0.01,255.62
1682339811.25870490,114732985,2,3.22,0.49,12.19,-0.23153740167617798,1.198403000831604,-0.045027125626802444,0.027362274006009102,0.24858532845973969,1.8225791454315186,-1.5188950300216675,0.01,-0.03,-0.01,255.62
1682339811.35860181,114832882,2,3.13,0.55,13.700000000000001,-0.2653784453868866,1.234795331954956,-0.034677691757678986,0.07888393104076385,0.18313881754875183,1.9347038269042969,-1.512166142463684,0.01,-0.03,-0.01,255.62
1682339811.45864391,114932924,2,2.86,0.59,15.25,-0.3000691831111908,1.2658950090408325,-0.023881616070866585,0.08746932446956635,0.11039896309375763,2.0471513271331787,-1.5055654048919678,0.01,-0.03,-0.01,255.62
1682339811.55862188,115032902,2,2.33,0.62,16.79,-0.33770331740379333,1.2865431308746338,-0.04169226437807083,0.04818950966000557,0.03802524879574776,2.162334442138672,-1.5014891624450684,0.01,-0.03,-0.01,255.62
1682339811.65863681,115132917,2,1.51,0.8200000000000001,18.31,-0.3602942228317261,1.2939670085906982,-0.041362009942531586,-0.0030717095360159874,-0.04151177033782005,2.280910015106201,-1.5023127794265747,0.01,-0.04,-0.01,255.62
1682339811.75859785,115232878,2,0.98,0.87,19.8,-0.3983060419559479,1.3108631372451782,-0.05058462545275688,-0.0571611113846302,-0.12014639377593994,2.402890682220459,-1.5061039924621582,0.01,-0.04,-0.01,255.62
1682339811.85859299,115332873,2,0.92,0.89,21.26,-0.42267754673957825,1.3023393154144287,-0.05005723237991333,-0.06330519914627075,-0.20111143589019775,2.5225889682769775,-1.5098217725753784,0.01,-0.04,-0.02,255.62
1682339811.95859480,115432875,2,0.86,0.9500000000000001,22.66,-0.4497217535972595,1.2995877265930176,-0.05336810648441315,-0.05725450441241264,-0.27927350997924805,2.6418910026550293,-1.51425302028656,0.01,-0.04,-0.02,255.62
1682339812.05864787,115532928,2,0.99,1.03,23.900000000000002,-0.47235342860221863,1.304626703262329,-0.05024341121315956,-0.07115187495946884,-0.3537122905254364,2.7662711143493652,-1.5208898782730103,0.01,-0.04,-0.02,255.62
1682339812.15864182,115632922,2,0.99,1.24,24.89,-0.5013731718063354,1.294360637664795,-0.05590594559907913,-0.09544174373149872,-0.4331643879413605,2.8911218643188477,-1.529523253440857,0.01,-0.04,-0.02,255.62
1682339812.25862288,115732903,2,0.42,1.75,25.8,-0.5279043316841125,1.2785073518753052,-0.0528717041015625,-0.10325510054826736,-0.5146437287330627,3.0149693489074707,-1.5400068759918213,0.02,-0.05,-0.02,255.62
1682339812.35864377,115832924,2,-0.51,2.0,26.72,-0.5490631461143494,1.256872534751892,-0.034507010132074356,-0.10474888980388641,-0.5965369939804077,3.1358425617218018,-1.5508090257644653,0.02,-0.05,-0.02,255.62
1682339812.45862079,115932901,2,-1.3800000000000001,2.05,27.61,-0.5766396522521973,1.2185603380203247,-0.05211322754621506,-0.10538912564516068,-0.6793592572212219,3.2540292739868164,-1.5599757432937622,0.02,-0.05,-0.02,255.62
1682339812.55861688,116032897,2,-2.21,2.02,28.57,-0.5888240337371826,1.1689505577087402,-0.036273084580898285,-0.07684381306171417,-0.7620618939399719,3.36798357963562,-1.5687711238861084,0.02,-0.05,-0.02,255.62
1682339812.65859890,116132879,2,-2.59,1.77,29.62,-0.6020420789718628,1.1284070014953613,-0.03470449894666672,-0.08501220494508743,-0.8433533906936646,3.4777143001556396,-1.5786899328231812,0.02,-0.05,-0.02,255.62
1682339812.75858998,116232870,2,-2.23,1.51,30.75,-0.6092666983604431,1.0855203866958618,-0.037021979689598083,-0.10358665883541107,-0.9230403900146484,3.5832531452178955,-1.588032841682434,0.02,-0.05,-0.02,255.62
1682339812.85859394,116332874,2,-1.51,1.25,31.85,-0.6105973124504089,1.04558265209198,-0.016930334270000458,-0.0828450620174408,-0.9991340637207031,3.6861050128936768,-1.5962241888046265,0.02,-0.05,-0.02,255.62
1682339812.95866799,116432948,2,-0.35000000000000003,1.17,32.9,-0.6212043166160583,1.0213534832000732,-0.017215732485055923,-0.06261694431304932,-1.072437047958374,3.787338972091675,-1.6017491817474365,0.02,-0.05,-0.02,255.62
1682339813.05872583,116533006,2,0.65,1.35,33.910000000000004,-0.628715991973877,1.0034582614898682,-0.01169463712722063,-0.04446066543459892,-1.145195484161377,3.885254144668579,-1.6067602634429932,0.02,-0.05,-0.02,255.62
1682339813.15862298,116632903,2,0.9400000000000001,1.52,34.84,-0.6414465308189392,0.9992901086807251,-0.01906050741672516,-0.054023370146751404,-1.2184534072875977,3.982630968093872,-1.611541986465454,0.02,-0.05,-0.02,255.62
1682339813.25865483,116732935,2,0.88,1.72,35.62,-0.6554051041603088,0.9925975799560547,-0.018149662762880325,-0.06224986910820007,-1.2888197898864746,4.084658622741699,-1.6182363033294678,0.01,-0.05,-0.03,255.62
1682339813.35863185,116832912,2,0.58,1.86,36.29,-0.673553466796875,0.9971319437026978,-0.04132470116019249,-0.0788114070892334,-1.3573806285858154,4.188500881195068,-1.6238303184509277,0.01,-0.05,-0.03,255.62
1682339813.45861983,116932900,2,0.38,1.85,36.910000000000004,-0.6928735971450806,0.9907691478729248,-0.042890701442956924,-0.05972360819578171,-1.42605459690094,4.290076732635498,-1.6288279294967651,0.01,-0.05,-0.03,255.62
1682339813.55859184,117032872,2,0.39,1.8,37.56,-0.703670859336853,0.9772990942001343,-0.03793618083000183,-0.05008147284388542,-1.4947377443313599,4.3900580406188965,-1.6336530447006226,0.01,-0.05,-0.03,255.62
1682339813.65859485,117132875,2,0.42,1.72,38.32,-0.7218518853187561,0.9718926548957825,-0.03357775881886482,-0.04422209411859512,-1.5658220052719116,4.488862037658691,-1.6384822130203247,0.01,-0.05,-0.03,255.62
1682339813.75858784,117232868,2,0.55,1.69,39.17,-0.7463329434394836,0.9558219909667969,-0.024592073634266853,-0.03370687738060951,-1.6383490562438965,4.586622714996338,-1.6427874565124512,0.01,-0.05,-0.03,255.62
1682339813.85864496,117332925,2,0.59,1.76,40.08,-0.7475013732910156,0.9523775577545166,-0.019764753058552742,-0.011367468163371086,-1.706918716430664,4.687978744506836,-1.6445958614349365,0.01,-0.05,-0.03,255.62
1682339813.95865297,117432933,2,0.56,1.79,41.15,-0.7616770267486572,0.9542791247367859,-0.03016783855855465,-0.011813989840447903,-1.7733904123306274,4.789193630218506,-1.6457557678222656,0.01,-0.05,-0.04,255.62
1682339814.05860090,117532881,2,0.5700000000000001,1.8,42.38,-0.7711981534957886,0.9436475038528442,-0.019830219447612762,-0.012406812980771065,-1.835935115814209,4.887600898742676,-1.6471940279006958,0.01,-0.04,-0.04,255.62
1682339814.15865993,117632940,2,0.63,1.76,43.69,-0.7768423557281494,0.9333869814872742,0.0006073713884688914,0.009262923151254654,-1.8973816633224487,4.983699798583984,-1.64655601978302,0.01,-0.04,-0.04,255.62
1682339814.25862980,117732910,2,0.7000000000000001,1.85,44.92,-0.7812730073928833,0.9206117987632751,0.024408649653196335,0.014985057525336742,-1.9622316360473633,5.075549602508545,-1.6478272676467896,0.01,-0.04,-0.04,255.62
1682339814.35862494,117832905,2,0.93,1.94,46.06,-0.8040979504585266,0.9108214378356934,0.02028534561395645,-0.015653107315301895,-2.0301270484924316,5.165185928344727,-1.649545669555664,0.01,-0.04,-0.04,255.62
1682339814.45860577,117932886,2,1.21,1.9000000000000001,47.15,-0.817949116230011,0.9051728844642639,0.02512035146355629,-0.02793465368449688,-2.1019506454467773,5.256307601928711,-1.6525373458862305,0.01,-0.04,-0.05,255.62
1682339814.55859494,118032875,2,1.19,1.8,48.17,-0.8369516730308533,0.8974233865737915,0.014604477211833,-0.04197359085083008,-2.1768369674682617,5.347779273986816,-1.6542714834213257,0.01,-0.04,-0.05,255.62
1682339814.65859199,118132872,2,1.06,1.61,49.120000000000005,-0.8485385179519653,0.8954591751098633,0.04244092106819153,0.01054308470338583,-2.247102975845337,5.440438270568848,-1.6533139944076538,0.01,-0.04,-0.05,255.62
1682339814.75867891,118232959,2,1.07,1.44,50.0,-0.8497952222824097,0.8890975117683411,0.05132646858692169,0.0409090481698513,-2.316075086593628,5.532607078552246,-1.6497435569763184,0.01,-0.04,-0.05,255.62
1682339814.85873485,118333015,2,1.06,1.34,50.730000000000004,-0.8491840362548828,0.8875640630722046,0.06263351440429688,0.09055054932832718,-2.383638381958008,5.621235370635986,-1.6408134698867798,0.01,-0.04,-0.06,255.62
1682339814.95862079,118432901,2,1.08,1.32,51.38,-0.8522206544876099,0.8785092234611511,0.08079668879508972,0.1467011719942093,-2.4530370235443115,5.7088942527771,-1.628647804260254,0.01,-0.04,-0.06,255.62
1682339815.05865192,118532932,2,1.18,1.34,51.980000000000004,-0.862312912940979,0.8758772611618042,0.06504414975643158,0.14453481137752533,-2.5178403854370117,5.794231414794922,-1.6145075559616089,0.01,-0.04,-0.06,255.62
1682339815.15862083,118632901,2,1.27,1.42,52.550000000000004,-0.8695424199104309,0.8708456754684448,0.07804364711046219,0.16327346861362457,-2.58268404006958,5.87863826751709,-1.5992212295532227,0.01,-0.04,-0.07,255.62
1682339815.25863194,118732912,2,1.3900000000000001,1.35,53.01,-0.8696686029434204,0.8644567728042603,0.0869046002626419,0.18559005856513977,-2.6504781246185303,5.960712432861328,-1.5815613269805908,0.01,-0.03,-0.07,255.62
1682339815.35860395,118832884,2,1.3,1.27,53.38,-0.8782005906105042,0.8570554852485657,0.08198821544647217,0.18810893595218658,-2.7216286659240723,6.041872978210449,-1.5647869110107422,0.01,-0.03,-0.07,255.62
1682339815.45860982,118932890,2,1.1,1.18,53.74,-0.8858380317687988,0.8533182740211487,0.060787711292505264,0.15379981696605682,-2.7922704219818115,6.121353626251221,-1.549572467803955,0.01,-0.03,-0.07,255.62
1682339815.55858994,119032870,2,0.97,0.75,54.01,-0.8832566738128662,0.8544548749923706,0.035826705396175385,0.11165427416563034,-2.8642420768737793,6.201015949249268,-1.5376453399658203,0.01,-0.03,-0.08,255.62
1682339815.65865493,119132935,2,0.62,0.46,54.27,-0.8736065030097961,0.8433663845062256,0.011479624547064304,0.05104836821556091,-2.937593698501587,6.279916286468506,-1.5315040349960327,0.01,-0.03,-0.08,255.62
1682339815.75864887,119232929,2,0.19,0.59,54.67,-0.860426664352417,0.838262677192688,-0.013041291385889053,-0.003872338216751814,-3.0116117000579834,6.3579487800598145,-1.5302108526229858,0.01,-0.03,-0.08,255.62
1682339815.85862279,119332903,2,0.12,0.8,55.29,-0.855183482170105,0.8308312892913818,-0.05033930391073227,-0.05096600204706192,-3.0837693214416504,6.435775279998779,-1.5330331325531006,0.01,-0.03,-0.08,255.62
1682339815.95864987,119432930,2,0.11,1.0,56.11,-0.8357017040252686,0.8162975907325745,-0.07898377627134323,-0.07162404805421829,-3.1553354263305664,6.513144493103027,-1.537948489189148,0.01,-0.03,-0.09,255.62
1682339816.05862498,119532905,2,0.01,1.19,57.14,-0.835241973400116,0.807789146900177,-0.1109088808298111,-0.08753208070993423,-3.2259833812713623,6.591960430145264,-1.5438783168792725,0.01,-0.03,-0.09,255.62
1682339816.15861988,119632900,2,0.04,1.2,58.300000000000004,-0.8152592778205872,0.7925359606742859,-0.10575882345438004,-0.057651348412036896,-3.2970194816589355,6.671342372894287,-1.5495423078536987,0.01,-0.03,-0.09,255.62
1682339816.25859189,119732872,2,-0.22,1.08,59.51,-0.7955163717269897,0.7703925371170044,-0.12821505963802338,-0.06725870072841644,-3.3676583766937256,6.747682571411133,-1.5561496019363403,0.01,-0.03,-0.09,255.62
1682339816.35859179,119832872,2,-0.98,0.84,60.74,-0.7686060070991516,0.7545213103294373,-0.13817574083805084,-0.08473492413759232,-3.4375312328338623,6.821789741516113,-1.564906358718872,0.01,-0.03,-0.09,255.62
1682339816.45858693,119932867,2,-1.75,0.6,61.88,-0.7362707257270813,0.7343646883964539,-0.14345332980155945,-0.1256052404642105,-3.5067429542541504,6.893990993499756,-1.577195644378662,0.01,-0.03,-0.1,255.62
1682339816.55864286,120032923,2,-2.4,0.59,62.93,-0.6919174790382385,0.7138735055923462,-0.13804244995117188,-0.14308664202690125,-3.573690176010132,6.964381217956543,-1.5905424356460571,0.01,-0.03,-0.1,255.62
1682339816.65865397,120132934,2,-2.99,0.68,63.870000000000005,-0.6301284432411194,0.6826973557472229,-0.14969822764396667,-0.14775528013706207,-3.629791736602783,7.030171871185303,-1.6038817167282104,0.01,-0.03,-0.1,255.62
1682339816.75860691,120232887,2,-2.81,0.8200000000000001,64.73,-0.5828112959861755,0.652481734752655,-0.15897326171398163,-0.13166934251785278,-3.6801674365997314,7.093995571136475,-1.6166340112686157,0.01,-0.03,-0.1,255.62
1682339816.85865283,120332933,2,-2.0,0.85,65.5,-0.5427924990653992,0.6328803896903992,-0.16949054598808289,-0.11464930325746536,-3.7271811962127686,7.159569263458252,-1.6282999515533447,0.01,-0.03,-0.11,255.62
1682339816.95862293,120432903,2,-0.93,0.8,66.16,-0.5054488778114319,0.622445285320282,-0.1806010752916336,-0.1160019040107727,-3.771848440170288,7.2251482009887695,-1.6415451765060425,0.01,-0.03,-0.11,255.62
1682339817.05864286,120532923,2,0.2,0.66,66.7,-0.4832277297973633,0.6209621429443359,-0.1833927482366562,-0.1639561951160431,-3.807065963745117,7.289373874664307,-1.6608586311340332,0.01,-0.03,-0.11,255.62
1682339817.15860391,120632884,2,1.21,0.48,67.11,-0.47575366497039795,0.6162446141242981,-0.19520604610443115,-0.20641283690929413,-3.8397135734558105,7.353280544281006,-1.680711269378662,0.01,-0.03,-0.11,255.62
1682339817.25859284,120732873,2,1.62,0.44,67.45,-0.4796353578567505,0.625472903251648,-0.21544824540615082,-0.21588623523712158,-3.8747289180755615,7.420856475830078,-1.7009531259536743,0.01,-0.02,-0.12,255.62
1682339817.35860395,120832884,2,1.6500000000000001,0.51,67.65,-0.4891400635242462,0.6371123790740967,-0.2065020203590393,-0.19558341801166534,-3.910147190093994,7.492197513580322,-1.7209587097167969,0.01,-0.02,-0.12,255.62
1682339817.45865583,120932936,2,1.61,0.81,67.77,-0.4923161268234253,0.6435655355453491,-0.21759258210659027,-0.2348632514476776,-3.947256326675415,7.565692901611328,-1.7447065114974976,0.01,-0.02,-0.12,255.62
1682339817.55864787,121032928,2,1.3,0.84,67.79,-0.4979245066642761,0.6582137942314148,-0.21231421828269958,-0.2785811722278595,-3.9861741065979004,7.641359329223633,-1.7710155248641968,0.01,-0.02,-0.12,255.62
1682339817.65863585,121132916,2,0.9500000000000001,0.47000000000000003,67.71000000000001,-0.5059025883674622,0.6645817160606384,-0.19357100129127502,-0.2704642713069916,-4.028026580810547,7.719218730926514,-1.7975592613220215,0.01,-0.02,-0.13,255.62
1682339817.75864792,121232928,2,0.86,0.77,67.58,-0.5102498531341553,0.6587676405906677,-0.19308362901210785,-0.2767123579978943,-4.072601795196533,7.797297477722168,-1.8239998817443848,0.01,-0.02,-0.13,255.62
1682339817.85862398,121332904,2,0.79,1.6500000000000001,67.39,-0.525413453578949,0.6549765467643738,-0.18634672462940216,-0.22800272703170776,-4.119802474975586,7.875559329986572,-1.8444316387176514,0.01,-0.02,-0.13,255.62
1682339817.95862293,121432903,2,0.74,2.43,67.12,-0.5352010130882263,0.6402783989906311,-0.14757953584194183,-0.14748211205005646,-4.169305801391602,7.953239917755127,-1.8611385822296143,0.01,-0.02,-0.13,255.62
1682339818.05859780,121532878,2,0.72,3.25,66.78,-0.554870069026947,0.6164331436157227,-0.13471007347106934,-0.1584378480911255,-4.221195220947266,8.02597713470459,-1.8800593614578247,0.01,-0.02,-0.14,255.62
1682339818.15859485,121632875,2,0.65,4.09,66.37,-0.5761353969573975,0.5760111808776855,-0.11773250252008438,-0.19436489045619965,-4.275630950927734,8.092802047729492,-1.9005242586135864,0.01,-0.02,-0.14,255.62
1682339818.25859880,121732879,2,0.34,4.29,65.94,-0.5872799754142761,0.5264816880226135,-0.10256035625934601,-0.18628202378749847,-4.328930854797363,8.153036117553711,-1.918629765510559,0.01,-0.02,-0.14,255.62
1682339818.35865188,121832932,2,0.08,3.8200000000000003,65.5,-0.6005035638809204,0.4774920642375946,-0.076148122549057,-0.14591173827648163,-4.381730079650879,8.206952095031738,-1.9338505268096924,0.01,-0.02,-0.14,255.62
1682339818.45864582,121932926,2,-0.03,3.22,65.09,-0.5962635278701782,0.4288932681083679,-0.043550651520490646,-0.08945880830287933,-4.432527542114258,8.253548622131348,-1.944947600364685,0.01,-0.02,-0.15,255.62
1682339818.55862689,122032907,2,-0.51,2.5,64.72,-0.5898354053497314,0.38504558801651,-0.03054349310696125,-0.04490591958165169,-4.481802463531494,8.294544219970703,-1.952135443687439,0.01,-0.02,-0.15,255.62
1682339818.65865278,122132933,2,-1.31,1.76,64.38,-0.5655744671821594,0.3551371097564697,-0.030547725036740303,-0.01852661557495594,-4.528419017791748,8.333215713500977,-1.9557569026947021,0.01,-0.02,-0.15,255.62
1682339818.75863290,122232913,2,-2.0,1.16,64.11,-0.5204007029533386,0.32400232553482056,-0.008881885558366776,0.023245926946401596,-4.5719146728515625,8.36970329284668,-1.9556021690368652,0.01,-0.02,-0.15,255.62
1682339818.85862994,122332910,2,-2.81,0.72,63.89,-0.4676100015640259,0.3012997806072235,0.010196242481470108,0.056891363114118576,-4.608448505401611,8.402681350708008,-1.9522768259048462,0.01,-0.02,-0.16,255.62
1682339818.95859385,122432874,2,-3.62,0.47000000000000003,63.82,-0.40351998805999756,0.2660760283470154,-0.000860377331264317,0.04623257368803024,-4.637465953826904,8.432229042053223,-1.948208212852478,0.01,-0.02,-0.16,255.62
1682339819.05859685,122532877,2,-4.42,0.4,63.95,-0.29969358444213867,0.2340054214000702,0.009074855595827103,0.043325018137693405,-4.654265403747559,8.459150314331055,-1.9449081420898438,0.01,-0.02,-0.16,255.62
1682339819.15858889,122632869,2,-5.08,0.45,64.34,-0.21552465856075287,0.19636693596839905,-0.008482467383146286,0.036585889756679535,-4.662199020385742,8.482597351074219,-1.9398458003997803,0.01,-0.02,-0.16,255.62
1682339819.25866890,122732949,2,-4.84,0.6900000000000001,64.92,-0.13855354487895966,0.1748497188091278,0.010728771798312664,0.07743267714977264,-4.659250736236572,8.506474494934082,-1.9328426122665405,0.01,-0.02,-0.17,255.62
1682339819.35864997,122832930,2,-3.38,0.99,65.71000000000001,-0.06315915286540985,0.15139847993850708,0.01522081159055233,0.08393139392137527,-4.650670051574707,8.528825759887695,-1.9257501363754272,0.01,-0.02,-0.17,255.62
1682339819.45862794,122932908,2,-1.43,1.33,66.74,-0.0073361461982131,0.13207897543907166,0.015585524961352348,0.0712527185678482,-4.637119293212891,8.553329467773438,-1.9191489219665527,0.01,-0.02,-0.17,255.62
1682339819.55864596,123032926,2,0.27,1.73,67.9,0.016485068947076797,0.1148323342204094,0.029989659786224365,0.07490286231040955,-4.622220039367676,8.576760292053223,-1.91318941116333,0.01,-0.02,-0.17,255.62
1682339819.65863180,123132912,2,1.79,2.09,69.03,-0.004023946356028318,0.11163380742073059,0.00438618753105402,0.04378637671470642,-4.60758638381958,8.602740287780762,-1.9065568447113037,0.01,-0.01,-0.18,255.62
1682339819.75863695,123232917,2,2.65,2.16,70.07000000000001,-0.010315784253180027,0.10690557956695557,0.03794169798493385,0.07102049887180328,-4.596353054046631,8.628308296203613,-1.90062415599823,0.01,-0.01,-0.18,255.62
1682339819.85860181,123332882,2,2.59,2.12,71.06,-0.05475310981273651,0.10778938233852386,0.03209168091416359,0.05972490459680557,-4.590922832489014,8.658266067504883,-1.8947460651397705,0.0,-0.01,-0.18,255.62
1682339819.95860982,123432890,2,2.2800000000000002,2.0100000000000002,71.99,-0.07829338312149048,0.11374017596244812,0.026559021323919296,0.05066988244652748,-4.591678142547607,8.688262939453125,-1.8894069194793701,0.0,-0.01,-0.18,255.62
1682339820.05859280,123532873,2,1.97,1.92,72.86,-0.11102917045354843,0.1124521791934967,0.04135598987340927,0.05234813690185547,-4.595741271972656,8.715950012207031,-1.8853691816329956,0.0,-0.01,-0.19,255.62
1682339820.15864897,123632929,2,1.69,1.84,73.65,-0.13555990159511566,0.1034960225224495,0.03986847400665283,0.04047686234116554,-4.60340690612793,8.740365028381348,-1.8819111585617065,0.0,-0.01,-0.19,255.62
1682339820.25866294,123732943,2,1.52,1.75,74.31,-0.15299765765666962,0.10249013453722,0.02862137369811535,0.014463646337389946,-4.611195087432861,8.764537811279297,-1.880660057067871,0.0,-0.01,-0.19,255.62
1682339820.35860682,123832887,2,1.77,1.6500000000000001,74.88,-0.1874777227640152,0.10036547482013702,0.026146505028009415,-0.004294971469789743,-4.6217217445373535,8.786735534667969,-1.8801088333129883,0.0,-0.01,-0.19,255.62
1682339820.45865178,123932932,2,2.19,1.54,75.33,-0.20848961174488068,0.0975465402007103,0.033023905009031296,0.014843926765024662,-4.634327411651611,8.8064546585083,-1.877702236175537,0.0,-0.01,-0.2,255.62
1682339820.55862093,124032901,2,2.21,1.42,75.66,-0.22646059095859528,0.09405229240655899,0.026288406923413277,0.02794041484594345,-4.649960994720459,8.823602676391602,-1.8741421699523926,0.0,-0.01,-0.2,255.62
1682339820.65862298,124132903,2,2.0300000000000002,1.36,75.89,-0.2510848939418793,0.09599807858467102,0.017754003405570984,0.020947102457284927,-4.6671342849731445,8.838692665100098,-1.871224284172058,0.01,-0.01,-0.2,255.62
1682339820.75859284,124232873,2,1.55,1.22,76.01,-0.26447850465774536,0.09011507779359818,0.029602225869894028,0.03217528387904167,-4.68689489364624,8.851895332336426,-1.8676728010177612,0.01,-0.01,-0.2,255.62
1682339820.85858893,124332869,2,0.71,1.03,76.05,-0.268708199262619,0.08542127907276154,0.02259017527103424,0.039328042417764664,-4.7052788734436035,8.862890243530273,-1.8627532720565796,0.01,-0.01,-0.2,255.62
1682339820.95859790,124432878,2,-0.19,0.78,76.0,-0.25590306520462036,0.08234290778636932,0.02417203225195408,0.0572749525308609,-4.7235283851623535,8.872193336486816,-1.8570499420166016,0.01,-0.01,-0.21,255.62
1682339821.05866385,124532944,2,-1.1400000000000001,0.29,75.89,-0.2273687869310379,0.08088871091604233,0.02716284990310669,0.06530870497226715,-4.739522457122803,8.8799409866333,-1.8509138822555542,0.01,-0.01,-0.21,255.62
1682339821.15864587,124632926,2,-1.98,-0.4,75.71000000000001,-0.1780991554260254,0.09410479664802551,0.02717793546617031,0.06879637390375137,-4.752933979034424,8.887014389038086,-1.8445930480957031,0.01,-0.01,-0.21,255.62
1682339821.25861883,124732899,2,-2.77,-1.29,75.5,-0.11645957827568054,0.10044918954372406,0.021308358758687973,0.05989869683980942,-4.759871959686279,8.894744873046875,-1.8386242389678955,0.01,-0.01,-0.21,255.62
1682339821.35866785,124832948,2,-3.09,-1.24,75.24,-0.06760235875844955,0.09919814765453339,0.017385300248861313,0.05426212027668953,-4.760343074798584,8.902634620666504,-1.833794116973877,0.01,-0.01,-0.22,255.62
1682339821.45862198,124932902,2,-2.61,-0.53,74.92,-0.006117329467087984,0.11094179004430771,0.01311530638486147,0.05214812979102135,-4.753158092498779,8.912446022033691,-1.828099012374878,0.01,-0.01,-0.22,255.62
1682339821.55862999,125032910,2,-1.9000000000000001,-0.2,74.62,0.061987850815057755,0.12411746382713318,0.024295907467603683,0.06754542887210846,-4.740634441375732,8.924142837524414,-1.8222103118896484,0.01,-0.01,-0.22,255.62
1682339821.65860200,125132882,2,-1.16,-0.03,74.33,0.09054525941610336,0.13081343472003937,0.01078801043331623,0.039194583892822266,-4.7246599197387695,8.937162399291992,-1.8179293870925903,0.01,-0.01,-0.22,255.62
1682339821.75860476,125232885,2,-0.24,-0.3,74.05,0.11715430021286011,0.14828652143478394,0.02014446072280407,0.035689886659383774,-4.7074689865112305,8.951666831970215,-1.814374566078186,0.01,-0.01,-0.22,255.62
1682339821.85858893,125332869,2,0.64,-1.03,73.78,0.1412113755941391,0.17834411561489105,0.018059682101011276,0.03949420154094696,-4.690484046936035,8.969646453857422,-1.8100693225860596,0.01,-0.01,-0.23,255.62
1682339821.95867682,125432957,2,1.05,-1.41,73.54,0.14363549649715424,0.1992563158273697,0.016491329297423363,0.04386557638645172,-4.673555850982666,8.990635871887207,-1.8062546253204346,0.01,-0.01,-0.23,255.62
1682339822.05866194,125532942,2,1.09,-1.3800000000000001,73.35000000000001,0.1345391571521759,0.23697608709335327,0.007406199816614389,0.02789907157421112,-4.65925931930542,9.015873908996582,-1.8032034635543823,0.01,-0.01,-0.23,255.62
1682339822.15863395,125632914,2,1.11,-1.21,73.21000000000001,0.1266411989927292,0.2789718508720398,-0.0026622177101671696,0.01576782949268818,-4.648118019104004,9.046737670898438,-1.8006467819213867,0.01,-0.01,-0.23,255.62
1682339822.25864577,125732926,2,1.12,-0.97,73.15,0.13212408125400543,0.30918067693710327,-0.0075101954862475395,0.009086135774850845,-4.639304161071777,9.080796241760254,-1.7989422082901,0.01,-0.01,-0.24,255.62
1682339822.35862780,125832908,2,1.07,-1.03,73.17,0.11096590012311935,0.3540235161781311,-0.010718305595219135,0.0027001246344298124,-4.63230037689209,9.118130683898926,-1.7982662916183472,0.01,-0.01,-0.24,255.62
1682339822.45862293,125932903,2,1.12,-0.92,73.33,0.10750368982553482,0.3731941282749176,-0.015187066048383713,0.008574913255870342,-4.628180503845215,9.15826416015625,-1.7969881296157837,0.0,-0.01,-0.24,255.62
1682339822.55859089,126032871,2,1.1300000000000001,-0.52,73.66,0.09710114449262619,0.3969046473503113,-0.026434648782014847,0.011989019811153412,-4.626205921173096,9.20052433013916,-1.7960172891616821,0.0,-0.01,-0.24,255.62
1682339822.65859389,126132874,2,1.08,-0.28,74.12,0.09339302033185959,0.4190532863140106,-0.01059420220553875,0.021888436749577522,-4.626626014709473,9.242951393127441,-1.795969009399414,0.0,-0.01,-0.24,255.62
1682339822.75859785,126232878,2,1.0,-0.24,74.71000000000001,0.07262561470270157,0.4396575093269348,-0.037132129073143005,-0.013904099352657795,-4.629325866699219,9.28574275970459,-1.7966642379760742,0.0,-0.01,-0.25,255.62
1682339822.85864687,126332927,2,0.96,-0.15,75.39,0.05469989776611328,0.4517449140548706,-0.03566581383347511,-0.00959545373916626,-4.635201930999756,9.329763412475586,-1.796940803527832,0.0,-0.01,-0.25,255.62
1682339822.95865178,126432932,2,0.91,-0.16,76.08,0.038167718797922134,0.46908387541770935,-0.025884514674544334,0.02600698545575142,-4.643224239349365,9.374690055847168,-1.7946882247924805,0.0,-0.01,-0.25,255.62
1682339823.05863285,126532913,2,0.87,-0.26,76.7,0.02590254321694374,0.48682424426078796,-0.02732570841908455,0.014897555112838745,-4.654258728027344,9.422783851623535,-1.794785737991333,0.0,-0.01,-0.26,255.62
1682339823.15864897,126632929,2,0.87,-0.25,77.34,0.016944492235779762,0.4983038604259491,-0.032366469502449036,-0.03375425189733505,-4.667726993560791,9.473267555236816,-1.7985868453979492,0.0,-0.01,-0.26,255.62
1682339823.25862694,126732907,2,0.86,-0.24,77.92,-0.0111872972920537,0.5164716839790344,-0.04468474164605141,-0.03980950266122818,-4.682257652282715,9.523967742919922,-1.8005506992340088,0.0,-0.01,-0.26,255.62
1682339823.35862398,126832904,2,0.8300000000000001,-0.22,78.45,-0.013554870150983334,0.527542233467102,-0.04600149020552635,-0.0255539882928133,-4.697854995727539,9.575323104858398,-1.8029577732086182,0.0,-0.01,-0.26,255.62
1682339823.45858693,126932867,2,0.8,-0.27,78.93,-0.04189244285225868,0.5404040813446045,-0.047161445021629333,-0.047833025455474854,-4.717527866363525,9.626008033752441,-1.808295488357544,0.0,-0.01,-0.27,255.62
1682339823.55859494,127032875,2,0.74,-0.36,79.34,-0.041376493871212006,0.5552560091018677,-0.05683503299951553,-0.06393705308437347,-4.740037441253662,9.676687240600586,-1.8133442401885986,0.0,-0.01,-0.27,255.62
1682339823.65860200,127132882,2,0.66,-0.91,79.67,-0.054898761212825775,0.5768638253211975,-0.05855639651417732,-0.018824977800250053,-4.764775276184082,9.72965145111084,-1.8134191036224365,0.0,-0.02,-0.27,255.62
1682339823.75864792,127232928,2,0.68,-1.43,79.94,-0.07254419475793839,0.5998150110244751,-0.05451591685414314,0.044953566044569016,-4.790995121002197,9.785110473632812,-1.8096972703933716,0.0,-0.02,-0.27,255.62
1682339823.85866880,127332949,2,0.67,-1.3,80.14,-0.08975618332624435,0.6293726563453674,-0.0605391189455986,0.052675534039735794,-4.819025993347168,9.843363761901855,-1.805535912513733,0.0,-0.02,-0.27,255.62
1682339823.95860887,127432889,2,0.54,-1.09,80.28,-0.09612306207418442,0.654144287109375,-0.05111567676067352,0.0439046286046505,-4.847873687744141,9.90534782409668,-1.8033373355865479,0.0,-0.02,-0.28,255.62
1682339824.05865288,127532933,2,0.41000000000000003,-0.85,80.35000000000001,-0.09620609879493713,0.6791821718215942,-0.05450662970542908,0.025561515241861343,-4.881133556365967,9.968812942504883,-1.8001646995544434,0.0,-0.02,-0.28,255.62
1682339824.15862179,127632902,2,0.34,-0.7000000000000001,80.38,-0.11209635436534882,0.6999231576919556,-0.06101493164896965,0.03677285090088844,-4.914154052734375,10.034111976623535,-1.7951453924179077,0.0,-0.02,-0.28,255.62
1682339824.25862885,127732909,2,0.21,-0.79,80.34,-0.1158234179019928,0.7268157601356506,-0.04149170592427254,0.07396121323108673,-4.9474263191223145,10.1011381149292,-1.7885587215423584,0.0,-0.02,-0.29,255.62
1682339824.35860586,127832886,2,-0.04,-0.88,80.25,-0.12209474295377731,0.7439316511154175,-0.054106540977954865,0.05234384909272194,-4.9781413078308105,10.170166969299316,-1.783739686012268,0.0,-0.02,-0.29,255.62
1682339824.45860195,127932882,2,-0.16,-1.1300000000000001,80.14,-0.10966751724481583,0.7679405808448792,-0.043342091143131256,0.03008398786187172,-5.009580135345459,10.23871898651123,-1.7813911437988281,0.0,-0.02,-0.29,255.62
1682339824.55859089,128032871,2,-0.33,-1.6400000000000001,79.99,-0.10495936870574951,0.7915880084037781,-0.06082037836313248,-0.018792133778333664,-5.038225173950195,10.309493064880371,-1.7820185422897339,0.0,-0.02,-0.29,255.62
1682339824.65865684,128132937,2,-0.46,-1.56,79.84,-0.10154709219932556,0.8119615912437439,-0.0456317663192749,-0.03241189941763878,-5.065740585327148,10.383079528808594,-1.7858270406723022,0.0,-0.02,-0.29,255.62
1682339824.75864792,128232928,2,-0.39,-1.2,79.65,-0.07580196857452393,0.8343632817268372,-0.048006776720285416,-0.047447528690099716,-5.090027332305908,10.45924186706543,-1.790405035018921,0.0,-0.02,-0.3,255.62
1682339824.85859990,128332880,2,-0.24,-1.06,79.48,-0.07527703791856766,0.8546643257141113,-0.037213996052742004,-0.03865009918808937,-5.114049911499023,10.539222717285156,-1.795369029045105,0.0,-0.02,-0.3,255.62
1682339824.95864177,128432922,2,-0.17,-0.91,79.32000000000001,-0.0712701678276062,0.8793641924858093,-0.05801263824105263,-0.0604516975581646,-5.135491847991943,10.62193489074707,-1.8003695011138916,0.0,-0.02,-0.3,255.62
1682339825.05863190,128532912,2,0.02,-0.86,79.19,-0.06230214983224869,0.8999909162521362,-0.040807049721479416,-0.027719667181372643,-5.158735752105713,10.709193229675293,-1.8029239177703857,0.0,-0.02,-0.3,255.62
1682339825.15862393,128632904,2,0.37,-0.8200000000000001,79.07000000000001,-0.07565855979919434,0.9203343391418457,-0.05808505415916443,-0.032162781804800034,-5.180838584899902,10.799720764160156,-1.8045566082000732,0.0,-0.02,-0.31,255.62
1682339825.25859380,128732874,2,0.73,-0.48,78.96000000000001,-0.0687030777335167,0.9316292405128479,-0.0266684889793396,0.00665779085829854,-5.202491760253906,10.891582489013672,-1.8048146963119507,0.0,-0.02,-0.31,255.62
1682339825.35860586,128832886,2,0.79,-0.24,78.89,-0.08067614585161209,0.9451448321342468,-0.021719709038734436,0.01509594265371561,-5.22248649597168,10.985182762145996,-1.8048638105392456,0.0,-0.02,-0.31,255.62
1682339825.45859694,128932877,2,0.77,-0.07,78.83,-0.10005441308021545,0.9581891298294067,-0.012931288219988346,0.05125109851360321,-5.243840217590332,11.082185745239258,-1.7999948263168335,0.0,-0.02,-0.31,255.62
1682339825.55865288,129032933,2,0.67,0.27,78.8,-0.09997723251581192,0.9588131308555603,-0.027574852108955383,0.053518809378147125,-5.263784885406494,11.180061340332031,-1.7950413227081299,0.0,-0.02,-0.31,255.62
1682339825.65865493,129132935,2,0.19,1.0,78.8,-0.10728754103183746,0.9529820084571838,-0.010057968087494373,0.06524429470300674,-5.2865519523620605,11.275516510009766,-1.7894272804260254,0.0,-0.02,-0.32,255.62
1682339825.75862694,129232907,2,-0.5,1.84,78.8,-0.11466173082590103,0.9336696863174438,-0.008962789550423622,0.055431216955184937,-5.308850288391113,11.369873046875,-1.784644603729248,0.0,-0.02,-0.32,255.62
1682339825.85865998,129332940,2,-1.25,2.64,78.79,-0.08926791697740555,0.8892924785614014,0.005627416539937258,0.04109698534011841,-5.329679012298584,11.459209442138672,-1.7817342281341553,0.0,-0.02,-0.32,255.62
1682339825.95862484,129432905,2,-2.07,3.49,78.8,-0.0757184848189354,0.8385599255561829,0.019260849803686142,0.03192256763577461,-5.346926212310791,11.543280601501465,-1.7798007726669312,0.0,-0.02,-0.32,255.62
1682339826.05862880,129532909,2,-2.86,3.88,78.81,-0.034379035234451294,0.7761663198471069,0.018413392826914787,0.018848128616809845,-5.359188556671143,11.619891166687012,-1.778672456741333,0.0,-0.02,-0.33,255.62
1682339826.15859485,129632875,2,-3.46,3.35,78.86,0.003555967239663005,0.7194416522979736,0.01640493981540203,0.003769083647057414,-5.365954399108887,11.688279151916504,-1.7781325578689575,0.0,-0.02,-0.33,255.62
1682339826.25859594,129732876,2,-3.3200000000000003,2.59,78.92,0.05337433144450188,0.6603379845619202,-0.0011320289922878146,-0.03463347628712654,-5.370767593383789,11.750906944274902,-1.7809239625930786,0.0,-0.02,-0.33,255.62
1682339826.35859895,129832879,2,-2.64,1.8900000000000001,78.99,0.09096740931272507,0.6165634989738464,0.01443484891206026,-0.045392896980047226,-5.370991230010986,11.80930233001709,-1.784996509552002,0.0,-0.02,-0.33,255.62
1682339826.45866990,129932950,2,-1.6,1.09,79.02,0.12172653526067734,0.5915550589561462,0.007764685433357954,-0.07389022409915924,-5.368276596069336,11.867074012756348,-1.7918832302093506,0.0,-0.02,-0.33,255.62
1682339826.55864382,130032924,2,-0.16,0.78,79.03,0.12833130359649658,0.5762492418289185,0.007968222722411156,-0.08413718640804291,-5.362929821014404,11.924501419067383,-1.7985022068023682,0.0,-0.02,-0.34,255.62
1682339826.65862298,130132903,2,1.19,1.26,79.05,0.12091904133558273,0.5724747776985168,-0.0034230020828545094,-0.09515493363142014,-5.353736877441406,11.985465049743652,-1.8073925971984863,0.0,-0.02,-0.34,255.62
1682339826.75865984,130232940,2,2.34,1.58,79.08,0.10851635038852692,0.5717517733573914,0.00472403084859252,-0.08420949429273605,-5.343860626220703,12.048014640808105,-1.8146520853042603,0.0,-0.02,-0.34,255.62
1682339826.85861778,130332898,2,3.2,1.6400000000000001,79.10000000000001,0.06429552286863327,0.5652776956558228,0.0055170380510389805,-0.059359434992074966,-5.334283351898193,12.111212730407715,-1.8206449747085571,0.0,-0.02,-0.34,255.62
1682339826.95862293,130432903,2,3.29,1.84,79.12,0.01408848725259304,0.553438663482666,-0.005640112329274416,-0.06481802463531494,-5.327152729034424,12.173375129699707,-1.8274734020233154,0.0,-0.02,-0.34,255.62
1682339827.05860686,130532887,2,3.2,2.0,79.11,-0.03022441826760769,0.5447100400924683,-0.019154516980051994,-0.08615540713071823,-5.325366020202637,12.234527587890625,-1.8354804515838623,0.0,-0.02,-0.35000000000000003,255.62
1682339827.15860486,130632885,2,3.0500000000000003,2.68,79.13,-0.08475132286548615,0.5140878558158875,-0.03158743679523468,-0.10472244024276733,-5.328878879547119,12.292998313903809,-1.8442950248718262,0.0,-0.02,-0.35000000000000003,255.62
