timestamp,TimeUS,I,Status,GMS,GWk,NSats,HDop,Lat,Lng,Alt,Spd,GCrs,VZ,Yaw,U
1666655825.59899998,111804750,0,3,172643599,2233,11,0.87,42.7308111,-84.490724,256.51,0.0891852080821991,239.69732666015625,0.3110000193119049,0.0,1
1666655825.75935411,111965104,0,3,172643799,2233,11,0.87,42.7308105,-84.4907248,256.46,0.03178049996495247,347.275634765625,0.30300000309944153,0.0,1
1666655825.95928502,112165035,0,3,172643999,2233,11,0.87,42.730809799999996,-84.4907255,256.4,0.07545197755098343,145.25682067871094,0.19700001180171967,0.0,1
1666655826.15935898,112365109,0,3,172644199,2233,11,0.87,42.730809199999996,-84.4907262,256.37,0.06774216145277023,301.10882568359375,0.1860000044107437,0.0,1
1666655826.35925913,112565009,0,3,172644399,2233,10,0.87,42.7308087,-84.4907271,256.37,0.04143669828772545,250.253173828125,0.23900000751018524,0.0,1
1666655826.55918193,112764932,0,3,172644599,2233,10,0.87,42.7308081,-84.4907279,256.34000000000003,0.06103278324007988,91.87786865234375,0.21400001645088196,0.0,1
1666655826.75917602,112964926,0,3,172644799,2233,11,0.87,42.7308075,-84.4907285,256.31,0.09811218082904816,60.037811279296875,0.17000000178813934,0.0,1
1666655826.95923209,113164982,0,3,172644999,2233,11,0.87,42.730806799999996,-84.4907291,256.26,0.029529646039009094,331.6992492675781,0.28600001335144043,0.0,1
1666655827.15928197,113365032,0,3,172645199,2233,11,0.87,42.730806199999996,-84.4907297,256.25,0.12369316816329956,50.90613555908203,0.2460000067949295,0.0,1
1666655827.35930800,113565058,0,3,172645399,2233,11,0.87,42.730805499999995,-84.4907303,256.21,0.0573149211704731,222.87890625,0.24400001764297485,0.0,1
1666655827.55933595,113765086,0,3,172645599,2233,9,0.87,42.730805,-84.4907309,256.18,0.05119570344686508,257.59259033203125,0.23600001633167267,0.0,1
1666655827.75927496,113965025,0,3,172645799,2233,10,0.91,42.730804299999996,-84.4907315,256.1,0.07920859009027481,226.0230255126953,0.359000027179718,0.0,1
1666655827.95931506,114165065,0,3,172645999,2233,9,0.91,42.730804,-84.4907314,255.97,0.03106445074081421,33.17851257324219,0.25600001215934753,0.0,1
1666655828.15931511,114365065,0,3,172646199,2233,8,0.91,42.7308041,-84.4907312,255.95000000000002,0.04601087048649788,132.35745239257812,0.27300000190734863,0.0,1
1666655828.35922313,114564973,0,3,172646399,2233,8,0.91,42.730804299999996,-84.4907312,255.93,0.21489766240119934,346.5457458496094,0.31200000643730164,0.0,1
1666655828.55927300,114765023,0,3,172646599,2233,8,0.91,42.7308044,-84.49073109999999,255.89000000000001,0.15815183520317078,147.9178009033203,0.2710000276565552,0.0,1
1666655828.75926590,114965016,0,3,172646799,2233,8,1.05,42.7308042,-84.4907309,255.89000000000001,0.11977479606866837,157.93209838867188,0.2410000115633011,0.0,1
1666655828.95935392,115165104,0,3,172646999,2233,8,1.05,42.7308041,-84.4907309,255.91,0.053037725389003754,272.16107177734375,0.14300000667572021,0.0,1
1666655829.15929699,115365047,0,3,172647199,2233,8,1.05,42.7308041,-84.49073109999999,255.89000000000001,0.046572525054216385,194.93142700195312,0.21900001168251038,0.0,1
1666655829.35933709,115565087,0,3,172647399,2233,8,1.05,42.730804,-84.4907312,255.86,0.1135077178478241,194.28111267089844,0.19700001180171967,0.0,1
1666655829.55927491,115765025,0,3,172647599,2233,8,1.05,42.7308039,-84.49073109999999,255.82,0.09280086308717728,217.1168670654297,0.2150000035762787,0.0,1
1666655829.73896599,115944716,0,3,172647799,2233,8,1.05,42.730804,-84.490731,255.83,0.056586217135190964,133.56788635253906,0.2240000069141388,0.0,1
1666655829.95922112,116164971,0,3,172647999,2233,8,1.05,42.730804,-84.4907309,255.86,0.06543699651956558,128.79653930664062,0.1770000010728836,0.0,1
1666655830.15925503,116365005,0,3,172648199,2233,9,1.05,42.730804,-84.4907307,255.9,0.16118623316287994,111.47136688232422,0.07700000703334808,0.0,1
1666655830.35927200,116565022,0,3,172648399,2233,9,1.05,42.730804,-84.4907309,255.97,0.04916299507021904,4.666858196258545,0.2939999997615814,0.0,1
1666655830.55929112,116765041,0,3,172648599,2233,9,1.05,42.730804299999996,-84.4907312,256.02,0.14434681832790375,3.9724957942962646,0.2460000067949295,0.0,1
1666655830.75935197,116965102,0,3,172648799,2233,9,0.97,42.7308044,-84.4907314,256.08,0.10261579602956772,74.744873046875,0.18000000715255737,0.0,1
1666655830.95928597,117165036,0,3,172648999,2233,9,0.97,42.7308045,-84.49073159999999,256.12,0.07778175175189972,45.0,0.2160000056028366,0.0,1
1666655831.13898301,117344733,0,3,172649199,2233,9,0.97,42.7308046,-84.4907319,256.14,0.09560335427522659,307.349365234375,0.2670000195503235,0.0,1
1666655831.35928702,117565037,0,3,172649399,2233,9,0.97,42.7308046,-84.4907322,256.16,0.07158910483121872,228.96466064453125,0.27300000190734863,0.0,1
1666655831.55931592,117765066,0,3,172649599,2233,9,0.97,42.7308046,-84.4907325,256.21,0.08649277687072754,10.660347938537598,0.1510000079870224,0.0,1
1666655831.75926709,117965017,0,3,172649799,2233,9,0.97,42.7308047,-84.4907325,256.24,0.0611882358789444,191.3099365234375,0.1550000011920929,0.0,1
1666655831.95927191,118165022,0,3,172649999,2233,9,0.97,42.7308047,-84.49073279999999,256.3,0.1388092190027237,306.20947265625,0.33000001311302185,0.0,1
1666655832.15929508,118365045,0,3,172650199,2233,9,0.97,42.7308045,-84.4907331,256.38,0.06041523441672325,241.31385803222656,0.07300000637769699,0.0,1
1666655832.35938811,118565138,0,3,172650399,2233,9,0.97,42.7308044,-84.4907331,256.48,0.07527283579111099,340.6021728515625,0.06599999964237213,0.0,1
1666655832.55928707,118765037,0,3,172650599,2233,9,0.97,42.7308042,-84.4907324,256.77,0.03413209691643715,328.17254638671875,-0.07100000232458115,0.0,1
1666655832.75928712,118965037,0,3,172650799,2233,9,0.97,42.730803699999996,-84.4907313,257.16,0.125,126.8698959350586,-0.1300000101327896,0.0,1
1666655832.95923090,119164981,0,3,172650999,2233,9,0.97,42.7308033,-84.4907302,257.49,0.06842514872550964,333.06048583984375,-0.055000003427267075,0.0,1
1666655833.15929508,119365045,0,3,172651199,2233,9,0.97,42.7308022,-84.49072869999999,258.24,0.06536819040775299,60.68999099731445,-0.11300000548362732,0.0,1
1666655833.35937309,119565123,0,3,172651399,2233,9,0.97,42.730800599999995,-84.49072799999999,259.02,0.11385077983140945,51.41878128051758,-0.07600000500679016,0.0,1
1666655833.55926991,119765020,0,3,172651599,2233,10,0.97,42.7307996,-84.4907269,259.68,0.04753946140408516,202.2490234375,0.013000000268220901,0.0,1
1666655833.75929308,119965043,0,3,172651799,2233,10,0.91,42.7307986,-84.49072559999999,260.1,0.17395402491092682,135.46580505371094,-0.16200000047683716,0.0,1
1666655833.95925808,120165008,0,3,172651999,2233,10,0.91,42.7307975,-84.49072509999999,260.37,0.18788295984268188,207.92898559570312,-0.18900001049041748,0.0,1
1666655834.17904305,120384793,0,3,172652199,2233,11,0.91,42.7307966,-84.4907259,260.73,0.2541200816631317,343.77587890625,-0.21800000965595245,0.0,1
1666655834.35924792,120564998,0,3,172652399,2233,10,0.91,42.7307963,-84.4907271,260.8,0.15101325511932373,269.24114990234375,-0.6500000357627869,0.0,1
1666655834.55925798,120765008,0,3,172652599,2233,10,0.91,42.7307957,-84.4907276,260.77,0.10945776104927063,174.75816345214844,-0.5800000429153442,0.0,1
1666655834.75932693,120965077,0,3,172652799,2233,11,0.85,42.7307948,-84.4907266,260.87,0.8132134079933167,10.342658042907715,-0.14300000667572021,0.0,1
1666655834.95928311,121165033,0,3,172652999,2233,11,0.85,42.730793399999996,-84.4907241,260.9,0.2934706509113312,256.2005310058594,-0.5860000252723694,0.0,1
1666655835.15936995,121365120,0,3,172653199,2233,11,0.85,42.7307895,-84.49071819999999,260.88,0.30286961793899536,301.2232971191406,-0.3070000112056732,0.0,1
1666655835.35930109,121565051,0,3,172653399,2233,10,0.85,42.7307859,-84.4907126,260.94,0.20012497901916504,310.135498046875,-0.27000001072883606,0.0,1
1666655835.55923700,121764987,0,3,172653599,2233,10,0.85,42.730785,-84.4907111,260.98,0.05685947835445404,66.13981628417969,-0.1990000158548355,0.0,1
1666655835.75929213,121965042,0,3,172653799,2233,10,0.89,42.730785,-84.4907108,260.93,0.21854977309703827,299.61480712890625,-0.04100000113248825,0.0,1
1666655835.95920610,122164956,0,3,172653999,2233,11,0.89,42.7307859,-84.49070979999999,260.79,0.1515849530696869,255.87210083007812,-0.1340000033378601,0.0,1
1666655836.15926099,122365011,0,3,172654199,2233,11,0.89,42.730786099999996,-84.4907071,260.82,0.0854751467704773,186.0441131591797,-0.1300000101327896,0.0,1
1666655836.35932398,122565074,0,3,172654399,2233,11,0.89,42.730785999999995,-84.49070259999999,260.84000000000003,0.27104616165161133,271.0570068359375,0.017000000923871994,0.0,1
1666655836.53897309,122744723,0,3,172654599,2233,12,0.89,42.7307869,-84.49070019999999,260.85,0.015620499849319458,50.194427490234375,-0.04400000348687172,0.0,1
1666655836.75936890,122965119,0,3,172654799,2233,12,0.89,42.7307886,-84.49069709999999,260.7,0.18772321939468384,308.94580078125,0.22600001096725464,0.0,1
1666655836.95936799,123165118,0,3,172654999,2233,12,0.89,42.730790299999995,-84.4906944,260.6,0.08955445885658264,209.42745971679688,0.03800000250339508,0.0,1
1666655837.15933490,123365085,0,3,172655199,2233,12,0.89,42.7307914,-84.4906922,260.6,0.07800000160932541,0.0,0.03100000135600567,0.0,1
1666655837.35927200,123565022,0,3,172655399,2233,12,0.89,42.730792799999996,-84.4906905,260.49,0.3129233121871948,343.47613525390625,0.2770000100135803,0.0,1
1666655837.55923104,123764981,0,3,172655599,2233,12,0.89,42.7307942,-84.49068869999999,260.2,0.0772528350353241,201.25051879882812,0.11000000685453415,0.0,1
1666655837.75916409,123964914,0,3,172655799,2233,12,0.79,42.730795199999996,-84.490687,260.02,0.1072007492184639,351.4163818359375,0.26900002360343933,0.0,1
1666655837.95928693,124165037,0,3,172655999,2233,11,0.79,42.730796,-84.4906852,259.87,0.03590264543890953,192.875,0.2980000078678131,0.0,1
1666655838.15931797,124365068,0,3,172656199,2233,11,0.79,42.7307969,-84.4906836,259.71,0.12593649327754974,10.060689926147461,0.37400001287460327,0.0,1
1666655838.35935211,124565102,0,3,172656399,2233,13,0.79,42.730798,-84.4906816,259.47,0.06907966732978821,22.109447479248047,0.23000000417232513,0.0,1
1666655838.55930209,124765052,0,3,172656599,2233,11,0.79,42.7307991,-84.49067989999999,259.17,0.22578752040863037,214.53466796875,0.3410000205039978,0.0,1
1666655838.75931907,124965069,0,3,172656799,2233,13,0.77,42.7308002,-84.49067819999999,258.95,0.11458621919155121,80.45547485351562,0.18800000846385956,0.0,1
1666655838.95922112,125164971,0,3,172656999,2233,11,0.77,42.7308015,-84.4906764,258.83,0.1726789027452469,109.27438354492188,0.27800002694129944,0.0,1
1666655839.15920305,125364953,0,3,172657199,2233,11,0.77,42.7308027,-84.49067409999999,258.8,0.1151043027639389,119.6831283569336,0.2670000195503235,0.0,1
1666655839.35922909,125564979,0,3,172657399,2233,10,0.77,42.7308032,-84.4906718,259.03000000000003,0.13170042634010315,166.38580322265625,0.18900001049041748,0.0,1
1666655839.55927992,125765030,0,3,172657599,2233,12,0.77,42.730802499999996,-84.4906682,259.22,0.13674063980579376,145.72885131835938,0.18700000643730164,0.0,1
1666655839.75933599,125965086,0,3,172657799,2233,13,0.75,42.7308002,-84.4906614,259.32,0.1788463145494461,67.30619812011719,0.24800001084804535,0.0,1
1666655839.95931101,126165061,0,3,172657999,2233,13,0.75,42.7307987,-84.49065639999999,259.34000000000003,0.14637282490730286,119.01657104492188,0.36000001430511475,0.0,1
1666655840.15934992,126365100,0,3,172658199,2233,12,0.75,42.730798799999995,-84.49065379999999,259.36,0.2615205645561218,108.50421905517578,0.2600000202655792,0.0,1
1666655840.35929799,126565048,0,3,172658399,2233,12,0.75,42.7307998,-84.49065019999999,259.27,0.12300407141447067,90.46580505371094,0.19500000774860382,0.0,1
1666655840.55932403,126765074,0,3,172658599,2233,11,0.75,42.7307999,-84.4906455,259.6,0.09800510853528976,61.34288024902344,0.2460000067949295,0.0,1
1666655840.75930309,126965053,0,3,172658799,2233,11,0.81,42.7307998,-84.4906414,259.92,0.10410091280937195,121.24691772460938,0.10300000756978989,0.0,1
1666655840.95927811,127165028,0,3,172658999,2233,11,0.81,42.7307987,-84.4906383,260.29,0.10630146414041519,78.05582427978516,0.1850000023841858,0.0,1
1666655841.15928292,127365033,0,3,172659199,2233,11,0.81,42.7307973,-84.49063629999999,260.49,0.08207923173904419,292.1903076171875,0.17600001394748688,0.0,1
1666655841.35929799,127565048,0,3,172659399,2233,12,0.81,42.7307955,-84.49063509999999,260.42,0.09831073880195618,226.2364044189453,0.29500001668930054,0.0,1
1666655841.55931711,127765067,0,3,172659599,2233,13,0.81,42.7307937,-84.49063369999999,260.38,0.25503140687942505,0.898683488368988,0.2110000103712082,0.0,1
1666655841.75932503,127965075,0,3,172659799,2233,14,0.72,42.7307931,-84.49063199999999,260.27,0.16737085580825806,339.72442626953125,0.3020000159740448,0.0,1
1666655841.95927191,128165022,0,3,172659999,2233,14,0.72,42.7307923,-84.4906307,260.12,0.07720103859901428,16.557071685791016,0.26900002360343933,0.0,1
1666655842.15926600,128365016,0,3,172660199,2233,14,0.72,42.730790999999996,-84.49063009999999,259.98,0.0522015355527401,306.43084716796875,0.2150000035762787,0.0,1
1666655842.35929394,128565044,0,3,172660399,2233,14,0.72,42.7307901,-84.4906295,259.82,0.08658522367477417,14.036242485046387,0.20400001108646393,0.0,1
1666655842.55927992,128765030,0,3,172660599,2233,13,0.72,42.7307892,-84.490628,259.68,0.15286922454833984,234.85446166992188,0.30300000309944153,0.0,1
1666655842.75922203,128964972,0,3,172660799,2233,13,0.72,42.730788499999996,-84.4906266,259.51,0.1712133288383484,226.8933868408203,0.2930000126361847,0.0,1
1666655842.95931101,129165061,0,3,172660999,2233,14,0.72,42.7307882,-84.49062579999999,259.34000000000003,0.10107918083667755,295.8045349121094,0.23400001227855682,0.0,1
1666655843.15930796,129365058,0,3,172661199,2233,13,0.72,42.7307882,-84.4906252,259.12,0.028017854318022728,325.1755065917969,0.26900002360343933,0.0,1
1666655843.35935807,129565108,0,3,172661399,2233,13,0.72,42.730788,-84.4906251,258.91,0.06276942044496536,210.6506805419922,0.24500000476837158,0.0,1
1666655843.55930305,129765053,0,3,172661599,2233,13,0.72,42.730787199999995,-84.49062459999999,258.74,0.09567131847143173,41.18592071533203,0.2720000147819519,0.0,1
1666655843.75925899,129965009,0,3,172661799,2233,13,0.75,42.730786699999996,-84.4906239,258.55,0.19764868915081024,4.6432719230651855,0.37400001287460327,0.0,1
1666655843.95924091,130164991,0,3,172661999,2233,13,0.75,42.7307862,-84.4906231,258.39,0.2680167853832245,45.75583267211914,0.2800000011920929,0.0,1
1666655844.17895699,130384707,0,3,172662199,2233,14,0.75,42.730785999999995,-84.4906213,258.11,0.1999725103378296,56.62779235839844,0.34300002455711365,0.0,1
1666655844.35925102,130565001,0,3,172662399,2233,13,0.75,42.730785399999995,-84.4906188,258.01,0.30068257451057434,73.97608184814453,0.42900002002716064,0.0,1
1666655844.55929399,130765044,0,3,172662599,2233,11,0.75,42.7307833,-84.4906146,257.97,0.28027310967445374,144.4385528564453,0.3680000305175781,0.0,1
1666655844.75929689,130965047,0,3,172662799,2233,12,0.74,42.7307832,-84.4906128,257.89,0.4261690080165863,88.3864517211914,0.3840000033378601,0.0,1
1666655844.95936799,131165118,0,3,172662999,2233,14,0.74,42.7307823,-84.4906118,257.89,0.636441707611084,154.19992065429688,-0.11900000274181366,0.0,1
1666655845.15926790,131365018,0,3,172663199,2233,11,0.74,42.7307805,-84.4906108,258.12,0.1470136046409607,90.77947998046875,0.1940000057220459,0.0,1
1666655845.35923696,131564987,0,3,172663399,2233,13,0.74,42.7307791,-84.49061019999999,258.25,0.11157061159610748,194.5344696044922,0.05400000140070915,0.0,1
1666655845.55922294,131764973,0,3,172663599,2233,13,0.74,42.730777499999995,-84.4906103,258.53000000000003,0.11303097754716873,346.701416015625,-0.010000000707805157,0.0,1
1666655845.75929403,131965044,0,3,172663799,2233,13,0.75,42.7307761,-84.4906105,258.77,0.2670299708843231,291.7615661621094,0.08400000631809235,0.0,1
1666655845.95934892,132165099,0,3,172663999,2233,13,0.75,42.7307749,-84.49060949999999,258.93,0.18076781928539276,331.5919189453125,-0.0690000057220459,0.0,1
1666655846.15928292,132365033,0,3,172664199,2233,13,0.75,42.7307734,-84.4906097,258.86,0.32097509503364563,251.8472900390625,0.05100000277161598,0.0,1
1666655846.35931993,132565070,0,3,172664399,2233,13,0.75,42.7307728,-84.49060949999999,258.87,0.38739386200904846,353.62713623046875,0.08400000631809235,0.0,1
1666655846.55926013,132765010,0,3,172664599,2233,12,0.75,42.7307732,-84.4906094,258.79,0.4938552677631378,350.44232177734375,0.15400001406669617,0.0,1
1666655846.75927401,132965024,0,3,172664799,2233,12,0.81,42.7307732,-84.4906099,258.78000000000003,0.40888264775276184,341.609375,0.2070000171661377,0.0,1
1666655846.95922399,133164974,0,3,172664999,2233,14,0.81,42.7307735,-84.49060949999999,258.74,0.21694470942020416,334.61614990234375,0.07600000500679016,0.0,1
1666655847.15928602,133365036,0,3,172665199,2233,12,0.81,42.7307735,-84.4906087,258.76,0.3381612300872803,355.25042724609375,0.12800000607967377,0.0,1
1666655847.35933900,133565089,0,3,172665399,2233,13,0.81,42.7307738,-84.4906081,258.73,0.15936437249183655,14.908256530761719,0.13500000536441803,0.0,1
1666655847.55931497,133765065,0,3,172665599,2233,14,0.81,42.730773899999996,-84.4906073,258.85,0.029154760763049126,300.9637451171875,0.19700001180171967,0.0,1
1666655847.75934911,133965099,0,3,172665799,2233,12,0.79,42.730773899999996,-84.4906065,259.01,0.10807405412197113,87.87889862060547,0.14100000262260437,0.0,1
1666655847.95929909,134165049,0,3,172665999,2233,12,0.79,42.7307741,-84.4906053,259.18,0.1741551160812378,42.20729446411133,0.25200000405311584,0.0,1
1666655848.15924001,134364990,0,3,172666199,2233,12,0.79,42.7307744,-84.4906038,259.33,0.23114065825939178,40.78949737548828,0.2639999985694885,0.0,1
1666655848.35928798,134565038,0,3,172666399,2233,13,0.79,42.7307748,-84.4906017,259.45,0.037121422588825226,62.744667053222656,0.2720000147819519,0.0,1
1666655848.55922699,134764977,0,3,172666599,2233,13,0.79,42.7307743,-84.490599,259.59000000000003,0.0502493791282177,95.71058654785156,0.20400001108646393,0.0,1
1666655848.75930810,134965058,0,3,172666799,2233,13,0.72,42.7307734,-84.49059559999999,259.77,0.1004987582564354,47.41950607299805,0.20500001311302185,0.0,1
1666655848.95933604,135165086,0,3,172666999,2233,12,0.72,42.730772699999996,-84.4905929,260.11,0.0360138900578022,268.40887451171875,0.2200000137090683,0.0,1
1666655849.15940309,135365153,0,3,172667199,2233,12,0.72,42.7307731,-84.4905919,260.28000000000003,0.02080865204334259,215.21759033203125,0.22200001776218414,0.0,1
1666655849.35932994,135565080,0,3,172667399,2233,12,0.72,42.730773299999996,-84.4905911,260.42,0.1234058365225792,232.5729522705078,0.13600000739097595,0.0,1
1666655849.55936790,135765118,0,3,172667599,2233,13,0.72,42.7307737,-84.49059059999999,260.45,0.02202271670103073,219.47247314453125,0.10400000214576721,0.0,1
1666655849.75929904,135965049,0,3,172667799,2233,13,0.72,42.730774,-84.49058989999999,260.42,0.06573431938886642,236.79342651367188,0.0990000069141388,0.0,1
1666655849.95924711,136164997,0,3,172667999,2233,13,0.72,42.7307741,-84.4905893,260.43,0.03500000014901161,90.0,0.24500000476837158,0.0,1
1666655850.15920401,136364954,0,3,172668199,2233,14,0.72,42.7307738,-84.49058959999999,260.44,0.05092150717973709,199.50245666503906,0.22300000488758087,0.0,1
1666655850.35925198,136565002,0,3,172668399,2233,14,0.72,42.730773899999996,-84.4905898,260.32,0.09914131462574005,188.70223999023438,0.28700000047683716,0.0,1
1666655850.55932212,136765072,0,3,172668599,2233,14,0.72,42.7307737,-84.49059009999999,260.29,0.0564003586769104,142.9269256591797,0.1510000079870224,0.0,1
1666655850.75936508,136965115,0,3,172668799,2233,13,0.85,42.7307736,-84.4905897,260.14,0.10323759913444519,183.88792419433594,0.2200000137090683,0.0,1
1666655850.95929313,137165043,0,3,172668999,2233,13,0.85,42.7307734,-84.49058869999999,260.12,0.06670832633972168,203.8752899169922,0.30100002884864807,0.0,1
1666655851.15932798,137365078,0,3,172669199,2233,13,0.85,42.7307735,-84.4905876,260.14,0.06720863282680511,313.1912536621094,0.32100000977516174,0.0,1
1666655851.35929799,137565048,0,3,172669399,2233,13,0.85,42.7307736,-84.4905867,260.13,0.02973213791847229,289.6538391113281,0.26900002360343933,0.0,1
1666655851.55919099,137764941,0,3,172669599,2233,13,0.85,42.7307735,-84.49058579999999,260.21,0.05508176237344742,266.87786865234375,0.3150000274181366,0.0,1
1666655851.75923800,137964988,0,3,172669799,2233,13,0.75,42.730772599999995,-84.4905859,260.38,0.06389053165912628,320.0796203613281,0.23600001633167267,0.0,1
1666655851.95925212,138165002,0,3,172669999,2233,13,0.75,42.7307718,-84.490586,260.65,0.11101802438497543,358.9677429199219,0.1810000091791153,0.0,1
1666655852.15925407,138365004,0,3,172670199,2233,13,0.75,42.730770799999995,-84.4905857,260.89,0.2010994851589203,77.06944274902344,0.2550000250339508,0.0,1
1666655852.35933995,138565090,0,3,172670399,2233,13,0.75,42.730769699999996,-84.49058529999999,261.06,0.6070626378059387,85.27554321289062,0.25,0.0,1
1666655852.55932093,138765071,0,3,172670599,2233,13,0.75,42.730765999999996,-84.4905823,261.26,0.5828799605369568,109.33642578125,-0.08500000089406967,0.0,1
1666655852.75927997,138965030,0,3,172670799,2233,14,0.72,42.730764799999996,-84.4905795,261.29,0.818403959274292,105.66651153564453,0.13199999928474426,0.0,1
1666655852.95928693,139165037,0,3,172670999,2233,13,0.72,42.7307646,-84.49057619999999,261.34000000000003,0.9293939471244812,97.23206329345703,0.242000013589859,0.0,1
1666655853.15924811,139364998,0,3,172671199,2233,14,0.72,42.730764099999995,-84.49057309999999,261.3,0.41300487518310547,112.34239959716797,0.20600001513957977,0.0,1
1666655853.35932493,139565075,0,3,172671399,2233,14,0.72,42.7307625,-84.49057069999999,261.33,0.32988789677619934,114.15646362304688,0.1770000010728836,0.0,1
1666655853.55926490,139765015,0,3,172671599,2233,13,0.72,42.7307613,-84.49056829999999,261.41,0.37840986251831055,51.221954345703125,-0.04200000315904617,0.0,1
1666655853.75930691,139965057,0,3,172671799,2233,14,0.72,42.730761799999996,-84.4905679,261.27,0.06911584734916687,356.6822204589844,0.16900001466274261,0.0,1
1666655853.95928192,140165032,0,3,172671999,2233,14,0.72,42.7307604,-84.49056999999999,261.35,0.08381527662277222,215.7760772705078,0.07300000637769699,0.0,1
1666655854.15937495,140365125,0,3,172672199,2233,14,0.72,42.7307601,-84.49057069999999,261.32,0.09334881603717804,315.8680419921875,0.04400000348687172,0.0,1
1666655854.35936093,140565111,0,3,172672399,2233,14,0.72,42.7307602,-84.49057119999999,261.29,0.12822246551513672,305.7973937988281,0.07900000363588333,0.0,1
1666655854.55928707,140765037,0,3,172672599,2233,14,0.72,42.7307601,-84.4905721,261.13,0.13073638081550598,60.68999099731445,0.08500000089406967,0.0,1
1666655854.75925899,140965009,0,3,172672799,2233,13,0.75,42.7307603,-84.49057289999999,260.91,0.5167843103408813,32.675270080566406,0.20500001311302185,0.0,1
1666655854.95927691,141165027,0,3,172672999,2233,14,0.75,42.7307602,-84.4905742,260.82,0.47990208864212036,30.14471435546875,0.15300001204013824,0.0,1
1666655855.15928197,141365032,0,3,172673199,2233,13,0.75,42.730759299999995,-84.4905768,260.58,0.10600000619888306,31.890790939331055,0.125,0.0,1
1666655855.35927296,141565023,0,3,172673399,2233,13,0.75,42.730759,-84.4905781,260.21,0.4268231689929962,38.72269821166992,0.25300002098083496,0.0,1
1666655855.53887391,141744624,0,3,172673599,2233,13,0.75,42.7307589,-84.4905787,260.11,0.15634897351264954,46.81418991088867,0.30100002884864807,0.0,1
1666655855.75932097,141965071,0,3,172673799,2233,12,0.89,42.7307589,-84.490579,260.06,0.1636154055595398,22.646800994873047,0.26500001549720764,0.0,1
1666655855.95933008,142165080,0,3,172673999,2233,12,0.89,42.7307591,-84.49057909999999,260.0,0.06768308579921722,347.19573974609375,0.27900001406669617,0.0,1
1666655856.15928292,142365033,0,3,172674199,2233,12,0.89,42.7307591,-84.4905794,260.0,0.05189412459731102,334.9164123535156,0.2580000162124634,0.0,1
1666655856.35922909,142564979,0,3,172674399,2233,13,0.89,42.7307588,-84.49057959999999,260.0,0.16248385608196259,158.3295440673828,0.1940000057220459,0.0,1
1666655856.55931401,142765064,0,3,172674599,2233,12,0.89,42.730758,-84.49057959999999,260.0,0.24583940207958221,240.51528930664062,0.3270000219345093,0.0,1
1666655856.75936007,142965110,0,3,172674799,2233,11,0.85,42.730756899999996,-84.49057979999999,260.03000000000003,0.2300543487071991,259.22735595703125,0.24400001764297485,0.0,1
1666655856.95932794,143165078,0,3,172674999,2233,12,0.85,42.730756199999995,-84.4905802,260.08,0.26713481545448303,237.38076782226562,0.24800001084804535,0.0,1
1666655857.15927792,143365028,0,3,172675199,2233,12,0.85,42.7307561,-84.4905805,260.12,0.07106335461139679,283.8406982421875,0.08000000566244125,0.0,1
1666655857.35924506,143564995,0,3,172675399,2233,11,0.85,42.730756199999995,-84.49058099999999,260.08,0.05597320944070816,288.7586669921875,0.1300000101327896,0.0,1
1666655857.55938792,143765138,0,3,172675599,2233,11,0.85,42.7307561,-84.49058199999999,259.98,0.11510864645242691,309.3594665527344,0.10500000417232513,0.0,1
1666655857.75924397,143964994,0,3,172675799,2233,13,0.77,42.730756199999995,-84.4905823,259.84000000000003,0.1361653357744217,23.364343643188477,0.27300000190734863,0.0,1
1666655857.95923209,144164982,0,3,172675999,2233,13,0.77,42.7307561,-84.4905823,259.74,0.031144823879003525,275.52752685546875,0.2460000067949295,0.0,1
1666655858.15930390,144365054,0,3,172676199,2233,13,0.77,42.7307559,-84.4905824,259.85,0.05300000309944153,328.1092224121094,0.3320000171661377,0.0,1
1666655858.35924792,144564998,0,3,172676399,2233,13,0.77,42.7307555,-84.4905824,259.95,0.05813777074217796,266.0548095703125,0.3070000112056732,0.0,1
1666655858.55937791,144765128,0,3,172676599,2233,11,0.77,42.7307541,-84.490583,259.96,0.13851355016231537,102.9325942993164,0.29600000381469727,0.0,1
1666655858.75928593,144965036,0,3,172676799,2233,13,0.77,42.7307525,-84.4905818,259.79,0.14065562188625336,119.8459243774414,0.34200000762939453,0.0,1
1666655858.95932007,145165070,0,3,172676999,2233,13,0.77,42.730750799999996,-84.4905802,259.67,0.18117672204971313,154.849365234375,0.4310000240802765,0.0,1
1666655859.15922594,145364976,0,3,172677199,2233,13,0.77,42.7307487,-84.4905787,259.57,0.25622257590293884,162.97946166992188,0.049000002443790436,0.0,1
1666655859.35920000,145564950,0,3,172677399,2233,13,0.77,42.7307469,-84.4905766,259.4,0.17447063326835632,64.90374755859375,0.1600000113248825,0.0,1
1666655859.55925012,145765000,0,3,172677599,2233,13,0.77,42.7307469,-84.49057599999999,259.2,0.35911282896995544,181.43609619140625,0.06200000271201134,0.0,1
1666655859.75929403,145965044,0,3,172677799,2233,12,0.77,42.7307469,-84.4905744,258.97,0.7483615875244141,163.6234130859375,0.20600001513957977,0.0,1
1666655859.95929694,146165047,0,3,172677999,2233,11,0.77,42.7307458,-84.490574,258.76,0.4660096764564514,179.63113403320312,0.36100003123283386,0.0,1
1666655860.15934300,146365093,0,3,172678199,2233,12,0.77,42.730742899999996,-84.4905718,258.7,0.270717591047287,162.3682098388672,0.22600001096725464,0.0,1
1666655860.35935497,146565105,0,3,172678399,2233,12,0.77,42.730741699999996,-84.49057049999999,258.55,0.09638465195894241,120.55594635009766,0.8940000534057617,0.0,1
1666655860.55929804,146765048,0,3,172678599,2233,12,0.77,42.7307413,-84.4905709,258.39,0.3010398745536804,221.633544921875,0.3680000305175781,0.0,1
1666655860.75926709,146965017,0,3,172678799,2233,13,0.77,42.7307408,-84.4905709,258.19,0.1290658861398697,169.73484802246094,0.7050000429153442,0.0,1
1666655860.95921898,147164969,0,3,172678999,2233,13,0.77,42.7307402,-84.4905711,258.0,0.5258374214172363,231.40826416015625,0.6470000147819519,0.0,1
1666655861.15918803,147364938,0,3,172679199,2233,14,0.77,42.730739899999996,-84.4905716,257.95,0.20663495361804962,232.07638549804688,0.5509999990463257,0.0,1
1666655861.35934711,147565097,0,3,172679399,2233,14,0.77,42.7307396,-84.4905727,257.66,0.2398708164691925,193.74659729003906,0.5220000147819519,0.0,1
1666655861.55927300,147765023,0,3,172679599,2233,13,0.77,42.730739799999995,-84.4905733,257.51,0.3860906958580017,274.3076477050781,0.737000048160553,0.0,1
1666655861.75941110,147965161,0,3,172679799,2233,12,0.89,42.7307412,-84.4905734,257.24,0.21910730004310608,303.8351135253906,0.40800002217292786,0.0,1
1666655861.95934296,148165093,0,3,172679999,2233,13,0.89,42.7307425,-84.4905734,257.01,0.15604166686534882,285.995849609375,0.42900002002716064,0.0,1
1666655862.15931201,148365062,0,3,172680199,2233,13,0.89,42.730743499999996,-84.4905735,256.83,0.23447176814079285,328.07232666015625,0.4440000355243683,0.0,1
1666655862.35926199,148565012,0,3,172680399,2233,13,0.89,42.730744099999995,-84.4905734,256.76,0.1348072737455368,189.3924560546875,0.11300000548362732,0.0,1
1666655862.55918908,148764939,0,3,172680599,2233,13,0.89,42.7307444,-84.49057289999999,256.72,0.14451643824577332,288.5603332519531,0.3540000021457672,0.0,1
1666655862.75925303,148965003,0,3,172680799,2233,13,0.89,42.730745399999996,-84.4905723,256.74,0.3225415050983429,25.134939193725586,0.19300000369548798,0.0,1
1666655862.95926595,149165016,0,3,172680999,2233,13,0.89,42.7307468,-84.4905718,256.74,0.3203701376914978,32.89640808105469,0.21000000834465027,0.0,1
1666655863.15929198,149365042,0,3,172681199,2233,13,0.89,42.7307488,-84.49057169999999,256.76,0.26295438408851624,29.88001251220703,0.09200000762939453,0.0,1
1666655863.35930896,149565059,0,3,172681399,2233,13,0.89,42.7307505,-84.4905713,256.68,0.3116616904735565,35.73001480102539,0.2580000162124634,0.0,1
1666655863.55933905,149765089,0,3,172681599,2233,13,0.89,42.7307522,-84.4905708,256.55,0.28814059495925903,38.65980911254883,0.34300002455711365,0.0,1
1666655863.75934505,149965095,0,3,172681799,2233,12,0.77,42.7307536,-84.49057049999999,256.44,0.0820365771651268,279.11785888671875,0.3570000231266022,0.0,1
1666655863.95931005,150165060,0,3,172681999,2233,12,0.77,42.7307548,-84.4905704,256.38,0.09411164373159409,14.774548530578613,0.2900000214576721,0.0,1
1666655864.15925503,150365005,0,3,172682199,2233,12,0.77,42.730756199999995,-84.4905697,256.18,0.09457801282405853,19.77607536315918,0.2840000092983246,0.0,1
1666655864.35919189,150564942,0,3,172682399,2233,12,0.77,42.7307572,-84.4905692,256.09000000000003,0.020591260865330696,60.94539260864258,0.3190000057220459,0.0,1
1666655864.55927110,150765021,0,3,172682599,2233,14,0.77,42.7307582,-84.4905677,255.87,0.17719200253486633,204.684814453125,0.3580000102519989,0.0,1
1666655864.75928712,150965037,0,3,172682799,2233,13,0.77,42.7307585,-84.4905667,255.59,0.12025390565395355,51.41459655761719,0.4280000329017639,0.0,1
1666655864.95930004,151165050,0,3,172682999,2233,13,0.77,42.730758,-84.4905675,255.08,0.028301943093538284,212.00538635253906,0.40800002217292786,0.0,1
1666655865.15933394,151365084,0,3,172683199,2233,13,0.77,42.730756299999996,-84.4905694,254.52,0.05903388932347298,280.7388916015625,0.3920000195503235,0.0,1
1666655865.35929203,151565042,0,3,172683399,2233,13,0.77,42.7307554,-84.4905711,253.93,0.12160592526197433,323.69549560546875,0.4140000343322754,0.0,1
1666655865.55925798,151765008,0,3,172683599,2233,13,0.77,42.7307554,-84.4905703,253.71,0.07872103154659271,334.4114990234375,0.3790000081062317,0.0,1
1666655865.75930905,151965059,0,3,172683799,2233,11,0.87,42.7307558,-84.49056949999999,253.68,0.1704230159521103,54.071495056152344,0.32500001788139343,0.0,1
1666655865.95931196,152165062,0,3,172683999,2233,12,0.87,42.730756299999996,-84.4905685,253.68,0.1161808967590332,76.56180572509766,0.42600002884864807,0.0,1
1666655866.15930104,152365051,0,3,172684199,2233,11,0.87,42.7307566,-84.4905679,253.56,0.13882723450660706,341.95660400390625,0.5460000038146973,0.0,1
1666655866.35927510,152565025,0,3,172684399,2233,12,0.87,42.7307571,-84.4905672,253.56,0.2148953378200531,38.57652282714844,0.33000001311302185,0.0,1
1666655866.55927610,152765026,0,3,172684599,2233,11,0.87,42.730757399999995,-84.4905665,253.45000000000002,0.18479178845882416,9.972057342529297,0.4740000367164612,0.0,1
1666655866.75935411,152965104,0,3,172684799,2233,12,0.81,42.730757399999995,-84.4905653,253.42000000000002,0.12200409919023514,52.66047286987305,0.3680000305175781,0.0,1
1666655866.95925903,153165009,0,3,172684999,2233,12,0.81,42.7307571,-84.4905642,253.37,0.1406165063381195,33.6900634765625,0.39900001883506775,0.0,1
1666655867.15924406,153364994,0,3,172685199,2233,13,0.81,42.7307578,-84.4905635,253.33,0.33143630623817444,64.44003295898438,0.4400000274181366,0.0,1
1666655867.35925794,153565008,0,3,172685399,2233,12,0.81,42.7307576,-84.490563,253.45000000000002,0.05197114869952202,191.09373474121094,0.6310000419616699,0.0,1
1666655867.55933309,153765083,0,3,172685599,2233,12,0.81,42.730757499999996,-84.4905624,253.89000000000001,0.16144348680973053,48.01278305053711,0.6020000576972961,0.0,1
1666655867.75926995,153965020,0,3,172685799,2233,12,0.77,42.7307576,-84.4905619,254.35,0.21023797988891602,34.143585205078125,0.5180000066757202,0.0,1
1666655867.95927811,154165028,0,3,172685999,2233,13,0.77,42.7307578,-84.49056139999999,254.46,0.23736050724983215,69.2744369506836,0.33900001645088196,0.0,1
1666655868.15930390,154365054,0,3,172686199,2233,14,0.77,42.7307584,-84.4905611,254.48000000000002,0.12345849722623825,54.893917083740234,0.28300002217292786,0.0,1
1666655868.35925603,154565006,0,3,172686399,2233,14,0.77,42.730759,-84.4905612,254.36,0.18930664658546448,151.26876831054688,0.25699999928474426,0.0,1
1666655868.55928111,154765031,0,3,172686599,2233,12,0.77,42.7307594,-84.4905611,254.34,0.05423098802566528,84.70991516113281,0.12600000202655792,0.0,1
1666655868.75926208,154965012,0,3,172686799,2233,12,0.75,42.7307595,-84.49056089999999,254.54,0.1509602665901184,186.4659423828125,0.05100000277161598,0.0,1
1666655868.95922899,155164979,0,3,172686999,2233,12,0.75,42.7307588,-84.4905611,254.70000000000002,0.4045553207397461,193.7270965576172,0.09300000220537186,0.0,1
1666655869.15929890,155365049,0,3,172687199,2233,12,0.75,42.7307595,-84.4905606,254.49,0.05154609680175781,71.91654968261719,0.06100000441074371,0.0,1
1666655869.35932398,155565074,0,3,172687399,2233,14,0.75,42.730760599999996,-84.4905598,254.32,0.3267415165901184,33.00916290283203,0.015000000596046448,0.0,1
1666655869.55927205,155765022,0,3,172687599,2233,14,0.75,42.7307614,-84.4905596,254.19,0.12174154072999954,24.249202728271484,0.15400001406669617,0.0,1
1666655869.75927496,155965025,0,3,172687799,2233,14,0.72,42.730761799999996,-84.49055919999999,253.96,0.09392017871141434,341.37213134765625,-0.0020000000949949026,0.0,1
1666655869.95931101,156165061,0,3,172687999,2233,14,0.72,42.7307627,-84.4905588,253.77,0.15570807456970215,8.494375228881836,0.06100000441074371,0.0,1
1666655870.15933490,156365085,0,3,172688199,2233,13,0.72,42.730763599999996,-84.49055849999999,253.52,0.19077998399734497,7.832794666290283,-0.007000000216066837,0.0,1
1666655870.35922503,156564975,0,3,172688399,2233,13,0.72,42.730765,-84.490558,253.15,0.035227831453084946,353.4801940917969,-0.09600000083446503,0.0,1
1666655870.55926204,156765012,0,3,172688599,2233,13,0.72,42.7307662,-84.4905576,252.81,0.058180756866931915,241.23236083984375,-0.0430000014603138,0.0,1
1666655870.75929213,156965042,0,3,172688799,2233,13,0.77,42.7307676,-84.4905569,252.54,0.13290974497795105,13.93168830871582,0.018000001087784767,0.0,1
1666655870.95929408,157165044,0,3,172688999,2233,13,0.77,42.730769099999996,-84.49055589999999,252.34,0.13230647146701813,57.03059387207031,-0.09000000357627869,0.0,1
1666655871.15938807,157365138,0,3,172689199,2233,12,0.77,42.730770199999995,-84.4905553,252.18,0.03224903345108032,299.744873046875,-0.05300000309944153,0.0,1
1666655871.35928297,157565033,0,3,172689399,2233,11,0.77,42.7307707,-84.49055489999999,252.11,0.07638063281774521,316.0609130859375,0.08400000631809235,0.0,1
1666655871.55927610,157765026,0,3,172689599,2233,12,0.77,42.730770799999995,-84.490555,252.06,0.318210631608963,232.66195678710938,-0.04200000315904617,0.0,1
1666655871.75920296,157964953,0,3,172689799,2233,13,0.75,42.7307704,-84.490555,251.96,0.14187318086624146,201.50143432617188,0.10500000417232513,0.0,1
1666655871.95922899,158164979,0,3,172689999,2233,13,0.75,42.7307698,-84.4905541,251.87,0.10183320194482803,234.5931396484375,0.1210000067949295,0.0,1
1666655872.15929413,158365044,0,3,172690199,2233,13,0.75,42.7307701,-84.49055299999999,251.78,0.06280127912759781,350.837646484375,0.03800000250339508,0.0,1
1666655872.35932398,158565074,0,3,172690399,2233,13,0.75,42.730770299999996,-84.49055249999999,251.78,0.2955029606819153,215.35736083984375,0.05100000277161598,0.0,1
1666655872.55934691,158765097,0,3,172690599,2233,13,0.75,42.730770199999995,-84.4905521,251.77,0.08807383477687836,257.541748046875,-0.07700000703334808,0.0,1
1666655872.75932193,158965072,0,3,172690799,2233,13,0.75,42.7307695,-84.4905526,251.81,0.027586231008172035,313.53118896484375,0.1120000034570694,0.0,1
1666655872.95938396,159165134,0,3,172690999,2233,13,0.75,42.730768399999995,-84.4905533,251.91,0.06020797789096832,212.10626220703125,0.12300000339746475,0.0,1
1666655873.15924597,159364996,0,3,172691199,2233,14,0.75,42.730767199999995,-84.4905546,251.98000000000002,0.027294687926769257,171.57301330566406,0.11300000548362732,0.0,1
1666655873.35922599,159564976,0,3,172691399,2233,14,0.75,42.7307661,-84.49055609999999,252.07,0.19006578624248505,35.36246109008789,0.09400000423192978,0.0,1
1666655873.55925894,159765009,0,3,172691599,2233,11,0.75,42.7307643,-84.49055849999999,252.12,0.04580393061041832,36.11933517456055,0.2630000114440918,0.0,1
1666655873.75928807,159965038,0,3,172691799,2233,14,0.72,42.7307625,-84.49056089999999,252.19,0.028160257264971733,83.88449096679688,0.14100000262260437,0.0,1
1666655873.95933700,160165087,0,3,172691999,2233,14,0.72,42.730758,-84.49056569999999,252.81,0.15550242364406586,195.28744506835938,0.2120000123977661,0.0,1
1666655874.17898607,160384736,0,3,172692199,2233,12,0.72,42.730754399999995,-84.4905684,253.48000000000002,0.0427551195025444,10.784296989440918,0.23600001633167267,0.0,1
1666655874.35941195,160565162,0,3,172692399,2233,12,0.72,42.7307512,-84.4905704,254.14000000000001,0.17763446271419525,184.84400939941406,0.22100001573562622,0.0,1
1666655874.55935097,160765101,0,3,172692599,2233,12,0.72,42.7307499,-84.4905699,254.78,0.15171684324741364,123.16635131835938,0.11100000888109207,0.0,1
1666655874.75936198,160965112,0,3,172692799,2233,11,0.85,42.7307492,-84.4905694,255.15,0.03705401346087456,273.09405517578125,0.23900000751018524,0.0,1
1666655874.95921111,161164961,0,3,172692999,2233,11,0.85,42.7307487,-84.4905689,255.58,0.013152946718037128,188.7461700439453,0.25,0.0,1
1666655875.15916896,161364919,0,3,172693199,2233,11,0.85,42.7307485,-84.4905685,255.85,0.2240089327096939,52.6185417175293,0.20400001108646393,0.0,1
1666655875.35923505,161564985,0,3,172693399,2233,12,0.85,42.7307488,-84.49056809999999,255.9,0.127769336104393,149.42076110839844,0.38700002431869507,0.0,1
1666655875.55924892,161764999,0,3,172693599,2233,12,0.85,42.730748999999996,-84.490568,255.74,0.22860009968280792,83.2169418334961,0.484000027179718,0.0,1
1666655875.75933909,161965089,0,3,172693799,2233,13,0.85,42.73075,-84.49056759999999,255.62,0.20724141597747803,46.36857604980469,0.4620000123977661,0.0,1
1666655875.95932102,162165071,0,3,172693999,2233,13,0.85,42.730751399999995,-84.4905673,255.47,0.24294239282608032,61.747161865234375,0.43300002813339233,0.0,1
1666655876.15933204,162365082,0,3,172694199,2233,14,0.85,42.7307531,-84.4905665,255.31,0.1831529587507248,45.66362762451172,0.3830000162124634,0.0,1
1666655876.35927296,162565023,0,3,172694399,2233,14,0.85,42.730754,-84.490566,255.21,0.15701274573802948,64.74060821533203,0.38700002431869507,0.0,1
1666655876.55925107,162765001,0,3,172694599,2233,13,0.85,42.730754,-84.4905658,255.21,0.039051249623298645,140.1944122314453,0.2720000147819519,0.0,1
1666655876.75920105,162964951,0,3,172694799,2233,12,0.75,42.7307542,-84.4905654,255.32,0.06802941113710403,65.69544982910156,0.4400000274181366,0.0,1
1666655876.95926404,163165014,0,3,172694999,2233,13,0.75,42.7307552,-84.49056519999999,255.37,0.22645089030265808,35.65532302856445,0.4190000295639038,0.0,1
1666655877.15920901,163364959,0,3,172695199,2233,12,0.75,42.730756299999996,-84.4905646,255.43,0.3150254189968109,89.27246856689453,0.4350000321865082,0.0,1
1666655877.35928202,163565032,0,3,172695399,2233,13,0.75,42.7307578,-84.4905632,255.4,0.5222653150558472,58.227195739746094,0.38700002431869507,0.0,1
1666655877.55933499,163765085,0,3,172695599,2233,11,0.75,42.7307588,-84.4905625,255.38,0.3372669517993927,236.7340087890625,0.7460000514984131,0.0,1
1666655877.75935698,163965107,0,3,172695799,2233,10,0.93,42.7307586,-84.4905629,255.33,0.044944413006305695,249.1455535888672,0.6790000200271606,0.0,1
1666655877.95927811,164165028,0,3,172695999,2233,11,0.93,42.7307578,-84.4905632,255.27,0.16402743756771088,178.95201110839844,0.6160000562667847,0.0,1
1666655878.15922093,164364971,0,3,172696199,2233,12,0.93,42.730756899999996,-84.4905631,255.17000000000002,0.34613439440727234,85.36006927490234,0.39500001072883606,0.0,1
1666655878.35930395,164565054,0,3,172696399,2233,13,0.93,42.730756899999996,-84.4905624,255.17000000000002,0.03701351210474968,1.5481576919555664,0.5770000219345093,0.0,1
1666655878.55931997,164765070,0,3,172696599,2233,13,0.93,42.7307564,-84.4905615,255.20000000000002,0.1724557876586914,80.31919860839844,0.2900000214576721,0.0,1
1666655878.75930595,164965056,0,3,172696799,2233,13,0.72,42.7307558,-84.4905613,255.01000000000002,0.15415577590465546,67.09423065185547,0.4280000329017639,0.0,1
1666655878.95929313,165165043,0,3,172696999,2233,13,0.72,42.730756,-84.4905607,254.67000000000002,0.15507741272449493,67.23802947998047,0.1940000057220459,0.0,1
1666655879.15930295,165365053,0,3,172697199,2233,13,0.72,42.7307564,-84.4905603,254.44,0.16052725911140442,45.75716781616211,0.27800002694129944,0.0,1
1666655879.35928607,165565036,0,3,172697399,2233,10,0.72,42.7307566,-84.49055949999999,254.43,0.4024425745010376,191.75668334960938,0.46300002932548523,0.0,1
1666655879.55927300,165765023,0,3,172697599,2233,12,0.72,42.730757,-84.4905594,254.41,0.25973063707351685,240.47402954101562,0.3530000150203705,0.0,1
1666655879.75926709,165965017,0,3,172697799,2233,11,0.81,42.7307573,-84.4905594,254.65,0.2618415653705597,257.87469482421875,0.29500001668930054,0.0,1
1666655879.95928311,166165033,0,3,172697999,2233,12,0.81,42.7307579,-84.49055849999999,254.78,0.3533864915370941,83.33751678466797,0.28200000524520874,0.0,1
1666655880.15933490,166365085,0,3,172698199,2233,11,0.81,42.7307586,-84.4905579,254.78,0.11980818957090378,232.4605712890625,0.20200000703334808,0.0,1
1666655880.35932493,166565075,0,3,172698399,2233,12,0.81,42.730759299999995,-84.4905575,254.68,0.3603248596191406,57.236106872558594,0.2070000171661377,0.0,1
1666655880.55928612,166765036,0,3,172698599,2233,13,0.81,42.7307602,-84.4905563,254.64000000000001,0.3659248650074005,85.925537109375,0.2460000067949295,0.0,1
1666655880.75931907,166965069,0,3,172698799,2233,12,0.81,42.7307604,-84.4905557,254.64000000000001,0.19972480833530426,228.24734497070312,0.18400001525878906,0.0,1
1666655880.95925212,167165002,0,3,172698999,2233,13,0.81,42.7307604,-84.49055589999999,254.67000000000002,0.35003572702407837,224.42127990722656,0.43800002336502075,0.0,1
1666655881.15923190,167364982,0,3,172699199,2233,14,0.81,42.7307604,-84.4905562,254.61,0.3557640016078949,231.3905029296875,0.46000000834465027,0.0,1
1666655881.35926104,167565011,0,3,172699399,2233,12,0.81,42.7307607,-84.4905564,254.64000000000001,0.053009435534477234,181.0809326171875,-0.029000001028180122,0.0,1
1666655881.55927610,167765026,0,3,172699599,2233,13,0.81,42.7307615,-84.4905558,254.70000000000002,0.15741030871868134,103.59483337402344,0.13100001215934753,0.0,1
1666655881.75932407,167965074,0,3,172699799,2233,13,0.75,42.730762299999995,-84.49055539999999,254.77,0.07223572582006454,338.0513000488281,0.023000001907348633,0.0,1
1666655881.95936394,168165114,0,3,172699999,2233,13,0.75,42.7307634,-84.4905553,254.75,0.0570087730884552,37.87498092651367,0.12600000202655792,0.0,1
1666655882.15929008,168365040,0,3,172700199,2233,13,0.75,42.7307644,-84.4905552,254.68,0.06103278324007988,1.877877116203308,0.14500001072883606,0.0,1
1666655882.35924101,168564991,0,3,172700399,2233,13,0.75,42.7307655,-84.4905551,254.58,0.05011985823512077,61.3895378112793,0.14400000870227814,0.0,1
1666655882.55924797,168764998,0,3,172700599,2233,12,0.75,42.730766599999995,-84.49055489999999,254.48000000000002,0.06987131386995316,260.942138671875,0.20800000429153442,0.0,1
1666655882.75933099,168965081,0,3,172700799,2233,12,0.75,42.730767799999995,-84.49055489999999,254.3,0.10607545077800751,224.23609924316406,0.09200000762939453,0.0,1
1666655882.95921803,169164968,0,3,172700999,2233,12,0.75,42.730769099999996,-84.49055489999999,254.1,0.16577394306659698,275.53863525390625,0.20500001311302185,0.0,1
1666655883.15928411,169365034,0,3,172701199,2233,11,0.75,42.7307705,-84.4905551,253.82,0.12856127321720123,275.3558349609375,0.16900001466274261,0.0,1
1666655883.35925603,169565006,0,3,172701399,2233,11,0.75,42.7307717,-84.490555,253.62,0.04560701921582222,285.255126953125,0.20100000500679016,0.0,1
1666655883.55931306,169765063,0,3,172701599,2233,11,0.75,42.7307729,-84.49055469999999,253.46,0.11104054003953934,51.581939697265625,0.1600000113248825,0.0,1
1666655883.75932002,169965070,0,3,172701799,2233,11,0.79,42.7307741,-84.49055469999999,253.3,0.1619938313961029,281.032470703125,0.3700000047683716,0.0,1
1666655883.95922995,170164980,0,3,172701999,2233,11,0.79,42.7307753,-84.49055469999999,253.11,0.021587034687399864,283.39251708984375,0.22100001573562622,0.0,1
1666655884.15926909,170365019,0,3,172702199,2233,11,0.79,42.7307766,-84.4905544,252.86,0.07920859009027481,46.02302932739258,0.23100000619888306,0.0,1
1666655884.35916805,170564918,0,3,172702399,2233,11,0.79,42.730778,-84.4905541,252.61,0.04295346513390541,12.094756126403809,0.2150000035762787,0.0,1
1666655884.55917501,170764925,0,3,172702599,2233,11,0.79,42.7307792,-84.490554,252.4,0.0604400560259819,16.336042404174805,0.24000000953674316,0.0,1
1666655884.75928211,170965032,0,3,172702799,2233,11,0.79,42.7307802,-84.4905541,252.22,0.08200609683990479,179.30130004882812,0.1469999998807907,0.0,1
1666655884.95926690,171165017,0,3,172702999,2233,11,0.79,42.7307813,-84.49055419999999,251.96,0.0944298729300499,275.4691162109375,0.16200000047683716,0.0,1
1666655885.15930700,171365057,0,3,172703199,2233,11,0.79,42.7307826,-84.4905545,251.72,0.14516887068748474,279.9165344238281,0.23900000751018524,0.0,1
1666655885.35931611,171565066,0,3,172703399,2233,11,0.79,42.7307838,-84.4905548,251.45000000000002,0.06648308038711548,195.70864868164062,0.15400001406669617,0.0,1
1666655885.53889799,171744648,0,3,172703599,2233,11,0.79,42.7307852,-84.4905548,251.14000000000001,0.06902898102998734,38.53017807006836,0.20600001513957977,0.0,1
1666655885.75923491,171964985,0,3,172703799,2233,11,0.79,42.7307865,-84.4905548,250.85,0.06041523441672325,335.5560607910156,0.2880000174045563,0.0,1
1666655885.95915294,172164903,0,3,172703999,2233,11,0.79,42.730787899999996,-84.49055489999999,250.52,0.03413209691643715,354.9575500488281,0.15300001204013824,0.0,1
1666655886.15920305,172364953,0,3,172704199,2233,11,0.79,42.7307895,-84.490555,250.14000000000001,0.04933558776974678,342.299560546875,0.2150000035762787,0.0,1
1666655886.35923100,172564981,0,3,172704399,2233,11,0.79,42.7307908,-84.4905552,249.88,0.05980802699923515,290.5560607910156,0.2070000171661377,0.0,1
1666655886.55927706,172765027,0,3,172704599,2233,11,0.79,42.730792099999995,-84.49055539999999,249.63,0.04328972473740578,276.63250732421875,0.20500001311302185,0.0,1
1666655886.75929689,172965047,0,3,172704799,2233,11,0.79,42.730793299999995,-84.4905555,249.32,0.05331041291356087,156.8013916015625,0.16200000047683716,0.0,1
1666655886.95937705,173165127,0,3,172704999,2233,11,0.79,42.7307948,-84.4905553,249.01000000000002,0.056320514529943466,276.1155090332031,0.2930000126361847,0.0,1
1666655887.15926003,173365010,0,3,172705199,2233,11,0.79,42.7307963,-84.490555,248.70000000000002,0.061684682965278625,109.90373992919922,0.07200000435113907,0.0,1
1666655887.35927010,173565020,0,3,172705399,2233,10,0.79,42.7307978,-84.49055469999999,248.36,0.034539833664894104,337.89056396484375,0.26600000262260437,0.0,1
1666655887.55917501,173764925,0,3,172705599,2233,10,0.79,42.7307993,-84.4905546,248.03,0.060074955224990845,272.8624267578125,0.2980000078678131,0.0,1
1666655887.75923204,173964982,0,3,172705799,2233,10,0.79,42.730800699999996,-84.4905545,247.68,0.037947334349155426,71.56504821777344,0.2750000059604645,0.0,1
1666655887.95927191,174165022,0,3,172705999,2233,10,0.79,42.730802,-84.4905543,247.36,0.13150285184383392,50.863868713378906,0.320000022649765,0.0,1
1666655888.15924311,174364993,0,3,172706199,2233,10,0.79,42.7308035,-84.4905541,247.0,0.1336338222026825,5.582605361938477,0.2939999997615814,0.0,1
1666655888.35928512,174565035,0,3,172706399,2233,10,0.79,42.730805,-84.4905538,246.65,0.1758408397436142,70.7406997680664,0.34700000286102295,0.0,1
1666655888.55932403,174765074,0,3,172706599,2233,10,0.79,42.7308066,-84.49055349999999,246.31,0.12224974483251572,346.7594909667969,0.36500000953674316,0.0,1
1666655888.75926495,174965015,0,3,172706799,2233,10,0.79,42.7308082,-84.4905533,245.96,0.09953894466161728,337.5572509765625,0.3960000276565552,0.0,1
1666655888.95925212,175165002,0,3,172706999,2233,10,0.79,42.7308096,-84.4905532,245.65,0.07889233529567719,59.534454345703125,0.39900001883506775,0.0,1
1666655889.15921998,175364970,0,3,172707199,2233,10,0.79,42.7308109,-84.49055299999999,245.34,0.17029975354671478,352.9167175292969,0.37300002574920654,0.0,1
1666655889.35921693,175564967,0,3,172707399,2233,10,0.79,42.7308125,-84.4905527,245.02,0.1514265537261963,10.271002769470215,0.4100000262260437,0.0,1
1666655889.53888512,175744635,0,3,172707599,2233,10,0.79,42.7308139,-84.49055229999999,244.75,0.22029300034046173,35.2050895690918,0.38200002908706665,0.0,1
1666655889.75924397,175964994,0,3,172707799,2233,10,0.79,42.7308149,-84.4905519,244.5,0.09718538820743561,49.59054183959961,0.2670000195503235,0.0,1
1666655889.95926905,176165019,0,3,172707999,2233,10,0.79,42.730815899999996,-84.49055159999999,244.26,0.11011358350515366,346.34234619140625,0.39100003242492676,0.0,1
1666655890.15932393,176365074,0,3,172708199,2233,10,0.79,42.730817099999996,-84.49055129999999,243.98000000000002,0.06477653980255127,351.1193542480469,0.3110000193119049,0.0,1
1666655890.35927296,176565023,0,3,172708399,2233,10,0.79,42.730818199999995,-84.490551,243.81,0.09152595698833466,33.863685607910156,0.2240000069141388,0.0,1
1666655890.55919695,176764947,0,3,172708599,2233,10,0.79,42.730819499999996,-84.4905507,243.54,0.04891829937696457,40.855377197265625,0.39100003242492676,0.0,1
1666655890.75925398,176965004,0,3,172708799,2233,10,1.16,42.7308209,-84.4905503,243.22,0.09300538152456284,0.6160598993301392,0.3330000042915344,0.0,1
1666655890.93894792,177144698,0,3,172708999,2233,10,1.16,42.7308221,-84.4905501,242.96,0.037589892745018005,298.6104736328125,0.45900002121925354,0.0,1
1666655891.15924096,177364991,0,3,172709199,2233,9,1.16,42.7308234,-84.49055,242.70000000000002,0.1808784157037735,351.7355041503906,0.24500000476837158,0.0,1
1666655891.35926795,177565018,0,3,172709399,2233,9,1.16,42.7308247,-84.4905498,242.52,0.251700222492218,9.836553573608398,0.3750000298023224,0.0,1
1666655891.55925012,177765000,0,3,172709599,2233,9,1.16,42.7308258,-84.4905496,242.27,0.051623642444610596,261.0850830078125,0.281000018119812,0.0,1
1666655891.75924993,177965000,0,3,172709799,2233,10,1.16,42.7308271,-84.4905493,241.96,0.14179210364818573,334.519287109375,0.36100003123283386,0.0,1
1666655891.95926690,178165017,0,3,172709999,2233,10,1.16,42.730828599999995,-84.490549,241.63,0.15042607486248016,305.8033447265625,0.20800000429153442,0.0,1
1666655892.15920901,178364959,0,3,172710199,2233,10,1.16,42.730829899999996,-84.49054869999999,241.31,0.11494782567024231,338.56884765625,0.23000000417232513,0.0,1
1666655892.33895707,178544707,0,3,172710399,2233,10,1.16,42.730831099999996,-84.4905483,240.99,0.06551335752010345,238.7362823486328,0.2110000103712082,0.0,1
1666655892.55926704,178765017,0,3,172710599,2233,10,1.16,42.730832299999996,-84.4905479,240.69,0.057271286845207214,294.775146484375,0.11800000816583633,0.0,1
1666655892.75928903,178965039,0,3,172710799,2233,10,1.16,42.7308333,-84.4905474,240.45000000000002,0.07912016659975052,69.2744369506836,0.04800000041723251,0.0,1
1666655892.95931506,179165065,0,3,172710999,2233,9,1.16,42.7308344,-84.49054679999999,240.26,0.09436631202697754,12.8580904006958,0.10000000149011612,0.0,1
1666655893.15927100,179365021,0,3,172711199,2233,9,1.16,42.7308355,-84.4905462,240.07,0.07889233529567719,59.534454345703125,-0.09800000488758087,0.0,1
1666655893.35930204,179565052,0,3,172711399,2233,10,1.16,42.730836,-84.4905462,239.97,0.03500000014901161,126.8698959350586,0.09200000762939453,0.0,1
1666655893.55922508,179764975,0,3,172711599,2233,11,1.16,42.730836499999995,-84.4905461,239.81,0.08373768627643585,130.15599060058594,-0.01600000075995922,0.0,1
1666655893.75920296,179964953,0,3,172711799,2233,10,1.1300000000000001,42.7308368,-84.490546,239.76,0.027202943339943886,53.97262191772461,-0.003000000026077032,0.0,1
1666655893.95921302,180164963,0,3,172711999,2233,10,1.1300000000000001,42.730837099999995,-84.49054629999999,239.66,0.07962412387132645,295.2777099609375,0.06000000238418579,0.0,1
1666655894.17894602,180384696,0,3,172712199,2233,10,1.1300000000000001,42.7308376,-84.4905472,239.53,0.35473090410232544,303.73486328125,0.4970000088214874,0.0,1
1666655894.35925007,180565000,0,3,172712399,2233,10,1.1300000000000001,42.7308381,-84.4905478,239.45000000000002,0.08805112540721893,358.0474853515625,0.17100000381469727,0.0,1
1666655894.55929303,180765043,0,3,172712599,2233,9,1.1300000000000001,42.7308391,-84.4905476,239.25,0.16007812321186066,1.7899105548858643,0.38700002431869507,0.0,1
1666655894.75926089,180965011,0,3,172712799,2233,9,0.97,42.7308398,-84.49054819999999,238.98000000000002,0.22810962796211243,300.2745361328125,0.37800002098083496,0.0,1
1666655894.95924592,181164996,0,3,172712999,2233,9,0.97,42.730840099999995,-84.4905484,238.85,0.14413882791996002,60.94539260864258,0.3840000033378601,0.0,1
1666655895.15916491,181364915,0,3,172713199,2233,9,0.97,42.7308406,-84.4905484,238.68,0.15546704828739166,346.2319030761719,0.359000027179718,0.0,1
1666655895.35924697,181564997,0,3,172713399,2233,10,0.97,42.730841,-84.4905485,238.57,0.1379057765007019,58.03865432739258,0.30400002002716064,0.0,1
1666655895.55926108,181765011,0,3,172713599,2233,11,0.97,42.7308412,-84.49054799999999,238.61,0.12253979593515396,26.146839141845703,0.453000009059906,0.0,1
1666655895.75932193,181965072,0,3,172713799,2233,11,0.8300000000000001,42.7308413,-84.4905474,238.70000000000002,0.1373608410358429,16.059986114501953,0.3790000081062317,0.0,1
1666655895.95925999,182165010,0,3,172713999,2233,10,0.8300000000000001,42.7308415,-84.4905461,238.9,0.20092785358428955,22.22503089904785,0.38100001215934753,0.0,1
1666655896.15929413,182365044,0,3,172714199,2233,10,0.8300000000000001,42.7308422,-84.490545,238.97,0.20640011131763458,53.0745849609375,0.24700000882148743,0.0,1
1666655896.35935092,182565101,0,3,172714399,2233,10,0.8300000000000001,42.730843,-84.4905435,239.06,0.293233722448349,48.317779541015625,0.3960000276565552,0.0,1
1666655896.55923390,182764984,0,3,172714599,2233,10,0.8300000000000001,42.7308436,-84.49054199999999,239.18,0.22182202339172363,48.83837127685547,0.27000001072883606,0.0,1
1666655896.75922608,182964976,0,3,172714799,2233,10,0.85,42.730844399999995,-84.4905407,239.3,0.07017834484577179,4.085616588592529,0.3360000252723694,0.0,1
1666655896.95917296,183164923,0,3,172714999,2233,10,0.85,42.7308447,-84.49053959999999,239.51,0.0259422454982996,117.55279541015625,0.25200000405311584,0.0,1
1666655897.15920997,183364960,0,3,172715199,2233,10,0.85,42.7308449,-84.4905386,239.72,0.03176476061344147,298.1785888671875,0.17500001192092896,0.0,1
1666655897.35927701,183565027,0,3,172715399,2233,10,0.85,42.730845099999996,-84.490538,239.89000000000001,0.06621933728456497,255.12432861328125,0.1810000091791153,0.0,1
1666655897.55926204,183765012,0,3,172715599,2233,10,0.85,42.730845599999995,-84.49053769999999,239.88,0.08209750801324844,272.792724609375,0.281000018119812,0.0,1
1666655897.75929499,183965045,0,3,172715799,2233,10,0.85,42.730846299999996,-84.4905374,239.89000000000001,0.16918925940990448,357.289794921875,0.23400001227855682,0.0,1
1666655897.95932007,184165070,0,3,172715999,2233,10,0.85,42.7308473,-84.49053669999999,239.84,0.12116517871618271,16.78982925415039,0.1730000078678131,0.0,1
1666656085.35931492,371565065,0,3,172903399,2233,12,0.8300000000000001,42.730739,-84.4905263,259.17,0.05565968528389931,17.78388786315918,0.14900000393390656,0.0,1
1666656085.55929303,371765043,0,3,172903599,2233,12,0.8300000000000001,42.7307391,-84.49052569999999,258.99,0.11384639143943787,44.64413070678711,0.07700000703334808,0.0,1
1666656085.75920796,371964958,0,3,172903799,2233,12,0.8300000000000001,42.7307391,-84.4905253,258.82,0.08420214056968689,195.8519287109375,0.10400000214576721,0.0,1
1666656085.95920396,372164954,0,3,172903999,2233,12,0.8300000000000001,42.7307391,-84.4905249,258.67,0.0403112918138504,7.125016212463379,0.09800000488758087,0.0,1
1666656086.15924597,372364996,0,3,172904199,2233,12,0.8300000000000001,42.7307391,-84.49052449999999,258.52,0.031827662140131,133.7269744873047,0.049000002443790436,0.0,1
1666656086.35925698,372565007,0,3,172904399,2233,12,0.8300000000000001,42.730739,-84.4905241,258.36,0.1244266927242279,193.4778289794922,0.03400000184774399,0.0,1
1666656086.55930305,372765053,0,3,172904599,2233,12,0.8300000000000001,42.7307389,-84.4905237,258.16,0.037215590476989746,6.170175075531006,0.2110000103712082,0.0,1
1666656086.73901510,372944765,0,3,172904799,2233,13,0.77,42.7307391,-84.4905232,257.99,0.0836002379655838,36.73282241821289,0.04400000348687172,0.0,1
1666656086.95925713,373165007,0,3,172904999,2233,11,0.77,42.730739299999996,-84.49052259999999,257.83,0.011661904864013195,120.96373748779297,0.04700000211596489,0.0,1
1666656087.15930891,373365059,0,3,172905199,2233,12,0.77,42.7307394,-84.49052209999999,257.65,0.02475883811712265,43.36342239379883,0.12600000202655792,0.0,1
1666656087.35924602,373564996,0,3,172905399,2233,12,0.77,42.7307395,-84.4905215,257.47,0.03858756273984909,31.218402862548828,0.10300000756978989,0.0,1
1666656087.55921912,373764969,0,3,172905599,2233,12,0.77,42.7307397,-84.49052089999999,257.3,0.0913509801030159,5.024075031280518,0.13700000941753387,0.0,1
1666656087.75925994,373965010,0,3,172905799,2233,12,0.79,42.730739899999996,-84.4905205,257.13,0.03671512007713318,299.3577575683594,0.08000000566244125,0.0,1
1666656087.95930696,374165057,0,3,172905999,2233,12,0.79,42.73074,-84.4905199,256.97,0.06888396292924881,62.31893539428711,0.0690000057220459,0.0,1
1666656088.15929413,374365044,0,3,172906199,2233,12,0.79,42.73074,-84.4905193,256.81,0.07023531943559647,61.975494384765625,0.07800000160932541,0.0,1
1666656088.35931492,374565065,0,3,172906399,2233,13,0.79,42.7307401,-84.4905186,256.61,0.02640075795352459,65.37642669677734,0.014000000432133675,0.0,1
1666656088.55939102,374765141,0,3,172906599,2233,13,0.79,42.7307401,-84.49051829999999,256.49,0.049244288355112076,12.907408714294434,0.04100000113248825,0.0,1
1666656088.75927711,374965027,0,3,172906799,2233,13,0.79,42.73074,-84.490518,256.39,0.07213875651359558,226.12330627441406,0.005000000353902578,0.0,1
1666656088.95925093,375165001,0,3,172906999,2233,13,0.79,42.73074,-84.49051759999999,256.27,0.02927456423640251,82.14668273925781,-0.026000000536441803,0.0,1
1666656089.15931797,375365068,0,3,172907199,2233,13,0.79,42.73074,-84.4905173,256.18,0.053150732070207596,78.05582427978516,0.029000001028180122,0.0,1
