timestamp,TimeUS,Lat,Lng,Alt,RelHomeAlt,RelOriginAlt
1666655825.61932802,111825078,42.7308156,-84.49070739999999,263.25,0.005754578858613968,-0.09424541890621185
1666655825.65985107,111865601,42.7308156,-84.4907077,263.25,0.008739087730646133,-0.09126091003417969
1666655825.65998602,111865736,42.7308156,-84.4907077,263.25,0.008739087730646133,-0.09126091003417969
1666655825.69953609,111905286,42.7308156,-84.49070789999999,263.2599792480469,0.010371368378400803,-0.08962862938642502
1666655825.73925900,111945009,42.7308156,-84.49070809999999,263.2599792480469,0.011665653437376022,-0.0883343443274498
1666655825.75986505,111965615,42.7308156,-84.4907082,263.2599792480469,0.012562233954668045,-0.08743776381015778
1666655825.77927208,111985022,42.7308156,-84.4907083,263.2599792480469,0.01244727149605751,-0.08755272626876831
1666655825.81931210,112025062,42.7308155,-84.49070859999999,263.2599792480469,0.010848190635442734,-0.08915180712938309
1666655825.85977793,112065528,42.7308155,-84.4907088,263.25,0.009300675243139267,-0.09069932252168655
1666655825.85987806,112065628,42.7308155,-84.4907088,263.25,0.009300675243139267,-0.09069932252168655
1666655825.89980102,112105551,42.7308154,-84.490709,263.25,0.007674772292375565,-0.09232522547245026
1666655825.93922901,112144979,42.7308154,-84.4907092,263.25,0.006401631981134415,-0.0935983657836914
1666655825.95980000,112165550,42.7308154,-84.49070929999999,263.25,0.005728710442781448,-0.09427128732204437
1666655825.97922206,112184972,42.730815299999996,-84.4907094,263.25,0.004219319671392441,-0.09578067809343338
1666655826.01925707,112225007,42.730815299999996,-84.4907097,263.25,0.0012120641767978668,-0.09878793358802795
1666655826.05991006,112265660,42.730815199999995,-84.4907099,263.239990234375,-0.0019150711596012115,-0.10191506892442703
1666655826.06002998,112265780,42.730815199999995,-84.4907099,263.239990234375,-0.0019150711596012115,-0.10191506892442703
1666655826.09987497,112305625,42.7308151,-84.4907101,263.239990234375,-0.004628133028745651,-0.10462813079357147
1666655826.13933611,112345086,42.7308151,-84.49071029999999,263.239990234375,-0.0069031380116939545,-0.10690313577651978
1666655826.15982199,112365572,42.7308151,-84.4907104,263.239990234375,-0.00812620297074318,-0.108126200735569
1666655826.17922306,112384973,42.730815,-84.49071049999999,263.239990234375,-0.00978393480181694,-0.10978393256664276
1666655826.21955991,112425310,42.7308149,-84.4907107,263.22998046875,-0.012975122779607773,-0.1129751205444336
1666655826.25979400,112465544,42.7308148,-84.4907109,263.22998046875,-0.016116637736558914,-0.11611663550138474
1666655826.25996709,112465717,42.7308148,-84.4907109,263.22998046875,-0.016116637736558914,-0.11611663550138474
1666655826.29985905,112505609,42.7308148,-84.4907111,263.22998046875,-0.01887531951069832,-0.11887531727552414
1666655826.33935905,112545109,42.730814699999996,-84.4907113,263.2200012207031,-0.02117149904370308,-0.1211714968085289
1666655826.35975695,112565507,42.730814699999996,-84.4907114,263.2200012207031,-0.02238527312874794,-0.12238527089357376
1666655826.37920094,112584951,42.730814699999996,-84.49071149999999,263.2200012207031,-0.0243099145591259,-0.12430991232395172
1666655826.41919303,112624943,42.730814699999996,-84.49071169999999,263.2200012207031,-0.028439875692129135,-0.12843987345695496
1666655826.45977998,112665530,42.730814599999995,-84.490712,263.2099914550781,-0.032777439802885056,-0.13277743756771088
1666655826.45994711,112665697,42.730814599999995,-84.490712,263.2099914550781,-0.032777439802885056,-0.13277743756771088
1666655826.49978805,112705538,42.730814599999995,-84.49071219999999,263.2099914550781,-0.03621774539351463,-0.13621774315834045
1666655826.53928709,112745037,42.7308145,-84.49071239999999,263.2099914550781,-0.03897910937666893,-0.13897910714149475
1666655826.55972099,112765471,42.7308145,-84.4907125,263.1999816894531,-0.04042598232626915,-0.14042598009109497
1666655826.57924294,112784993,42.7308144,-84.4907125,263.1999816894531,-0.042506422847509384,-0.1425064206123352
1666655826.61925697,112825007,42.7308144,-84.4907127,263.1999816894531,-0.04674416407942772,-0.14674416184425354
1666655826.65976906,112865519,42.7308143,-84.490713,263.19000244140625,-0.051092471927404404,-0.15109246969223022
1666655826.65984011,112865590,42.7308143,-84.490713,263.19000244140625,-0.051092471927404404,-0.15109246969223022
1666655826.69993305,112905683,42.7308142,-84.4907131,263.19000244140625,-0.05458485707640648,-0.1545848548412323
1666655826.73933601,112945086,42.7308142,-84.4907133,263.19000244140625,-0.057251911610364914,-0.15725190937519073
1666655826.75971794,112965468,42.730814099999996,-84.49071339999999,263.19000244140625,-0.058612044900655746,-0.15861204266548157
1666655826.77929807,112985048,42.730814099999996,-84.49071339999999,263.17999267578125,-0.060494136065244675,-0.1604941338300705
1666655826.81935191,113025102,42.730814099999996,-84.49071359999999,263.17999267578125,-0.06406117975711823,-0.16406117379665375
1666655826.85974598,113065496,42.730813999999995,-84.4907138,263.17999267578125,-0.06751275062561035,-0.16751274466514587
1666655826.85985899,113065609,42.730813999999995,-84.4907138,263.17999267578125,-0.06751275062561035,-0.16751274466514587
1666655826.89993691,113105687,42.7308139,-84.4907139,263.16998291015625,-0.07058048248291016,-0.17058047652244568
1666655826.93924809,113144998,42.7308139,-84.490714,263.16998291015625,-0.07307061553001404,-0.17307060956954956
1666655826.95972800,113165478,42.7308139,-84.49071409999999,263.16998291015625,-0.07426297664642334,-0.17426297068595886
1666655826.97931194,113185062,42.7308138,-84.49071409999999,263.16998291015625,-0.07670123875141144,-0.17670123279094696
1666655827.01928592,113225036,42.7308138,-84.4907143,263.1600036621094,-0.08131858706474304,-0.18131858110427856
1666655827.05992889,113265679,42.7308137,-84.4907145,263.1600036621094,-0.08571597933769226,-0.18571597337722778
1666655827.06005502,113265805,42.7308137,-84.4907145,263.1600036621094,-0.08571597933769226,-0.18571597337722778
1666655827.09978700,113305537,42.7308136,-84.49071459999999,263.1600036621094,-0.08955836296081543,-0.18955835700035095
1666655827.13918209,113344932,42.7308136,-84.49071479999999,263.1499938964844,-0.09288457036018372,-0.19288456439971924
1666655827.15979791,113365548,42.7308136,-84.49071479999999,263.1499938964844,-0.0945967584848404,-0.19459675252437592
1666655827.17926693,113385017,42.7308135,-84.4907149,263.1499938964844,-0.09711447358131409,-0.1971144676208496
1666655827.21952510,113425275,42.7308135,-84.490715,263.1399841308594,-0.10217306017875671,-0.20217305421829224
1666655827.25974512,113465495,42.730813399999995,-84.4907152,263.1399841308594,-0.10713754594326019,-0.20713753998279572
1666655827.25984907,113465599,42.730813399999995,-84.4907152,263.1399841308594,-0.10713754594326019,-0.20713753998279572
1666655827.29979801,113505548,42.730813399999995,-84.49071529999999,263.1300048828125,-0.11136689782142639,-0.21136689186096191
1666655827.33920813,113544958,42.7308133,-84.4907154,263.1300048828125,-0.11514484882354736,-0.21514484286308289
1666655827.35982800,113565578,42.7308133,-84.4907154,263.1300048828125,-0.11707562208175659,-0.21707561612129211
1666655827.37927794,113585028,42.7308133,-84.4907155,263.1300048828125,-0.11973229050636292,-0.21973228454589844
1666655827.41938400,113625134,42.7308132,-84.4907157,263.1199951171875,-0.12548395991325378,-0.2254839539527893
1666655827.45980501,113665555,42.7308131,-84.49071579999999,263.1099853515625,-0.13144518435001373,-0.23144517838954926
1666655827.45987606,113665626,42.7308131,-84.49071579999999,263.1099853515625,-0.13144518435001373,-0.23144517838954926
1666655827.49986410,113705614,42.730813,-84.4907159,263.1099853515625,-0.13629841804504395,-0.23629841208457947
1666655827.53925991,113745010,42.730813,-84.4907161,263.1000061035156,-0.14023888111114502,-0.24023887515068054
1666655827.55988312,113765633,42.730813,-84.4907161,263.1000061035156,-0.14229732751846313,-0.24229732155799866
1666655827.57919192,113784942,42.7308129,-84.4907162,263.1000061035156,-0.14500193297863007,-0.2450019270181656
1666655827.61924410,113824994,42.730812799999995,-84.4907164,263.0899963378906,-0.15040212869644165,-0.2504021227359772
1666655827.65975595,113865506,42.7308127,-84.4907166,263.0899963378906,-0.1557556688785553,-0.2557556629180908
1666655827.65988398,113865634,42.7308127,-84.4907166,263.0899963378906,-0.1557556688785553,-0.2557556629180908
1666655827.69986606,113905616,42.7308127,-84.4907167,263.0799865722656,-0.16033607721328735,-0.2603360712528229
1666655827.73935890,113945109,42.7308126,-84.4907168,263.0799865722656,-0.16426196694374084,-0.26426196098327637
1666655827.75980711,113965557,42.7308126,-84.4907169,263.0799865722656,-0.1663329005241394,-0.2663328945636749
1666655827.77931404,113985064,42.7308125,-84.49071699999999,263.0799865722656,-0.16974133253097534,-0.26974132657051086
1666655827.81918502,114024935,42.7308124,-84.49071719999999,263.07000732421875,-0.17695054411888123,-0.27695053815841675
1666655827.85970497,114065455,42.7308123,-84.4907174,263.05999755859375,-0.1840965449810028,-0.28409653902053833
1666655827.85988212,114065632,42.7308123,-84.4907174,263.05999755859375,-0.1840965449810028,-0.28409653902053833
1666655827.89985108,114105601,42.730812199999995,-84.4907175,263.05999755859375,-0.18989065289497375,-0.2898906469345093
1666655827.93935204,114145102,42.7308121,-84.49071769999999,263.04998779296875,-0.19466468691825867,-0.2946646809577942
1666655827.95982599,114165576,42.7308121,-84.49071769999999,263.04998779296875,-0.1971358060836792,-0.2971358001232147
1666655827.97924590,114184996,42.7308121,-84.4907178,263.0400085449219,-0.20028424263000488,-0.3002842366695404
1666655828.01927495,114225025,42.730812,-84.490718,263.0400085449219,-0.2062021791934967,-0.3062021732330322
1666655828.05974007,114265490,42.7308119,-84.49071819999999,263.0299987792969,-0.21183091402053833,-0.31183090806007385
1666655828.05990791,114265658,42.7308119,-84.49071819999999,263.0299987792969,-0.21183091402053833,-0.31183090806007385
1666655828.09983993,114305590,42.7308118,-84.4907183,263.0299987792969,-0.21666079759597778,-0.3166607916355133
1666655828.13933110,114345081,42.7308117,-84.49071839999999,263.0199890136719,-0.2205413281917572,-0.3205413222312927
1666655828.15987301,114365623,42.7308117,-84.4907185,263.0199890136719,-0.2224733531475067,-0.32247334718704224
1666655828.17924190,114384992,42.730811599999996,-84.4907186,263.0199890136719,-0.22565069794654846,-0.325650691986084
1666655828.21951795,114425268,42.7308115,-84.4907187,263.0099792480469,-0.23169919848442078,-0.3316991925239563
1666655828.25980210,114465552,42.7308115,-84.4907188,263.0099792480469,-0.23756295442581177,-0.3375629484653473
1666655828.25991201,114465662,42.7308115,-84.4907188,263.0099792480469,-0.23756295442581177,-0.3375629484653473
1666655828.29976392,114505514,42.7308114,-84.490719,263.0,-0.24255505204200745,-0.34255504608154297
1666655828.33933711,114545087,42.7308113,-84.490719,263.0,-0.24646171927452087,-0.3464617133140564
1666655828.35971904,114565469,42.7308113,-84.49071909999999,263.0,-0.24829038977622986,-0.3482903838157654
1666655828.37928295,114585033,42.7308113,-84.4907192,262.989990234375,-0.25128310918807983,-0.35128310322761536
1666655828.41928005,114625030,42.7308112,-84.4907193,262.989990234375,-0.2564108371734619,-0.35641083121299744
1666655828.45983005,114665580,42.7308111,-84.4907195,262.97998046875,-0.26107946038246155,-0.36107945442199707
1666655828.45992994,114665680,42.7308111,-84.4907195,262.97998046875,-0.26107946038246155,-0.36107945442199707
1666655828.49988890,114705639,42.7308111,-84.49071959999999,262.97998046875,-0.26532164216041565,-0.36532163619995117
1666655828.53917003,114744920,42.730810999999996,-84.4907197,262.97998046875,-0.2686704993247986,-0.3686704933643341
1666655828.55978394,114765534,42.730810999999996,-84.4907198,262.9700012207031,-0.2701896131038666,-0.3701896071434021
1666655828.57934213,114785092,42.730810999999996,-84.4907198,262.9700012207031,-0.27288123965263367,-0.3728812336921692
1666655828.61935306,114825103,42.7308109,-84.49072,262.9700012207031,-0.27727675437927246,-0.377276748418808
1666655828.65979290,114865543,42.7308108,-84.49072009999999,262.9599914550781,-0.2808513939380646,-0.3808513879776001
1666655828.65990710,114865657,42.7308108,-84.49072009999999,262.9599914550781,-0.2808513939380646,-0.3808513879776001
1666655828.69979310,114905543,42.7308107,-84.4907202,262.9599914550781,-0.28452691435813904,-0.38452690839767456
1666655828.73923397,114944984,42.7308107,-84.49072029999999,262.9599914550781,-0.287310928106308,-0.3873109221458435
1666655828.75978208,114965532,42.7308106,-84.49072029999999,262.9599914550781,-0.2884751260280609,-0.38847512006759644
1666655828.77933192,114985082,42.7308106,-84.4907204,262.9499816894531,-0.2909591495990753,-0.39095914363861084
1666655828.81932807,115025078,42.7308105,-84.4907205,262.9499816894531,-0.29482501745224,-0.3948250114917755
1666655828.85986400,115065614,42.730810399999996,-84.4907206,262.9499816894531,-0.2979277968406677,-0.39792779088020325
1666655828.85997105,115065721,42.730810399999996,-84.4907206,262.9499816894531,-0.2979277968406677,-0.39792779088020325
1666655828.89980197,115105552,42.730810299999995,-84.4907207,262.94000244140625,-0.3011365234851837,-0.40113651752471924
1666655828.93920708,115144957,42.7308102,-84.49072079999999,262.94000244140625,-0.3033383786678314,-0.40333837270736694
1666655828.95985889,115165609,42.7308102,-84.49072079999999,262.94000244140625,-0.30413684248924255,-0.4041368365287781
1666655828.97924209,115184992,42.7308101,-84.4907209,262.94000244140625,-0.30602866411209106,-0.4060286581516266
1666655829.01933098,115225081,42.7308101,-84.490721,262.94000244140625,-0.30779486894607544,-0.40779486298561096
1666655829.05973506,115265485,42.73081,-84.4907212,262.94000244140625,-0.30809086561203003,-0.40809085965156555
1666655829.05992293,115265673,42.73081,-84.4907212,262.94000244140625,-0.30809086561203003,-0.40809085965156555
1666655829.09979200,115305542,42.7308099,-84.49072129999999,262.94000244140625,-0.3095853924751282,-0.4095853865146637
1666655829.13934994,115345100,42.730809799999996,-84.49072129999999,262.92999267578125,-0.31010037660598755,-0.41010037064552307
1666655829.15982890,115365579,42.730809799999996,-84.4907214,262.94000244140625,-0.3099792003631592,-0.4099791944026947
1666655829.17921996,115384970,42.730809699999995,-84.49072149999999,262.92999267578125,-0.31179216504096985,-0.41179215908050537
1666655829.21965194,115425402,42.730809699999995,-84.4907217,262.92999267578125,-0.3133428394794464,-0.41334283351898193
1666655829.25975895,115465509,42.7308096,-84.4907217,262.92999267578125,-0.31356486678123474,-0.41356486082077026
1666655829.25989890,115465649,42.7308096,-84.4907217,262.92999267578125,-0.31356486678123474,-0.41356486082077026
1666655829.29985690,115505607,42.7308095,-84.4907218,262.92999267578125,-0.31488820910453796,-0.4148882031440735
1666655829.33930612,115545056,42.7308094,-84.4907219,262.92999267578125,-0.31518450379371643,-0.41518449783325195
1666655829.35980201,115565552,42.7308094,-84.4907219,262.92999267578125,-0.3148578107357025,-0.41485780477523804
1666655829.37928700,115585037,42.7308094,-84.49072199999999,262.92999267578125,-0.3165038526058197,-0.4165038466453552
1666655829.41931105,115625061,42.7308093,-84.4907221,262.92999267578125,-0.31762608885765076,-0.4176260828971863
1666655829.45983601,115665586,42.730809199999996,-84.4907223,262.92999267578125,-0.31711527705192566,-0.4171152710914612
1666655829.45996594,115665716,42.730809199999996,-84.4907223,262.92999267578125,-0.31711527705192566,-0.4171152710914612
1666655829.49990106,115705651,42.730809099999995,-84.4907224,262.92999267578125,-0.3179432451725006,-0.41794323921203613
1666655829.53932190,115745072,42.730809,-84.49072249999999,262.92999267578125,-0.317890465259552,-0.4178904592990875
1666655829.55975890,115765509,42.730809,-84.49072249999999,262.92999267578125,-0.31734511256217957,-0.4173451066017151
1666655829.57934093,115785091,42.7308089,-84.4907226,262.92999267578125,-0.31897926330566406,-0.4189792573451996
1666655829.61921597,115824966,42.7308088,-84.49072269999999,262.91998291015625,-0.32007578015327454,-0.42007577419281006
1666655829.65969706,115865447,42.7308087,-84.4907229,262.92999267578125,-0.31964775919914246,-0.419647753238678
1666655829.65980792,115865558,42.7308087,-84.4907229,262.92999267578125,-0.31964775919914246,-0.419647753238678
1666655829.69982100,115905571,42.7308087,-84.490723,262.91998291015625,-0.3206610083580017,-0.42066100239753723
1666655829.73929691,115945047,42.730808599999996,-84.4907231,262.91998291015625,-0.3208239674568176,-0.42082396149635315
1666655829.75984192,115965592,42.730808599999996,-84.4907231,262.91998291015625,-0.3215290904045105,-0.421529084444046
1666655829.77927208,115985022,42.730808499999995,-84.49072319999999,262.91998291015625,-0.3233654201030731,-0.42336541414260864
1666655829.81931901,116025069,42.730808499999995,-84.4907233,262.91998291015625,-0.324775755405426,-0.42477574944496155
1666655829.85977292,116065523,42.7308084,-84.4907234,262.91998291015625,-0.3249017596244812,-0.4249017536640167
1666655829.85984492,116065595,42.7308084,-84.4907234,262.91998291015625,-0.3249017596244812,-0.4249017536640167
1666655829.89982200,116105572,42.7308083,-84.4907235,262.91998291015625,-0.32629576325416565,-0.42629575729370117
1666655829.93939996,116145150,42.7308083,-84.4907235,262.91998291015625,-0.32689806818962097,-0.4268980622291565
1666655829.95970798,116165458,42.7308082,-84.4907236,262.91998291015625,-0.3267920911312103,-0.42679208517074585
1666655829.97927690,116185027,42.7308082,-84.4907236,262.91998291015625,-0.3285343647003174,-0.4285343587398529
1666655830.01921511,116224965,42.7308081,-84.49072369999999,262.91998291015625,-0.32985278964042664,-0.42985278367996216
1666655830.05977201,116265522,42.7308081,-84.4907238,262.91998291015625,-0.32972559332847595,-0.4297255873680115
1666655830.05988693,116265637,42.7308081,-84.4907238,262.91998291015625,-0.32972559332847595,-0.4297255873680115
1666655830.09978890,116305539,42.730807999999996,-84.4907238,262.9100036621094,-0.33079877495765686,-0.4307987689971924
1666655830.13928795,116345038,42.730807999999996,-84.49072389999999,262.9100036621094,-0.3307628333568573,-0.4307628273963928
1666655830.15977597,116365526,42.730807899999995,-84.49072389999999,262.9100036621094,-0.33017176389694214,-0.43017175793647766
1666655830.17932701,116385077,42.730807899999995,-84.49072389999999,262.9100036621094,-0.3310512900352478,-0.4310512840747833
1666655830.21954298,116425293,42.730807899999995,-84.49072389999999,262.91998291015625,-0.3300047516822815,-0.430004745721817
1666655830.25989509,116465645,42.7308078,-84.49072389999999,262.91998291015625,-0.3272637128829956,-0.42726370692253113
1666655830.26000810,116465758,42.7308078,-84.49072389999999,262.91998291015625,-0.3272637128829956,-0.42726370692253113
1666655830.29985809,116505608,42.7308078,-84.49072389999999,262.91998291015625,-0.32665541768074036,-0.4266554117202759
1666655830.33925891,116545009,42.7308077,-84.49072389999999,262.91998291015625,-0.32543256878852844,-0.42543256282806396
1666655830.35978794,116565538,42.7308077,-84.49072389999999,262.91998291015625,-0.3241552412509918,-0.42415523529052734
1666655830.37928009,116585030,42.7308077,-84.490724,262.91998291015625,-0.32598647475242615,-0.42598646879196167
1666655830.41935110,116625101,42.7308076,-84.490724,262.91998291015625,-0.3272337317466736,-0.4272337257862091
1666655830.45984101,116665591,42.7308076,-84.4907241,262.91998291015625,-0.327004611492157,-0.4270046055316925
1666655830.45994902,116665699,42.7308076,-84.4907241,262.91998291015625,-0.327004611492157,-0.4270046055316925
1666655830.49981213,116705562,42.7308076,-84.4907241,262.91998291015625,-0.3278440237045288,-0.42784401774406433
1666655830.53922200,116744972,42.7308075,-84.4907241,262.91998291015625,-0.32761678099632263,-0.42761677503585815
1666655830.55980992,116765560,42.7308075,-84.4907241,262.91998291015625,-0.3270103931427002,-0.4270103871822357
1666655830.57920694,116784957,42.7308075,-84.4907241,262.91998291015625,-0.32875391840934753,-0.42875391244888306
1666655830.61926198,116825012,42.7308075,-84.4907242,262.9100036621094,-0.3300516903400421,-0.43005168437957764
1666655830.65984106,116865591,42.7308075,-84.4907243,262.9100036621094,-0.3300127387046814,-0.4300127327442169
1666655830.65994406,116865694,42.7308075,-84.4907243,262.9100036621094,-0.3300127387046814,-0.4300127327442169
1666655830.69985390,116905604,42.7308075,-84.4907243,262.9100036621094,-0.3309888541698456,-0.4309888482093811
1666655830.73931408,116945064,42.7308075,-84.4907243,262.9100036621094,-0.33079659938812256,-0.4307965934276581
1666655830.75985694,116965607,42.7308075,-84.49072439999999,262.9100036621094,-0.33027151226997375,-0.4302715063095093
1666655830.77921200,116984962,42.7308075,-84.49072439999999,262.9100036621094,-0.33171185851097107,-0.4317118525505066
1666655830.81928706,117025037,42.7308075,-84.49072439999999,262.9100036621094,-0.3319997489452362,-0.43199974298477173
1666655830.85975409,117065504,42.7308075,-84.4907245,262.9100036621094,-0.330571711063385,-0.43057170510292053
1666655830.85992694,117065677,42.7308075,-84.4907245,262.9100036621094,-0.330571711063385,-0.43057170510292053
1666655830.89983392,117105584,42.7308075,-84.4907245,262.9100036621094,-0.33061790466308594,-0.43061789870262146
1666655830.93928599,117145036,42.7308075,-84.4907245,262.91998291015625,-0.32919856905937195,-0.42919856309890747
1666655830.95987511,117165625,42.7308075,-84.4907245,262.91998291015625,-0.3278661370277405,-0.427866131067276
1666655830.97925711,117185007,42.7308075,-84.4907245,262.91998291015625,-0.3292132318019867,-0.4292132258415222
1666655831.01933789,117225088,42.7308075,-84.4907246,262.91998291015625,-0.3288132846355438,-0.42881327867507935
1666655831.05971599,117265466,42.7308075,-84.4907247,262.91998291015625,-0.326189786195755,-0.4261897802352905
1666655831.05985713,117265607,42.7308075,-84.4907247,262.91998291015625,-0.326189786195755,-0.4261897802352905
1666655831.09994602,117305696,42.7308075,-84.4907247,262.91998291015625,-0.3254415988922119,-0.42544159293174744
1666655831.13932204,117345072,42.7308075,-84.4907247,262.91998291015625,-0.3234208822250366,-0.42342087626457214
1666655831.15977001,117365520,42.7308075,-84.4907248,262.91998291015625,-0.3231852352619171,-0.42318522930145264
1666655831.17931104,117385061,42.7308075,-84.49072489999999,262.91998291015625,-0.32448557019233704,-0.42448556423187256
1666655831.21957493,117425325,42.7308075,-84.490725,262.91998291015625,-0.3235771358013153,-0.42357712984085083
1666655831.25978899,117465539,42.7308075,-84.49072509999999,262.91998291015625,-0.32030320167541504,-0.42030319571495056
1666655831.25992608,117465676,42.7308075,-84.49072509999999,262.91998291015625,-0.32030320167541504,-0.42030319571495056
1666655831.29990506,117505655,42.7308075,-84.49072509999999,262.92999267578125,-0.3190189599990845,-0.41901895403862
1666655831.33930898,117545059,42.7308075,-84.4907252,262.92999267578125,-0.3165101110935211,-0.41651010513305664
1666655831.35982800,117565578,42.7308075,-84.4907252,262.92999267578125,-0.31447485089302063,-0.41447484493255615
1666655831.37933397,117585084,42.7308075,-84.4907252,262.92999267578125,-0.31595200300216675,-0.41595199704170227
1666655831.41926193,117625012,42.730807399999996,-84.4907253,262.92999267578125,-0.3150160610675812,-0.4150160551071167
1666655831.45975304,117665503,42.730807399999996,-84.4907254,262.92999267578125,-0.3116300702095032,-0.4116300642490387
1666655831.45985508,117665605,42.730807399999996,-84.4907254,262.92999267578125,-0.3116300702095032,-0.4116300642490387
1666655831.49986005,117705610,42.730807399999996,-84.4907255,262.94000244140625,-0.309672087430954,-0.4096720814704895
1666655831.53927898,117745029,42.730807399999996,-84.4907255,262.94000244140625,-0.3053063452243805,-0.405306339263916
1666655831.55983591,117765586,42.730807399999996,-84.49072559999999,262.94000244140625,-0.30216801166534424,-0.40216800570487976
1666655831.57927799,117785028,42.730807399999996,-84.49072559999999,262.94000244140625,-0.3022240102291107,-0.40222400426864624
1666655831.61928892,117825039,42.730807399999996,-84.4907257,262.9499816894531,-0.29664167761802673,-0.39664167165756226
1666655831.65984893,117865599,42.730807399999996,-84.49072579999999,262.9599914550781,-0.28716105222702026,-0.3871610462665558
1666655831.65994906,117865699,42.730807399999996,-84.49072579999999,262.9599914550781,-0.28716105222702026,-0.3871610462665558
1666655831.69979501,117905545,42.730807399999996,-84.4907259,262.9599914550781,-0.2811754643917084,-0.3811754584312439
1666655831.73931003,117945060,42.730807399999996,-84.4907259,262.9700012207031,-0.2731632888317108,-0.37316328287124634
1666655831.75978398,117965534,42.730807399999996,-84.490726,262.97998046875,-0.26783081889152527,-0.3678308129310608
1666655831.77932310,117985073,42.730807399999996,-84.490726,262.97998046875,-0.2669331431388855,-0.366933137178421
1666655831.81928611,118025036,42.730807299999995,-84.49072609999999,262.989990234375,-0.25849759578704834,-0.35849758982658386
1666655831.85981703,118065567,42.730807299999995,-84.4907262,263.0,-0.2456032931804657,-0.3456032872200012
1666655831.85993600,118065686,42.730807299999995,-84.4907262,263.0,-0.2456032931804657,-0.3456032872200012
1666655831.89981794,118105568,42.730807299999995,-84.4907262,263.0099792480469,-0.2364090383052826,-0.3364090323448181
1666655831.93929696,118145047,42.730807299999995,-84.49072629999999,263.0199890136719,-0.2240642011165619,-0.3240641951560974
1666655831.95984507,118165595,42.730807299999995,-84.49072629999999,263.0299987792969,-0.21612033247947693,-0.31612032651901245
1666655831.97925305,118185003,42.730807299999995,-84.4907264,263.0299987792969,-0.2142382562160492,-0.3142382502555847
1666655832.01928902,118225039,42.730807299999995,-84.4907265,263.0400085449219,-0.20246601104736328,-0.3024660050868988
1666655832.05982494,118265575,42.730807299999995,-84.4907266,263.05999755859375,-0.18493607640266418,-0.2849360704421997
1666655832.05994701,118265697,42.730807299999995,-84.4907266,263.05999755859375,-0.18493607640266418,-0.2849360704421997
1666655832.09983706,118305587,42.730807299999995,-84.4907267,263.07000732421875,-0.17081290483474731,-0.27081289887428284
1666655832.13921595,118344966,42.730807299999995,-84.49072679999999,263.0899963378906,-0.15272179245948792,-0.25272178649902344
1666655832.15980196,118365552,42.730807299999995,-84.49072679999999,263.1000061035156,-0.14172779023647308,-0.2417277842760086
1666655832.17916107,118384911,42.7308072,-84.4907269,263.1099853515625,-0.13639964163303375,-0.23639963567256927
1666655832.21960902,118425359,42.7308072,-84.4907271,263.1300048828125,-0.11566007137298584,-0.21566006541252136
1666655832.25983405,118465584,42.7308072,-84.4907272,263.1600036621094,-0.08758813142776489,-0.18758812546730042
1666655832.25993490,118465685,42.7308072,-84.4907272,263.1600036621094,-0.08758813142776489,-0.18758812546730042
1666655832.29980707,118505557,42.7308072,-84.4907273,263.17999267578125,-0.06498771905899048,-0.164987713098526
1666655832.33930492,118545055,42.7308072,-84.4907273,263.2099914550781,-0.038584377616643906,-0.13858437538146973
1666655832.35996294,118565713,42.7308072,-84.4907273,263.2200012207031,-0.02297769859433174,-0.12297769635915756
1666655832.37922692,118584977,42.7308072,-84.4907273,263.22998046875,-0.015233274549245834,-0.11523327231407166
1666655832.41926789,118625018,42.7308072,-84.4907274,263.2599792480469,0.01033814623951912,-0.0896618515253067
1666655832.45991492,118665665,42.7308072,-84.49072749999999,263.2900085449219,0.0424608439207077,-0.05753915384411812
1666655832.46002698,118665777,42.7308072,-84.49072749999999,263.2900085449219,0.0424608439207077,-0.05753915384411812
1666655832.49987912,118705629,42.7308072,-84.4907276,263.30999755859375,0.06743825972080231,-0.032561738044023514
1666655832.53929305,118745043,42.7308072,-84.4907276,263.3399963378906,0.09517157077789307,-0.004828426521271467
1666655832.55979800,118765548,42.7308072,-84.4907276,263.3599853515625,0.11131016910076141,0.011310174129903316
1666655832.57931399,118785064,42.7308072,-84.4907277,263.3599853515625,0.11994233727455139,0.01994233950972557
1666655832.61921692,118824967,42.7308072,-84.4907277,263.3899841308594,0.14710812270641327,0.04710812494158745
1666655832.65980101,118865551,42.7308072,-84.4907278,263.42999267578125,0.18024475872516632,0.0802447646856308
1666655832.65993309,118865683,42.7308072,-84.4907278,263.42999267578125,0.18024475872516632,0.0802447646856308
1666655832.69984293,118905593,42.730807299999995,-84.4907279,263.4599914550781,0.21581187844276428,0.11581187695264816
1666655832.73938012,118945130,42.730807299999995,-84.4907279,263.5199890136719,0.27080366015434265,0.17080366611480713
1666655832.75973511,118965485,42.730807299999995,-84.49072799999999,263.54998779296875,0.3031466007232666,0.20314660668373108
1666655832.77933812,118985088,42.730807299999995,-84.49072799999999,263.57000732421875,0.3201436400413513,0.2201436311006546
1666655832.81933808,119025088,42.7308072,-84.49072799999999,263.6300048828125,0.3819639980792999,0.2819640040397644
1666655832.85972190,119065472,42.7308072,-84.49072799999999,263.7099914550781,0.4625166654586792,0.3625166714191437
1666655832.85982990,119065580,42.7308072,-84.49072799999999,263.7099914550781,0.4625166654586792,0.3625166714191437
1666655832.90005302,119105803,42.7308071,-84.49072799999999,263.7699890136719,0.5253490209579468,0.42534902691841125
1666655832.93933296,119145083,42.7308071,-84.49072799999999,263.8399963378906,0.5960211753845215,0.49602118134498596
1666655832.95976400,119165514,42.7308071,-84.4907281,263.8800048828125,0.6371262669563293,0.5371262431144714
1666655832.97929907,119185049,42.7308071,-84.4907281,263.8999938964844,0.6577817797660828,0.5577817559242249
1666655833.01928210,119225032,42.730807,-84.4907281,263.9700012207031,0.7209594249725342,0.6209594011306763
1666655833.05984092,119265591,42.7308069,-84.49072819999999,264.0400085449219,0.7980890274047852,0.6980890035629272
1666655833.05996704,119265717,42.7308069,-84.49072819999999,264.0400085449219,0.7980890274047852,0.6980890035629272
1666655833.09984708,119305597,42.7308069,-84.49072819999999,264.1000061035156,0.8553884029388428,0.7553883790969849
1666655833.13929200,119345042,42.730806799999996,-84.49072819999999,264.1600036621094,0.9151095747947693,0.8151095509529114
1666655833.15978694,119365537,42.730806799999996,-84.49072819999999,264.19000244140625,0.9494544863700867,0.8494544625282288
1666655833.17935205,119385102,42.730806699999995,-84.49072819999999,264.2099914550781,0.9669606685638428,0.8669606447219849
1666655833.21950793,119425258,42.730806699999995,-84.49072819999999,264.2599792480469,1.0196117162704468,0.9196117520332336
1666655833.25979209,119465542,42.730806699999995,-84.49072819999999,264.3299865722656,1.0832674503326416,0.9832674860954285
1666655833.25991011,119465660,42.730806699999995,-84.49072819999999,264.3299865722656,1.0832674503326416,0.9832674860954285
1666655833.29984307,119505593,42.7308066,-84.49072819999999,264.3800048828125,1.1306092739105225,1.0306092500686646
1666655833.33930206,119545052,42.7308066,-84.49072819999999,264.42999267578125,1.1806434392929077,1.0806434154510498
1666655833.35989904,119565649,42.7308065,-84.49072819999999,264.4499816894531,1.2096856832504272,1.1096856594085693
1666655833.37925601,119585006,42.7308065,-84.49072819999999,264.4700012207031,1.223808765411377,1.123808741569519
1666655833.41931510,119625065,42.7308064,-84.49072819999999,264.5099792480469,1.2691318988800049,1.169131875038147
1666655833.45982790,119665578,42.7308064,-84.49072819999999,264.57000732421875,1.3249727487564087,1.2249727249145508
1666655833.45994210,119665692,42.7308064,-84.49072819999999,264.57000732421875,1.3249727487564087,1.2249727249145508
1666655833.49981403,119705564,42.7308063,-84.4907281,264.6099853515625,1.3651202917099,1.265120267868042
1666655833.53928113,119745031,42.7308063,-84.4907281,264.6499938964844,1.406325101852417,1.306325078010559
1666655833.55978107,119765531,42.7308063,-84.4907281,264.67999267578125,1.4301780462265015,1.3301780223846436
1666655833.57927895,119785029,42.730806199999996,-84.49072799999999,264.69000244140625,1.4421241283416748,1.342124104499817
1666655833.61937809,119825128,42.730806099999995,-84.49072799999999,264.7200012207031,1.4770877361297607,1.3770877122879028
1666655833.65984392,119865594,42.730806,-84.4907279,264.7599792480469,1.5187046527862549,1.418704628944397
1666655833.65995693,119865707,42.730806,-84.4907279,264.7599792480469,1.5187046527862549,1.418704628944397
1666655833.69979811,119905548,42.730806,-84.4907279,264.7900085449219,1.5478540658950806,1.4478540420532227
1666655833.73927093,119945021,42.7308059,-84.4907279,264.82000732421875,1.5761549472808838,1.4761549234390259
1666655833.75983596,119965586,42.7308059,-84.4907279,264.8399963378906,1.5928765535354614,1.4928765296936035
1666655833.77917290,119984923,42.7308059,-84.4907278,264.8500061035156,1.6024845838546753,1.5024845600128174
1666655833.81927705,120025027,42.7308057,-84.4907277,264.8699951171875,1.6271604299545288,1.527160406112671
1666655833.85991693,120065667,42.7308056,-84.4907276,264.8999938964844,1.6551620960235596,1.5551620721817017
1666655833.85999513,120065745,42.7308056,-84.4907276,264.8999938964844,1.6551620960235596,1.5551620721817017
1666655833.89992595,120105676,42.7308056,-84.49072749999999,264.91998291015625,1.6767780780792236,1.5767780542373657
1666655833.93925691,120145007,42.730805499999995,-84.4907274,264.94000244140625,1.6954749822616577,1.5954749584197998
1666655833.95977211,120165522,42.7308054,-84.4907273,264.9499816894531,1.706097960472107,1.606097936630249
1666655833.97923303,120184983,42.7308054,-84.4907272,264.9599914550781,1.7156471014022827,1.6156470775604248
1666655834.01935792,120225108,42.7308053,-84.4907271,264.97998046875,1.7352120876312256,1.6352120637893677
1666655834.05978107,120265531,42.7308051,-84.49072699999999,265.0,1.7553406953811646,1.6553406715393066
1666655834.05995798,120265708,42.7308051,-84.49072699999999,265.0,1.7553406953811646,1.6553406715393066
1666655834.09985209,120305602,42.730805,-84.4907269,265.0199890136719,1.7767517566680908,1.676751732826233
1666655834.13925505,120345005,42.730805,-84.49072679999999,265.0400085449219,1.7982683181762695,1.6982682943344116
1666655834.15982795,120365578,42.730804899999995,-84.49072679999999,265.04998779296875,1.8093341588974,1.709334135055542
1666655834.17929792,120385048,42.7308048,-84.49072679999999,265.07000732421875,1.8217666149139404,1.7217665910720825
1666655834.21963906,120425389,42.7308047,-84.4907267,265.0899963378906,1.841280460357666,1.741280436515808
1666655834.25988507,120465635,42.7308046,-84.4907266,265.1000061035156,1.8566120862960815,1.7566120624542236
1666655834.26003194,120465782,42.7308046,-84.4907266,265.1000061035156,1.8566120862960815,1.7566120624542236
1666655834.29993510,120505685,42.7308046,-84.4907266,265.1199951171875,1.8754491806030273,1.7754491567611694
1666655834.33929992,120545050,42.7308045,-84.4907265,265.1399841308594,1.8930375576019287,1.7930375337600708
1666655834.35973811,120565488,42.7308044,-84.4907265,265.1499938964844,1.9004098176956177,1.8004097938537598
1666655834.37926602,120585016,42.7308044,-84.4907265,265.1600036621094,1.9123820066452026,1.8123819828033447
1666655834.41929793,120625048,42.730804299999996,-84.4907265,265.16998291015625,1.9287229776382446,1.8287229537963867
1666655834.46000695,120665757,42.7308041,-84.4907265,265.19000244140625,1.9402974843978882,1.8402974605560303
1666655834.46008396,120665834,42.7308041,-84.4907265,265.19000244140625,1.9402974843978882,1.8402974605560303
1666655834.49980402,120705554,42.730804,-84.4907264,265.1999816894531,1.9568812847137451,1.8568812608718872
1666655834.53936410,120745114,42.7308039,-84.4907264,265.2200012207031,1.970868468284607,1.870868444442749
1666655834.55979800,120765548,42.7308039,-84.4907264,265.2200012207031,1.9752237796783447,1.8752237558364868
1666655834.57931709,120785067,42.7308038,-84.4907264,265.22998046875,1.9851256608963013,1.8851256370544434
1666655834.61940408,120825154,42.730803699999996,-84.4907264,265.239990234375,1.9951695203781128,1.8951694965362549
1666655834.65976691,120865517,42.7308035,-84.4907264,265.239990234375,1.9993793964385986,1.8993793725967407
1666655834.65984011,120865590,42.7308035,-84.4907264,265.239990234375,1.9993793964385986,1.8993793725967407
1666655834.69976807,120905518,42.7308034,-84.4907264,265.2599792480469,2.0110349655151367,1.9110350608825684
1666655834.73927808,120945028,42.7308032,-84.4907264,265.2699890136719,2.0220470428466797,1.9220470190048218
1666655834.75980210,120965552,42.7308032,-84.4907264,265.2699890136719,2.024960994720459,1.9249610900878906
1666655834.77933502,120985085,42.730803099999996,-84.4907264,265.2799987792969,2.032829523086548,1.9328296184539795
1666655834.81928396,121025034,42.730803099999996,-84.49072629999999,265.2900085449219,2.0406863689422607,1.9406864643096924
1666655834.85979390,121065544,42.730802999999995,-84.49072629999999,265.2900085449219,2.042715549468994,1.9427156448364258
1666655834.85986590,121065616,42.730802999999995,-84.49072629999999,265.2900085449219,2.042715549468994,1.9427156448364258
1666655834.89982009,121105570,42.7308029,-84.49072629999999,265.29998779296875,2.0529351234436035,1.9529350996017456
1666655834.93942213,121145172,42.7308029,-84.49072629999999,265.30999755859375,2.0637660026550293,1.9637659788131714
1666655834.95979190,121165542,42.7308029,-84.49072629999999,265.30999755859375,2.067086935043335,1.9670870304107666
1666655834.97929692,121185047,42.7308028,-84.49072629999999,265.32000732421875,2.0762243270874023,1.9762243032455444
1666655835.01927590,121225026,42.7308027,-84.49072629999999,265.3299865722656,2.08890700340271,1.988906979560852
1666655835.05978608,121265536,42.7308026,-84.49072629999999,265.3399963378906,2.097811222076416,1.997811198234558
1666655835.05989909,121265649,42.7308026,-84.49072629999999,265.3399963378906,2.097811222076416,1.997811198234558
1666655835.09980392,121305554,42.730802499999996,-84.4907264,265.3599853515625,2.1115801334381104,2.011580228805542
1666655835.13926792,121345018,42.730802499999996,-84.4907264,265.3699951171875,2.1253340244293213,2.025334119796753
1666655835.15988994,121365640,42.730802399999995,-84.4907264,265.3800048828125,2.130532741546631,2.0305328369140625
1666655835.17924905,121384999,42.7308023,-84.49072629999999,265.3800048828125,2.138976812362671,2.0389769077301025
1666655835.21958709,121425337,42.7308022,-84.4907264,265.3999938964844,2.1506378650665283,2.05063796043396
1666655835.25986505,121465615,42.7308021,-84.4907264,265.3999938964844,2.1593730449676514,2.059373140335083
1666655835.25996995,121465720,42.7308021,-84.4907264,265.3999938964844,2.1593730449676514,2.059373140335083
1666655835.29996300,121505713,42.730802,-84.4907264,265.41998291015625,2.173365831375122,2.0733659267425537
1666655835.33936596,121545116,42.730801899999996,-84.4907265,265.42999267578125,2.186983108520508,2.0869832038879395
1666655835.35981011,121565560,42.730801899999996,-84.4907265,265.44000244140625,2.1924850940704346,2.092485189437866
1666655835.37922692,121584977,42.730801899999996,-84.4907265,265.4499816894531,2.200533628463745,2.1005337238311768
1666655835.41927099,121625021,42.730801799999995,-84.4907264,265.4599914550781,2.2115366458892822,2.111536741256714
1666655835.45987391,121665624,42.7308016,-84.4907264,265.4599914550781,2.2190663814544678,2.1190664768218994
1666655835.45998597,121665736,42.7308016,-84.4907264,265.4599914550781,2.2190663814544678,2.1190664768218994
1666655835.49984097,121705591,42.7308015,-84.4907264,265.47998046875,2.2302050590515137,2.1302051544189453
1666655835.53930092,121745051,42.7308014,-84.4907264,265.47998046875,2.2398598194122314,2.139859914779663
1666655835.55975890,121765509,42.7308014,-84.4907264,265.489990234375,2.243604898452759,2.1436049938201904
1666655835.57925892,121785009,42.730801299999996,-84.49072629999999,265.489990234375,2.2494826316833496,2.1494827270507812
1666655835.61922693,121824977,42.7308011,-84.49072629999999,265.5,2.258025646209717,2.1580257415771484
1666655835.65987301,121865623,42.7308009,-84.4907262,265.5099792480469,2.2634027004241943,2.163402795791626
1666655835.65998507,121865735,42.7308009,-84.4907262,265.5099792480469,2.2634027004241943,2.163402795791626
1666655835.69995308,121905703,42.7308008,-84.49072609999999,265.5199890136719,2.273458957672119,2.173459053039551
1666655835.73932004,121945070,42.730800699999996,-84.490726,265.5299987792969,2.2833333015441895,2.183333396911621
1666655835.75980806,121965558,42.730800599999995,-84.490726,265.5299987792969,2.28703236579895,2.187032461166382
1666655835.77926803,121985018,42.7308005,-84.490726,265.5400085449219,2.2921595573425293,2.192159652709961
1666655835.81927800,122025028,42.7308003,-84.49072579999999,265.5400085449219,2.2985410690307617,2.1985411643981934
1666655835.85972500,122065475,42.730800099999996,-84.4907257,265.54998779296875,2.3019278049468994,2.201927900314331
1666655835.85986590,122065616,42.730800099999996,-84.4907257,265.54998779296875,2.3019278049468994,2.201927900314331
1666655835.89979696,122105547,42.730799999999995,-84.4907257,265.54998779296875,2.309534788131714,2.2095348834991455
1666655835.93934298,122145093,42.7307999,-84.49072559999999,265.55999755859375,2.3167331218719482,2.21673321723938
1666655835.95971704,122165467,42.7307998,-84.49072559999999,265.55999755859375,2.3193325996398926,2.219332695007324
1666655835.97929001,122185040,42.7307997,-84.4907255,265.57000732421875,2.3238110542297363,2.223811149597168
1666655836.01929998,122225050,42.730799499999996,-84.4907254,265.57000732421875,2.3286702632904053,2.228670358657837
1666655836.05981898,122265569,42.7307993,-84.4907253,265.5799865722656,2.3310601711273193,2.231060266494751
1666655836.05995202,122265702,42.7307993,-84.4907253,265.5799865722656,2.3310601711273193,2.231060266494751
1666655836.09981513,122305565,42.7307991,-84.4907252,265.5799865722656,2.3372013568878174,2.237201452255249
1666655836.13937402,122345124,42.730799,-84.4907252,265.5899963378906,2.3429317474365234,2.242931842803955
1666655836.15981102,122365561,42.730798899999996,-84.49072509999999,265.5899963378906,2.3444254398345947,2.2444255352020264
1666655836.17930508,122385055,42.730798799999995,-84.490725,265.5899963378906,2.348154306411743,2.248154401779175
1666655836.21952796,122425278,42.7307986,-84.4907248,265.6000061035156,2.3511149883270264,2.251115083694458
1666655836.25974703,122465497,42.7307983,-84.4907246,265.6000061035156,2.351205587387085,2.2512056827545166
1666655836.25986004,122465610,42.7307983,-84.4907246,265.6000061035156,2.351205587387085,2.2512056827545166
1666655836.29973698,122505487,42.7307981,-84.4907245,265.6000061035156,2.3551700115203857,2.2551701068878174
1666655836.33929300,122545043,42.730798,-84.49072439999999,265.6000061035156,2.3588387966156006,2.2588388919830322
1666655836.35979199,122565542,42.7307979,-84.4907243,265.6000061035156,2.359468936920166,2.2594690322875977
1666655836.37931705,122585067,42.7307978,-84.4907242,265.6099853515625,2.3616368770599365,2.261636972427368
1666655836.41940713,122625157,42.7307977,-84.4907241,265.6099853515625,2.363274097442627,2.2632741928100586
1666655836.45984602,122665596,42.7307975,-84.4907238,265.6099853515625,2.3635337352752686,2.2635338306427
1666655836.45991802,122665668,42.7307975,-84.4907238,265.6099853515625,2.3635337352752686,2.2635338306427
1666655836.49980807,122705558,42.7307973,-84.49072369999999,265.6099853515625,2.3670618534088135,2.267061948776245
1666655836.53921795,122744968,42.7307972,-84.4907236,265.6199951171875,2.371037006378174,2.2710371017456055
1666655836.55993009,122765680,42.730796999999995,-84.4907234,265.6199951171875,2.3700952529907227,2.2700953483581543
1666655836.57929802,122785048,42.730796999999995,-84.4907234,265.6199951171875,2.372211456298828,2.2722115516662598
1666655836.61929107,122825041,42.7307968,-84.4907231,265.6199951171875,2.3740899562835693,2.274090051651001
1666655836.65978909,122865539,42.7307966,-84.4907229,265.6199951171875,2.374281644821167,2.2742817401885986
1666655836.65990400,122865654,42.7307966,-84.4907229,265.6199951171875,2.374281644821167,2.2742817401885986
1666655836.69982100,122905571,42.730796399999996,-84.4907228,265.6199951171875,2.3769638538360596,2.276963949203491
1666655836.73926902,122945019,42.7307963,-84.49072269999999,265.6300048828125,2.3799922466278076,2.2799923419952393
1666655836.75989509,122965645,42.7307962,-84.4907226,265.6300048828125,2.380770444869995,2.2807705402374268
1666655836.77929592,122985046,42.7307962,-84.49072249999999,265.6300048828125,2.381333351135254,2.2813334465026855
1666655836.81925511,123025005,42.730796,-84.4907222,265.6199951171875,2.3797154426574707,2.2797155380249023
1666655836.85979199,123065542,42.7307959,-84.4907219,265.6199951171875,2.3764243125915527,2.2764244079589844
1666655836.85989213,123065642,42.7307959,-84.4907219,265.6199951171875,2.3764243125915527,2.2764244079589844
1666655836.89985800,123105608,42.730795799999996,-84.4907218,265.6199951171875,2.376361608505249,2.2763617038726807
1666655836.93933105,123145081,42.7307957,-84.4907216,265.6199951171875,2.37670636177063,2.2767064571380615
1666655836.95988393,123165634,42.7307956,-84.49072149999999,265.6199951171875,2.376286745071411,2.2762868404388428
1666655836.97929311,123185043,42.7307956,-84.4907214,265.6199951171875,2.37650728225708,2.2765073776245117
1666655837.01929998,123225050,42.7307955,-84.4907211,265.6199951171875,2.3747944831848145,2.274794578552246
1666655837.05978703,123265537,42.7307954,-84.49072079999999,265.6199951171875,2.3716845512390137,2.2716846466064453
1666655837.05992413,123265674,42.7307954,-84.49072079999999,265.6199951171875,2.3716845512390137,2.2716846466064453
1666655837.09986901,123305619,42.7307953,-84.4907206,265.6199951171875,2.370997428894043,2.2709975242614746
1666655837.13932490,123345075,42.730795199999996,-84.4907204,265.6199951171875,2.3706071376800537,2.2706072330474854
1666655837.15983105,123365581,42.730795099999995,-84.49072029999999,265.6099853515625,2.369915008544922,2.2699151039123535
1666655837.17923594,123384986,42.730795099999995,-84.49072009999999,265.6099853515625,2.3698999881744385,2.26990008354187
1666655837.21954513,123425295,42.730795,-84.4907197,265.6099853515625,2.3686442375183105,2.268644332885742
1666655837.25979495,123465545,42.7307949,-84.4907193,265.6099853515625,2.3664984703063965,2.266498565673828
1666655837.25993490,123465685,42.7307949,-84.4907193,265.6099853515625,2.3664984703063965,2.266498565673828
1666655837.29990697,123505657,42.7307949,-84.49071909999999,265.6099853515625,2.3658576011657715,2.265857696533203
1666655837.33931899,123545069,42.7307948,-84.49071889999999,265.6099853515625,2.365339994430542,2.2653400897979736
1666655837.35972691,123565477,42.7307948,-84.4907187,265.6099853515625,2.3646066188812256,2.2646067142486572
1666655837.37925410,123585004,42.7307948,-84.4907186,265.6099853515625,2.3638267517089844,2.263826847076416
1666655837.41923904,123624989,42.7307947,-84.4907183,265.6099853515625,2.361112594604492,2.261112689971924
1666655837.45975113,123665501,42.7307947,-84.4907178,265.6000061035156,2.357529878616333,2.2575299739837646
1666655837.45990300,123665653,42.7307947,-84.4907178,265.6000061035156,2.357529878616333,2.2575299739837646
1666655837.49992013,123705670,42.7307947,-84.4907176,265.6000061035156,2.3552422523498535,2.255242347717285
1666655837.53927398,123745024,42.730794599999996,-84.4907175,265.6000061035156,2.3531875610351562,2.253187656402588
1666655837.55974412,123765494,42.730794599999996,-84.4907173,265.6000061035156,2.3519296646118164,2.251929759979248
1666655837.57925892,123785009,42.730794599999996,-84.49071719999999,265.6000061035156,2.350769519805908,2.25076961517334
1666655837.61934495,123825095,42.730794599999996,-84.4907168,265.5899963378906,2.3479466438293457,2.2479467391967773
1666655837.65977311,123865523,42.730794499999995,-84.4907164,265.5899963378906,2.344721794128418,2.2447218894958496
1666655837.65984392,123865594,42.730794499999995,-84.4907164,265.5899963378906,2.344721794128418,2.2447218894958496
1666655837.69985199,123905602,42.730794499999995,-84.4907161,265.5899963378906,2.3420393466949463,2.242039442062378
1666655837.73933411,123945084,42.730794499999995,-84.4907159,265.5799865722656,2.339350461959839,2.2393505573272705
1666655837.75972605,123965476,42.7307944,-84.4907157,265.5799865722656,2.3377623558044434,2.237762451171875
1666655837.77931190,123985062,42.7307944,-84.4907156,265.5799865722656,2.335864305496216,2.2358644008636475
1666655837.81935096,124025101,42.7307944,-84.4907152,265.5799865722656,2.3312010765075684,2.231201171875
1666655837.85980701,124065557,42.7307944,-84.4907147,265.57000732421875,2.3261237144470215,2.226123809814453
1666655837.85991907,124065669,42.7307944,-84.4907147,265.57000732421875,2.3261237144470215,2.226123809814453
1666655837.89973092,124105481,42.7307944,-84.4907144,265.57000732421875,2.3219497203826904,2.221949815750122
1666655837.93930006,124145050,42.7307944,-84.4907142,265.55999755859375,2.318028211593628,2.2180283069610596
1666655837.95979691,124165547,42.7307944,-84.490714,265.55999755859375,2.315873384475708,2.2158734798431396
1666655837.97935009,124185100,42.7307943,-84.4907139,265.55999755859375,2.3132059574127197,2.2132060527801514
1666655838.01929998,124225050,42.7307943,-84.4907135,265.54998779296875,2.307391405105591,2.2073915004730225
1666655838.05980706,124265557,42.7307943,-84.490713,265.54998779296875,2.3014395236968994,2.201439619064331
1666655838.05988908,124265639,42.7307943,-84.490713,265.54998779296875,2.3014395236968994,2.201439619064331
1666655838.09979796,124305548,42.7307943,-84.4907127,265.5400085449219,2.2961173057556152,2.196117401123047
1666655838.13922501,124344975,42.7307943,-84.4907125,265.5400085449219,2.2910377979278564,2.191037893295288
1666655838.15983510,124365585,42.7307943,-84.4907123,265.5299987792969,2.2883808612823486,2.1883809566497803
1666655838.17926502,124385015,42.7307943,-84.490712,265.5299987792969,2.2849483489990234,2.184948444366455
1666655838.21967006,124425420,42.7307943,-84.4907116,265.5199890136719,2.2776832580566406,2.1776833534240723
1666655838.25980902,124465559,42.7307943,-84.4907111,265.5199890136719,2.2701656818389893,2.170165777206421
1666655838.25992298,124465673,42.7307943,-84.4907111,265.5199890136719,2.2701656818389893,2.170165777206421
1666655838.29990506,124505655,42.7307943,-84.4907108,265.5099792480469,2.263478994369507,2.1634790897369385
1666655838.33923292,124544983,42.7307943,-84.49071049999999,265.5,2.2569947242736816,2.1569948196411133
1666655838.35983109,124565581,42.7307944,-84.4907104,265.5,2.253779888153076,2.153779983520508
1666655838.37923312,124584983,42.7307944,-84.4907102,265.5,2.2502028942108154,2.150202989578247
1666655838.41924405,124624994,42.7307944,-84.4907099,265.489990234375,2.243170976638794,2.1431710720062256
1666655838.45983696,124665587,42.730794499999995,-84.4907094,265.47998046875,2.236262321472168,2.1362624168395996
1666655838.45993710,124665687,42.730794499999995,-84.4907094,265.47998046875,2.236262321472168,2.1362624168395996
1666655838.49986601,124705616,42.730794499999995,-84.490709,265.4700012207031,2.229942560195923,2.1299426555633545
1666655838.53928900,124745039,42.730794499999995,-84.4907088,265.4700012207031,2.224212646484375,2.1242127418518066
1666655838.55985093,124765601,42.730794499999995,-84.49070859999999,265.4700012207031,2.2211647033691406,2.1211647987365723
1666655838.57924199,124784992,42.730794499999995,-84.4907084,265.4599914550781,2.217346668243408,2.11734676361084
1666655838.61925793,124825008,42.730794499999995,-84.490708,265.4499816894531,2.2093565464019775,2.109356641769409
1666655838.65994000,124865690,42.730794599999996,-84.4907075,265.4499816894531,2.201261281967163,2.1012613773345947
1666655838.66005206,124865802,42.730794599999996,-84.4907075,265.4499816894531,2.201261281967163,2.1012613773345947
1666655838.69994998,124905700,42.730794599999996,-84.4907072,265.44000244140625,2.193570137023926,2.0935702323913574
1666655838.73928404,124945034,42.730794599999996,-84.49070689999999,265.42999267578125,2.1864259243011475,2.086426019668579
1666655838.75987291,124965623,42.730794599999996,-84.4907068,265.42999267578125,2.1829800605773926,2.082980155944824
1666655838.77923203,124984982,42.730794599999996,-84.4907066,265.41998291015625,2.1793572902679443,2.079357385635376
1666655838.81926703,125025017,42.7307947,-84.49070619999999,265.41998291015625,2.1722817420959473,2.072281837463379
1666655838.85979700,125065547,42.7307947,-84.4907056,265.4100036621094,2.165426731109619,2.065426826477051
1666655838.85992503,125065675,42.7307947,-84.4907056,265.4100036621094,2.165426731109619,2.065426826477051
1666655838.89987707,125105627,42.7307948,-84.4907053,265.3999938964844,2.1583995819091797,2.0583996772766113
1666655838.93936300,125145113,42.7307948,-84.49070499999999,265.3999938964844,2.1515417098999023,2.051541805267334
1666655838.95970106,125165451,42.7307949,-84.4907048,265.3899841308594,2.1481802463531494,2.048180341720581
1666655838.97930694,125185057,42.7307949,-84.4907046,265.3899841308594,2.144249677658081,2.0442497730255127
1666655839.01922202,125224972,42.730795,-84.4907042,265.3800048828125,2.136894702911377,2.0368947982788086
1666655839.05972695,125265477,42.730795099999995,-84.49070359999999,265.3699951171875,2.1298277378082275,2.029827833175659
1666655839.05986094,125265611,42.730795099999995,-84.49070359999999,265.3699951171875,2.1298277378082275,2.029827833175659
1666655839.09988809,125305638,42.730795099999995,-84.4907032,265.3699951171875,2.122692108154297,2.0226922035217285
1666655839.13927507,125345025,42.730795199999996,-84.4907029,265.3599853515625,2.116154193878174,2.0161542892456055
1666655839.15974498,125365495,42.730795199999996,-84.4907027,265.3599853515625,2.113049030303955,2.0130491256713867
1666655839.17926097,125385011,42.7307953,-84.4907025,265.3500061035156,2.108912706375122,2.0089128017425537
1666655839.21955395,125425304,42.7307954,-84.490702,265.3500061035156,2.1014013290405273,2.001401424407959
1666655839.25979710,125465547,42.7307956,-84.49070139999999,265.3399963378906,2.0940260887145996,1.9940260648727417
1666655839.25991011,125465660,42.7307956,-84.49070139999999,265.3399963378906,2.0940260887145996,1.9940260648727417
1666655839.29991412,125505664,42.7307957,-84.4907011,265.3299865722656,2.086601734161377,1.9866018295288086
1666655839.33932900,125545079,42.730795799999996,-84.4907009,265.32000732421875,2.079893112182617,1.9798932075500488
1666655839.35974908,125565499,42.7307959,-84.49070069999999,265.32000732421875,2.0769684314727783,1.97696852684021
1666655839.37928295,125585033,42.7307959,-84.4907005,265.32000732421875,2.0728840827941895,1.9728840589523315
1666655839.41934991,125625100,42.7307959,-84.4907001,265.30999755859375,2.0664403438568115,1.9664403200149536
1666655839.45978999,125665540,42.7307961,-84.4906996,265.30999755859375,2.060823678970337,1.9608237743377686
1666655839.45990205,125665652,42.7307961,-84.4906996,265.30999755859375,2.060823678970337,1.9608237743377686
1666655839.49992895,125705679,42.7307962,-84.4906993,265.29998779296875,2.05416202545166,1.9541621208190918
1666655839.53926706,125745017,42.7307963,-84.49069899999999,265.2900085449219,2.0477514266967773,1.9477514028549194
1666655839.55975509,125765505,42.7307963,-84.49069879999999,265.2900085449219,2.044804573059082,1.9448045492172241
1666655839.57932711,125785077,42.730796399999996,-84.4906986,265.2900085449219,2.0412087440490723,1.9412087202072144
1666655839.61930990,125825060,42.730796399999996,-84.4906982,265.2799987792969,2.03544020652771,1.9354403018951416
1666655839.65988398,125865634,42.7307965,-84.4906977,265.2799987792969,2.03090500831604,1.9309049844741821
1666655839.65995502,125865705,42.7307965,-84.4906977,265.2799987792969,2.03090500831604,1.9309049844741821
1666655839.69982100,125905571,42.7307966,-84.4906973,265.2699890136719,2.0254948139190674,1.925494909286499
1666655839.73920012,125944950,42.7307966,-84.490697,265.2699890136719,2.0205419063568115,1.9205420017242432
1666655839.75985789,125965608,42.7307967,-84.4906968,265.2599792480469,2.0182981491088867,1.9182981252670288
1666655839.77925491,125985005,42.7307967,-84.4906967,265.2599792480469,2.014556646347046,1.914556622505188
1666655839.81934500,126025095,42.7307967,-84.4906961,265.25,2.0081491470336914,1.9081491231918335
1666655839.85978413,126065534,42.7307968,-84.4906955,265.25,2.002774953842163,1.9027750492095947
1666655839.85988402,126065634,42.7307968,-84.4906955,265.25,2.002774953842163,1.9027750492095947
1666655839.89982390,126105574,42.7307968,-84.4906951,265.239990234375,1.9965505599975586,1.8965505361557007
1666655839.93922806,126144978,42.7307969,-84.49069469999999,265.239990234375,1.990537405014038,1.8905373811721802
1666655839.95980692,126165557,42.7307969,-84.49069449999999,265.22998046875,1.9880400896072388,1.8880400657653809
1666655839.97931290,126185063,42.7307969,-84.4906943,265.22998046875,1.983300805091858,1.88330078125
1666655840.01942396,126225174,42.7307969,-84.4906937,265.2200012207031,1.974804162979126,1.874804139137268
1666655840.05983806,126265588,42.7307968,-84.490693,265.2099914550781,1.966429591178894,1.8664295673370361
1666655840.05995798,126265708,42.7307968,-84.490693,265.2099914550781,1.966429591178894,1.8664295673370361
1666655840.09987402,126305624,42.7307968,-84.4906926,265.1999816894531,1.9577598571777344,1.8577598333358765
1666655840.13928294,126345033,42.7307968,-84.49069209999999,265.19000244140625,1.9497275352478027,1.8497275114059448
1666655840.15988493,126365635,42.7307968,-84.4906919,265.19000244140625,1.945994257926941,1.845994234085083
1666655840.17922592,126384976,42.7307968,-84.49069159999999,265.19000244140625,1.9410347938537598,1.8410347700119019
1666655840.21955299,126425303,42.7307968,-84.49069089999999,265.17999267578125,1.9330976009368896,1.8330975770950317
1666655840.25976801,126465518,42.7307967,-84.4906901,265.16998291015625,1.9259034395217896,1.8259034156799316
1666655840.25990391,126465654,42.7307967,-84.4906901,265.16998291015625,1.9259034395217896,1.8259034156799316
1666655840.29990005,126505650,42.7307967,-84.4906896,265.1600036621094,1.918139100074768,1.8181390762329102
1666655840.33938909,126545139,42.7307966,-84.49068919999999,265.1600036621094,1.9112657308578491,1.8112657070159912
1666655840.35981703,126565567,42.7307966,-84.4906889,265.1499938964844,1.9080173969268799,1.808017373085022
1666655840.37931800,126585068,42.7307966,-84.49068869999999,265.1499938964844,1.90427827835083,1.8042782545089722
1666655840.41923809,126624988,42.7307966,-84.49068799999999,265.1399841308594,1.8984146118164062,1.7984145879745483
1666655840.45980811,126665558,42.7307965,-84.49068729999999,265.1399841308594,1.8940765857696533,1.7940765619277954
1666655840.45994401,126665694,42.7307965,-84.49068729999999,265.1399841308594,1.8940765857696533,1.7940765619277954
1666655840.49990606,126705656,42.7307965,-84.4906867,265.1300048828125,1.8885918855667114,1.7885918617248535
1666655840.53931999,126745070,42.7307965,-84.4906863,265.1300048828125,1.8836510181427002,1.7836509943008423
1666655840.55980992,126765560,42.7307965,-84.490686,265.1300048828125,1.881430983543396,1.781430959701538
1666655840.57920599,126784956,42.7307965,-84.4906857,265.1199951171875,1.8780022859573364,1.7780022621154785
1666655840.61921501,126824965,42.7307965,-84.490685,265.1199951171875,1.8730003833770752,1.7730003595352173
