timestamp,TimeUS,C,Q1,Q2,Q3,Q4
1666655825.61858010,111824330,1,0.9981359243392944,0.0018593562999740243,-0.0009152201819233596,-0.060994505882263184
1666655825.65859199,111864342,1,0.9981367588043213,0.0018407944589853287,-0.0008922225097194314,-0.06098237261176109
1666655825.69856811,111904318,1,0.9981367588043213,0.001837948802858591,-0.0008939307299442589,-0.06098204106092453
1666655825.73856306,111944313,1,0.9981366991996765,0.001844740123488009,-0.0008933696080930531,-0.060983363538980484
1666655825.75859308,111964343,1,0.9981361031532288,0.0018303869292140007,-0.0008956382516771555,-0.060993168503046036
1666655825.77855206,111984302,1,0.998136043548584,0.0018119176384061575,-0.0008814802276901901,-0.06099523976445198
1666655825.81857896,112024329,1,0.9981359243392944,0.0017939498648047447,-0.0008724431390874088,-0.06099788844585419
1666655825.85856605,112064316,1,0.9981362223625183,0.0017714586574584246,-0.000860468193423003,-0.06099366024136543
1666655825.89858794,112104338,1,0.9981376528739929,0.0017640568548813462,-0.000862085958942771,-0.06097013130784035
1666655825.93856502,112144315,1,0.9981376528739929,0.001779034617356956,-0.0008413144387304783,-0.06097016856074333
1666655825.95857501,112164325,1,0.9981386661529541,0.0017976615345105529,-0.0008159033604897559,-0.06095360964536667
1666655825.97852206,112184272,1,0.9981386065483093,0.001803872175514698,-0.0008075038786046207,-0.060954444110393524
1666655826.01855111,112224301,1,0.9981387257575989,0.001807263121008873,-0.0007992065511643887,-0.06095193699002266
1666655826.05856800,112264318,1,0.9981397390365601,0.001834425493143499,-0.0007655761437490582,-0.060935452580451965
1666655826.09856200,112304312,1,0.998141884803772,0.0018305096309632063,-0.0007741217850707471,-0.060900505632162094
1666655826.13856912,112344319,1,0.9981410503387451,0.0018336211796849966,-0.0007586382562294602,-0.0609135739505291
1666655826.15856290,112364313,1,0.9981403350830078,0.0018405034206807613,-0.0007549299625679851,-0.060925934463739395
1666655826.17856312,112384313,1,0.9981405735015869,0.001838791649788618,-0.0007461782079190016,-0.06092182919383049
1666655826.21855712,112424307,1,0.9981389045715332,0.0018553882837295532,-0.000741703319363296,-0.060948148369789124
1666655826.25855112,112464301,1,0.9981375336647034,0.0018553993431851268,-0.0007189244497567415,-0.06097178906202316
1666655826.29857302,112504323,1,0.9981366991996765,0.0018686825642362237,-0.0007162871770560741,-0.060985103249549866
1666655826.33855200,112544302,1,0.9981361627578735,0.0018766685388982296,-0.000724945159163326,-0.060993388295173645
1666655826.35855198,112564302,1,0.9981362223625183,0.001873100409284234,-0.0007367547368630767,-0.060991980135440826
1666655826.37859297,112584343,1,0.9981363415718079,0.0018595015862956643,-0.0007298787822946906,-0.06099046394228935
1666655826.41855311,112624303,1,0.9981362223625183,0.0018647966207936406,-0.000712295004632324,-0.06099236011505127
1666655826.45856094,112664311,1,0.9981345534324646,0.001868226914666593,-0.0006975641590543091,-0.06101958826184273
1666655826.49853301,112704283,1,0.9981334209442139,0.001860292861238122,-0.000684144557453692,-0.06103908270597458
1666655826.53857994,112744330,1,0.9981322288513184,0.0018578324234113097,-0.0006693905452266335,-0.06105830892920494
1666655826.55854297,112764293,1,0.998132050037384,0.0018507188651710749,-0.000661762896925211,-0.06106140464544296
1666655826.57859206,112784342,1,0.9981319308280945,0.0018536605639383197,-0.0006501322495751083,-0.06106417253613472
1666655826.61857200,112824322,1,0.9981313943862915,0.00186932145152241,-0.0006605166126973927,-0.06107189878821373
1666655826.65854812,112864298,1,0.9981299042701721,0.0018792449263855815,-0.0006559276953339577,-0.06109590828418732
1666655826.69855309,112904303,1,0.9981274008750916,0.001898135174997151,-0.0006509726517833769,-0.061136145144701004
1666655826.73857903,112944329,1,0.9981241822242737,0.0019187632715329528,-0.000653848925139755,-0.06118800863623619
1666655826.75853705,112964287,1,0.9981224536895752,0.0019191900501027703,-0.0006525774952024221,-0.06121692806482315
1666655826.77858901,112984339,1,0.9981216788291931,0.001925000105984509,-0.0006466429913416505,-0.06122884526848793
1666655826.81858802,113024338,1,0.9981192350387573,0.0019035497680306435,-0.0006506671779789031,-0.061269670724868774
1666655826.85856104,113064311,1,0.9981171488761902,0.0019250991754233837,-0.0006653462187387049,-0.06130264326930046
1666655826.89857006,113104320,1,0.9981150031089783,0.0019416583236306906,-0.0006557614542543888,-0.061337266117334366
1666655826.93855309,113144303,1,0.9981136322021484,0.001934350817464292,-0.0006303531117737293,-0.06136026978492737
1666655826.95858312,113164333,1,0.9981126189231873,0.0019482902716845274,-0.0006357930833473802,-0.0613754540681839
1666655826.97857499,113184325,1,0.9981114864349365,0.00194829935207963,-0.0006485742633230984,-0.061394207179546356
1666655827.01857090,113224321,1,0.9981086850166321,0.001969798468053341,-0.000658069213386625,-0.06143907085061073
1666655827.05859399,113264344,1,0.9981056451797485,0.001987285679206252,-0.0006435301620513201,-0.06148804724216461
1666655827.09856296,113304313,1,0.9981017112731934,0.00199735420756042,-0.0006509319064207375,-0.061551641672849655
1666655827.13855410,113344304,1,0.9981005787849426,0.0019761507865041494,-0.0006632096483372152,-0.061569806188344955
1666655827.15857697,113364327,1,0.9980990290641785,0.0019716215319931507,-0.0006608921685256064,-0.061595428735017776
1666655827.17856693,113384317,1,0.9980969429016113,0.0019789990037679672,-0.0006571279955096543,-0.06162868067622185
1666655827.21857095,113424321,1,0.9980942010879517,0.0019970969296991825,-0.0006563286297023296,-0.06167253851890564
1666655827.25860906,113464359,1,0.9980927109718323,0.0020139033440500498,-0.0006624605739489198,-0.0616968534886837
1666655827.29860091,113504351,1,0.9980918169021606,0.0020057233050465584,-0.0006591412820853293,-0.06171131506562233
1666655827.33853602,113544286,1,0.9980911016464233,0.0020472314208745956,-0.0006741751567460597,-0.06172100082039833
1666655827.35858107,113564331,1,0.9980911016464233,0.002062989166006446,-0.0006701291422359645,-0.06172063574194908
1666655827.37855005,113584300,1,0.9980907440185547,0.002057015663012862,-0.0006704228580929339,-0.06172632426023483
1666655827.41855311,113624303,1,0.9980901479721069,0.0020538836251944304,-0.0006735241622664034,-0.06173674389719963
1666655827.45857000,113664320,1,0.9980907440185547,0.0020569858606904745,-0.0006711868336424232,-0.06172655150294304
1666655827.49863100,113704381,1,0.9980902671813965,0.002051024464890361,-0.0006789133185520768,-0.06173427030444145
1666655827.53856492,113744315,1,0.9980891942977905,0.0020306871738284826,-0.0006962985498830676,-0.061752043664455414
1666655827.55856800,113764318,1,0.9980893135070801,0.002033516066148877,-0.0006961565813980997,-0.06175011768937111
1666655827.57852411,113784274,1,0.9980890154838562,0.0020368124824017286,-0.0006863090675324202,-0.06175531446933746
1666655827.61855197,113824302,1,0.9980871081352234,0.0020125294104218483,-0.0006719809025526047,-0.06178710237145424
1666655827.65857792,113864328,1,0.9980857968330383,0.0019848572555929422,-0.0006523144547827542,-0.06180945411324501
1666655827.69857907,113904329,1,0.9980852603912354,0.0019821820314973593,-0.0006518499576486647,-0.06181813403964043
1666655827.73858309,113944333,1,0.9980844259262085,0.00197786558419466,-0.0006276107742451131,-0.06183168292045593
1666655827.75855398,113964304,1,0.9980831742286682,0.001977893989533186,-0.0006189165869727731,-0.061851866543293
1666655827.77855802,113984308,1,0.9980823993682861,0.0019589411094784737,-0.0006119649042375386,-0.061865244060754776
1666655827.81856012,114024310,1,0.9980809092521667,0.0019467311212792993,-0.0006245212280191481,-0.061889562755823135
1666655827.85855007,114064300,1,0.9980793595314026,0.0019397159339860082,-0.0006302028778009117,-0.06191477179527283
1666655827.89856195,114104312,1,0.9980781674385071,0.001925415825098753,-0.0006171732093207538,-0.061934538185596466
1666655827.93858004,114144330,1,0.9980759620666504,0.0019005418289452791,-0.0006146078230813146,-0.06197100877761841
1666655827.95855212,114164302,1,0.9980757832527161,0.001907644676975906,-0.000620394479483366,-0.06197385862469673
1666655827.97859907,114184349,1,0.9980763792991638,0.0019122055964544415,-0.0006171371205709875,-0.06196408346295357
1666655828.01856399,114224314,1,0.9980769157409668,0.0018878438277170062,-0.0005754102021455765,-0.061956554651260376
1666655828.05855513,114264305,1,0.9980775713920593,0.0018649320118129253,-0.0005501493578776717,-0.06194639205932617
1666655828.09856796,114304318,1,0.9980777502059937,0.001859814627096057,-0.000516889791470021,-0.061943840235471725
1666655828.13858008,114344330,1,0.9980772137641907,0.0018872173968702555,-0.0005232246476225555,-0.06195216253399849
1666655828.15852809,114364278,1,0.9980773329734802,0.0018792920745909214,-0.0005104248994030058,-0.06195053085684776
1666655828.17857599,114384326,1,0.9980778694152832,0.0018712839810177684,-0.0005179308936931193,-0.06194214150309563
1666655828.21859097,114424341,1,0.9980776906013489,0.001852413173764944,-0.0005026006838306785,-0.061945825815200806
1666655828.25856805,114464318,1,0.9980771541595459,0.0018356646178290248,-0.0005072265048511326,-0.06195485591888428
1666655828.29854393,114504294,1,0.9980767369270325,0.001827674568630755,-0.0005100857233628631,-0.061961498111486435
1666655828.33859205,114544342,1,0.9980763792991638,0.0018381004920229316,-0.0004964049439877272,-0.06196672469377518
1666655828.35855603,114564306,1,0.998076856136322,0.0018319576047360897,-0.0004857116437051445,-0.061959315091371536
1666655828.37858605,114584336,1,0.9980766177177429,0.0018248938722535968,-0.00048094658995978534,-0.061963263899087906
1666655828.41860008,114624350,1,0.9980775713920593,0.0018045956967398524,-0.00048036614316515625,-0.06194940581917763
1666655828.45858908,114664339,1,0.9980772137641907,0.0018014354864135385,-0.0004808061639778316,-0.06195492669939995
1666655828.49856710,114704317,1,0.9980760216712952,0.0018141466425731778,-0.00047871138667687774,-0.06197396293282509
1666655828.53855991,114744310,1,0.9980792999267578,0.0018006268655881286,-0.00045422729454003274,-0.06192122399806976
1666655828.55859208,114764342,1,0.9980802536010742,0.001804791041649878,-0.00045313365990296006,-0.061905477195978165
1666655828.57858205,114784332,1,0.9980802536010742,0.0018007373437285423,-0.0004258831322658807,-0.06190655380487442
1666655828.61857605,114824326,1,0.9980815052986145,0.0017986682942137122,-0.0004093455208931118,-0.06188619136810303
1666655828.65857410,114864324,1,0.9980803728103638,0.0018082860624417663,-0.00039528755587525666,-0.061904486268758774
1666655828.69857311,114904323,1,0.9980784058570862,0.0018310247687622905,-0.000374278228264302,-0.061935342848300934
1666655828.73855495,114944305,1,0.9980775117874146,0.0017883277032524347,-0.0003659794165287167,-0.06195090711116791
1666655828.75860810,114964358,1,0.9980760812759399,0.0017712238477542996,-0.00034314318327233195,-0.061974454671144485
1666655828.77855706,114984307,1,0.9980738162994385,0.00175253686029464,-0.000340339815011248,-0.06201142817735672
1666655828.81858611,115024336,1,0.9980743527412415,0.0017651080852374434,-0.0003014903631992638,-0.06200319901108742
1666655828.85857701,115064327,1,0.9980780482292175,0.0018008542247116566,-0.00034663768019527197,-0.061942338943481445
1666655828.89860296,115104353,1,0.9980770349502563,0.0016748681664466858,-0.00033787102438509464,-0.061962228268384933
1666655828.93853092,115144281,1,0.9980781674385071,0.0015671708388254046,-0.0003039161383640021,-0.06194648891687393
1666655828.95858407,115164334,1,0.998077929019928,0.0014815157046541572,-0.0003287274157628417,-0.06195254251360893
1666655828.97856498,115184315,1,0.9980761408805847,0.0016682661371305585,-0.0003538725432008505,-0.06197666376829147
1666655829.01855612,115224306,1,0.9980766773223877,0.0015316088683903217,-0.0003415340033825487,-0.06197155639529228
1666655829.05857801,115264328,1,0.9980764985084534,0.00179571402259171,-0.0004036567115690559,-0.061966653913259506
1666655829.09859705,115304347,1,0.998073399066925,0.0018126369686797261,-0.0003121407644357532,-0.06201717630028725
1666655829.13860607,115344356,1,0.9980788826942444,0.0011604888131842017,-0.00038892601151019335,-0.061943452805280685
1666655829.15858006,115364330,1,0.9980812668800354,0.0017066880827769637,-0.0002459663082845509,-0.06189318746328354
1666655829.17854691,115384297,1,0.9980813264846802,0.0018518951255828142,-0.0003870032960548997,-0.06188804656267166
1666655829.21856093,115424311,1,0.9980824589729309,0.0015641936333850026,-0.0003025477344635874,-0.0618782676756382
1666655829.25857902,115464329,1,0.9980823993682861,0.0017398754134774208,-0.0003075022832490504,-0.06187381222844124
1666655829.29859591,115504346,1,0.9980836510658264,0.0018332467880100012,-0.00037999427877366543,-0.06185123696923256
1666655829.33860803,115544358,1,0.9980844259262085,0.0016320954309776425,-0.00023719595628790557,-0.061844948679208755
1666655829.35856605,115564316,1,0.9980860352516174,0.0019187419675290585,-0.00029490573797374964,-0.061810366809368134
1666655829.37857604,115584326,1,0.9980879426002502,0.0017945446306839585,-0.00024775805650278926,-0.061783455312252045
1666655829.41853189,115624282,1,0.9980922341346741,0.0015792803606018424,-0.00026275767595507205,-0.06171968951821327
1666655829.45855594,115664306,1,0.9980970025062561,0.0015305624110624194,-0.00032128175371326506,-0.06164386123418808
1666655829.49858999,115704340,1,0.9980965852737427,0.0018192501738667488,-0.00027308904100209475,-0.06164278835058212
1666655829.53859091,115744341,1,0.998104989528656,0.0016560822259634733,-0.00022543383238371462,-0.06151101365685463
1666655829.55855513,115764305,1,0.9981045126914978,0.0017549829790368676,-0.0002908725873567164,-0.06151586398482323
1666655829.57857609,115784326,1,0.9981033802032471,0.0017112563364207745,-0.00028742285212501884,-0.061535246670246124
1666655829.61856103,115824311,1,0.9981063008308411,0.0016751574585214257,-0.0002261565823573619,-0.06148955598473549
1666655829.65855598,115864306,1,0.9981066584587097,0.0015199694316834211,-0.00017357832984998822,-0.061487726867198944
1666655829.69855499,115904305,1,0.998106062412262,0.001506668166257441,-0.0002085783053189516,-0.061497341841459274
1666655829.73859406,115944344,1,0.9981091618537903,0.0016468045068904757,-0.0002178684953832999,-0.06144406273961067
1666655829.75856805,115964318,1,0.9981098175048828,0.0015749909216538072,-0.00020152045181021094,-0.061434775590896606
1666655829.77854896,115984299,1,0.9981104135513306,0.0015906192129477859,-0.00019138421339448541,-0.06142531335353851
1666655829.81861997,116024370,1,0.9981127381324768,0.0016107771079987288,-0.0002452495973557234,-0.06138679385185242
1666655829.85853291,116064283,1,0.9981133937835693,0.0015725902048870921,-0.00023667345521971583,-0.06137727200984955
1666655829.89856696,116104317,1,0.9981129765510559,0.0014446615241467953,-0.00015932141104713082,-0.06138666719198227
1666655829.93855190,116144302,1,0.9981145262718201,0.001415942795574665,-0.00019391330715734512,-0.06136264652013779
1666655829.95855594,116164306,1,0.9981125593185425,0.001461891341023147,-0.00022755663667339832,-0.06139330193400383
1666655829.97859097,116184341,1,0.9981129765510559,0.0015518863219767809,-0.00018940956215374172,-0.06138484179973602
1666655830.01860189,116224352,1,0.9981171488761902,0.0015157600864768028,-0.00015762589464429766,-0.061317846179008484
1666655830.05857396,116264324,1,0.9981172680854797,0.0015042837476357818,-0.00017201071023009717,-0.0613158755004406
1666655830.09855199,116304302,1,0.9981226325035095,0.0015250078868120909,-0.00014228482905309647,-0.06122824177145958
1666655830.13855696,116344307,1,0.9981235861778259,0.0014542040880769491,-0.00012922317546326667,-0.061213988810777664
1666655830.15860391,116364354,1,0.9981218576431274,0.0014797410694882274,-0.00010492536966921762,-0.06124196574091911
1666655830.17859793,116384348,1,0.9981223940849304,0.0013931833673268557,-8.837032510200515e-05,-0.061235211789608
1666655830.21858811,116424338,1,0.9981216192245483,0.001443303655833006,-0.00010096008918480948,-0.06124657019972801
1666655830.25858903,116464339,1,0.9981182217597961,0.0015418260591104627,-8.999380224850029e-05,-0.06129965931177139
1666655830.29857612,116504326,1,0.9981189370155334,0.0015194341540336609,-5.5609041737625375e-05,-0.06128840893507004
1666655830.33859706,116544347,1,0.9981201887130737,0.0014956712257117033,-7.409278623526916e-05,-0.061268605291843414
1666655830.35861111,116564361,1,0.9981197118759155,0.0014453358016908169,-8.676452125655487e-05,-0.061277829110622406
1666655830.37859106,116584341,1,0.9981210231781006,0.0014601789880543947,-7.912287401268259e-05,-0.06125612184405327
1666655830.41857696,116624327,1,0.9981217980384827,0.001449643517844379,-0.00010357003338867798,-0.061243291944265366
1666655830.45857692,116664327,1,0.9981202483177185,0.0013995309127494693,-7.940141222206876e-05,-0.06126955524086952
1666655830.49857593,116704326,1,0.9981197118759155,0.001491217059083283,-0.00011835026816697791,-0.061275966465473175
1666655830.53857303,116744323,1,0.9981160163879395,0.0015119757736101747,-8.612126839580014e-05,-0.061335738748311996
1666655830.55858898,116764339,1,0.9981155395507812,0.0013944184174761176,-6.188567203935236e-05,-0.06134672835469246
1666655830.57853413,116784284,1,0.9981154203414917,0.0015292910393327475,-7.062582881189883e-05,-0.0613454170525074
1666655830.61855793,116824308,1,0.9981144070625305,0.001366816577501595,-4.5512682845583186e-05,-0.06136534363031387
1666655830.65857291,116864323,1,0.9981180429458618,0.0016181563260033727,-8.88799550011754e-05,-0.061300262808799744
1666655830.69857693,116904327,1,0.9981189370155334,0.0014819055795669556,-6.54158866382204e-05,-0.06128939613699913
1666655830.73860812,116944358,1,0.9981164932250977,0.0014790466520935297,-1.7640298892729334e-06,-0.06132940202951431
1666655830.75858307,116964333,1,0.9981130957603455,0.0017327055102214217,4.2489031329751015e-05,-0.061377834528684616
1666655830.77853703,116984287,1,0.9981171488761902,0.001208437723107636,-0.00010502460645511746,-0.061324477195739746
1666655830.81856012,117024310,1,0.9981158375740051,0.0014368518022820354,5.50541017219075e-07,-0.06134055182337761
1666655830.85859108,117064341,1,0.9981146454811096,0.0012426110915839672,-0.00010023347567766905,-0.06136467680335045
1666655830.89858413,117104334,1,0.9981229901313782,0.0013128158170729876,-0.00010388854570919648,-0.06122719869017601
1666655830.93860102,117144351,1,0.9981371760368347,0.001771601615473628,-0.00023563028662465513,-0.0609833262860775
1666655830.95855594,117164306,1,0.998145341873169,0.001154789817519486,-5.947029058006592e-05,-0.060864970088005066
1666655830.97855592,117184306,1,0.9981550574302673,0.0014272199478000402,-2.0866158592980355e-05,-0.06069944426417351
1666655831.01853299,117224283,1,0.9981709718704224,0.0009605056256987154,-4.234134758007713e-05,-0.060446593910455704
1666655831.05856204,117264312,1,0.9981812834739685,0.001795019838027656,-0.00014277953596320003,-0.06025724112987518
1666655831.09858203,117304332,1,0.9981932044029236,0.0014484404819086194,-1.5573132259305567e-05,-0.060068774968385696
1666655831.13858104,117344331,1,0.9982094764709473,0.0013724586460739374,3.7127176710782805e-06,-0.059798844158649445
1666655831.15855908,117364309,1,0.9982202649116516,0.0016496700700372458,0.0002084478473989293,-0.05961122736334801
1666655831.17858195,117384332,1,0.9982131719589233,0.0014909254387021065,0.00020608918566722423,-0.0597342923283577
1666655831.21857905,117424329,1,0.9982271194458008,0.0013657432282343507,-0.00021730540902353823,-0.059503860771656036
1666655831.25855613,117464306,1,0.9982503652572632,0.0017093089409172535,-0.0002927709138020873,-0.05910324305295944
1666655831.29855990,117504310,1,0.9982688426971436,0.0017313807038590312,-0.0001982140092877671,-0.05879037082195282
1666655831.33858395,117544334,1,0.9982970356941223,0.0014935906510800123,-3.1337924156105146e-05,-0.058316078037023544
1666655831.35858107,117564331,1,0.9983137845993042,0.0016704238951206207,-7.9992605606094e-06,-0.05802434682846069
1666655831.37855601,117584306,1,0.9983198046684265,0.0016304810997098684,8.409019210375845e-05,-0.05792105570435524
1666655831.41859913,117624349,1,0.9983466267585754,0.0012971621472388506,-7.104047108441591e-05,-0.05746633559465408
1666655831.45852995,117664280,1,0.9983668923377991,0.0012127573136240244,-7.553296018159017e-05,-0.05711480602622032
1666655831.49855590,117704306,1,0.9983881711959839,0.0013120907824486494,-6.083140033297241e-05,-0.05673951283097267
1666655831.53855491,117744305,1,0.9984104037284851,0.001038860878907144,-8.759964111959562e-05,-0.056351855397224426
1666655831.55856705,117764317,1,0.9984210133552551,0.0012256954796612263,2.1051255316706374e-05,-0.05615977942943573
1666655831.57857990,117784330,1,0.9984309077262878,0.0009450543439015746,-0.0001366873475490138,-0.05598888173699379
1666655831.61860704,117824357,1,0.9984617233276367,0.0011630819644778967,-8.957180398283526e-06,-0.055433642119169235
1666655831.65861511,117864365,1,0.998482882976532,0.0011385087855160236,-0.000181962430360727,-0.05505127087235451
1666655831.69853401,117904284,1,0.9985060095787048,0.0016702325083315372,-8.543572766939178e-05,-0.054615944623947144
1666655831.73853707,117944287,1,0.9985329508781433,0.0011441978858783841,8.067105954978615e-05,-0.054135631769895554
1666655831.75860000,117964350,1,0.9985480308532715,0.0015067541971802711,8.4602230344899e-05,-0.05384742468595505
1666655831.77858400,117984334,1,0.9985560774803162,0.0014410180738195777,0.000363118015229702,-0.05369843170046806
1666655831.81858206,118024332,1,0.9985806941986084,0.0011199513683095574,0.0002890489995479584,-0.053246788680553436
1666655831.85862708,118064377,1,0.9986163973808289,0.0012757405638694763,0.0003138655738439411,-0.052569855004549026
1666655831.89857292,118104323,1,0.9986329078674316,0.0017747515812516212,0.0002513868093956262,-0.052240729331970215
1666655831.93856907,118144319,1,0.9986584186553955,0.001926278113387525,0.00047466097748838365,-0.05174362659454346
1666655831.95860791,118164358,1,0.9986588954925537,0.0024748488795012236,-0.00013515586033463478,-0.051713280379772186
1666655831.97855592,118184306,1,0.9986700415611267,0.00288754072971642,0.00013264865265227854,-0.05147632583975792
1666655832.01857305,118224323,1,0.9986833930015564,0.004249561578035355,-1.739870094752405e-05,-0.05112132057547569
1666655832.05858397,118264334,1,0.9986923933029175,0.004421374760568142,-0.00023365420929621905,-0.05093004181981087
1666655832.09858608,118304336,1,0.998706579208374,0.004304937086999416,-0.0006670905859209597,-0.05065717175602913
1666655832.13855505,118344305,1,0.9987161159515381,0.0035512042231857777,-0.0016005681827664375,-0.05050722882151604
1666655832.15858507,118364335,1,0.9987256526947021,0.0024850897025316954,-0.001684254384599626,-0.05037969350814819
1666655832.17853308,118384283,1,0.9987196922302246,0.003074688371270895,-0.001741392188705504,-0.05046229809522629
1666655832.21856093,118424311,1,0.9987211227416992,0.0023676783312112093,-0.0022610293235629797,-0.05045203119516373
1666655832.25859594,118464346,1,0.9987224340438843,0.001885066507384181,-0.0030885047744959593,-0.05040254071354866
1666655832.29855299,118504303,1,0.9987154006958008,0.0016818928997963667,-0.003888098755851388,-0.050493236631155014
1666655832.33861709,118544367,1,0.9987081289291382,0.001679637236520648,-0.0037295788060873747,-0.05064883455634117
1666655832.35858512,118564335,1,0.9987114667892456,0.0012856789398938417,-0.0029345343355089426,-0.05064759403467178
1666655832.37852693,118584277,1,0.9986963272094727,0.001269267057068646,-0.0034517222084105015,-0.050913240760564804
1666655832.41855597,118624306,1,0.9986898303031921,0.0008637984283268452,-0.003435485064983368,-0.05105016753077507
1666655832.45854807,118664298,1,0.9986741542816162,0.0007969291764311492,-0.0027848805766552687,-0.05139560624957085
1666655832.49857807,118704328,1,0.9986618161201477,0.0002561495057307184,-0.0027821403928101063,-0.05164080485701561
1666655832.53859901,118744349,1,0.9986482262611389,0.00011505885777296498,-0.0023993554059416056,-0.051922909915447235
1666655832.55855608,118764306,1,0.9986340403556824,0.001132909907028079,-0.0020182416774332523,-0.05219896510243416
1666655832.57861209,118784362,1,0.9986271858215332,4.5062384742777795e-05,-0.0018632888095453382,-0.05234812945127487
1666655832.61852813,118824278,1,0.9986020922660828,0.0005790321156382561,-0.0006584931979887187,-0.052849747240543365
1666655832.65856910,118864319,1,0.9985772371292114,0.0016215824289247394,-0.00038108756416477263,-0.05329863727092743
1666655832.69858599,118904336,1,0.9985446929931641,0.0022356926929205656,5.0721620937110856e-05,-0.05388449504971504
1666655832.73859310,118944343,1,0.9985196590423584,0.0030682729557156563,0.00027832359774038196,-0.054304469376802444
1666655832.75855803,118964308,1,0.9985079765319824,0.002926910761743784,-0.0004004731890745461,-0.054525744169950485
1666655832.77859497,118984345,1,0.9984980821609497,0.003995818551629782,-5.3370731620816514e-05,-0.05464109778404236
1666655832.81857109,119024321,1,0.9984678030014038,0.0045601907186210155,-0.0002629079972393811,-0.05514655262231827
1666655832.85852790,119064278,1,0.9984397888183594,0.0054176682606339455,-0.00022852809343021363,-0.055575404316186905
1666655832.89855504,119104305,1,0.22076289355754852,-0.000781303271651268,-0.0010656517697498202,0.9753265976905823
1666655832.93859005,119144340,1,0.22123868763446808,-0.0004927624831907451,-0.00035275000846013427,0.9752194881439209
1666655832.95853090,119164281,1,0.2214999496936798,-0.0012055225670337677,-3.267286956543103e-05,0.9751596450805664
1666655832.97859192,119184342,1,0.22189031541347504,-0.0009304260602220893,0.0014918779488652945,0.975070059299469
1666655833.01859403,119224344,1,0.22268866002559662,-0.0018544181948527694,0.002638875273987651,0.9748842716217041
1666655833.05854392,119264294,1,0.2235036939382553,-0.0024541844613850117,0.0033635476138442755,0.9746941924095154
1666655833.09855604,119304306,1,0.22416621446609497,-0.0027063582092523575,0.0035304392222315073,0.9745407700538635
1666655833.13855505,119344305,1,0.2242245227098465,-0.0027970096562057734,0.0030607334338128567,0.9745286703109741
1666655833.15857196,119364322,1,0.22448916733264923,-0.0031589497812092304,0.0029867009725421667,0.974466860294342
1666655833.17857599,119384326,1,0.22436931729316711,-0.00365653564222157,0.002195295412093401,0.9744948744773865
1666655833.21855807,119424308,1,0.22415970265865326,-0.003491945331916213,0.0015154486754909158,0.9745450019836426
1666655833.25860000,119464350,1,0.22363875806331635,-0.0033720340579748154,-0.000501304748468101,0.9746661186218262
1666655833.29857397,119504324,1,0.2230304330587387,-0.003610178828239441,-0.0036439450923353434,0.9747979640960693
1666655833.33856893,119544319,1,0.22258245944976807,-0.0031355489045381546,-0.007241878658533096,0.9748819470405579
1666655833.35858607,119564336,1,0.2226061075925827,-0.0034917027223855257,-0.008230982348322868,0.9748674631118774
1666655833.37854791,119584298,1,0.22260881960391998,-0.0035909598227590322,-0.010642167180776596,0.9748431444168091
1666655833.41858792,119624338,1,0.22278551757335663,-0.004137802869081497,-0.014611496590077877,0.9747492074966431
1666655833.45861006,119664360,1,0.22293570637702942,-0.004511458799242973,-0.01761939749121666,0.974663496017456
1666655833.49857211,119704322,1,0.22355815768241882,-0.005232357420027256,-0.020054565742611885,0.9744701981544495
1666655833.53856611,119744316,1,0.22447873651981354,-0.006332255434244871,-0.02244129218161106,0.9741999506950378
1666655833.55855203,119764302,1,0.22504518926143646,-0.0064433785155415535,-0.022920571267604828,0.9740573763847351
1666655833.57855892,119784309,1,0.22542013227939606,-0.00692636938765645,-0.023516906425356865,0.973953127861023
1666655833.61857891,119824329,1,0.22613029181957245,-0.00676258560270071,-0.023786747828125954,0.9737831354141235
1666655833.65857911,119864329,1,0.226817786693573,-0.006359051447361708,-0.023546045646071434,0.9736317992210388
1666655833.69859505,119904345,1,0.22738595306873322,-0.006308166775852442,-0.023420510813593864,0.9735025763511658
1666655833.73856807,119944318,1,0.22832471132278442,-0.006743117701262236,-0.023128405213356018,0.9732869267463684
1666655833.75857902,119964329,1,0.22865666449069977,-0.007469774689525366,-0.022502485662698746,0.9732183814048767
1666655833.77853107,119984281,1,0.22890602052211761,-0.007009103894233704,-0.021464483812451363,0.9731866121292114
1666655833.81855607,120024306,1,0.22998936474323273,-0.0069295866414904594,-0.01863120123744011,0.972990095615387
1666655833.85857797,120064328,1,0.23127661645412445,-0.006437348667532206,-0.015521615743637085,0.9727429151535034
1666655833.89859009,120104340,1,0.23258112370967865,-0.005478908307850361,-0.011421067640185356,0.9724944829940796
1666655833.93857098,120144321,1,0.23389467597007751,-0.005021365825086832,-0.007379940710961819,0.9722209572792053
1666655833.95854592,120164296,1,0.23470614850521088,-0.0052169556729495525,-0.006150086410343647,0.972032904624939
1666655833.97857213,120184322,1,0.23532824218273163,-0.004988313652575016,-0.004187201149761677,0.9718941450119019
1666655834.01855612,120224306,1,0.2365996092557907,-0.005033713299781084,-0.002503330586478114,0.9715909957885742
1666655834.05856299,120264313,1,0.2375398725271225,-0.004101300612092018,-0.0009978566085919738,0.9713686108589172
1666655834.09858108,120304331,1,0.23851405084133148,-0.003021454904228449,0.0004983078688383102,0.9711342453956604
1666655834.13857603,120344326,1,0.23936332762241364,-0.0021222750656306744,0.0014760417398065329,0.9709266424179077
1666655834.15855908,120364309,1,0.23988288640975952,-0.0016887562815099955,0.0019469138933345675,0.9707984328269958
1666655834.17860413,120384354,1,0.24018961191177368,-0.001380072790198028,0.0012871120125055313,0.9707241654396057
1666655834.21853304,120424283,1,0.2408551573753357,-0.000228448974667117,0.0030607739463448524,0.9705561995506287
1666655834.25855613,120464306,1,0.241301491856575,-7.758783613098785e-05,0.003762532491236925,0.9704428911209106
1666655834.29856801,120504318,1,0.2417098581790924,-0.00035196906537748873,0.0035119045060127974,0.9703421592712402
1666655834.33858204,120544332,1,0.24178944528102875,0.00010627415758790448,0.00328151136636734,0.9703232049942017
1666655834.35855603,120564306,1,0.24175763130187988,0.0005149465869180858,0.003444277448579669,0.9703304171562195
1666655834.37858891,120584339,1,0.2416771799325943,0.0007101129158399999,0.0020385216921567917,0.9703543186187744
1666655834.41858006,120624330,1,0.24150092899799347,0.0017835458274930716,0.0003369757905602455,0.9703989028930664
1666655834.45853090,120664281,1,0.2412848323583603,0.0027422511484473944,-0.0009597610333003104,0.9704499840736389
1666655834.49855399,120704304,1,0.24099011719226837,0.003019290277734399,-0.0004469132691156119,0.9705227613449097
1666655834.53858399,120744334,1,0.24037203192710876,0.0027829085011035204,0.0005047161830589175,0.9706767201423645
1666655834.55856705,120764317,1,0.2400398552417755,0.0024351710453629494,0.0006622076034545898,0.9707597494125366
1666655834.57858396,120784334,1,0.23984970152378082,0.0020869653671979904,0.0009417905821464956,0.9708073139190674
1666655834.61858511,120824335,1,0.2391921877861023,0.0018490611109882593,0.0019283418077975512,0.9709685444831848
1666655834.65857291,120864323,1,0.23841364681720734,0.001770408940501511,0.0022326980251818895,0.9711595177650452
1666655834.69857001,120904320,1,0.23777027428150177,0.0016611951868981123,0.0023015975020825863,0.9713172912597656
1666655834.73855710,120944307,1,0.23719026148319244,0.0007939300849102437,0.0017975501250475645,0.9714612364768982
1666655834.75860405,120964354,1,0.2369910031557083,3.565101360436529e-05,0.002207535784691572,0.9715093374252319
1666655834.77857709,120984327,1,0.23683781921863556,-0.0012619196204468608,0.001879291725344956,0.9715465903282166
1666655834.81856298,121024313,1,0.23643705248832703,-0.005048403982073069,0.0021309740841388702,0.9716313481330872
1666655834.85860109,121064351,1,0.23606806993484497,-0.00970175489783287,0.003272441914305091,0.9716825485229492
1666655834.89856601,121104316,1,0.2357136458158493,-0.013944201171398163,0.003818904748186469,0.9717150330543518
1666655834.93855906,121144309,1,0.2354237288236618,-0.016866279765963554,0.0046569653786718845,0.9717352986335754
1666655834.95860696,121164357,1,0.23524156212806702,-0.0179138220846653,0.005109108053147793,0.9717584252357483
1666655834.97855496,121184305,1,0.23522478342056274,-0.018145225942134857,0.004981375765055418,0.9717588424682617
1666655835.01858091,121224331,1,0.23496180772781372,-0.01840682327747345,0.004902529530227184,0.9718179106712341
1666655835.05857611,121264326,1,0.23462840914726257,-0.01792353391647339,0.004794451408088207,0.9719080328941345
1666655835.09858513,121304335,1,0.23433086276054382,-0.017420224845409393,0.00485600670799613,0.9719886779785156
1666655835.13855791,121344308,1,0.23367831110954285,-0.016912929713726044,0.004832626320421696,0.9721548557281494
1666655835.15859294,121364343,1,0.2332172393798828,-0.016877835616469383,0.003846733132377267,0.9722705483436584
1666655835.17854500,121384295,1,0.23294022679328918,-0.01637345924973488,0.004751072730869055,0.9723415970802307
1666655835.21857810,121424328,1,0.2322262078523636,-0.015647878870368004,0.004911445081233978,0.9725235104560852
1666655835.25859404,121464344,1,0.23149242997169495,-0.014271462336182594,0.004511785693466663,0.9727215766906738
1666655835.29860306,121504353,1,0.23088771104812622,-0.011818836443126202,0.003854254726320505,0.9729009866714478
1666655835.33857703,121544327,1,0.23012880980968475,-0.008334105834364891,0.0035213821101933718,0.9731181263923645
1666655835.35858202,121564332,1,0.22985494136810303,-0.006853639613837004,0.002583146095275879,0.973197340965271
1666655835.37856698,121584317,1,0.22965683043003082,-0.005650535225868225,0.003059776034206152,0.9732504487037659
1666655835.41856599,121624316,1,0.22906720638275146,-0.004234765190631151,0.0030136192217469215,0.9733967185020447
1666655835.45857501,121664325,1,0.22849443554878235,-0.004131225403398275,0.002984105609357357,0.9735319018363953
1666655835.49857306,121704323,1,0.2280307412147522,-0.005214810837060213,0.002722633769735694,0.9736361503601074
1666655835.53858209,121744332,1,0.2277747541666031,-0.006473550572991371,0.0027635637670755386,0.9736884236335754
1666655835.55854607,121764296,1,0.22763845324516296,-0.00702575733885169,0.0026169202756136656,0.9737168550491333
1666655835.57856107,121784311,1,0.2275938093662262,-0.007218627259135246,0.002903609536588192,0.9737250804901123
1666655835.61853790,121824288,1,0.22744940221309662,-0.0072578503750264645,0.0033093770034611225,0.9737572073936462
1666655835.65855503,121864305,1,0.22746746242046356,-0.007199898827821016,0.0036907983012497425,0.9737520813941956
1666655835.69858003,121904330,1,0.22761929035186768,-0.00736143346875906,0.003526440355926752,0.9737160205841064
1666655835.73859310,121944343,1,0.22764632105827332,-0.0077631003223359585,0.003079140791669488,0.9737080931663513
1666655835.75855803,121964308,1,0.22768433392047882,-0.007963729090988636,0.003143962938338518,0.9736973643302917
1666655835.77860403,121984354,1,0.2276611328125,-0.007994422689080238,0.002813784871250391,0.9737035632133484
1666655835.81855106,122024301,1,0.22765973210334778,-0.00797344371676445,0.0027501124422997236,0.9737042188644409
1666655835.85856295,122064313,1,0.2276514619588852,-0.008076936937868595,0.0027220426127314568,0.9737053513526917
1666655835.89855599,122104306,1,0.22775574028491974,-0.008486295118927956,0.002582147717475891,0.9736778736114502
1666655835.93857813,122144328,1,0.22787249088287354,-0.008692150004208088,0.001949305646121502,0.9736502170562744
1666655835.95852709,122164277,1,0.22794438898563385,-0.008071969263255596,0.002969110384583473,0.9736361503601074
1666655835.97860503,122184355,1,0.2279585897922516,-0.00803215429186821,0.0016809998778626323,0.973636269569397
1666655836.01859593,122224346,1,0.22805191576480865,-0.006826857104897499,0.001349754980765283,0.9736241102218628
1666655836.05856705,122264317,1,0.22812151908874512,-0.005561637692153454,0.0011852396419271827,0.9736160635948181
1666655836.09856105,122304311,1,0.22824838757514954,-0.0042566354386508465,0.0006136775482445955,0.9735934138298035
1666655836.13855910,122344309,1,0.228112131357193,-0.002665718784555793,0.0001707421470200643,0.9736312031745911
1666655836.15856910,122364319,1,0.2281624972820282,-0.0017528734169900417,0.0007906525279395282,0.9736211895942688
1666655836.17858100,122384331,1,0.22791317105293274,-0.0010749647626653314,7.699990419496316e-06,0.973680853843689
1666655836.21859598,122424346,1,0.227693572640419,-6.3913335907273e-05,3.0961076845414937e-05,0.9737328290939331
1666655836.25856805,122464318,1,0.22728946805000305,0.0008826600387692451,-0.00032563970307819545,0.9738267660140991
1666655836.29851794,122504268,1,0.22690539062023163,0.0013751402730122209,-0.00021929781360086054,0.9739158153533936
1666655836.33857393,122544324,1,0.22645659744739532,0.0020560366101562977,0.00011831661686301231,0.9740191102027893
1666655836.35859203,122564342,1,0.22633516788482666,0.0022902805358171463,0.0009330129832960665,0.9740463495254517
1666655836.37857699,122584327,1,0.22605116665363312,0.0024063983000814915,2.1112880858709104e-05,0.9741124510765076
1666655836.41857791,122624328,1,0.22573399543762207,0.0024372327607125044,0.0002725896192714572,0.9741858839988708
1666655836.45860696,122664357,1,0.22530712187290192,0.0026357260067015886,0.0006189510459080338,0.9742840528488159
1666655836.49856806,122704318,1,0.22492440044879913,0.002478843554854393,0.0008920710533857346,0.9743726253509521
1666655836.53855610,122744306,1,0.2242642343044281,0.0026247960049659014,0.0009251897572539747,0.9745243787765503
1666655836.55860806,122764358,1,0.22399382293224335,0.002229116391390562,0.0008761838544160128,0.974587619304657
1666655836.57855797,122784308,1,0.22370289266109467,0.002282510045915842,0.0008536531822755933,0.9746543169021606
1666655836.61857891,122824329,1,0.22307680547237396,0.0019527788972482085,0.0011907522566616535,0.9747982025146484
1666655836.65858507,122864335,1,0.2222311943769455,0.0013673451030626893,0.0015234594466164708,0.9749918580055237
1666655836.69860005,122904350,1,0.22136190533638,0.0002049009344773367,0.0017922731349244714,0.9751900434494019
1666655836.73856997,122944320,1,0.22029617428779602,-0.0013357504503801465,0.0015181159833446145,0.9754309058189392
1666655836.75858593,122964336,1,0.219728022813797,-0.002500588074326515,0.0009322253754362464,0.9755575060844421
1666655836.77853394,122984284,1,0.21928440034389496,-0.0033323834650218487,0.0023765945807099342,0.9756523966789246
1666655836.81855202,123024302,1,0.21802815794944763,-0.005398365668952465,0.0019650703761726618,0.9759255647659302
1666655836.85858011,123064330,1,0.21688245236873627,-0.007090327795594931,0.0019616137724369764,0.976170003414154
1666655836.89859796,123104348,1,0.2157130241394043,-0.007809521164745092,0.0020719931926578283,0.9764233827590942
1666655836.93857908,123144329,1,0.214534729719162,-0.008053875528275967,0.001790843904018402,0.9766815304756165
1666655836.95858002,123164330,1,0.2138294130563736,-0.00739634083583951,0.0024729054421186447,0.9768399000167847
1666655836.97853398,123184284,1,0.21333515644073486,-0.00754775945097208,0.0013943667290732265,0.9769489169120789
1666655837.01855612,123224306,1,0.21198971569538116,-0.006628501694649458,0.0015538528095930815,0.9772481918334961
1666655837.05858898,123264339,1,0.21048441529273987,-0.004976422060281038,0.001125308801420033,0.9775838851928711
1666655837.09858203,123304332,1,0.20898914337158203,-0.0035888042766600847,0.0004681800492107868,0.9779112339019775
1666655837.13859892,123344349,1,0.20739516615867615,-0.0020560186821967363,0.0010327226482331753,0.9782545566558838
1666655837.15855598,123364306,1,0.2064218819141388,-0.0016569622093811631,-0.0002492042549420148,0.9784616231918335
1666655837.17858005,123384330,1,0.2056635320186615,-0.0007549051661044359,0.0007500592619180679,0.9786221981048584
1666655837.21853089,123424281,1,0.20366817712783813,0.0003325956058688462,0.0005118565168231726,0.9790397882461548
1666655837.25855494,123464305,1,0.2017805427312851,0.0009228356648236513,0.00023016598424874246,0.9794303178787231
1666655837.29857397,123504324,1,0.19974219799041748,0.0012842192081734538,-0.0006433762609958649,0.9798474311828613
1666655837.33857608,123544326,1,0.19773614406585693,0.0013981313677504659,-0.0008670554379932582,0.9802538752555847
1666655837.35855889,123564309,1,0.19678713381290436,0.001981707289814949,0.00031564917298965156,0.9804441928863525
1666655837.37860298,123584353,1,0.19573715329170227,0.0019678485114127398,-0.0012422327417880297,0.9806536436080933
1666655837.41854191,123624292,1,0.1938294768333435,0.001961476169526577,-0.0013336854754015803,0.9810323715209961
1666655837.45855713,123664307,1,0.19198615849018097,0.0020553080830723047,-0.001058677677065134,0.98139488697052
1666655837.49855590,123704306,1,0.19014164805412292,0.0019229864701628685,-0.0007363996119238436,0.98175448179245
1666655837.53857803,123744328,1,0.1883794665336609,0.0022772958036512136,-0.0010731093352660537,0.982093095779419
1666655837.55856705,123764317,1,0.18765434622764587,0.0012997639132663608,-0.0013446292141452432,0.9822333455085754
1666655837.57857299,123784323,1,0.18698784708976746,0.0020928268786519766,-0.0011199722066521645,0.9823593497276306
1666655837.61862206,123824372,1,0.18565087020397186,0.0015465859323740005,-0.0009235822944901884,0.9826140999794006
1666655837.65853095,123864281,1,0.1844024658203125,0.0010055059101432562,-0.00113455462269485,0.982849657535553
1666655837.69857311,123904323,1,0.18305929005146027,0.0001418039173586294,-0.0010844437638297677,0.9831012487411499
1666655837.73855710,123944307,1,0.1819806545972824,-0.0010007577948272228,-0.0014031095197424293,0.9833006262779236
1666655837.75853610,123964286,1,0.18123458325862885,-0.0013646691804751754,-0.002826352370902896,0.9834349155426025
1666655837.77858210,123984332,1,0.1807648092508316,-0.0013632886111736298,-0.001848266227170825,0.9835236668586731
1666655837.81860399,124024354,1,0.17978250980377197,-0.001010878011584282,-0.0015068758511915803,0.983704686164856
1666655837.85859990,124064350,1,0.1790066808462143,-0.0009038008865900338,-0.0016869304236024618,0.9838460087776184
1666655837.89852905,124104279,1,0.1783246248960495,-0.0009948513470590115,-0.001979809021577239,0.9839692115783691
1666655837.93856692,124144317,1,0.17781493067741394,-0.0008861668175086379,-0.0019287972245365381,0.9840616583824158
1666655837.95859790,124164348,1,0.1775747686624527,-0.0014065405121073127,-0.0022992161102592945,0.9841036200523376
1666655837.97860003,124184350,1,0.17749646306037903,-0.0009483101312071085,-0.0020747496746480465,0.9841188192367554
1666655838.01857901,124224329,1,0.1773120015859604,-0.0014259660383686423,-0.0026723486371338367,0.9841500520706177
1666655838.05859208,124264342,1,0.17716553807258606,-0.001278901589103043,-0.0027253152802586555,0.9841764569282532
1666655838.09855890,124304309,1,0.1769721508026123,-0.0008979206322692335,-0.0022860614117234945,0.9842128157615662
1666655838.13854194,124344292,1,0.17696097493171692,-0.0009747837902978063,-0.0025037601590156555,0.984214186668396
1666655838.15859795,124364348,1,0.17712916433811188,-0.0008793786400929093,-0.0019681041594594717,0.9841852784156799
1666655838.17855692,124384307,1,0.17693836987018585,-0.0012644707458093762,-0.0029235740657895803,0.9842167496681213
1666655838.21858692,124424337,1,0.17707663774490356,-0.0015319740632548928,-0.0025127071421593428,0.9841926693916321
1666655838.25858307,124464333,1,0.17726798355579376,-0.0019866437651216984,-0.0018929748330265284,0.9841588139533997
1666655838.29858112,124504331,1,0.17765720188617706,-0.002386924345046282,-0.001820744015276432,0.9840878844261169
1666655838.33854699,124544297,1,0.17798586189746857,-0.002388911321759224,-0.001824934035539627,0.9840284585952759
1666655838.35858202,124564332,1,0.17822998762130737,-0.0013867533998563886,-0.0009187142131850123,0.9839874505996704
1666655838.37855196,124584302,1,0.1782447099685669,-0.0020267879590392113,-0.0016072080470621586,0.9839828014373779
1666655838.41855597,124624306,1,0.17863205075263977,-0.0019819133449345827,-0.0013767790514975786,0.983913004398346
1666655838.45858502,124664335,1,0.17925898730754852,-0.002341790124773979,-0.001437882543541491,0.983798086643219
1666655838.49856997,124704320,1,0.17975957691669464,-0.002527827862650156,-0.0010849545942619443,0.9837067127227783
1666655838.53860307,124744353,1,0.18036533892154694,-0.0027602543123066425,-0.000338439189363271,0.9835957288742065
1666655838.55858397,124764334,1,0.18067936599254608,-0.0028869130183011293,6.281544483499601e-05,0.9835377931594849
1666655838.57853508,124784285,1,0.18085958063602448,-0.003196650417521596,0.0002688840904738754,0.9835036993026733
1666655838.61855602,124824306,1,0.1814240664243698,-0.0040719714015722275,3.8049722206778824e-05,0.9833965301513672
1666655838.65856409,124864314,1,0.1819438487291336,-0.00459775747731328,-0.0007124476251192391,0.9832979440689087
1666655838.69858503,124904335,1,0.18247893452644348,-0.004320613108575344,-0.0007279384299181402,0.9832000136375427
1666655838.73860312,124944353,1,0.18300500512123108,-0.004075953271239996,-0.000252147059654817,0.9831035137176514
1666655838.75856209,124964312,1,0.18335255980491638,-0.004320213571190834,0.0003982917114626616,0.9830376505851746
1666655838.77856803,124984318,1,0.18349334597587585,-0.005225455854088068,-1.4278174376158859e-06,0.9830070734024048
1666655838.81855106,125024301,1,0.1839931160211563,-0.007527225650846958,0.000527497730217874,0.9828985929489136
1666655838.85855603,125064306,1,0.1844332218170166,-0.011012669652700424,0.002121396129950881,0.9827810525894165
1666655838.89858413,125104334,1,0.1849399358034134,-0.015043427236378193,0.0030048484914004803,0.9826300740242004
1666655838.93858695,125144337,1,0.18537144362926483,-0.018811233341693878,0.0034657178912311792,0.982482373714447
1666655838.95856404,125164314,1,0.18562637269496918,-0.020050862804055214,0.0035398018080741167,0.9824094176292419
1666655838.97857809,125184328,1,0.18586091697216034,-0.022229762747883797,0.0034524614457041025,0.9823185205459595
1666655839.01856494,125224315,1,0.18626567721366882,-0.024975553154945374,0.0036906818859279156,0.9821749925613403
1666655839.05856109,125264311,1,0.1867654025554657,-0.0274285227060318,0.003954675979912281,0.9820135831832886
1666655839.09864807,125304398,1,0.1871570646762848,-0.02919899672269821,0.004465609323233366,0.9818857908248901
1666655839.13858509,125344335,1,0.18745441734790802,-0.029994266107678413,0.00531589612364769,0.9818008542060852
1666655839.15852809,125364278,1,0.18766634166240692,-0.03002212755382061,0.006656364072114229,0.9817513227462769
1666655839.17858911,125384339,1,0.18785445392131805,-0.030389156192541122,0.00554649205878377,0.9817109704017639
1666655839.21860099,125424351,1,0.18816812336444855,-0.030095146968960762,0.005417332518845797,0.9816606640815735
1666655839.25856709,125464317,1,0.18835671246051788,-0.029576722532510757,0.005100547336041927,0.981641948223114
1666655839.29856205,125504312,1,0.1884647011756897,-0.029040271416306496,0.004877509083598852,0.9816383719444275
1666655839.33855796,125544308,1,0.18865446746349335,-0.027965350076556206,0.004508825950324535,0.9816349148750305
1666655839.35855794,125564308,1,0.18875189125537872,-0.026753880083560944,0.00545243127271533,0.9816451668739319
1666655839.37859392,125584344,1,0.1888371706008911,-0.02588696777820587,0.0042423359118402,0.9816579818725586
1666655839.41861010,125624360,1,0.18886205554008484,-0.02333926223218441,0.004362480249255896,0.9817165732383728
1666655839.45858598,125664336,1,0.1891365498304367,-0.020769238471984863,0.00456267548725009,0.981720507144928
1666655839.49853301,125704283,1,0.18937857449054718,-0.017429951578378677,0.0045365216210484505,0.9817389249801636
1666655839.53857398,125744324,1,0.18936599791049957,-0.013540981337428093,0.0035320657771080732,0.9818068742752075
1666655839.55856109,125764311,1,0.1895781308412552,-0.011695099994540215,0.00236716796644032,0.9817931056022644
1666655839.57854605,125784296,1,0.18958346545696259,-0.008621247485280037,0.0026605662424117327,0.9818231463432312
1666655839.61858201,125824332,1,0.18964695930480957,-0.004207252990454435,0.0017338134348392487,0.9818418025970459
1666655839.65857291,125864323,1,0.18990200757980347,-0.0010573528707027435,0.0014065129216760397,0.981801450252533
1666655839.69856811,125904318,1,0.1900903433561325,0.00120273616630584,0.0007068575359880924,0.981765627861023
1666655839.73852897,125944279,1,0.1900288164615631,0.0025276364758610725,0.0005109107005409896,0.9817751049995422
1666655839.75857306,125964323,1,0.18997123837471008,0.0024121329188346863,-0.0001586243452038616,0.9817866683006287
1666655839.77853608,125984286,1,0.18999290466308594,0.0034205897245556116,0.0005494903307408094,0.9817793369293213
1666655839.81859803,126024348,1,0.1899862438440323,0.004047099035233259,-2.706131272134371e-05,0.9817783832550049
1666655839.85857701,126064327,1,0.18991844356060028,0.004077277611941099,-0.0008023075642995536,0.981791079044342
1666655839.89858413,126104334,1,0.19000057876110077,0.0040449476800858974,-0.0013611334143206477,0.9817746877670288
1666655839.93853593,126144286,1,0.19002722203731537,0.004369470756500959,-0.0017975340597331524,0.981767475605011
1666655839.95858002,126164330,1,0.19010469317436218,0.00476978812366724,-0.000271457654889673,0.9817522168159485
1666655839.97856092,126184311,1,0.19007305800914764,0.004347462672740221,-0.0018150376854464412,0.9817586541175842
1666655840.01855493,126224305,1,0.1901775598526001,0.003874802263453603,-0.0012259872164577246,0.9817413091659546
1666655840.05857992,126264330,1,0.19019906222820282,0.003712844103574753,-0.0013880522456020117,0.9817375540733337
1666655840.09859490,126304345,1,0.19017207622528076,0.0033074647653847933,-0.0012088775401934981,0.9817444682121277
1666655840.13861012,126344360,1,0.19021420180797577,0.0030247336253523827,-0.0012744711712002754,0.9817371368408203
1666655840.15857697,126364327,1,0.1901700645685196,0.002795502543449402,-0.00025551029830239713,0.9817471504211426
1666655840.17853808,126384288,1,0.1903577297925949,0.0027015372179448605,-0.0013490469427779317,0.9817101359367371
1666655840.21856093,126424311,1,0.19039341807365417,0.0028378870338201523,-0.0014199274592101574,0.9817027449607849
1666655840.25855303,126464303,1,0.19043488800525665,0.002540465211495757,-0.002456492278724909,0.9816934466362
1666655840.29858303,126504333,1,0.19057412445545197,0.0016183825209736824,-0.005303439684212208,0.9816571474075317
1666655840.33854508,126544295,1,0.19046103954315186,0.0007779925945214927,-0.010290306992828846,0.9816405177116394
1666655840.35855508,126564305,1,0.19062449038028717,-0.0007972843595780432,-0.013156836852431297,0.981574535369873
1666655840.37859607,126584346,1,0.19056284427642822,-0.0014803220983594656,-0.01676165871322155,0.9815307855606079
1666655840.41857505,126624325,1,0.19074127078056335,-0.0029148997273296118,-0.0236204881221056,0.9813517928123474
1666655840.45855808,126664308,1,0.19085244834423065,-0.0036262355279177427,-0.029023298993706703,0.981182873249054
1666655840.49853802,126704288,1,0.19072870910167694,-0.004201276693493128,-0.03202779218554497,0.9811111688613892
1666655840.53858304,126744333,1,0.19094052910804749,-0.0051091513596475124,-0.03430512174963951,0.9809886813163757
1666655840.55855703,126764307,1,0.19106678664684296,-0.005321550648659468,-0.03581587225198746,0.9809089303016663
1666655840.57857299,126784323,1,0.19111329317092896,-0.005598612129688263,-0.03541988134384155,0.9809127449989319
1666655840.61856699,126824317,1,0.1911700814962387,-0.005686479154974222,-0.035577818751335144,0.980895459651947
1666655840.65852809,126864278,1,0.19119568169116974,-0.005166906863451004,-0.03463084623217583,0.9809272289276123
1666655840.69856000,126904310,1,0.19124425947666168,-0.005121469032019377,-0.0329192690551281,0.980976939201355
1666655840.73859096,126944341,1,0.1914258897304535,-0.004803948104381561,-0.03008344955742359,0.9810341596603394
1666655840.75853109,126964281,1,0.19130989909172058,-0.004527454264461994,-0.027621397748589516,0.9811305403709412
1666655840.77858090,126984331,1,0.1913628876209259,-0.003913951572030783,-0.02528013102710247,0.9811859130859375
1666655840.81856608,127024316,1,0.19135242700576782,-0.0030187428928911686,-0.02060185931622982,0.9813005328178406
1666655840.85854697,127064297,1,0.19164851307868958,-0.0021902204025536776,-0.015353628434240818,0.9813410639762878
1666655840.89855409,127104304,1,0.19159454107284546,-0.0013866734225302935,-0.009640481323003769,0.9814258217811584
1666655840.93856597,127144316,1,0.1917598992586136,-0.0003751804761122912,-0.0043457141146063805,0.9814321994781494
1666655840.95858312,127164333,1,0.1917586475610733,0.0002220710157416761,-0.002632825868204236,0.9814385771751404
1666655840.97858191,127184332,1,0.1917789876461029,6.56707416055724e-05,-0.00100085255689919,0.981437623500824
1666655841.01858997,127224340,1,0.19197431206703186,0.0006834939704276621,0.002497067442163825,0.9813965559005737
1666655841.05860090,127264351,1,0.19207249581813812,0.0007305324543267488,0.00402871472761035,0.9813721776008606
1666655841.09856892,127304319,1,0.19218076765537262,0.0008886355208232999,0.00493409251794219,0.9813467264175415
1666655841.13857508,127344325,1,0.19233156740665436,0.000899007951375097,0.005846055224537849,0.9813121557235718
1666655841.15858293,127364333,1,0.19249862432479858,0.001065943157300353,0.005360329523682594,0.9812819957733154
1666655841.17854905,127384299,1,0.19238156080245972,0.0010070439893752337,0.006541841197758913,0.9812978506088257
1666655841.21857810,127424328,1,0.192381352186203,0.0008177128620445728,0.006007048767060041,0.981301486492157
1666655841.25856900,127464319,1,0.19228915870189667,0.0007279420970007777,0.005642173811793327,0.9813218116760254
1666655841.29857612,127504326,1,0.1922929733991623,0.0007916426402516663,0.004532653838396072,0.9813267588615417
1666655841.33854198,127544292,1,0.1920628696680069,0.0007542229723185301,0.003155404468998313,0.9813772439956665
1666655841.35858893,127564339,1,0.1921595335006714,0.0009439974091947079,0.002586320275440812,0.9813598394393921
1666655841.37855601,127584306,1,0.1918993592262268,0.0007649442995898426,0.0027676085010170937,0.9814103841781616
1666655841.41857696,127624327,1,0.19163477420806885,0.00040970082045532763,0.0017724146600812674,0.9814646244049072
1666655841.45858097,127664331,1,0.19131837785243988,0.0006729593151248991,0.0008578677661716938,0.9815274477005005
1666655841.49859190,127704342,1,0.19096826016902924,0.0009025746257975698,0.0006744659622199833,0.9815955758094788
1666655841.53856206,127744312,1,0.19059424102306366,0.0008434084593318403,0.0006139533943496644,0.9816683530807495
1666655841.55857897,127764329,1,0.19050340354442596,0.0004654375952668488,0.0020311095286160707,0.9816843271255493
1666655841.57854104,127784291,1,0.1902466118335724,0.0008603243040852249,0.0008078833925537765,0.9817356467247009
1666655841.61855507,127824305,1,0.18990203738212585,0.00104855140671134,0.0011206254130229354,0.9818018674850464
1666655841.65858197,127864332,1,0.18939563632011414,0.0011688123922795057,0.0015399716794490814,0.9818989634513855
1666655841.69858098,127904331,1,0.18893392384052277,0.0009641434298828244,0.0015656448667868972,0.9819880723953247
1666655841.73862290,127944373,1,0.18856945633888245,0.001325919758528471,0.001818863907828927,0.9820572733879089
1666655841.75857806,127964328,1,0.18834947049617767,0.0006068430375307798,0.0013737068511545658,0.9821009039878845
1666655841.77856898,127984319,1,0.1880682408809662,0.0014698986196890473,0.0018900011200457811,0.982153058052063
1666655841.81855702,128024307,1,0.18782848119735718,0.0012530141975730658,0.0023014957550913095,0.9821983575820923
1666655841.85855603,128064306,1,0.18772099912166595,0.0009578234748914838,0.002256260020658374,0.9822193384170532
1666655841.89858198,128104332,1,0.18739981949329376,0.0008744903025217354,0.0023949050810188055,0.982280433177948
1666655841.93859005,128144340,1,0.18717850744724274,0.0007487444672733545,0.0018991398392245173,0.9823238253593445
1666655841.95855904,128164309,1,0.18684394657611847,0.0004929731949232519,-0.00010941184882540256,0.9823894500732422
1666655841.97860098,128184351,1,0.18693234026432037,0.00027171068359166384,0.002136746421456337,0.9823704361915588
1666655842.01854205,128224292,1,0.18661558628082275,-0.0002477204834576696,0.0019058577017858624,0.9824311137199402
1666655842.05855608,128264306,1,0.18642129004001617,-0.0005282547790557146,0.0015262278029695153,0.9824685454368591
1666655842.09857106,128304321,1,0.1863211989402771,-0.0004977375501766801,0.00127957493532449,0.9824879169464111
1666655842.13859010,128344340,1,0.1862255483865738,-0.0003229553112760186,0.0008766831015236676,0.9825065732002258
1666655842.15854311,128364293,1,0.18602381646633148,-0.00016777042765170336,-0.000567255774512887,0.9825450778007507
1666655842.17857909,128384329,1,0.1860201209783554,-9.604451042832807e-05,0.0010075430618599057,0.9825454354286194
1666655842.21857309,128424323,1,0.18588170409202576,-0.0004755072295665741,0.0008292447892017663,0.9825716614723206
1666655842.25854111,128464291,1,0.18581967055797577,-0.0006708134314976633,0.0010038164909929037,0.9825831055641174
1666655842.29855895,128504309,1,0.1856224685907364,-0.0008190052467398345,0.0011246467474848032,0.9826201796531677
1666655842.33858991,128544340,1,0.18551002442836761,-0.0014090870972722769,0.000949686742387712,0.9826409220695496
1666655842.35856700,128564317,1,0.18557995557785034,-0.00034999693161807954,0.0008861085516400635,0.9826287031173706
1666655842.37858009,128584330,1,0.1854575127363205,-0.001956482883542776,0.00073191401315853,0.9826500415802002
1666655842.41858792,128624338,1,0.18548613786697388,-0.002439273986965418,0.0005174517282284796,0.982643723487854
1666655842.45853806,128664288,1,0.18558277189731598,-0.002798804547637701,0.0004324312321841717,0.9826245307922363
1666655842.49854994,128704300,1,0.1855514496564865,-0.003379884408786893,-3.2285945053445175e-05,0.9826287627220154
1666655842.53855491,128744305,1,0.1856226623058319,-0.0037249550223350525,-0.0001023704680847004,0.9826140403747559
1666655842.55857706,128764327,1,0.1858307272195816,-0.004533836618065834,0.001577957533299923,0.9825700521469116
1666655842.57857895,128784329,1,0.18564437329769135,-0.004952138755470514,0.0003666970587801188,0.982604444026947
1666655842.61858106,128824331,1,0.18564411997795105,-0.007109395228326321,0.0010520549258217216,0.9825907349586487
1666655842.65860295,128864353,1,0.1857367306947708,-0.009631037712097168,0.0011753138387575746,0.982551634311676
1666655842.69855595,128904306,1,0.18578281998634338,-0.011936928145587444,0.0016467138193547726,0.9825169444084167
1666655842.73855901,128944309,1,0.18584559857845306,-0.01381369587033987,0.002526678377762437,0.9824786186218262
1666655842.75857711,128964327,1,0.18603229522705078,-0.014175902120769024,0.004271912854164839,0.9824320673942566
1666655842.77855706,128984307,1,0.18589083850383759,-0.014905626885592937,0.002969773719087243,0.9824528694152832
1666655842.81858397,129024334,1,0.18597593903541565,-0.015688030049204826,0.003216039389371872,0.9824237823486328
1666655842.85854912,129064299,1,0.18597589433193207,-0.015978088602423668,0.0031265774741768837,0.9824194312095642
