timestamp,TimeUS,C,Roll,Pitch,Yaw,VN,VE,VD,dPD,PN,PE,PD,GX,GY,GZ,OH
1666655825.61858010,111824330,1,0.21,-0.09,353.0,0.02278299443423748,-0.15272782742977142,0.030470004305243492,-0.06752782315015793,1.681950569152832,0.9388473629951477,0.07559876888990402,0.03,0.0,0.0,263.34000000000003
1666655825.65859199,111864342,1,0.21,-0.08,353.0,0.020248139277100563,-0.1552635282278061,0.030701905488967896,-0.06104002892971039,1.6772472858428955,0.918124258518219,0.07342756539583206,0.03,0.0,0.0,263.34000000000003
1666655825.69856811,111904318,1,0.21,-0.08,353.0,0.017441459000110626,-0.15784859657287598,0.03050868585705757,-0.05443288013339043,1.671695590019226,0.8954680562019348,0.07045689225196838,0.03,0.0,0.0,263.34000000000003
1666655825.73856306,111944313,1,0.21,-0.08,353.0,0.015606551431119442,-0.15954923629760742,0.030437065288424492,-0.05108245834708214,1.6683292388916016,0.878863513469696,0.06874336302280426,0.03,0.0,0.0,263.34000000000003
1666655825.75859308,111964343,1,0.21,-0.08,353.0,0.014787455089390278,-0.16036131978034973,0.03042573668062687,-0.04805801808834076,1.66739821434021,0.8726460337638855,0.0684666782617569,0.03,0.0,0.0,263.34000000000003
1666655825.77855206,111984302,1,0.21,-0.08,353.0,0.01389175932854414,-0.16121841967105865,0.03026938997209072,-0.04427556321024895,1.6653976440429688,0.8636249899864197,0.06749209016561508,0.03,0.0,0.0,263.34000000000003
1666655825.81857896,112024329,1,0.21,-0.08,353.0,0.011471850797533989,-0.1632125824689865,0.031428854912519455,-0.019511381164193153,1.6600626707077026,0.8423227667808533,0.06878497451543808,0.03,0.0,0.0,263.34000000000003
1666655825.85856605,112064316,1,0.2,-0.08,353.0,0.009062492288649082,-0.16459384560585022,0.0322212278842926,0.011984284967184067,1.6553525924682617,0.822971522808075,0.07009024173021317,0.03,0.0,0.0,263.34000000000003
1666655825.89858794,112104338,1,0.2,-0.08,353.0,0.006576730404049158,-0.16645492613315582,0.03286042809486389,0.036603763699531555,1.649845838546753,0.8019394278526306,0.07135326415300369,0.03,0.0,0.0,263.34000000000003
1666655825.93856502,112144315,1,0.2,-0.08,353.0,0.004960095509886742,-0.16786114871501923,0.033156950026750565,0.04571984335780144,1.6463632583618164,0.7862575650215149,0.07219772040843964,0.03,0.0,0.0,263.34000000000003
1666655825.95857501,112164325,1,0.21,-0.08,353.01,0.0041434853337705135,-0.1681935042142868,0.033234383910894394,0.04689465090632439,1.645325779914856,0.7801971435546875,0.0727422758936882,0.03,0.0,0.0,263.34000000000003
1666655825.97852206,112184272,1,0.21,-0.07,353.01,0.001950979814864695,-0.1683754026889801,0.03400048986077309,0.05315446853637695,1.639927864074707,0.7680097818374634,0.07460138201713562,0.03,0.0,0.0,263.34000000000003
1666655826.01855111,112224301,1,0.21,-0.07,353.01,-0.0010736060794442892,-0.1686328500509262,0.035579029470682144,0.07149745523929596,1.6326090097427368,0.7496247887611389,0.07725320011377335,0.03,0.0,0.0,263.34000000000003
1666655826.05856800,112264318,1,0.21,-0.07,353.01,-0.003847963409498334,-0.16827145218849182,0.036697905510663986,0.0816139206290245,1.6260881423950195,0.7329199910163879,0.07971654832363129,0.03,0.0,0.0,263.34000000000003
1666655826.09856200,112304312,1,0.21,-0.07,353.01,-0.007403448689728975,-0.1678418219089508,0.038210827857255936,0.08571973443031311,1.6185245513916016,0.7151392102241516,0.08229827135801315,0.03,0.0,0.0,263.34000000000003
1666655826.13856912,112344319,1,0.21,-0.07,353.01,-0.009946528822183609,-0.16761060059070587,0.038869459182024,0.07966569811105728,1.613453984260559,0.7015080451965332,0.08413230627775192,0.03,0.0,0.0,263.34000000000003
1666655826.15856290,112364313,1,0.21,-0.07,353.01,-0.01100703701376915,-0.16747501492500305,0.03926387429237366,0.07531626522541046,1.611802101135254,0.6961218118667603,0.08502206206321716,0.03,0.0,0.0,263.34000000000003
1666655826.17856312,112384313,1,0.21,-0.07,353.01,-0.01294753234833479,-0.16779224574565887,0.04012293368577957,0.07545164227485657,1.6068342924118042,0.6834484934806824,0.08704491704702377,0.03,0.0,0.0,263.34000000000003
1666655826.21855712,112424307,1,0.21,-0.07,353.01,-0.015128979459404945,-0.16796274483203888,0.04137848690152168,0.08047366887331009,1.5999329090118408,0.6644169688224792,0.08982998132705688,0.03,0.0,0.0,263.34000000000003
1666655826.25855112,112464301,1,0.21,-0.06,353.0,-0.0171604435890913,-0.1682686060667038,0.04232894256711006,0.07960321754217148,1.593748927116394,0.6471242904663086,0.09234391897916794,0.03,0.0,0.0,263.34000000000003
1666655826.29857302,112504323,1,0.21,-0.06,353.0,-0.019436711445450783,-0.16855181753635406,0.04322458431124687,0.07675021886825562,1.5867077112197876,0.6285475492477417,0.09491739422082901,0.03,0.0,0.0,263.34000000000003
1666655826.33855200,112544302,1,0.21,-0.06,353.0,-0.021356316283345222,-0.16855394840240479,0.0434534065425396,0.06763192266225815,1.581892728805542,0.6145585179328918,0.09671782702207565,0.03,0.0,0.0,263.34000000000003
1666655826.35855198,112564302,1,0.21,-0.07,353.0,-0.022295502945780754,-0.1687857210636139,0.04354946315288544,0.06244976818561554,1.580230474472046,0.6089228987693787,0.09765347838401794,0.03,0.0,0.0,263.34000000000003
1666655826.37859297,112584343,1,0.21,-0.07,353.0,-0.023960871621966362,-0.16891416907310486,0.04455118626356125,0.06511624157428741,1.5748473405838013,0.596348226070404,0.10017750412225723,0.03,0.0,0.0,263.34000000000003
1666655826.41855311,112624303,1,0.21,-0.06,353.0,-0.02643919363617897,-0.16830645501613617,0.045464858412742615,0.07908768206834793,1.5672669410705566,0.5775361061096191,0.10384546220302582,0.03,0.0,0.0,263.34000000000003
1666655826.45856094,112664311,1,0.21,-0.06,353.0,-0.02820577099919319,-0.16796784102916718,0.046459708362817764,0.0883568748831749,1.560445785522461,0.5604453682899475,0.10722582042217255,0.03,0.0,0.0,263.34000000000003
1666655826.49853301,112704283,1,0.21,-0.06,353.0,-0.030809104442596436,-0.16752946376800537,0.04756700620055199,0.09235881268978119,1.5527682304382324,0.5421976447105408,0.11062783747911453,0.03,0.0,0.0,263.34000000000003
1666655826.53857994,112744330,1,0.21,-0.06,352.99,-0.032726969569921494,-0.16709615290164948,0.04824880138039589,0.0839667096734047,1.5473639965057373,0.5283318161964417,0.11280907690525055,0.03,0.0,0.0,263.34000000000003
1666655826.55854297,112764293,1,0.21,-0.06,352.99,-0.03348586708307266,-0.1668892800807953,0.048497218638658524,0.0778782069683075,1.5454496145248413,0.5228521823883057,0.11387572437524796,0.03,0.0,0.0,263.34000000000003
1666655826.57859206,112784342,1,0.21,-0.06,352.99,-0.034738361835479736,-0.165288507938385,0.049314942210912704,0.07827313989400864,1.539955735206604,0.5121749639511108,0.11648391932249069,0.03,0.0,0.0,263.34000000000003
1666655826.61857200,112824322,1,0.21,-0.06,352.99,-0.03695712983608246,-0.1618955135345459,0.050837673246860504,0.08880288153886795,1.5320394039154053,0.4957583248615265,0.12033242732286453,0.03,0.0,0.0,263.34000000000003
1666655826.65854812,112864298,1,0.21,-0.06,352.99,-0.03892163559794426,-0.1589602380990982,0.05153168737888336,0.09331028163433075,1.524916648864746,0.48111629486083984,0.12382028996944427,0.03,0.0,0.0,263.34000000000003
1666655826.69855309,112904303,1,0.22,-0.06,352.98,-0.04099592566490173,-0.1558120846748352,0.05288480594754219,0.09452400356531143,1.5169868469238281,0.465835839509964,0.12723273038864136,0.03,0.0,0.0,263.34000000000003
1666655826.73857903,112944329,1,0.22,-0.06,352.98,-0.042332541197538376,-0.15334662795066833,0.05351958051323891,0.08288109302520752,1.5113098621368408,0.4541994035243988,0.129347562789917,0.03,0.0,0.0,263.34000000000003
1666655826.75853705,112964287,1,0.22,-0.06,352.98,-0.043165843933820724,-0.1521003544330597,0.053754840046167374,0.0754086822271347,1.5092438459396362,0.4495471119880676,0.13043297827243805,0.03,0.0,0.0,263.34000000000003
1666655826.77858901,112984339,1,0.22,-0.06,352.97,-0.04326069727540016,-0.14859658479690552,0.05456042289733887,0.07380418479442596,1.504381775856018,0.4406355619430542,0.13269969820976257,0.03,0.0,0.0,263.34000000000003
1666655826.81858802,113024338,1,0.22,-0.06,352.97,-0.04344061389565468,-0.14262445271015167,0.05560489743947983,0.07752368599176407,1.4973413944244385,0.4271330237388611,0.13594794273376465,0.03,0.0,0.0,263.34000000000003
1666655826.85856104,113064311,1,0.22,-0.06,352.97,-0.044174566864967346,-0.1376504749059677,0.05672406032681465,0.07723179459571838,1.4910591840744019,0.4152493476867676,0.13886645436286926,0.03,0.0,0.0,263.34000000000003
1666655826.89857006,113104320,1,0.22,-0.06,352.96,-0.044342558830976486,-0.13178911805152893,0.05752911418676376,0.07562212646007538,1.4842668771743774,0.4032191336154938,0.1416805535554886,0.03,0.0,0.0,263.34000000000003
1666655826.93855309,113144303,1,0.22,-0.05,352.96,-0.04462726414203644,-0.12729738652706146,0.05762413144111633,0.0658888891339302,1.4793741703033447,0.39416736364364624,0.1436617374420166,0.03,0.0,0.0,263.34000000000003
1666655826.95858312,113164333,1,0.22,-0.05,352.96,-0.04499005526304245,-0.12544643878936768,0.05777572840452194,0.06040991097688675,1.4775340557098389,0.3904877007007599,0.1447569876909256,0.03,0.0,0.0,263.34000000000003
1666655826.97857499,113184325,1,0.22,-0.06,352.96,-0.04515787959098816,-0.12272614240646362,0.05888780578970909,0.06515548378229141,1.4725173711776733,0.3811063766479492,0.14784328639507294,0.03,0.0,0.0,263.34000000000003
1666655827.01857090,113224321,1,0.22,-0.06,352.95,-0.0456436388194561,-0.11790315061807632,0.060526616871356964,0.085798479616642,1.4652504920959473,0.36724555492401123,0.15203069150447845,0.03,0.0,0.0,263.34000000000003
1666655827.05859399,113264344,1,0.23,-0.05,352.94,-0.04597581550478935,-0.11345050483942032,0.06222650036215782,0.09673577547073364,1.4587500095367432,0.3549836575984955,0.15575462579727173,0.03,0.0,0.0,263.34000000000003
1666655827.09856296,113304313,1,0.23,-0.06,352.94,-0.046438027173280716,-0.10866215080022812,0.06356605142354965,0.10033264756202698,1.4517643451690674,0.3423255681991577,0.15951603651046753,0.03,0.0,0.0,263.34000000000003
1666655827.13855410,113344304,1,0.23,-0.06,352.94,-0.047319911420345306,-0.10516824573278427,0.06474210321903229,0.09400959312915802,1.446716070175171,0.33309653401374817,0.16235551238059998,0.03,0.0,0.0,263.34000000000003
1666655827.15857697,113364327,1,0.23,-0.06,352.93,-0.047866690903902054,-0.10352254658937454,0.06497340649366379,0.08913171291351318,1.444823980331421,0.32956060767173767,0.16374774277210236,0.03,0.0,0.0,263.34000000000003
1666655827.17856693,113384317,1,0.23,-0.06,352.93,-0.0465446412563324,-0.0995878204703331,0.06609467417001724,0.09297548979520798,1.4404213428497314,0.3216167092323303,0.16714227199554443,0.03,0.0,0.0,263.34000000000003
1666655827.21857095,113424321,1,0.23,-0.06,352.92,-0.04555363208055496,-0.09333494305610657,0.06827516853809357,0.10985147953033447,1.4341260194778442,0.3102184534072876,0.17184025049209595,0.03,0.0,0.0,263.34000000000003
1666655827.25860906,113464359,1,0.23,-0.06,352.92,-0.04469668120145798,-0.08773660659790039,0.06953989714384079,0.11659987270832062,1.4285732507705688,0.300306499004364,0.17609140276908875,0.03,0.0,0.0,263.34000000000003
1666655827.29860091,113504351,1,0.23,-0.06,352.92,-0.04336591809988022,-0.08115553855895996,0.07127492874860764,0.11753679066896439,1.4227499961853027,0.2901822328567505,0.1804700642824173,0.03,0.0,0.0,263.34000000000003
1666655827.33853602,113544286,1,0.23,-0.06,352.92,-0.04321002960205078,-0.07563119381666183,0.07207593321800232,0.10880899429321289,1.4186038970947266,0.2830946445465088,0.1837959885597229,0.03,0.0,0.0,263.34000000000003
1666655827.35858107,113564331,1,0.24,-0.06,352.92,-0.043176859617233276,-0.07340262830257416,0.07235875725746155,0.10309736430644989,1.4170411825180054,0.28047358989715576,0.18539535999298096,0.03,0.0,0.0,263.34000000000003
1666655827.37855005,113584300,1,0.24,-0.06,352.92,-0.04396883025765419,-0.07141558825969696,0.07355176657438278,0.1058090329170227,1.4110029935836792,0.27123504877090454,0.18895508348941803,0.03,0.0,0.0,263.34000000000003
1666655827.41855311,113624303,1,0.23,-0.06,352.92,-0.045417480170726776,-0.06723716855049133,0.0750517025589943,0.12208077311515808,1.4023628234863281,0.25820213556289673,0.19445206224918365,0.03,0.0,0.0,263.34000000000003
1666655827.45857000,113664320,1,0.24,-0.06,352.92,-0.04631883651018143,-0.06326082348823547,0.07674329727888107,0.13291160762310028,1.3946447372436523,0.24687893688678741,0.19955435395240784,0.03,0.0,0.0,263.34000000000003
1666655827.49863100,113704381,1,0.23,-0.06,352.92,-0.04775942862033844,-0.059337373822927475,0.0782962292432785,0.13675904273986816,1.3862007856369019,0.23484529554843903,0.20465187728405,0.03,0.0,0.0,263.34000000000003
1666655827.53856492,113744315,1,0.23,-0.06,352.91,-0.04858332499861717,-0.05541820079088211,0.07931520789861679,0.12566499412059784,1.3800921440124512,0.2265586405992508,0.2083248496055603,0.03,0.0,0.0,263.34000000000003
1666655827.55856800,113764318,1,0.23,-0.06,352.91,-0.04881484434008598,-0.053783368319272995,0.07992653548717499,0.11826859414577484,1.3778973817825317,0.2237272411584854,0.2100323587656021,0.03,0.0,0.0,263.34000000000003
1666655827.57852411,113784274,1,0.23,-0.06,352.91,-0.04989070072770119,-0.05343147739768028,0.0815395936369896,0.11810600757598877,1.3712797164916992,0.21344462037086487,0.21348699927330017,0.03,0.0,0.0,263.34000000000003
1666655827.61855197,113824302,1,0.23,-0.06,352.91,-0.05109860748052597,-0.05144985765218735,0.08251307904720306,0.12478364259004593,1.3617830276489258,0.19913862645626068,0.2186109572649002,0.03,0.0,0.0,263.34000000000003
1666655827.65857792,113864328,1,0.23,-0.06,352.91,-0.05248674005270004,-0.049590203911066055,0.08398503810167313,0.12640058994293213,1.35323166847229,0.18655845522880554,0.2233230173587799,0.03,0.0,0.0,263.34000000000003
1666655827.69857907,113904329,1,0.23,-0.06,352.91,-0.05377035588026047,-0.0476328507065773,0.08515776693820953,0.1243918240070343,1.3437950611114502,0.1727377027273178,0.2280297875404358,0.03,0.0,0.0,263.34000000000003
1666655827.73858309,113944333,1,0.23,-0.05,352.90000000000003,-0.05469907447695732,-0.04530857130885124,0.08645617961883545,0.1137954443693161,1.3369768857955933,0.16335637867450714,0.23168228566646576,0.03,0.0,0.0,263.34000000000003
1666655827.75855398,113964304,1,0.23,-0.05,352.90000000000003,-0.05500959977507591,-0.044018473476171494,0.08668717741966248,0.10734068602323532,1.334509015083313,0.16021917760372162,0.23343996703624725,0.03,0.0,0.0,263.34000000000003
1666655827.77855802,113984308,1,0.22,-0.05,352.90000000000003,-0.056770116090774536,-0.044252585619688034,0.08806448429822922,0.1140046939253807,1.3267834186553955,0.14916621148586273,0.23827047646045685,0.03,0.0,0.0,263.34000000000003
1666655827.81856012,114024310,1,0.22,-0.05,352.90000000000003,-0.0588436983525753,-0.043277692049741745,0.08985843509435654,0.1438378244638443,1.315664291381836,0.1338471919298172,0.24510090053081512,0.03,0.0,0.0,263.34000000000003
1666655827.85855007,114064300,1,0.22,-0.05,352.90000000000003,-0.06108234077692032,-0.04222586750984192,0.09181853383779526,0.1612187922000885,1.3055833578109741,0.12032614648342133,0.25125545263290405,0.03,0.0,0.0,263.34000000000003
1666655827.89856195,114104312,1,0.22,-0.05,352.89,-0.06363163888454437,-0.04177749902009964,0.09346932172775269,0.16649369895458221,1.2943673133850098,0.10526027530431747,0.2574523985385895,0.03,0.0,0.0,263.34000000000003
1666655827.93858004,114144330,1,0.22,-0.05,352.89,-0.06576938182115555,-0.04043436422944069,0.09483947604894638,0.1538221836090088,1.2862144708633423,0.0950995534658432,0.26183709502220154,0.03,0.0,0.0,263.34000000000003
1666655827.95855212,114164302,1,0.22,-0.05,352.89,-0.06613979488611221,-0.039367567747831345,0.09514762461185455,0.14434243738651276,1.2832063436508179,0.0917171984910965,0.26393765211105347,0.03,0.0,0.0,263.34000000000003
1666655827.97859907,114184349,1,0.22,-0.05,352.89,-0.06684385985136032,-0.03895839676260948,0.09616906195878983,0.14321497082710266,1.2763596773147583,0.08176706731319427,0.2681175470352173,0.03,0.0,0.0,263.34000000000003
1666655828.01856399,114224314,1,0.22,-0.05,352.89,-0.06733721494674683,-0.037399884313344955,0.09776239097118378,0.14928197860717773,1.2663754224777222,0.06803101301193237,0.27382057905197144,0.03,0.0,0.0,263.34000000000003
1666655828.05855513,114264305,1,0.21,-0.04,352.89,-0.06785602122545242,-0.035614125430583954,0.09935515373945236,0.1441422402858734,1.257364273071289,0.055980026721954346,0.2788432538509369,0.03,0.0,0.0,263.34000000000003
1666655828.09856796,114304318,1,0.21,-0.04,352.89,-0.06808972358703613,-0.03421143814921379,0.10065093636512756,0.13610760867595673,1.2475732564926147,0.0426439568400383,0.28366950154304504,0.03,0.0,0.0,263.34000000000003
1666655828.13858008,114344330,1,0.21,-0.04,352.89,-0.0686972588300705,-0.03246801719069481,0.10135210305452347,0.11777843534946442,1.2403995990753174,0.03378494828939438,0.2872471809387207,0.03,0.0,0.0,263.34000000000003
1666655828.15852809,114364278,1,0.21,-0.04,352.89,-0.06885305047035217,-0.031018996611237526,0.10145873576402664,0.10769731551408768,1.2376656532287598,0.03086494654417038,0.2891881465911865,0.03,0.0,0.0,263.34000000000003
1666655828.17857599,114384326,1,0.21,-0.04,352.89,-0.0692138522863388,-0.029780786484479904,0.1026681661605835,0.10894042253494263,1.230838418006897,0.022247107699513435,0.29310768842697144,0.03,0.0,0.0,263.34000000000003
1666655828.21859097,114424341,1,0.21,-0.04,352.89,-0.06961575895547867,-0.026922527700662613,0.10465548932552338,0.1257459670305252,1.2207649946212769,0.010457511991262436,0.29903045296669006,0.03,0.0,0.0,263.34000000000003
1666655828.25856805,114464318,1,0.21,-0.04,352.89,-0.07047829031944275,-0.024563010782003403,0.10608391463756561,0.13385355472564697,1.211696982383728,0.0002579477149993181,0.3043842613697052,0.03,0.0,0.0,263.34000000000003
1666655828.29854393,114504294,1,0.21,-0.04,352.89,-0.07163751870393753,-0.021521857008337975,0.1073530912399292,0.13631238043308258,1.2018299102783203,-0.01091436855494976,0.30942344665527344,0.03,0.0,0.0,263.34000000000003
1666655828.33859205,114544342,1,0.21,-0.04,352.89,-0.0725257620215416,-0.018585871905088425,0.10809667408466339,0.12204495072364807,1.194548487663269,-0.018117094412446022,0.31300467252731323,0.03,0.0,0.0,263.34000000000003
1666655828.35855603,114564306,1,0.21,-0.04,352.89,-0.0727902501821518,-0.01719624176621437,0.10846438258886337,0.11272350698709488,1.191741943359375,-0.020402131602168083,0.315003365278244,0.03,0.0,0.0,263.34000000000003
1666655828.37858605,114584336,1,0.21,-0.04,352.89,-0.07088247686624527,-0.017310578376054764,0.10928601771593094,0.11120299994945526,1.1875288486480713,-0.029583243653178215,0.3182872235774994,0.03,0.0,0.0,263.34000000000003
1666655828.41860008,114624350,1,0.2,-0.04,352.89,-0.066905677318573,-0.014333972707390785,0.11060434579849243,0.11670111864805222,1.1812045574188232,-0.04202635586261749,0.32313093543052673,0.03,0.0,0.0,263.34000000000003
1666655828.45858908,114664339,1,0.2,-0.04,352.89,-0.0683794692158699,-0.018041810020804405,0.11182127147912979,0.11489012837409973,1.1754971742630005,-0.05290171131491661,0.3276725709438324,0.03,0.0,0.0,263.34000000000003
1666655828.49856710,114704317,1,0.21,-0.04,352.89,-0.061694592237472534,-0.011478856205940247,0.111878402531147,0.11126051843166351,1.1698479652404785,-0.06499789655208588,0.33161595463752747,0.03,0.0,0.0,263.34000000000003
1666655828.53855991,114744310,1,0.2,-0.03,352.89,-0.06289957463741302,-0.013071862980723381,0.11372821033000946,0.09733325988054276,1.1655131578445435,-0.07287218421697617,0.3346094787120819,0.03,0.0,0.0,263.34000000000003
1666655828.55859208,114764342,1,0.2,-0.03,352.90000000000003,-0.05920505151152611,-0.007954917848110199,0.11400999873876572,0.08902653306722641,1.1638020277023315,-0.07528864592313766,0.33641740679740906,0.03,0.0,0.0,263.34000000000003
1666655828.57858205,114784332,1,0.2,-0.03,352.90000000000003,-0.06304880976676941,-0.011623281054198742,0.11393042653799057,0.08710780739784241,1.1574946641921997,-0.0829714983701706,0.33912816643714905,0.03,0.0,0.0,263.34000000000003
1666655828.61857605,114824326,1,0.2,-0.03,352.90000000000003,-0.06262735277414322,-0.00685881869867444,0.1158638745546341,0.09366031736135483,1.1481919288635254,-0.09338758140802383,0.34322845935821533,0.03,0.0,0.0,263.34000000000003
1666655828.65857410,114864324,1,0.2,-0.03,352.90000000000003,-0.06565288454294205,-0.008801775053143501,0.11597367376089096,0.09136643260717392,1.1398273706436157,-0.10229361802339554,0.34697699546813965,0.03,0.0,0.0,263.34000000000003
1666655828.69857311,114904323,1,0.21,-0.02,352.89,-0.0643710345029831,-0.002144480124115944,0.11713193356990814,0.0906643345952034,1.1306957006454468,-0.1121656522154808,0.35004499554634094,0.03,0.0,0.0,263.34000000000003
1666655828.73855495,114944305,1,0.2,-0.02,352.89,-0.06845821440219879,-0.003758788574486971,0.11730127036571503,0.07720253616571426,1.1239224672317505,-0.11839323490858078,0.3524976670742035,0.03,0.0,0.0,263.34000000000003
1666655828.75860810,114964358,1,0.2,-0.02,352.89,-0.06730103492736816,0.000544442271348089,0.117037832736969,0.07004759460687637,1.1213515996932983,-0.12024305015802383,0.3541111350059509,0.03,0.0,0.0,263.34000000000003
1666655828.77855706,114984307,1,0.2,-0.02,352.88,-0.06969238072633743,-0.001847059465944767,0.11787324398756027,0.06969652324914932,1.113990068435669,-0.12738749384880066,0.3563973307609558,0.03,0.0,0.0,263.34000000000003
1666655828.81858611,115024336,1,0.2,-0.02,352.89,-0.07101771235466003,0.001589027582667768,0.11925423890352249,0.07725989073514938,1.103127121925354,-0.13695290684700012,0.3600252866744995,0.03,0.0,0.0,263.34000000000003
1666655828.85857701,115064327,1,0.2,-0.02,352.89,-0.07406089454889297,0.0046176849864423275,0.12060908228158951,0.07923105359077454,1.093247413635254,-0.14494778215885162,0.3633948564529419,0.03,0.0,0.0,263.34000000000003
1666655828.89860296,115104353,1,0.19,-0.02,352.89,-0.07472187280654907,0.007320062257349491,0.12094196677207947,0.08101209253072739,1.0822011232376099,-0.15385210514068604,0.3659963011741638,0.03,0.0,0.0,263.34000000000003
1666655828.93853092,115144281,1,0.18,-0.02,352.89,-0.07814236730337143,0.007155704312026501,0.11690520495176315,0.06348304450511932,1.0740337371826172,-0.15936514735221863,0.3678896725177765,0.03,0.0,0.0,263.34000000000003
1666655828.95858407,115164334,1,0.17,-0.02,352.89,-0.07869042456150055,0.014200364239513874,0.12155064940452576,0.06058574095368385,1.0709145069122314,-0.1608811467885971,0.36941760778427124,0.03,0.0,0.0,263.34000000000003
1666655828.97856498,115184315,1,0.19,-0.02,352.89,-0.08218821883201599,0.00779825821518898,0.12257683277130127,0.05655336752533913,1.064699411392212,-0.16883859038352966,0.37043634057044983,0.03,0.0,0.0,263.34000000000003
1666655829.01855612,115224306,1,0.17,-0.02,352.89,-0.07821325212717056,0.005410414654761553,0.12246833741664886,0.04816075414419174,1.0552271604537964,-0.17959748208522797,0.37205663323402405,0.03,0.0,0.0,263.34000000000003
1666655829.05857801,115264328,1,0.2,-0.03,352.89,-0.08228559792041779,0.014993208460509777,0.12338092923164368,0.03443118557333946,1.0465664863586426,-0.1888275146484375,0.37342357635498047,0.03,0.0,0.0,263.34000000000003
1666655829.09859705,115304347,1,0.2,-0.02,352.88,-0.08346962928771973,0.009177283383905888,0.1235881820321083,0.02872903272509575,1.0370769500732422,-0.19922469556331635,0.3736359477043152,0.03,0.0,0.0,263.34000000000003
1666655829.13860607,115344356,1,0.13,-0.03,352.89,-0.08987314999103546,0.007951244711875916,0.12313005328178406,0.01364233996719122,1.0297893285751343,-0.20568819344043732,0.3740714192390442,0.03,0.0,0.0,263.34000000000003
1666655829.15858006,115364330,1,0.19,-0.01,352.90000000000003,-0.08510217815637589,0.008312635123729706,0.12470713257789612,0.008942564018070698,1.026885986328125,-0.20746903121471405,0.3751223683357239,0.03,0.0,0.0,263.34000000000003
1666655829.17854691,115384297,1,0.21,-0.03,352.90000000000003,-0.09160016477108002,0.02362864650785923,0.1271846890449524,0.01184117142111063,1.020882248878479,-0.21533481776714325,0.37604060769081116,0.03,0.0,0.0,263.34000000000003
1666655829.21856093,115424311,1,0.18,-0.02,352.90000000000003,-0.08935877680778503,-0.0004630590556189418,0.12345383316278458,0.016984347254037857,1.011695146560669,-0.22594168782234192,0.3775930106639862,0.03,0.0,0.0,263.34000000000003
1666655829.25857902,115464329,1,0.2,-0.02,352.90000000000003,-0.08653255552053452,0.02118844725191593,0.12626230716705322,0.022135047242045403,1.0032496452331543,-0.23507525026798248,0.3789356052875519,0.03,0.0,0.0,263.34000000000003
1666655829.29859591,115504346,1,0.21,-0.03,352.90000000000003,-0.0878596231341362,0.004295742139220238,0.12186889350414276,0.023184452205896378,0.9941719770431519,-0.24548527598381042,0.37902987003326416,0.03,0.0,0.0,263.34000000000003
1666655829.33860803,115544358,1,0.18,-0.01,352.90000000000003,-0.08998672664165497,0.01478795986622572,0.12618926167488098,0.018371600657701492,0.98710697889328,-0.2519453167915344,0.3793030083179474,0.03,0.0,0.0,263.34000000000003
1666655829.35856605,115564316,1,0.22,-0.02,352.91,-0.09174037724733353,0.011609687469899654,0.12673713266849518,0.013989510014653206,0.984287679195404,-0.253774493932724,0.38030657172203064,0.03,0.0,0.0,263.34000000000003
1666655829.37857604,115584326,1,0.2,-0.01,352.91,-0.08613667637109756,0.021806450560688972,0.11947823315858841,0.007224149536341429,0.9776274561882019,-0.2618120610713959,0.38097083568573,0.03,0.0,0.0,263.34000000000003
1666655829.41853189,115624282,1,0.18,-0.01,352.92,-0.09679318964481354,0.005491440184414387,0.1248985007405281,0.018631620332598686,0.9674253463745117,-0.2725028991699219,0.38195231556892395,0.03,0.0,0.0,263.34000000000003
1666655829.45855594,115664306,1,0.17,-0.02,352.93,-0.09354831278324127,0.016651088371872902,0.12222794443368912,0.01300685666501522,0.9580042362213135,-0.2817336320877075,0.3827124834060669,0.03,0.0,0.0,263.34000000000003
1666655829.49858999,115704340,1,0.21,-0.01,352.93,-0.10100363194942474,0.012860550545156002,0.12431921064853668,0.01677316427230835,0.9477069973945618,-0.29230576753616333,0.38220247626304626,0.03,0.0,0.0,263.34000000000003
1666655829.53859091,115744341,1,0.19,-0.01,352.94,-0.09900830686092377,0.009928748942911625,0.12291446328163147,0.004040959756821394,0.9396499991416931,-0.2989662289619446,0.38198378682136536,0.03,0.0,0.0,263.34000000000003
1666655829.55855513,115764305,1,0.2,-0.02,352.94,-0.10171493887901306,0.014488526619970798,0.1235835924744606,-0.000461685674963519,0.9364158511161804,-0.30084460973739624,0.38288483023643494,0.03,0.0,0.0,263.34000000000003
1666655829.57857609,115784326,1,0.19,-0.02,352.94,-0.10048213601112366,0.016188107430934906,0.1232680156826973,0.0006436186959035695,0.9301705360412598,-0.30913835763931274,0.3835839331150055,0.03,0.0,0.0,263.34000000000003
1666655829.61856103,115824311,1,0.19,-0.01,352.94,-0.10203775018453598,0.012186684645712376,0.12085306644439697,0.008315952494740486,0.9204736948013306,-0.32015880942344666,0.38458696007728577,0.03,0.0,0.0,263.34000000000003
1666655829.65855598,115864306,1,0.17,0.0,352.94,-0.1043175458908081,0.01294280681759119,0.13059084117412567,0.019748330116271973,0.9115145802497864,-0.3297536075115204,0.3853701949119568,0.03,0.0,0.0,263.34000000000003
1666655829.69855499,115904305,1,0.17,-0.01,352.94,-0.10562033951282501,0.009560272097587585,0.12128544598817825,0.015370297245681286,0.9018187522888184,-0.34078601002693176,0.38490891456604004,0.03,0.0,0.0,263.34000000000003
1666655829.73859406,115944344,1,0.18,-0.01,352.95,-0.10620653629302979,0.010615807957947254,0.12105315923690796,0.007192020304501057,0.8941048383712769,-0.3477664589881897,0.384845107793808,0.03,0.0,0.0,263.34000000000003
1666655829.75856805,115964318,1,0.18,-0.01,352.95,-0.10604416579008102,0.013659683987498283,0.12456507235765457,0.008846214041113853,0.8904991149902344,-0.35103705525398254,0.38649940490722656,0.04,0.0,0.0,263.34000000000003
1666655829.77854896,115984299,1,0.18,-0.01,352.95,-0.10917998850345612,0.009858199395239353,0.12682797014713287,0.01715431734919548,0.885610818862915,-0.35729554295539856,0.3874649107456207,0.04,0.0,0.0,263.34000000000003
1666655829.81861997,116024370,1,0.18,-0.01,352.96,-0.10709764063358307,0.010484898462891579,0.12223705649375916,0.027138225734233856,0.8776176571846008,-0.3655269742012024,0.38898321986198425,0.04,0.0,0.0,263.34000000000003
1666655829.85853291,116064283,1,0.18,-0.01,352.96,-0.1093851774930954,0.01554353628307581,0.12509644031524658,0.03264402225613594,0.8702430129051208,-0.3725796043872833,0.3902428150177002,0.04,0.0,0.0,263.34000000000003
1666655829.89856696,116104317,1,0.16,0.0,352.96,-0.1087135300040245,0.009644740261137486,0.1225586086511612,0.03424553573131561,0.8624796867370605,-0.3804936408996582,0.3904074728488922,0.04,0.0,0.0,263.34000000000003
1666655829.93855190,116144302,1,0.16,-0.01,352.96,-0.10785049945116043,0.01773812435567379,0.1253245621919632,0.028885001316666603,0.8561164140701294,-0.38527441024780273,0.3909609913825989,0.04,0.0,0.0,263.34000000000003
1666655829.95855594,116164306,1,0.16,-0.01,352.96,-0.11020097881555557,0.015708204358816147,0.12549270689487457,0.025002187117934227,0.8533310890197754,-0.38655728101730347,0.3921080529689789,0.04,0.0,0.0,263.34000000000003
1666655829.97859097,116184341,1,0.17,-0.01,352.96,-0.11035861819982529,0.01602870598435402,0.1220441535115242,0.022098185494542122,0.8493219614028931,-0.39149805903434753,0.392913818359375,0.04,0.0,0.0,263.34000000000003
1666655830.01860189,116224352,1,0.17,0.0,352.96,-0.10638272762298584,0.013219750486314297,0.1241656094789505,0.030842894688248634,0.8426787853240967,-0.39786502718925476,0.3942745625972748,0.04,0.0,0.0,263.34000000000003
1666655830.05857396,116264324,1,0.17,0.0,352.96,-0.10961192846298218,0.023710893467068672,0.12748366594314575,0.032649822533130646,0.8364180326461792,-0.4031189978122711,0.3955654203891754,0.04,0.0,0.0,263.34000000000003
1666655830.09855199,116304302,1,0.17,0.0,352.97,-0.1072705015540123,0.0192092452198267,0.12520533800125122,0.03274885565042496,0.8300342559814453,-0.40896183252334595,0.39542341232299805,0.04,0.0,0.0,263.34000000000003
1666655830.13855696,116344307,1,0.16,0.0,352.98,-0.10725087672472,0.023798000067472458,0.12511476874351501,0.018884019926190376,0.8246457576751709,-0.41223210096359253,0.39529234170913696,0.04,0.0,0.0,263.34000000000003
1666655830.15860391,116364354,1,0.16,0.0,352.97,-0.1104876920580864,0.02500545233488083,0.1244300827383995,0.01079645287245512,0.8220900893211365,-0.41295117139816284,0.396294504404068,0.04,0.0,0.0,263.34000000000003
1666655830.17859793,116384348,1,0.15,0.0,352.97,-0.11019711941480637,0.02421325072646141,0.12436961382627487,0.003132539102807641,0.8184990882873535,-0.41493678092956543,0.39522939920425415,0.04,0.0,0.0,263.34000000000003
1666655830.21858811,116424338,1,0.16,0.0,352.97,-0.10605818033218384,0.02814236283302307,0.1230500340461731,-0.013422572985291481,0.8124116063117981,-0.41705673933029175,0.3943392038345337,0.04,0.0,0.0,263.34000000000003
1666655830.25858903,116464339,1,0.17,0.0,352.97,-0.11022830754518509,0.03416423872113228,0.12296295166015625,-0.02851017378270626,0.8065489530563354,-0.41833439469337463,0.39373400807380676,0.04,0.0,0.0,263.34000000000003
1666655830.29857612,116504326,1,0.17,0.0,352.97,-0.10375125706195831,0.033670492470264435,0.12103316932916641,-0.0317816287279129,0.8007343411445618,-0.4195585548877716,0.39152467250823975,0.04,0.0,0.0,263.34000000000003
1666655830.33859706,116544347,1,0.17,0.0,352.97,-0.1087597981095314,0.04406372830271721,0.1230667307972908,-0.03857787698507309,0.7956528067588806,-0.41941943764686584,0.3902606666088104,0.04,0.0,0.0,263.34000000000003
1666655830.35861111,116564361,1,0.16,0.0,352.97,-0.11011238396167755,0.04325668886303902,0.12453307956457138,-0.039749953895807266,0.793226957321167,-0.4189223349094391,0.39084097743034363,0.04,0.0,0.0,263.34000000000003
1666655830.37859106,116584341,1,0.16,0.0,352.97,-0.10546768456697464,0.04284954443573952,0.12176366150379181,-0.03445303067564964,0.7914852499961853,-0.4223742187023163,0.3918704390525818,0.04,0.0,0.0,263.34000000000003
1666655830.41857696,116624327,1,0.16,0.0,352.97,-0.10305190086364746,0.04376157373189926,0.12324029207229614,-0.0035065505653619766,0.7880927324295044,-0.4263117015361786,0.3932174742221832,0.04,0.0,0.0,263.34000000000003
1666655830.45857692,116664327,1,0.16,0.0,352.97,-0.10435323417186737,0.04820218309760094,0.12426815181970596,0.013747356832027435,0.7846090793609619,-0.42923662066459656,0.3943241536617279,0.04,0.0,0.0,263.34000000000003
1666655830.49857593,116704326,1,0.17,0.0,352.97,-0.09877759218215942,0.0452016144990921,0.12317632883787155,0.025984840467572212,0.7816674113273621,-0.4326857626438141,0.39398255944252014,0.04,0.0,0.0,263.34000000000003
1666655830.53857303,116744323,1,0.17,0.0,352.96,-0.1050298735499382,0.05152767524123192,0.12199551612138748,0.016671549528837204,0.7784825563430786,-0.43391767144203186,0.39369311928749084,0.04,0.0,0.0,263.34000000000003
1666655830.55858898,116764339,1,0.15,0.0,352.96,-0.10226568579673767,0.0512811653316021,0.12521488964557648,0.01452016830444336,0.7767231464385986,-0.43383339047431946,0.3945888578891754,0.04,0.0,0.0,263.34000000000003
1666655830.57853413,116784284,1,0.17,0.0,352.96,-0.0954517126083374,0.04655402898788452,0.1203344315290451,0.010834255255758762,0.7770991921424866,-0.438075453042984,0.39543384313583374,0.04,0.0,0.0,263.34000000000003
1666655830.61855793,116824308,1,0.15,0.0,352.96,-0.1009884849190712,0.05012105405330658,0.12407088279724121,0.025477800518274307,0.7766073346138,-0.44299548864364624,0.3966957926750183,0.04,0.0,0.0,263.34000000000003
1666655830.65857291,116864323,1,0.18,0.0,352.97,-0.0918385460972786,0.055450547486543655,0.1269383281469345,0.030722912400960922,0.7759719491004944,-0.446830689907074,0.3978428840637207,0.04,0.0,0.0,263.34000000000003
1666655830.69857693,116904327,1,0.16,0.0,352.97,-0.08889278024435043,0.0617942288517952,0.12473549693822861,0.03368304297327995,0.77632737159729,-0.45158037543296814,0.3975699841976166,0.04,0.0,0.0,263.34000000000003
1666655830.73860812,116944358,1,0.16,0.01,352.96,-0.08746670186519623,0.05122055858373642,0.12182752043008804,0.017887672409415245,0.7754262685775757,-0.45355382561683655,0.39743849635124207,0.04,0.0,0.0,263.34000000000003
1666655830.75858307,116964333,1,0.19,0.01,352.96,-0.08468116074800491,0.06394705921411514,0.11555573344230652,0.004238560795783997,0.7746164202690125,-0.45370885729789734,0.3982658088207245,0.04,0.0,0.0,263.34000000000003
1666655830.77853703,116984287,1,0.13,0.0,352.96,-0.0859401524066925,0.05038312077522278,0.1254078447818756,0.011410828679800034,0.7747015357017517,-0.4571342170238495,0.39853984117507935,0.04,0.0,0.0,263.34000000000003
1666655830.81856012,117024310,1,0.16,0.01,352.96,-0.0773787871003151,0.051502056419849396,0.13642705976963043,0.02226266637444496,0.7739441990852356,-0.46075576543807983,0.3988679051399231,0.04,0.0,0.0,263.34000000000003
1666655830.85859108,117064341,1,0.14,0.0,352.96,-0.07321206480264664,0.05456281080842018,0.12687690556049347,0.005618557799607515,0.7731577157974243,-0.46354934573173523,0.3990613520145416,0.04,0.0,0.0,263.34000000000003
1666655830.89858413,117104334,1,0.15,0.0,352.97,-0.07477735728025436,0.07123765349388123,0.12579850852489471,0.0051705678924918175,0.7730779051780701,-0.46680623292922974,0.3975997269153595,0.04,0.0,0.0,263.34000000000003
1666655830.93860102,117144351,1,0.2,-0.01,353.0,-0.07729782909154892,0.07153674215078354,0.119669608771801,-0.018816042691469193,0.7721256613731384,-0.46782442927360535,0.3961160480976105,0.04,0.0,0.0,263.34000000000003
1666655830.95855594,117164306,1,0.13,0.0,353.02,-0.07275180518627167,0.06603465229272842,0.12087605893611908,-0.027125177904963493,0.7712323665618896,-0.46765509247779846,0.39664411544799805,0.04,0.0,0.0,263.34000000000003
1666655830.97855592,117184306,1,0.16,0.0,353.04,-0.0732501670718193,0.05309325456619263,0.12575989961624146,-0.023862609639763832,0.771686315536499,-0.47115710377693176,0.3966282606124878,0.04,0.0,0.0,263.34000000000003
1666655831.01853299,117224283,1,0.11,0.0,353.06,-0.06974990665912628,0.0770501047372818,0.12022756785154343,-0.026919323951005936,0.7715052962303162,-0.47491756081581116,0.3958611786365509,0.04,0.0,0.0,263.34000000000003
1666655831.05856204,117264312,1,0.2,0.0,353.09000000000003,-0.06800852715969086,0.07020124793052673,0.1149953156709671,-0.042148929089307785,0.7711947560310364,-0.4776146411895752,0.39461565017700195,0.04,0.0,0.0,263.34000000000003
1666655831.09858203,117304332,1,0.16,0.0,353.11,-0.06872112303972244,0.07430742681026459,0.11893069744110107,-0.03839729726314545,0.77153080701828,-0.4808591604232788,0.39166751503944397,0.04,0.0,0.0,263.34000000000003
1666655831.13858104,117344331,1,0.15,0.0,353.14,-0.06426092237234116,0.0722350999712944,0.13153722882270813,-0.040405306965112686,0.7710127234458923,-0.48171621561050415,0.3894279897212982,0.04,0.0,0.0,263.34000000000003
1666655831.15855908,117364309,1,0.18,0.03,353.16,-0.06163142994046211,0.0701097920536995,0.12730096280574799,-0.04784819856286049,0.7706438899040222,-0.4839681088924408,0.39060500264167786,0.04,0.0,0.0,263.34000000000003
1666655831.17858195,117384332,1,0.16,0.03,353.15000000000003,-0.06552526354789734,0.07170139998197556,0.1141086295247078,-0.053709618747234344,0.7711774110794067,-0.48951125144958496,0.39061304926872253,0.04,0.0,0.0,263.34000000000003
1666655831.21857905,117424329,1,0.15,-0.01,353.17,-0.0669756755232811,0.07829918712377548,0.11855001002550125,-0.03283276408910751,0.7713063359260559,-0.4959419071674347,0.3898184299468994,0.04,0.0,0.0,263.34000000000003
1666655831.25855613,117464306,1,0.19,-0.02,353.22,-0.05835333466529846,0.07899314165115356,0.12298242747783661,-0.03187970072031021,0.7713371515274048,-0.5011705756187439,0.38858509063720703,0.04,0.0,0.0,263.34000000000003
1666655831.29855990,117504310,1,0.19,-0.01,353.25,-0.05330964922904968,0.07874533534049988,0.12739232182502747,-0.024832071736454964,0.7719253301620483,-0.5074939727783203,0.38553163409233093,0.04,0.0,0.0,263.34000000000003
1666655831.33858395,117544334,1,0.17,0.0,353.31,-0.055118560791015625,0.07589537650346756,0.12429221719503403,-0.042843058705329895,0.7716742753982544,-0.5105398297309875,0.3830775320529938,0.04,0.0,0.0,263.34000000000003
1666655831.35858107,117564331,1,0.19,0.01,353.34000000000003,-0.054534755647182465,0.07219971716403961,0.12716089189052582,-0.047422830015420914,0.7711908221244812,-0.5108581781387329,0.38334164023399353,0.04,0.0,0.0,263.34000000000003
1666655831.37855601,117584306,1,0.18,0.02,353.35,-0.05843375623226166,0.07320944219827652,0.13055357336997986,-0.04131267964839935,0.7701442837715149,-0.517478346824646,0.38336870074272156,0.04,0.0,0.0,263.34000000000003
1666655831.41859913,117624349,1,0.14,0.0,353.41,-0.05441400781273842,0.06111041456460953,0.11571232229471207,-0.041109196841716766,0.7680763006210327,-0.525462806224823,0.3823889195919037,0.04,0.0,0.0,263.34000000000003
1666655831.45852995,117664280,1,0.13,0.0,353.45,-0.05445956811308861,0.07596802711486816,0.12898752093315125,-0.03170695900917053,0.7661141157150269,-0.532123863697052,0.3808407783508301,0.04,0.0,0.0,263.34000000000003
1666655831.49855590,117704306,1,0.15,0.0,353.49,-0.05065174400806427,0.06813158839941025,0.11733920127153397,-0.0417073518037796,0.7642936110496521,-0.5400975346565247,0.37677493691444397,0.04,0.0,-0.01,263.34000000000003
1666655831.53855491,117744305,1,0.11,0.0,353.53000000000003,-0.053812865167856216,0.06478936225175858,0.11869990825653076,-0.07144463807344437,0.7624192237854004,-0.5442911386489868,0.3723263740539551,0.04,0.0,-0.01,263.34000000000003
1666655831.55856705,117764317,1,0.14,0.01,353.56,-0.049578551203012466,0.06932241469621658,0.12561920285224915,-0.08041547983884811,0.7614473104476929,-0.5450606346130371,0.3718896806240082,0.04,0.0,-0.01,263.34000000000003
1666655831.57857990,117784330,1,0.1,0.0,353.58,-0.05068906396627426,0.06542276591062546,0.12074347585439682,-0.09549540281295776,0.7616466879844666,-0.5510184168815613,0.3694508969783783,0.04,0.0,-0.01,263.34000000000003
1666655831.61860704,117824357,1,0.13,0.0,353.64,-0.05056781694293022,0.05569175258278847,0.12437836080789566,-0.10903321206569672,0.7613823413848877,-0.5582867860794067,0.36386290192604065,0.04,0.0,-0.01,263.34000000000003
1666655831.65861511,117864365,1,0.13,-0.01,353.68,-0.04971076548099518,0.06496702879667282,0.11126546561717987,-0.15769217908382416,0.7609099745750427,-0.5642371773719788,0.35786378383636475,0.04,0.0,-0.01,263.34000000000003
1666655831.69853401,117904284,1,0.19,0.0,353.73,-0.05017516389489174,0.0704178512096405,0.1174900233745575,-0.16393429040908813,0.7606998682022095,-0.5713793635368347,0.34853070974349976,0.04,0.0,-0.01,263.34000000000003
1666655831.73853707,117944287,1,0.13,0.01,353.79,-0.05251206457614899,0.05454440414905548,0.11225192993879318,-0.20207946002483368,0.7598775029182434,-0.5750167369842529,0.3404462933540344,0.04,0.0,-0.01,263.34000000000003
1666655831.75860000,117964350,1,0.17,0.01,353.82,-0.05428686738014221,0.07246126234531403,0.12442929297685623,-0.2028440237045288,0.7592505216598511,-0.5755847692489624,0.3388509452342987,0.04,0.0,-0.01,263.34000000000003
1666655831.77858400,117984334,1,0.16,0.05,353.84000000000003,-0.05159464851021767,0.0635334849357605,0.0987132340669632,-0.2335868924856186,0.7576918601989746,-0.5816865563392639,0.3344671130180359,0.04,0.0,-0.01,263.34000000000003
1666655831.81858206,118024332,1,0.12,0.03,353.89,-0.05781315639615059,0.06923763453960419,0.10745895653963089,-0.22776536643505096,0.7549335360527039,-0.5890799164772034,0.3259718120098114,0.04,0.0,-0.01,263.34000000000003
1666655831.85862708,118064377,1,0.14,0.04,353.97,-0.04459259659051895,0.06611471623182297,0.12385257333517075,-0.23228572309017181,0.7523868083953857,-0.5952737927436829,0.3170424699783325,0.04,0.0,-0.01,263.34000000000003
1666655831.89857292,118104323,1,0.2,0.03,354.01,-0.04118669405579567,0.06883586943149567,0.09616032242774963,-0.258009135723114,0.7498680949211121,-0.602527379989624,0.30390793085098267,0.04,0.0,-0.02,263.34000000000003
1666655831.93856907,118144319,1,0.21,0.06,354.06,-0.04059955105185509,0.0492134764790535,0.0557633601129055,-0.33172607421875,0.7477049827575684,-0.6062373518943787,0.2915450930595398,0.04,0.0,-0.02,263.34000000000003
1666655831.95860791,118164358,1,0.28,0.0,354.07,-0.04198010638356209,0.08190349489450455,0.07046002149581909,-0.3320018947124481,0.7468063831329346,-0.606777012348175,0.28818926215171814,0.04,0.0,-0.02,263.34000000000003
1666655831.97855592,118184306,1,0.32,0.03,354.09000000000003,-0.048129674047231674,0.062110528349876404,0.04372198134660721,-0.3559407889842987,0.7468973994255066,-0.614260196685791,0.2829691469669342,0.04,0.0,-0.02,263.34000000000003
1666655832.01857305,118224323,1,0.48,0.02,354.13,-0.03838503733277321,0.057266492396593094,0.03679199889302254,-0.33986133337020874,0.7466766238212585,-0.623614490032196,0.2711844742298126,0.04,0.0,-0.02,263.34000000000003
1666655832.05858397,118264334,1,0.5,0.0,354.16,-0.03661656007170677,0.044638317078351974,0.022261708974838257,-0.35907745361328125,0.7465016841888428,-0.6314895153045654,0.2580428719520569,0.04,0.0,-0.02,263.34000000000003
1666655832.09858608,118304336,1,0.49,-0.05,354.19,-0.029855629429221153,0.05245957523584366,0.020178457722067833,-0.349323034286499,0.7466737627983093,-0.6408243775367737,0.23961351811885834,0.04,0.0,-0.02,263.34000000000003
1666655832.13855505,118344305,1,0.41000000000000003,-0.16,354.2,-0.025008970871567726,0.06228452920913696,0.010332477279007435,-0.4004850387573242,0.7466127872467041,-0.6458579301834106,0.2215155065059662,0.04,0.0,-0.02,263.34000000000003
1666655832.15858507,118364335,1,0.29,-0.17,354.22,-0.022047100588679314,0.06036091595888138,0.006861161440610886,-0.42447569966316223,0.7464415431022644,-0.6469758152961731,0.21587109565734863,0.04,0.0,-0.02,263.34000000000003
1666655832.17853308,118384283,1,0.36,-0.18,354.21,-0.023055098950862885,0.07418262958526611,-0.026957929134368896,-0.4700297713279724,0.7457935810089111,-0.6539683938026428,0.20569778978824615,0.04,0.0,-0.02,263.34000000000003
1666655832.21856093,118424311,1,0.28,-0.24,354.21,-0.014121714048087597,0.0768839567899704,-0.052527982741594315,-0.5159803032875061,0.7448437809944153,-0.6625363826751709,0.18557089567184448,0.04,0.0,-0.02,263.34000000000003
1666655832.25859594,118464346,1,0.23,-0.34,354.22,-0.01939435303211212,0.0773705542087555,-0.08754299581050873,-0.5910135507583618,0.7442476153373718,-0.6696930527687073,0.16417378187179565,0.04,0.0,-0.02,263.34000000000003
1666655832.29855299,118504303,1,0.21,-0.43,354.21,-0.016985727474093437,0.07858043164014816,-0.08664815127849579,-0.5926753282546997,0.7439001798629761,-0.6782776117324829,0.13623684644699097,0.04,0.0,-0.02,263.34000000000003
1666655832.33861709,118544367,1,0.21,-0.41000000000000003,354.19,-0.010810441337525845,0.07030749320983887,-0.10123207420110703,-0.6488527059555054,0.7438242435455322,-0.6828204989433289,0.11031904071569443,0.04,0.0,-0.02,263.34000000000003
1666655832.35858512,118564335,1,0.16,-0.32,354.19,0.01133112981915474,0.05958683788776398,-0.10066161304712296,-0.6654611825942993,0.7438395619392395,-0.683682382106781,0.10145290195941925,0.04,0.0,-0.02,263.34000000000003
1666655832.37852693,118584277,1,0.16,-0.38,354.16,0.0025207018479704857,0.07910265773534775,-0.11437685787677765,-0.6818633079528809,0.7443199157714844,-0.690143346786499,0.08794347196817398,0.04,0.0,-0.02,263.34000000000003
1666655832.41855597,118624306,1,0.11,-0.38,354.14,0.009434802457690239,0.08656922727823257,-0.10548765957355499,-0.6646721363067627,0.7451940774917603,-0.6980942487716675,0.06278922408819199,0.04,0.0,-0.03,263.34000000000003
1666655832.45854807,118664298,1,0.1,-0.31,354.1,0.023154139518737793,0.08397957682609558,-0.12958142161369324,-0.7013569474220276,0.7462536692619324,-0.7047315835952759,0.037464141845703125,0.04,0.0,-0.03,263.34000000000003
1666655832.49857807,118704328,1,0.04,-0.31,354.07,0.029579048976302147,0.07245951890945435,-0.13528241217136383,-0.6893922090530396,0.7475728988647461,-0.7127103209495544,0.006400435697287321,0.04,0.0,-0.03,263.34000000000003
1666655832.53859901,118744349,1,0.02,-0.27,354.04,0.027684226632118225,0.07744032144546509,-0.134415864944458,-0.7050933241844177,0.748776912689209,-0.7166617512702942,-0.021156838163733482,0.04,0.0,-0.03,263.34000000000003
1666655832.55855608,118764306,1,0.14,-0.22,354.01,0.014983242377638817,0.0663965493440628,-0.1439734697341919,-0.7205261588096619,0.7494032979011536,-0.7172061800956726,-0.03086804412305355,0.04,0.0,-0.03,263.34000000000003
1666655832.57861209,118784362,1,0.01,-0.21,353.99,0.03990720584988594,0.071525938808918,-0.1420101374387741,-0.713373064994812,0.7492383718490601,-0.7229444980621338,-0.04595806077122688,0.04,0.0,-0.03,263.34000000000003
1666655832.61852813,118824278,1,0.07,-0.07,353.94,0.04573006555438042,0.0664641261100769,-0.15654323995113373,-0.7138412594795227,0.7495176196098328,-0.7296160459518433,-0.07341819256544113,0.04,0.0,-0.03,263.34000000000003
1666655832.65856910,118864319,1,0.18,-0.03,353.88,0.04265490174293518,0.05561410263180733,-0.16867204010486603,-0.7322594523429871,0.750067412853241,-0.7350872159004211,-0.100682832300663,0.04,0.0,-0.03,263.34000000000003
1666655832.69858599,118904336,1,0.25,0.01,353.82,0.030580610036849976,0.05633831024169922,-0.18814495205879211,-0.7279283404350281,0.750628650188446,-0.7414984107017517,-0.14287608861923218,0.04,0.0,-0.03,263.34000000000003
1666655832.73859310,118944343,1,0.34,0.05,353.77,0.03007614240050316,0.05490003898739815,-0.20188024640083313,-0.9818074107170105,0.7517271041870117,-0.7444299459457397,-0.1978512555360794,0.04,0.0,-0.03,263.34000000000003
1666655832.75855803,118964308,1,0.33,-0.02,353.74,0.05899348109960556,0.09550962597131729,-0.18870306015014648,-1.1060421466827393,0.7524719834327698,-0.7447125911712646,-0.21627837419509888,0.04,0.0,-0.03,263.34000000000003
1666655832.77859497,118984345,1,0.45,0.01,353.73,0.024208517745137215,0.06738357990980148,-0.21343174576759338,-1.2361431121826172,0.7500902414321899,-0.747065544128418,-0.24666441977024078,0.04,0.0,-0.03,263.34000000000003
1666655832.81857109,119024321,1,0.52,0.0,353.67,0.02488821931183338,0.0664672702550888,-0.2207418978214264,-1.4318444728851318,0.7475346922874451,-0.74896240234375,-0.30832576751708984,0.04,0.0,-0.04,263.34000000000003
1666655832.85852790,119064278,1,0.62,0.0,353.62,0.028944380581378937,0.07844343036413193,-0.22609303891658783,-1.6487007141113281,0.7455168962478638,-0.7498748302459717,-0.37189343571662903,0.04,0.0,-0.04,263.34000000000003
1666655832.89855504,119104305,1,-0.13,0.06,154.49,0.07291394472122192,0.12054351717233658,-0.2562556564807892,-1.749912977218628,0.7430353164672852,-0.7509201765060425,-0.4509018659591675,0.04,0.0,-0.04,263.34000000000003
1666655832.93859005,119144340,1,-0.05,0.04,154.43,0.06404714286327362,0.10904474556446075,-0.26310932636260986,-1.8915199041366577,0.7425851225852966,-0.7493699193000793,-0.5211992263793945,0.04,0.0,-0.04,263.34000000000003
1666655832.95853090,119164281,1,-0.03,0.13,154.4,0.06069746986031532,0.1075693741440773,-0.19644375145435333,-1.8726897239685059,0.74290931224823,-0.7480912208557129,-0.5444658398628235,0.04,0.0,-0.04,263.34000000000003
1666655832.97859192,119184342,1,0.14,0.14,154.35,0.047654904425144196,0.09405183792114258,-0.2556917369365692,-1.937903642654419,0.7407428622245789,-0.749356210231781,-0.5810188055038452,0.04,0.0,-0.04,263.34000000000003
1666655833.01859403,119224344,1,0.24,0.27,154.26,0.03391911834478378,0.08303184807300568,-0.2660340368747711,-1.887356162071228,0.737947404384613,-0.750225305557251,-0.6434104442596436,0.04,0.0,-0.04,263.34000000000003
1666655833.05854392,119264294,1,0.31,0.36,154.17000000000002,0.025582855567336082,0.07311715185642242,-0.25096625089645386,-1.8161115646362305,0.7348502278327942,-0.7511532306671143,-0.7037537693977356,0.04,0.0,-0.04,263.34000000000003
1666655833.09855604,119304306,1,0.32,0.39,154.09,0.02156371995806694,0.06410550326108932,-0.22206804156303406,-1.6662038564682007,0.7305136322975159,-0.7531991600990295,-0.7755450010299683,0.04,0.0,-0.04,263.34000000000003
1666655833.13855505,119344305,1,0.26,0.39,154.08,0.009550764225423336,0.06521964818239212,-0.2110976278781891,-1.6054260730743408,0.7273505926132202,-0.7543789744377136,-0.8344042301177979,0.04,0.0,-0.04,263.34000000000003
1666655833.15857196,119364322,1,0.25,0.42,154.05,0.006868088152259588,0.03532641381025314,-0.2336464524269104,-1.6014057397842407,0.726249635219574,-0.7545933127403259,-0.8539283871650696,0.04,0.0,-0.04,263.34000000000003
1666655833.17857599,119384326,1,0.15,0.46,154.06,0.007043623365461826,0.06113113462924957,-0.19440600275993347,-1.5179309844970703,0.7220509052276611,-0.7550751566886902,-0.8844393491744995,0.04,0.0,-0.04,263.34000000000003
1666655833.21855807,119424308,1,0.07,0.42,154.09,-0.0024403652641922235,0.03564470633864403,-0.1820528358221054,-1.4037377834320068,0.7158145904541016,-0.7557832598686218,-0.9359265565872192,0.04,0.0,-0.04,263.34000000000003
1666655833.25860000,119464350,1,-0.14,0.36,154.15,-0.011121227405965328,0.018041133880615234,-0.19270120561122894,-1.3514457941055298,0.7096572518348694,-0.7568403482437134,-0.9854557514190674,0.04,0.0,-0.04,263.34000000000003
1666655833.29857397,119504324,1,-0.49,0.31,154.22,-0.026731088757514954,0.0028445105999708176,-0.1961834579706192,-1.2619662284851074,0.7019311189651489,-0.7591016292572021,-1.0447635650634766,0.04,0.0,-0.04,263.34000000000003
1666655833.33856893,119544319,1,-0.88,0.16,154.27,-0.039486709982156754,-0.006868032272905111,-0.1845344454050064,-1.241392970085144,0.6960368156433105,-0.7608094215393066,-1.0939921140670776,0.04,0.0,-0.04,263.34000000000003
1666655833.35858607,119564336,1,-1.0,0.18,154.27,-0.018549097701907158,0.03260498121380806,-0.13531938195228577,-1.1837458610534668,0.6939080357551575,-0.7613141536712646,-1.1102458238601685,0.04,0.0,-0.04,263.34000000000003
1666655833.37854791,119584298,1,-1.28,0.12,154.27,-0.04633563384413719,0.0021391205955296755,-0.15034399926662445,-1.17600679397583,0.6883044838905334,-0.7604466676712036,-1.1352776288986206,0.04,0.0,-0.04,263.34000000000003
1666655833.41858792,119624338,1,-1.73,0.08,154.25,-0.043254707008600235,0.020708637312054634,-0.1241982951760292,-1.0937304496765137,0.6800671815872192,-0.7593522071838379,-1.179897427558899,0.04,0.0,-0.04,263.34000000000003
1666655833.45861006,119664360,1,-2.08,0.05,154.23,-0.031012384220957756,0.032341934740543365,-0.095227912068367,-1.0640959739685059,0.67237788438797,-0.7583339810371399,-1.2232786417007446,0.04,0.0,-0.04,263.34000000000003
1666655833.49857211,119704322,1,-2.37,0.07,154.15,-0.033281512558460236,0.04252089560031891,-0.08951977640390396,-1.0125479698181152,0.6635549664497375,-0.7571527361869812,-1.2745002508163452,0.04,0.0,-0.04,263.34000000000003
1666655833.53856611,119744316,1,-2.66,0.12,154.04,-0.0304502435028553,0.04933387041091919,-0.10213049501180649,-1.020540714263916,0.6571492552757263,-0.7560102939605713,-1.3152754306793213,0.04,0.0,-0.04,263.34000000000003
1666655833.55855203,119764302,1,-2.72,0.12,153.97,-0.05335100740194321,0.023683682084083557,-0.14392633736133575,-1.0515656471252441,0.6548078656196594,-0.7553835511207581,-1.3284982442855835,0.04,0.0,-0.04,263.34000000000003
1666655833.57855892,119784309,1,-2.8000000000000003,0.16,153.93,-0.03519707918167114,0.05439891293644905,-0.10212743282318115,-0.9866335391998291,0.6470003724098206,-0.7540996074676514,-1.3503447771072388,0.04,0.0,-0.04,263.34000000000003
1666655833.61857891,119824329,1,-2.83,0.13,153.84,-0.038313064724206924,0.05608392134308815,-0.09909826517105103,-0.9143572449684143,0.6359000205993652,-0.7515203356742859,-1.3850032091140747,0.04,0.0,-0.04,263.34000000000003
1666655833.65857911,119864329,1,-2.79,0.09,153.77,-0.040909286588430405,0.05817503109574318,-0.11484894156455994,-0.8720343708992004,0.625889778137207,-0.7486591339111328,-1.4179092645645142,0.04,0.0,-0.04,263.34000000000003
1666655833.69859505,119904345,1,-2.77,0.09,153.70000000000002,-0.04429459944367409,0.07113581895828247,-0.13814887404441833,-0.8179513216018677,0.6146050691604614,-0.7452406883239746,-1.455484390258789,0.04,0.0,-0.04,263.34000000000003
1666655833.73856807,119944318,1,-2.75,0.14,153.59,-0.03646872192621231,0.0706566572189331,-0.15469472110271454,-0.7737492918968201,0.606967031955719,-0.741473913192749,-1.4835885763168335,0.04,0.0,-0.04,263.34000000000003
1666655833.75857902,119964329,1,-2.7,0.24,153.55,-0.026482684537768364,0.11117619276046753,-0.14394153654575348,-0.7292044758796692,0.6044915914535522,-0.7394524216651917,-1.4934734106063843,0.04,0.0,-0.04,263.34000000000003
1666655833.77853107,119984281,1,-2.57,0.21,153.52,-0.025765322148799896,0.08708566427230835,-0.20626337826251984,-0.7550298571586609,0.5950798988342285,-0.7352471351623535,-1.5096460580825806,0.04,0.0,-0.04,263.34000000000003
1666655833.81855607,120024306,1,-2.2600000000000002,0.28,153.39000000000001,-0.019073601812124252,0.10577566176652908,-0.2566487491130829,-0.724481463432312,0.5820788145065308,-0.7280945777893066,-1.5340161323547363,0.04,0.0,-0.04,263.34000000000003
1666655833.85857797,120064328,1,-1.9000000000000001,0.3,153.24,-0.010567770339548588,0.10250842571258545,-0.28065192699432373,-0.6589034199714661,0.5705716609954834,-0.7207611203193665,-1.5580767393112183,0.04,0.0,-0.04,263.34000000000003
1666655833.89859009,120104340,1,-1.41,0.3,153.09,-0.02709113247692585,0.10658705979585648,-0.3223041594028473,-0.6171769499778748,0.557595431804657,-0.7127820253372192,-1.5840364694595337,0.04,0.0,-0.04,263.34000000000003
1666655833.93857098,120144321,1,-0.9500000000000001,0.36,152.94,-0.022100120782852173,0.14431433379650116,-0.40737399458885193,-0.5897136926651001,0.5489778518676758,-0.705403208732605,-1.603303074836731,0.04,0.0,-0.04,263.34000000000003
1666655833.95854592,120164296,1,-0.8200000000000001,0.41000000000000003,152.84,-0.020939238369464874,0.12231240421533585,-0.40252140164375305,-0.5292215943336487,0.5462630987167358,-0.7020859718322754,-1.612420916557312,0.04,0.0,-0.04,263.34000000000003
1666655833.97857213,120184322,1,-0.6,0.44,152.77,-0.008560752496123314,0.14928509294986725,-0.44434431195259094,-0.5209247469902039,0.5355706214904785,-0.6984773874282837,-1.6237895488739014,0.04,0.0,-0.04,263.34000000000003
1666655834.01855612,120224306,1,-0.41000000000000003,0.49,152.62,-0.028390027582645416,0.13428816199302673,-0.4795723855495453,-0.47250476479530334,0.5209481120109558,-0.6916749477386475,-1.6434277296066284,0.04,0.0,-0.04,263.34000000000003
1666655834.05856299,120264313,1,-0.22,0.42,152.51,-0.03658509626984596,0.1322663128376007,-0.5442578792572021,-0.4624999165534973,0.5078086256980896,-0.6848326325416565,-1.6637331247329712,0.04,0.0,-0.04,263.34000000000003
1666655834.09858108,120304331,1,-0.02,0.34,152.4,-0.030205659568309784,0.1353580504655838,-0.6227113008499146,-0.49351152777671814,0.4927368462085724,-0.6778110861778259,-1.6846848726272583,0.04,0.0,-0.04,263.34000000000003
1666655834.13857603,120344326,1,0.1,0.27,152.3,-0.020789707079529762,0.1501019299030304,-0.6652783751487732,-0.4895278215408325,0.4825199544429779,-0.6713647246360779,-1.7063088417053223,0.04,0.0,-0.04,263.34000000000003
1666655834.15855908,120364309,1,0.17,0.24,152.24,-0.03945770859718323,0.11035788059234619,-0.7055445909500122,-0.5112969875335693,0.47910547256469727,-0.6684144139289856,-1.7185951471328735,0.04,0.0,-0.04,263.34000000000003
1666655834.17860413,120384354,1,0.1,0.18,152.20000000000002,-0.038480136543512344,0.13146409392356873,-0.7134197950363159,-0.5062709450721741,0.47322383522987366,-0.6650983095169067,-1.7303993701934814,0.04,0.0,-0.04,263.34000000000003
1666655834.21853304,120424283,1,0.33,0.1,152.12,-0.041564423590898514,0.11408212035894394,-0.751552402973175,-0.5006467700004578,0.4607160687446594,-0.6611922383308411,-1.7493431568145752,0.04,0.0,-0.04,263.34000000000003
1666655834.25855613,120464306,1,0.41000000000000003,0.11,152.07,-0.034694742411375046,0.1161201223731041,-0.7784414887428284,-0.45123931765556335,0.4494970142841339,-0.657383382320404,-1.768113374710083,0.04,0.0,-0.04,263.34000000000003
1666655834.29856801,120504318,1,0.38,0.13,152.02,-0.03634559363126755,0.12313029170036316,-0.7964619398117065,-0.4260576665401459,0.4369087517261505,-0.6537002921104431,-1.7836827039718628,0.04,0.0,-0.04,263.34000000000003
1666655834.33858204,120544332,1,0.36,0.07,152.01,-0.04699326306581497,0.1293138563632965,-0.8060452938079834,-0.38390082120895386,0.42806145548820496,-0.6497111320495605,-1.8011993169784546,0.04,0.0,-0.04,263.34000000000003
1666655834.35855603,120564306,1,0.39,0.03,152.01,-0.06107652187347412,0.09434480220079422,-0.8108725547790527,-0.36976248025894165,0.42489609122276306,-0.6476997137069702,-1.8127856254577637,0.04,0.0,-0.04,263.34000000000003
1666655834.37858891,120584339,1,0.24,-0.02,152.02,-0.05860130488872528,0.11277581006288528,-0.7984441518783569,-0.34731805324554443,0.41498881578445435,-0.6483114361763,-1.820398211479187,0.04,0.0,-0.04,263.34000000000003
1666655834.41858006,120624330,1,0.08,-0.18,152.04,-0.0682159885764122,0.1015956699848175,-0.8013268113136292,-0.3356691598892212,0.4007837474346161,-0.6479277014732361,-1.8373645544052124,0.04,0.0,-0.04,263.34000000000003
1666655834.45853090,120664281,1,-0.03,-0.33,152.07,-0.08054792135953903,0.08654607832431793,-0.8095675706863403,-0.31768524646759033,0.38796547055244446,-0.6473479866981506,-1.8537342548370361,0.04,0.0,-0.04,263.34000000000003
1666655834.49855399,120704304,1,0.03,-0.34,152.1,-0.08903735131025314,0.07638617604970932,-0.7890161871910095,-0.30203670263290405,0.37375766038894653,-0.6473792791366577,-1.8651772737503052,0.04,0.0,-0.04,263.34000000000003
