timestamp,TimeUS,I,Status,GMS,GWk,NSats,HDop,Lat,Lng,Alt,Spd,GCrs,VZ,Yaw,U
1667405008.59899998,97677625,0,3,317026599,2234,14,0.75,42.7285817,-84.484691,264.44,0.012083047069609165,65.55604553222656,0.009000000543892384,0.0,1
1667405008.77895904,97857584,0,3,317026799,2234,14,0.75,42.7285817,-84.48469089999999,264.46,0.05922837182879448,348.3106384277344,0.1720000058412552,0.0,1
1667405008.97899413,98057619,0,3,317026999,2234,14,0.75,42.7285817,-84.4846908,264.46,0.004472136031836271,333.4349365234375,0.02200000174343586,0.0,1
1667405009.17896414,98257589,0,3,317027199,2234,14,0.75,42.7285816,-84.4846907,264.47,0.00707106851041317,135.0,0.06400000303983688,0.0,1
1667405009.37890005,98457525,0,3,317027399,2234,14,0.75,42.7285815,-84.4846906,264.49,0.01726267673075199,169.99200439453125,0.027000000700354576,0.0,1
1667405009.57895494,98657580,0,3,317027599,2234,14,0.75,42.728581399999996,-84.4846905,264.51,0.015556350350379944,315.0,0.12700000405311584,0.0,1
1667405009.77895403,98857579,0,3,317027799,2234,14,0.75,42.728581299999995,-84.48469039999999,264.51,0.016278821974992752,10.619654655456543,0.023000001907348633,0.0,1
1667405009.99899006,99077615,0,3,317027999,2234,14,0.75,42.728581299999995,-84.4846903,264.52,0.0374833308160305,313.9190673828125,0.10000000149011612,0.0,1
1667405010.17897606,99257601,0,3,317028199,2234,14,0.75,42.728581299999995,-84.4846902,264.51,0.0298328697681427,309.5596618652344,0.06800000369548798,0.0,1
1667405010.37897110,99457596,0,3,317028399,2234,14,0.75,42.7285812,-84.4846901,264.53000000000003,0.014560219831764698,195.94540405273438,0.052000001072883606,0.0,1
1667405010.57899308,99657618,0,3,317028599,2234,14,0.75,42.7285811,-84.48469,264.54,0.017117243260145187,6.709836483001709,0.021000001579523087,0.0,1
1667405010.77900004,99857625,0,3,317028799,2234,14,0.75,42.7285811,-84.48468989999999,264.53000000000003,0.05044799670577049,283.76080322265625,0.052000001072883606,0.0,1
1667405010.97902107,100057646,0,3,317028999,2234,14,0.75,42.728581,-84.48468989999999,264.55,0.031400639563798904,37.234832763671875,0.07400000095367432,0.0,1
1667405011.19894099,100277566,0,3,317029199,2234,14,0.75,42.7285809,-84.48468969999999,264.56,0.005385165102779865,111.80139923095703,0.07200000435113907,0.0,1
1667405011.39897895,100477604,0,3,317029399,2234,14,0.75,42.728580799999996,-84.4846896,264.57,0.012083047069609165,294.4439697265625,0.03200000151991844,0.0,1
1667405011.57895494,100657580,0,3,317029599,2234,14,0.75,42.728580699999995,-84.4846895,264.58,0.02024845778942108,200.22486877441406,0.017000000923871994,0.0,1
1667405011.77895904,100857584,0,3,317029799,2234,14,0.75,42.7285805,-84.4846894,264.6,0.010816654190421104,213.69007873535156,-0.010000000707805157,0.0,1
1667405011.97902393,101057649,0,3,317029999,2234,14,0.75,42.7285804,-84.4846893,264.6,0.043829213827848434,332.8503112792969,0.08800000697374344,0.0,1
1667405012.19895101,101277576,0,3,317030199,2234,14,0.75,42.7285804,-84.4846891,264.61,0.024515300989151,78.23170471191406,-0.05400000140070915,0.0,1
1667405012.37898111,101457606,0,3,317030399,2234,14,0.75,42.7285803,-84.484689,264.61,0.049244288355112076,347.09259033203125,0.10700000822544098,0.0,1
1667405012.57898307,101657608,0,3,317030599,2234,14,0.75,42.7285803,-84.4846889,264.61,0.002828427357599139,135.0,0.03400000184774399,0.0,1
1667405012.77900815,101857633,0,3,317030799,2234,14,0.75,42.728580199999996,-84.4846888,264.6,0.019416488707065582,191.888671875,0.02200000174343586,0.0,1
1667405012.97900200,102057627,0,3,317030999,2234,14,0.75,42.728580099999995,-84.48468869999999,264.58,0.018110770732164383,353.6598205566406,0.09700000286102295,0.0,1
1667405013.17898202,102257607,0,3,317031199,2234,14,0.75,42.72858,-84.4846886,264.58,0.01664331741631031,212.7352294921875,0.020000001415610313,0.0,1
1667405013.37896204,102457587,0,3,317031399,2234,14,0.75,42.72858,-84.48468849999999,264.58,0.024351593106985092,340.82098388671875,0.12000000476837158,0.0,1
1667405013.57898498,102657610,0,3,317031599,2234,14,0.75,42.7285799,-84.48468849999999,264.56,0.01486606989055872,317.726318359375,0.052000001072883606,0.0,1
1667405013.77899504,102857620,0,3,317031799,2234,14,0.75,42.7285799,-84.4846884,264.56,0.012165524996817112,170.5376739501953,0.02800000086426735,0.0,1
1667405013.97903395,103057659,0,3,317031999,2234,14,0.75,42.7285798,-84.4846883,264.56,0.009486833587288857,161.56504821777344,-0.013000000268220901,0.0,1
1667405014.17901802,103257643,0,3,317032199,2234,14,0.75,42.728579599999996,-84.4846882,264.59000000000003,0.10022475570440292,167.9052276611328,-0.1990000158548355,0.0,1
1667405014.37899208,103457617,0,3,317032399,2234,14,0.75,42.728579499999995,-84.4846881,264.63,0.0660378709435463,212.00538635253906,-0.33500000834465027,0.0,1
1667405014.57899213,103657617,0,3,317032599,2234,14,0.75,42.7285792,-84.4846882,264.72,0.1518552005290985,192.9380645751953,-0.5360000133514404,0.0,1
1667405014.77897501,103857600,0,3,317032799,2234,14,0.75,42.728578999999996,-84.4846882,264.83,0.2172786295413971,177.09808349609375,-0.7280000448226929,0.0,1
1667405014.97897196,104057597,0,3,317032999,2234,14,0.75,42.7285787,-84.4846881,264.97,0.1320151537656784,180.86807250976562,-0.8750000596046448,0.0,1
1667405015.17898202,104257607,0,3,317033199,2234,14,0.75,42.728578399999996,-84.4846881,265.12,0.2506890594959259,204.0089111328125,-0.9600000381469727,0.0,1
1667405015.37897706,104457602,0,3,317033399,2234,14,0.75,42.7285782,-84.4846883,265.28000000000003,0.18112151324748993,206.56504821777344,-1.002000093460083,0.0,1
1667405015.57900214,104657627,0,3,317033599,2234,14,0.75,42.7285779,-84.48468849999999,265.45,0.21878986060619354,193.2105255126953,-0.9300000667572021,0.0,1
1667405015.77900100,104857626,0,3,317033799,2234,14,0.75,42.728577699999995,-84.48468869999999,265.61,0.22322411835193634,244.81256103515625,-0.9360000491142273,0.0,1
1667405015.97903109,105057656,0,3,317033999,2234,12,0.75,42.7285775,-84.48468919999999,265.77,0.24117422103881836,226.17599487304688,-0.9470000267028809,0.0,1
1667405016.17898393,105257609,0,3,317034199,2234,12,0.75,42.7285773,-84.4846895,265.92,0.14589038491249084,213.25437927246094,-1.0220000743865967,0.0,1
1667405016.37897992,105457605,0,3,317034399,2234,12,0.75,42.728577099999995,-84.4846898,266.1,0.22740274667739868,219.28941345214844,-1.0360000133514404,0.0,1
1667405016.57900000,105657625,0,3,317034599,2234,12,0.75,42.7285768,-84.4846902,266.27,0.28079351782798767,226.29867553710938,-0.9860000610351562,0.0,1
1667405016.77895808,105857583,0,3,317034799,2234,12,0.8300000000000001,42.7285764,-84.4846907,266.45,0.41099148988723755,206.75209045410156,-0.9720000624656677,0.0,1
1667405016.97897696,106057602,0,3,317034999,2234,12,0.8300000000000001,42.7285757,-84.4846913,266.56,0.5960285663604736,213.50344848632812,-0.8490000367164612,0.0,1
1667405017.17895198,106257577,0,3,317035199,2234,12,0.8300000000000001,42.728574599999995,-84.484692,266.7,0.8515257239341736,197.07305908203125,-0.7610000371932983,0.0,1
1667405017.37899303,106457618,0,3,317035399,2234,12,0.8300000000000001,42.7285732,-84.4846927,266.74,1.0471203327178955,196.30618286132812,-0.7250000238418579,0.0,1
1667405017.57903910,106657664,0,3,317035599,2234,12,0.8300000000000001,42.7285715,-84.4846936,266.81,1.1609807014465332,201.5264892578125,-0.47200003266334534,0.0,1
1667405017.77900004,106857625,0,3,317035799,2234,12,0.8300000000000001,42.7285695,-84.4846946,266.88,1.298228144645691,200.75234985351562,-0.5070000290870667,0.0,1
1667405017.97898793,107057613,0,3,317035999,2234,13,0.8300000000000001,42.7285671,-84.4846956,266.93,1.577290415763855,193.45477294921875,-0.40400001406669617,0.0,1
1667405018.19896197,107277587,0,3,317036199,2234,12,0.8300000000000001,42.728564299999995,-84.48469639999999,266.96,1.7644572257995605,191.34178161621094,-0.37700000405311584,0.0,1
1667405018.37898111,107457606,0,3,317036399,2234,12,0.8300000000000001,42.7285612,-84.4846973,266.91,1.9803178310394287,188.80116271972656,-0.3100000023841858,0.0,1
1667405018.57894397,107657569,0,3,317036599,2234,12,0.8300000000000001,42.728557599999995,-84.4846979,266.95,2.1463048458099365,185.8832550048828,-0.2160000056028366,0.0,1
1667405018.77896500,107857590,0,3,317036799,2234,13,0.79,42.728553399999996,-84.48469829999999,267.0,2.49556303024292,181.2169189453125,-0.31700000166893005,0.0,1
1667405018.97898793,108057613,0,3,317036999,2234,13,0.79,42.7285488,-84.4846984,267.04,2.625001907348633,179.93450927734375,-0.25,0.0,1
1667405019.17903805,108257663,0,3,317037199,2234,12,0.79,42.7285439,-84.4846981,267.06,2.8747732639312744,173.44850158691406,-0.26500001549720764,0.0,1
1667405019.37898993,108457615,0,3,317037399,2234,12,0.79,42.7285387,-84.48469709999999,267.06,3.1015477180480957,169.9545440673828,-0.25300002098083496,0.0,1
1667405019.57899904,108657624,0,3,317037599,2234,13,0.79,42.7285332,-84.4846957,267.05,3.24180269241333,168.61380004882812,-0.1860000044107437,0.0,1
1667405019.77894807,108857573,0,3,317037799,2234,13,0.79,42.728527299999996,-84.48469419999999,267.02,3.530806541442871,169.17697143554688,0.017000000923871994,0.0,1
1667405019.97901011,109057635,0,3,317037999,2234,12,0.79,42.7285209,-84.4846925,267.02,3.761704206466675,168.71694946289062,-0.09000000357627869,0.0,1
1667405020.17896509,109257590,0,3,317038199,2234,12,0.79,42.7285142,-84.4846907,267.0,3.897667646408081,168.9956512451172,0.10000000149011612,0.0,1
1667405020.37893414,109457559,0,3,317038399,2234,13,0.79,42.728507199999996,-84.484689,266.99,4.058918476104736,169.58151245117188,0.06000000238418579,0.0,1
1667405020.57899904,109657624,0,3,317038599,2234,12,0.79,42.728499899999996,-84.4846871,266.96,4.226119518280029,168.5491485595703,0.14000000059604645,0.0,1
1667405020.77895594,109857581,0,3,317038799,2234,12,0.8300000000000001,42.7284924,-84.4846851,266.92,4.349209785461426,169.40057373046875,0.14900000393390656,0.0,1
1667405020.97898006,110057605,0,3,317038999,2234,12,0.8300000000000001,42.7284848,-84.48468319999999,266.86,4.357700824737549,169.23414611816406,0.1550000011920929,0.0,1
1667405021.17897415,110257599,0,3,317039199,2234,12,0.8300000000000001,42.7284772,-84.4846811,266.79,4.411302089691162,168.38693237304688,0.20800000429153442,0.0,1
1667405021.37899709,110457622,0,3,317039399,2234,12,0.8300000000000001,42.7284693,-84.484679,266.74,4.553872108459473,168.4087677001953,0.21800000965595245,0.0,1
1667405021.57902002,110657645,0,3,317039599,2234,12,0.8300000000000001,42.7284613,-84.4846768,266.66,4.5900983810424805,168.6925048828125,0.21700000762939453,0.0,1
1667405021.77891612,110857541,0,3,317039799,2234,13,0.79,42.7284532,-84.4846747,266.58,4.763004302978516,169.6833038330078,0.23900000751018524,0.0,1
1667405021.99895811,111077583,0,3,317039999,2234,13,0.79,42.7284447,-84.4846726,266.53000000000003,4.842425346374512,169.0961456298828,0.21800000965595245,0.0,1
1667405022.19895792,111277583,0,3,317040199,2234,13,0.79,42.728436099999996,-84.4846705,266.51,4.806772232055664,169.15994262695312,0.1940000057220459,0.0,1
1667405022.37899208,111457617,0,3,317040399,2234,13,0.79,42.7284277,-84.48466839999999,266.46,4.838952541351318,169.57017517089844,0.22200001776218414,0.0,1
1667405022.57895398,111657579,0,3,317040599,2234,13,0.79,42.7284192,-84.4846663,266.38,4.88057804107666,169.4452362060547,0.1600000113248825,0.0,1
1667405022.77900815,111857633,0,3,317040799,2234,13,0.79,42.7284106,-84.48466409999999,266.29,4.894681453704834,168.8323974609375,0.2370000183582306,0.0,1
1667405022.97901106,112057636,0,3,317040999,2234,13,0.79,42.728401999999996,-84.48466189999999,266.23,4.986257553100586,169.20387268066406,0.16300000250339508,0.0,1
1667405023.17897797,112257603,0,3,317041199,2234,13,0.79,42.7283932,-84.4846597,266.2,5.0356855392456055,169.415283203125,0.1720000058412552,0.0,1
1667405023.37900996,112457635,0,3,317041399,2234,13,0.79,42.728384299999995,-84.4846575,266.14,5.065161228179932,169.85702514648438,0.2110000103712082,0.0,1
1667405023.57901096,112657636,0,3,317041599,2234,13,0.79,42.7283756,-84.4846553,266.04,5.0306715965271,169.0452117919922,0.23800000548362732,0.0,1
1667405023.77901602,112857641,0,3,317041799,2234,13,0.79,42.728366699999995,-84.4846531,265.98,5.087173938751221,169.50071716308594,0.14600001275539398,0.0,1
1667405023.97896814,113057593,0,3,317041999,2234,13,0.79,42.7283578,-84.48465089999999,265.89,5.2258758544921875,169.78240966796875,0.12400000542402267,0.0,1
1667405024.17898107,113257606,0,3,317042199,2234,13,0.79,42.7283486,-84.4846487,265.83,5.268657207489014,170.08714294433594,0.0860000029206276,0.0,1
1667405024.37896895,113457594,0,3,317042399,2234,12,0.79,42.728339399999996,-84.4846465,265.74,5.3178558349609375,170.31094360351562,0.1080000028014183,0.0,1
1667405024.57901692,113657642,0,3,317042599,2234,12,0.79,42.728330199999995,-84.4846444,265.65,5.3734941482543945,170.90928649902344,0.15700000524520874,0.0,1
1667405024.77901602,113857641,0,3,317042799,2234,12,0.79,42.7283207,-84.4846424,265.59000000000003,5.433127403259277,171.83111572265625,0.15400001406669617,0.0,1
1667405024.99898911,114077614,0,3,317042999,2234,12,0.79,42.7283112,-84.48464059999999,265.52,5.48118257522583,172.24093627929688,0.021000001579523087,0.0,1
1667405025.17899513,114257620,0,3,317043199,2234,12,0.79,42.728301699999996,-84.484639,265.47,5.450138092041016,173.7747344970703,0.09800000488758087,0.0,1
1667405025.37901592,114457641,0,3,317043399,2234,12,0.79,42.7282921,-84.4846377,265.46,5.418336391448975,175.03436279296875,0.017000000923871994,0.0,1
1667405025.57895803,114657583,0,3,317043599,2234,12,0.79,42.7282827,-84.48463679999999,265.38,5.330372333526611,176.25669860839844,0.023000001907348633,0.0,1
1667405025.77899504,114857620,0,3,317043799,2234,12,0.81,42.7282734,-84.48463629999999,265.31,5.27701997756958,178.41456604003906,0.07100000232458115,0.0,1
1667405025.97896695,115057592,0,3,317043999,2234,12,0.81,42.7282643,-84.4846361,265.25,5.105207443237305,179.48373413085938,-0.024000000208616257,0.0,1
1667405026.17897701,115257602,0,3,317044199,2234,12,0.81,42.728255399999995,-84.4846362,265.2,4.968473434448242,181.3955078125,0.07100000232458115,0.0,1
1667405026.37898707,115457612,0,3,317044399,2234,12,0.81,42.7282467,-84.4846367,265.14,4.995686054229736,183.17857360839844,-0.03100000135600567,0.0,1
1667405026.57904315,115657668,0,3,317044599,2234,12,0.81,42.728238,-84.4846376,265.07,4.890554904937744,184.8560791015625,0.032999999821186066,0.0,1
1667405026.77901292,115857638,0,3,317044799,2234,12,0.81,42.7282296,-84.4846388,265.02,4.7372212409973145,187.4715576171875,0.01900000125169754,0.0,1
1667405026.97903800,116057663,0,3,317044999,2234,12,0.81,42.728221399999995,-84.4846405,264.97,4.621754169464111,189.37673950195312,-0.036000002175569534,0.0,1
1667405027.17897606,116257601,0,3,317045199,2234,12,0.81,42.7282134,-84.48464249999999,264.94,4.59149169921875,191.13864135742188,0.007000000216066837,0.0,1
1667405027.37896609,116457591,0,3,317045399,2234,12,0.81,42.728205599999995,-84.4846448,264.89,4.521052360534668,192.6099090576172,0.05900000408291817,0.0,1
1667405027.57899904,116657624,0,3,317045599,2234,12,0.81,42.728198,-84.4846474,264.83,4.416377067565918,194.6907501220703,-0.027000000700354576,0.0,1
1667405027.77895904,116857584,0,3,317045799,2234,12,0.81,42.7281905,-84.48465019999999,264.81,4.346166133880615,195.60316467285156,-0.052000001072883606,0.0,1
1667405027.99901700,117077642,0,3,317045999,2234,12,0.81,42.7281833,-84.4846532,264.77,4.224984645843506,197.10972595214844,-0.14400000870227814,0.0,1
1667405028.19899011,117277615,0,3,317046199,2234,12,0.81,42.728176399999995,-84.48465619999999,264.77,4.0884904861450195,197.74362182617188,-0.36000001430511475,0.0,1
1667405028.37901807,117457643,0,3,317046399,2234,12,0.81,42.728169799999996,-84.48465929999999,264.78000000000003,3.843733072280884,199.15147399902344,-0.29200002551078796,0.0,1
1667405028.57900000,117657625,0,3,317046599,2234,12,0.81,42.728163599999995,-84.48466239999999,264.84000000000003,3.717729091644287,199.61444091796875,-0.492000013589859,0.0,1
1667405028.77900815,117857633,0,3,317046799,2234,12,0.81,42.7281577,-84.4846656,264.83,3.581714391708374,202.41929626464844,-0.4660000205039978,0.0,1
1667405028.97899199,118057617,0,3,317046999,2234,12,0.81,42.728152099999996,-84.4846692,264.9,3.5214102268218994,206.2594451904297,-0.5060000419616699,0.0,1
1667405029.17902899,118257654,0,3,317047199,2234,12,0.81,42.728146599999995,-84.484673,264.89,3.5844383239746094,204.98504638671875,-0.37700000405311584,0.0,1
1667405029.37898111,118457606,0,3,317047399,2234,12,0.81,42.7281413,-84.4846769,264.92,3.274770975112915,211.06878662109375,-0.30100002884864807,0.0,1
1667405029.57899094,118657616,0,3,317047599,2234,12,0.81,42.7281366,-84.4846812,264.93,3.2347800731658936,213.38548278808594,-0.2330000102519989,0.0,1
1667405029.77897096,118857596,0,3,317047799,2234,12,0.81,42.7281322,-84.4846857,264.95,3.078394651412964,219.71502685546875,-0.33100003004074097,0.0,1
1667405029.97899914,119057624,0,3,317047999,2234,12,0.81,42.7281283,-84.4846907,264.95,3.0312416553497314,222.5801239013672,-0.281000018119812,0.0,1
1667405030.17900300,119257628,0,3,317048199,2234,12,0.81,42.728124699999995,-84.48469589999999,264.96,3.0035109519958496,229.41525268554688,-0.21700000762939453,0.0,1
1667405030.37899494,119457620,0,3,317048399,2234,12,0.81,42.7281216,-84.4847017,264.96,2.9507391452789307,234.22532653808594,-0.20000000298023224,0.0,1
1667405030.57898498,119657610,0,3,317048599,2234,12,0.81,42.7281188,-84.4847076,264.94,2.9278876781463623,236.94497680664062,-0.1860000044107437,0.0,1
1667405030.77898502,119857610,0,3,317048799,2234,12,0.81,42.7281164,-84.4847138,264.94,2.9262588024139404,243.995361328125,-0.11800000816583633,0.0,1
1667405030.97898293,120057608,0,3,317048999,2234,12,0.81,42.7281145,-84.48472029999999,264.93,2.8620338439941406,248.67071533203125,-0.1340000033378601,0.0,1
1667405031.17897201,120257597,0,3,317049199,2234,12,0.81,42.728113,-84.48472679999999,264.93,2.818120241165161,253.211181640625,-0.1300000101327896,0.0,1
1667405031.37898207,120457607,0,3,317049399,2234,12,0.81,42.7281117,-84.4847334,264.94,2.7789857387542725,255.7937469482422,-0.1680000126361847,0.0,1
1667405031.57902408,120657649,0,3,317049599,2234,12,0.81,42.7281109,-84.4847399,264.96,2.670884847640991,261.2783203125,-0.15600000321865082,0.0,1
1667405031.77898407,120857609,0,3,317049799,2234,12,0.81,42.7281105,-84.48474639999999,264.95,2.6671719551086426,265.2470703125,-0.11400000751018524,0.0,1
1667405031.97899199,121057617,0,3,317049999,2234,12,0.81,42.7281104,-84.4847528,264.94,2.6082916259765625,269.1432800292969,-0.10600000619888306,0.0,1
1667405032.19902897,121277654,0,3,317050199,2234,12,0.81,42.7281106,-84.48475909999999,264.93,2.5318186283111572,273.1471862792969,-0.03200000151991844,0.0,1
1667405032.37899494,121457620,0,3,317050399,2234,12,0.81,42.7281112,-84.48476509999999,264.88,2.434286117553711,278.10015869140625,-0.0860000029206276,0.0,1
1667405032.59895802,121677583,0,3,317050599,2234,13,0.81,42.7281121,-84.4847709,264.89,2.3529317378997803,283.067626953125,-0.09600000083446503,0.0,1
1667405032.79897809,121877603,0,3,317050799,2234,13,0.79,42.728113199999996,-84.4847764,264.93,2.3186705112457275,287.9348449707031,-0.07000000029802322,0.0,1
1667405032.99898195,122077607,0,3,317050999,2234,13,0.79,42.7281148,-84.4847818,264.94,2.3497753143310547,295.9980163574219,-0.09000000357627869,0.0,1
1667405033.19896507,122277590,0,3,317051199,2234,13,0.79,42.728116899999996,-84.4847869,264.97,2.342642307281494,300.33038330078125,-0.2330000102519989,0.0,1
1667405033.39898109,122477606,0,3,317051399,2234,13,0.79,42.728119299999996,-84.48479189999999,265.0,2.472352981567383,304.0693054199219,-0.1510000079870224,0.0,1
1667405033.57898307,122657608,0,3,317051599,2234,13,0.79,42.7281221,-84.48479669999999,265.02,2.506962537765503,309.8377685546875,-0.18400001525878906,0.0,1
1667405033.79898596,122877611,0,3,317051799,2234,13,0.79,42.7281252,-84.4848016,265.01,2.5872559547424316,309.9983825683594,-0.10000000149011612,0.0,1
1667405033.99899602,123077621,0,3,317051999,2234,13,0.79,42.7281283,-84.48480649999999,265.01,2.6434133052825928,310.73529052734375,-0.14800000190734863,0.0,1
1667405034.19899392,123277619,0,3,317052199,2234,13,0.79,42.7281316,-84.48481149999999,265.0,2.7110893726348877,310.64715576171875,-0.13500000536441803,0.0,1
1667405034.39897013,123477595,0,3,317052399,2234,13,0.79,42.7281349,-84.4848165,264.98,2.6720826625823975,311.79913330078125,-0.11800000816583633,0.0,1
1667405034.59895611,123677581,0,3,317052599,2234,13,0.79,42.7281382,-84.4848214,264.96,2.7122862339019775,310.708984375,-0.10500000417232513,0.0,1
1667405034.79894209,123877567,0,3,317052799,2234,13,0.79,42.7281416,-84.4848265,264.95,2.775297164916992,311.61126708984375,-0.18800000846385956,0.0,1
1667405034.97899699,124057622,0,3,317052999,2234,13,0.79,42.7281451,-84.48483159999999,264.96,2.8284647464752197,312.1197204589844,-0.2900000214576721,0.0,1
1667405035.17897201,124257597,0,3,317053199,2234,13,0.79,42.7281486,-84.4848365,265.0,2.6333117485046387,315.3384704589844,-0.4880000352859497,0.0,1
1667405035.37898111,124457606,0,3,317053399,2234,13,0.79,42.728152,-84.4848411,265.08,2.6804189682006836,313.291748046875,-0.4780000150203705,0.0,1
1667405035.59894705,124677572,0,3,317053599,2234,13,0.79,42.7281553,-84.4848456,265.07,2.317948341369629,315.384521484375,-0.3240000009536743,0.0,1
1667405035.79898715,124877612,0,3,317053799,2234,13,0.79,42.7281584,-84.4848495,265.15,2.3798880577087402,316.8048095703125,-0.203000009059906,0.0,1
1667405035.99902105,125077646,0,3,317053999,2234,13,0.79,42.7281615,-84.48485319999999,265.16,2.105445384979248,320.048095703125,-0.4050000309944153,0.0,1
1667405036.19892597,125277551,0,3,317054199,2234,13,0.79,42.7281645,-84.48485649999999,265.19,2.1366593837738037,318.8140869140625,-0.09600000083446503,0.0,1
1667405036.37898493,125457610,0,3,317054399,2234,13,0.79,42.7281676,-84.48485989999999,265.2,2.131709575653076,321.87750244140625,-0.19500000774860382,0.0,1
1667405036.59894896,125677574,0,3,317054599,2234,13,0.79,42.7281707,-84.4848629,265.22,2.0598042011260986,324.26507568359375,-0.10700000822544098,0.0,1
1667405036.79897094,125877596,0,3,317054799,2234,13,0.79,42.7281736,-84.4848658,265.19,1.8810458183288574,324.8482666015625,-0.04800000041723251,0.0,1
1667405036.99896908,126077594,0,3,317054999,2234,13,0.79,42.728176399999995,-84.4848683,265.24,1.7687807083129883,326.97479248046875,-0.14000000059604645,0.0,1
1667405037.17902112,126257646,0,3,317055199,2234,13,0.79,42.728179,-84.4848706,265.24,1.6225982904434204,325.67333984375,-0.01100000087171793,0.0,1
1667405037.39899397,126477619,0,3,317055399,2234,13,0.79,42.7281815,-84.4848729,265.21,1.6122335195541382,323.49969482421875,-0.09800000488758087,0.0,1
1667405037.59898615,126677611,0,3,317055599,2234,13,0.79,42.728184,-84.48487519999999,265.19,1.608921766281128,326.0728759765625,-0.023000001907348633,0.0,1
1667405037.77899408,126857619,0,3,317055799,2234,13,0.79,42.7281863,-84.4848773,265.17,1.4257293939590454,323.9017333984375,-0.003000000026077032,0.0,1
1667405037.99899507,127077620,0,3,317055999,2234,13,0.79,42.7281884,-84.4848793,265.17,1.3724613189697266,324.9088134765625,0.026000000536441803,0.0,1
1667405038.19896603,127277591,0,3,317056199,2234,13,0.79,42.728190399999995,-84.484881,265.12,1.142464518547058,326.8941345214844,0.06300000101327896,0.0,1
1667405038.37897611,127457601,0,3,317056399,2234,13,0.79,42.728192199999995,-84.48488259999999,265.07,1.095536470413208,326.1648864746094,-0.036000002175569534,0.0,1
1667405038.57897902,127657604,0,3,317056599,2234,13,0.79,42.7281939,-84.4848841,265.05,1.1395596265792847,325.22216796875,0.14300000667572021,0.0,1
1667405038.77896309,127857588,0,3,317056799,2234,13,0.79,42.7281956,-84.4848856,265.01,1.02374267578125,326.83770751953125,0.08800000697374344,0.0,1
1667405038.97895312,128057578,0,3,317056999,2234,13,0.79,42.7281973,-84.484887,264.96,1.0437403917312622,329.0362548828125,0.032999999821186066,0.0,1
1667405039.17900896,128257634,0,3,317057199,2234,13,0.79,42.7281991,-84.4848883,264.95,1.155652642250061,331.7496032714844,0.020000001415610313,0.0,1
1667405039.39899206,128477617,0,3,317057399,2234,13,0.79,42.7282011,-84.4848897,264.92,1.1592774391174316,332.6834411621094,-0.0010000000474974513,0.0,1
1667405039.59899211,128677617,0,3,317057599,2234,13,0.79,42.728203,-84.4848911,264.92,1.1941511631011963,329.2254943847656,0.026000000536441803,0.0,1
1667405039.79889297,128877518,0,3,317057799,2234,13,0.79,42.728204999999996,-84.4848927,264.88,1.322509765625,330.76025390625,-0.021000001579523087,0.0,1
1667405039.99896407,129077589,0,3,317057999,2234,13,0.79,42.7282071,-84.48489409999999,264.86,1.208006739616394,335.1321105957031,0.12700000405311584,0.0,1
1667405040.17900014,129257625,0,3,317058199,2234,13,0.79,42.728209,-84.4848955,264.8,1.0144013166427612,327.2342224121094,0.10600000619888306,0.0,1
1667405040.37896705,129457592,0,3,317058399,2234,13,0.79,42.728210399999995,-84.48489649999999,264.76,0.7665644288063049,337.8515930175781,0.10200000554323196,0.0,1
1667405040.57900405,129657629,0,3,317058599,2234,13,0.79,42.728211599999995,-84.48489719999999,264.71,0.5357480645179749,338.6553649902344,0.006000000052154064,0.0,1
1667405040.79898810,129877613,0,3,317058799,2234,13,0.79,42.7282124,-84.4848975,264.71,0.37011486291885376,349.5705261230469,0.1290000081062317,0.0,1
1667405040.97903299,130057658,0,3,317058999,2234,13,0.79,42.728213,-84.4848976,264.68,0.22218237817287445,2.321530342102051,0.055000003427267075,0.0,1
1667405041.19898701,130277612,0,3,317059199,2234,13,0.79,42.7282134,-84.4848974,264.66,0.22600221633911133,22.366344451904297,0.05700000375509262,0.0,1
1667405041.39891315,130477538,0,3,317059399,2234,13,0.79,42.7282139,-84.4848973,264.63,0.21767178177833557,8.986310005187988,0.10000000149011612,0.0,1
1667405041.59903598,130677661,0,3,317059599,2234,13,0.79,42.7282143,-84.4848971,264.6,0.23860010504722595,16.308229446411133,-0.0010000000474974513,0.0,1
1667405041.77896714,130857592,0,3,317059799,2234,13,0.79,42.728214699999995,-84.48489699999999,264.59000000000003,0.19942417740821838,8.942753791809082,-0.020000001415610313,0.0,1
1667405041.99897599,131077601,0,3,317059999,2234,13,0.79,42.7282151,-84.4848968,264.57,0.1972232460975647,21.100080490112305,-0.017000000923871994,0.0,1
1667405042.19896412,131277589,0,3,317060199,2234,13,0.79,42.7282155,-84.4848966,264.57,0.19925110042095184,21.801406860351562,-0.00800000037997961,0.0,1
1667405042.39899302,131477618,0,3,317060399,2234,13,0.79,42.728215899999995,-84.4848963,264.54,0.2141144722700119,38.743385314941406,0.004000000189989805,0.0,1
1667405042.59899807,131677623,0,3,317060599,2234,13,0.79,42.7282162,-84.4848959,264.53000000000003,0.2287793755531311,58.950340270996094,-0.05000000074505806,0.0,1
1667405042.79902005,131877645,0,3,317060799,2234,13,0.79,42.7282164,-84.48489529999999,264.53000000000003,0.25401774048805237,63.33407211303711,-0.058000002056360245,0.0,1
1667405042.97899604,132057621,0,3,317060999,2234,13,0.79,42.7282167,-84.48489479999999,264.51,0.2209887057542801,68.77633666992188,0.005000000353902578,0.0,1
1667405043.17900300,132257628,0,3,317061199,2234,13,0.79,42.7282169,-84.4848943,264.49,0.24740657210350037,73.32293701171875,-0.04000000283122063,0.0,1
1667405043.39897013,132477595,0,3,317061399,2234,13,0.79,42.728217199999996,-84.484894,264.47,0.2824075222015381,11.230354309082031,-0.017000000923871994,0.0,1
1667405043.57891703,132657542,0,3,317061599,2234,13,0.79,42.728218,-84.484894,264.45,0.5272305011749268,356.084716796875,0.01900000125169754,0.0,1
1667405043.79900408,132877629,0,3,317061799,2234,13,0.79,42.7282192,-84.4848943,264.42,0.7966241240501404,348.6336364746094,-0.03700000047683716,0.0,1
1667405043.97896814,133057593,0,3,317061999,2234,13,0.79,42.728221,-84.4848947,264.39,1.1542487144470215,350.6764221191406,0.046000003814697266,0.0,1
1667405044.17897701,133257602,0,3,317062199,2234,13,0.79,42.728223299999996,-84.4848952,264.37,1.4241383075714111,352.2112731933594,0.08000000566244125,0.0,1
1667405044.37903094,133457656,0,3,317062399,2234,13,0.79,42.7282261,-84.4848957,264.34000000000003,1.614609956741333,351.7745361328125,0.13500000536441803,0.0,1
1667405044.57899213,133657617,0,3,317062599,2234,13,0.79,42.7282291,-84.4848963,264.32,1.746297001838684,352.6633605957031,0.0560000017285347,0.0,1
1667405044.77900100,133857626,0,3,317062799,2234,13,0.79,42.7282325,-84.4848969,264.29,1.9983437061309814,353.13104248046875,0.02800000086426735,0.0,1
1667405044.97900105,134057626,0,3,317062999,2234,13,0.79,42.7282363,-84.4848975,264.25,2.206552505493164,353.41607666015625,0.10100000351667404,0.0,1
1667405045.17892098,134257546,0,3,317063199,2234,13,0.79,42.7282404,-84.48489819999999,264.23,2.388427257537842,353.0743408203125,0.06599999964237213,0.0,1
1667405045.37896204,134457587,0,3,317063399,2234,13,0.79,42.728245,-84.4848992,264.22,2.706890821456909,350.15142822265625,0.0,0.0,1
1667405045.59890699,134677532,0,3,317063599,2234,13,0.79,42.7282502,-84.4849005,264.21,3.05124568939209,349.0804443359375,-0.024000000208616257,0.0,1
1667405045.79898596,134877611,0,3,317063799,2234,13,0.79,42.7282558,-84.48490199999999,264.2,3.2796080112457275,349.2451171875,0.012000000104308128,0.0,1
1667405045.97898507,135057610,0,3,317063999,2234,13,0.79,42.728262,-84.48490369999999,264.2,3.6325314044952393,346.96990966796875,-0.02500000037252903,0.0,1
1667405046.19900894,135277634,0,3,317064199,2234,13,0.79,42.7282686,-84.48490579999999,264.18,3.8733463287353516,346.6705322265625,-0.05700000375509262,0.0,1
1667405046.37897301,135457598,0,3,317064399,2234,13,0.79,42.7282757,-84.48490819999999,264.19,4.220172882080078,345.6772766113281,0.08900000154972076,0.0,1
1667405046.57898712,135657612,0,3,317064599,2234,13,0.79,42.7282833,-84.4849109,264.15,4.456773281097412,344.806884765625,0.07100000232458115,0.0,1
1667405046.79898810,135877613,0,3,317064799,2234,13,0.79,42.7282915,-84.4849139,264.14,4.846384525299072,345.73724365234375,-0.04800000041723251,0.0,1
1667405046.97900701,136057632,0,3,317064999,2234,13,0.79,42.7283003,-84.484917,264.11,5.187449932098389,344.8010559082031,0.013000000268220901,0.0,1
1667405047.17891312,136257538,0,3,317065199,2234,13,0.79,42.728309599999996,-84.4849205,264.1,5.412064552307129,344.6900939941406,0.07600000500679016,0.0,1
1667405047.37894797,136457573,0,3,317065399,2234,13,0.79,42.7283191,-84.4849241,264.06,5.5365424156188965,344.57061767578125,0.00800000037997961,0.0,1
1667405047.57900596,136657631,0,3,317065599,2234,13,0.79,42.7283288,-84.4849277,264.04,5.508620262145996,344.2960510253906,0.14000000059604645,0.0,1
1667405047.77891707,136857542,0,3,317065799,2234,13,0.79,42.728338199999996,-84.4849314,264.03000000000003,5.380705833435059,343.45782470703125,0.03100000135600567,0.0,1
1667405047.97900105,137057626,0,3,317065999,2234,13,0.79,42.7283476,-84.4849352,263.99,5.375513076782227,343.3078918457031,0.09200000762939453,0.0,1
1667405048.17897010,137257595,0,3,317066199,2234,13,0.79,42.7283568,-84.484939,263.96,5.301721572875977,343.03472900390625,0.13700000941753387,0.0,1
1667405048.37901711,137457642,0,3,317066399,2234,13,0.79,42.7283659,-84.48494269999999,263.91,5.1347246170043945,343.41082763671875,0.09800000488758087,0.0,1
1667405048.57900405,137657629,0,3,317066599,2234,13,0.79,42.728374699999996,-84.4849462,263.89,5.073748588562012,343.54736328125,0.12700000405311584,0.0,1
1667405048.77903795,137857663,0,3,317066799,2234,13,0.79,42.7283835,-84.4849496,263.85,4.985586643218994,344.9686584472656,0.02200000174343586,0.0,1
1667405048.97896504,138057590,0,3,317066999,2234,13,0.79,42.7283921,-84.4849527,263.84000000000003,4.895103454589844,345.8700866699219,0.14800000190734863,0.0,1
1667405049.17896605,138257591,0,3,317067199,2234,13,0.79,42.7284006,-84.48495539999999,263.84000000000003,4.724639892578125,347.4080505371094,0.023000001907348633,0.0,1
1667405049.37898612,138457611,0,3,317067399,2234,13,0.79,42.728409,-84.48495779999999,263.81,4.7133636474609375,349.6723327636719,-0.04800000041723251,0.0,1
1667405049.57897711,138657602,0,3,317067599,2234,13,0.79,42.7284173,-84.48495969999999,263.79,4.6451897621154785,351.5698547363281,0.07500000298023224,0.0,1
1667405049.77902293,138857648,0,3,317067799,2234,13,0.79,42.7284256,-84.48496109999999,263.77,4.62162446975708,353.9637451171875,0.07700000703334808,0.0,1
1667405049.97895813,139057583,0,3,317067999,2234,13,0.79,42.728434,-84.4849619,263.73,4.658985614776611,358.3272399902344,0.2200000137090683,0.0,1
1667405050.17901301,139257638,0,3,317068199,2234,13,0.79,42.7284425,-84.4849619,263.67,4.6833086013793945,2.153698205947876,0.28300002217292786,0.0,1
1667405050.37903214,139457657,0,3,317068399,2234,13,0.79,42.7284509,-84.48496109999999,263.58,4.694226264953613,5.942563533782959,0.51500004529953,0.0,1
1667405050.57898903,139657614,0,3,317068599,2234,13,0.79,42.7284594,-84.4849596,263.5,4.851812839508057,9.155576705932617,0.36500000953674316,0.0,1
1667405050.79899311,139877618,0,3,317068799,2234,13,0.79,42.7284679,-84.4849571,263.43,4.720720291137695,15.681983947753906,0.2760000228881836,0.0,1
1667405050.99897695,140077602,0,3,317068999,2234,13,0.79,42.728476,-84.4849536,263.37,4.748033046722412,19.270681381225586,0.26100000739097595,0.0,1
1667405051.19891310,140277538,0,3,317069199,2234,13,0.79,42.728483999999995,-84.4849493,263.34000000000003,4.771519660949707,23.91128158569336,0.14000000059604645,0.0,1
1667405051.37891197,140457537,0,3,317069399,2234,13,0.79,42.7284917,-84.4849442,263.31,4.774356842041016,29.018470764160156,0.036000002175569534,0.0,1
1667405051.57902002,140657645,0,3,317069599,2234,13,0.79,42.7284991,-84.4849382,263.3,4.729108810424805,32.80292510986328,0.11000000685453415,0.0,1
1667405051.77903104,140857656,0,3,317069799,2234,13,0.79,42.7285061,-84.4849318,263.26,4.70035982131958,35.59718704223633,0.17000000178813934,0.0,1
1667405051.99901295,141077638,0,3,317069999,2234,13,0.79,42.728512699999996,-84.4849249,263.21,4.5431342124938965,39.84755325317383,0.3710000216960907,0.0,1
1667405052.19899201,141277617,0,3,317070199,2234,13,0.79,42.7285189,-84.48491779999999,263.12,4.381170749664307,41.44673538208008,0.41600000858306885,0.0,1
1667405052.37898707,141457612,0,3,317070399,2234,13,0.79,42.7285246,-84.4849105,262.99,4.361435890197754,45.03715515136719,0.6580000519752502,0.0,1
1667405052.57894611,141657571,0,3,317070599,2234,13,0.79,42.7285301,-84.484903,262.83,4.260164260864258,47.28300476074219,0.8140000104904175,0.0,1
1667405052.77897310,141857598,0,3,317070799,2234,13,0.79,42.7285349,-84.4848952,262.66,4.133601188659668,52.33168029785156,0.9110000729560852,0.0,1
1667405052.99895096,142077576,0,3,317070999,2234,13,0.79,42.7285392,-84.484887,262.53000000000003,4.0257039070129395,56.94152069091797,0.7750000357627869,0.0,1
1667405053.17897701,142257602,0,3,317071199,2234,13,0.79,42.7285428,-84.4848786,262.4,3.9405317306518555,61.867637634277344,0.5920000076293945,0.0,1
1667405053.39897704,142477602,0,3,317071399,2234,13,0.79,42.7285456,-84.48487,262.31,3.8209850788116455,71.47494506835938,0.2750000059604645,0.0,1
1667405053.57901406,142657639,0,3,317071599,2234,13,0.79,42.7285474,-84.484861,262.27,3.808192729949951,77.85794830322266,0.19200000166893005,0.0,1
1667405053.77901292,142857638,0,3,317071799,2234,13,0.79,42.7285484,-84.4848517,262.23,3.9339194297790527,85.53873443603516,0.06800000369548798,0.0,1
1667405053.97898793,143057613,0,3,317071999,2234,13,0.79,42.7285487,-84.484842,262.24,3.994091510772705,89.6126708984375,0.05300000309944153,0.0,1
1667405054.17899203,143257617,0,3,317072199,2234,13,0.79,42.728548499999995,-84.4848322,262.21,4.096376419067383,93.87733459472656,-0.04700000211596489,0.0,1
1667405054.39902496,143477650,0,3,317072399,2234,13,0.79,42.728547999999996,-84.48482249999999,262.25,3.8699564933776855,94.3124008178711,0.039000000804662704,0.0,1
1667405054.57899594,143657621,0,3,317072599,2234,13,0.79,42.7285476,-84.4848134,262.23,3.6469645500183105,92.6717529296875,0.006000000052154064,0.0,1
1667405054.77896214,143857587,0,3,317072799,2234,13,0.79,42.7285474,-84.484805,262.22,3.237964153289795,91.39803314208984,0.10500000417232513,0.0,1
1667405054.99898696,144077612,0,3,317072999,2234,13,0.79,42.7285471,-84.48479739999999,262.19,3.03678297996521,95.46089935302734,0.1730000078678131,0.0,1
1667405055.19900513,144277630,0,3,317073199,2234,13,0.79,42.7285465,-84.4847903,262.14,2.8135082721710205,97.72113800048828,0.36900001764297485,0.0,1
1667405055.37898493,144457610,0,3,317073399,2234,13,0.79,42.7285456,-84.4847839,262.09000000000003,2.503211259841919,103.98626708984375,0.2750000059604645,0.0,1
1667405055.59900808,144677633,0,3,317073599,2234,13,0.79,42.7285445,-84.4847783,261.98,2.368131160736084,107.21834564208984,0.31200000643730164,0.0,1
1667405055.79899502,144877620,0,3,317073799,2234,13,0.79,42.728543099999996,-84.4847731,261.88,2.1416754722595215,114.93769073486328,0.4960000216960907,0.0,1
1667405055.97893715,145057562,0,3,317073999,2234,13,0.79,42.728541199999995,-84.4847686,261.82,2.1295502185821533,121.79434204101562,0.328000009059906,0.0,1
1667405056.17900109,145257626,0,3,317074199,2234,13,0.79,42.7285387,-84.48476409999999,261.71,2.544264793395996,131.6540985107422,0.21700000762939453,0.0,1
1667405056.39896607,145477591,0,3,317074399,2234,13,0.79,42.7285354,-84.4847593,261.71,2.7981438636779785,135.5357208251953,0.07800000160932541,0.0,1
1667405056.57898593,145657611,0,3,317074599,2234,13,0.79,42.7285314,-84.4847546,261.7,3.025892496109009,141.10360717773438,-0.023000001907348633,0.0,1
1667405056.77900410,145857629,0,3,317074799,2234,13,0.79,42.7285269,-84.4847501,261.68,3.1958506107330322,145.6336669921875,0.021000001579523087,0.0,1
1667405056.99898505,146077610,0,3,317074999,2234,13,0.79,42.728522,-84.4847458,261.66,3.348004102706909,148.9071044921875,0.15700000524520874,0.0,1
1667405057.19904208,146277667,0,3,317075199,2234,13,0.79,42.7285165,-84.4847418,261.64,3.59201979637146,153.44207763671875,0.08700000494718552,0.0,1
1667405057.39900494,146477630,0,3,317075399,2234,13,0.79,42.7285106,-84.48473779999999,261.58,3.752039909362793,154.23397827148438,0.27800002694129944,0.0,1
1667405057.57897305,146657598,0,3,317075599,2234,13,0.79,42.7285044,-84.4847341,261.5,3.8488504886627197,157.4660186767578,0.406000018119812,0.0,1
1667405057.77900600,146857631,0,3,317075799,2234,13,0.79,42.7284977,-84.48473039999999,261.43,4.090497016906738,158.20118713378906,0.3580000102519989,0.0,1
1667405057.99895906,147077584,0,3,317075999,2234,13,0.79,42.728490699999995,-84.48472679999999,261.36,4.268612384796143,159.52720642089844,0.28300002217292786,0.0,1
1667405058.17897797,147257603,0,3,317076199,2234,13,0.79,42.7284833,-84.4847231,261.29,4.479318618774414,159.9185333251953,0.28600001335144043,0.0,1
1667405058.37896609,147457591,0,3,317076399,2234,13,0.79,42.728475599999996,-84.4847194,261.26,4.58541202545166,161.16990661621094,0.08400000631809235,0.0,1
1667405058.57896996,147657595,0,3,317076599,2234,13,0.79,42.728467599999995,-84.4847157,261.28000000000003,4.708544731140137,160.99937438964844,0.030000001192092896,0.0,1
1667405058.79905415,147877679,0,3,317076799,2234,13,0.79,42.7284595,-84.4847121,261.24,4.858334541320801,161.97900390625,0.04000000283122063,0.0,1
1667405058.99890709,148077532,0,3,317076999,2234,13,0.79,42.728451,-84.4847084,261.23,5.064244747161865,162.7708282470703,0.0020000000949949026,0.0,1
1667405059.19899893,148277624,0,3,317077199,2234,13,0.79,42.728442199999996,-84.4847047,261.23,5.228120803833008,162.7884979248047,0.006000000052154064,0.0,1
1667405059.39897394,148477599,0,3,317077399,2234,13,0.79,42.728432999999995,-84.484701,261.21,5.4079132080078125,163.12315368652344,-0.012000000104308128,0.0,1
1667405059.57900000,148657625,0,3,317077599,2234,13,0.79,42.7284235,-84.48469709999999,261.24,5.647156715393066,163.37168884277344,-0.1120000034570694,0.0,1
1667405059.79897809,148877603,0,3,317077799,2234,12,0.81,42.728413499999995,-84.4846931,261.24,5.921840667724609,163.74095153808594,-0.029000001028180122,0.0,1
1667405059.99896002,149077585,0,3,317077999,2234,12,0.81,42.728403199999995,-84.484689,261.24,6.038054466247559,163.41981506347656,0.004000000189989805,0.0,1
1667405060.19894195,149277567,0,3,317078199,2234,12,0.81,42.728392799999995,-84.4846848,261.21,6.0834431648254395,163.27188110351562,-0.003000000026077032,0.0,1
1667405060.37898707,149457612,0,3,317078399,2234,12,0.81,42.7283822,-84.48468059999999,261.23,6.159387588500977,164.00730895996094,-0.12000000476837158,0.0,1
1667405060.57900000,149657625,0,3,317078599,2234,12,0.81,42.7283715,-84.48467649999999,261.23,6.302330017089844,164.3605499267578,-0.0860000029206276,0.0,1
1667405060.77898097,149857606,0,3,317078799,2234,12,0.81,42.7283605,-84.4846724,261.21,6.368519306182861,165.08653259277344,-0.018000001087784767,0.0,1
1667405060.99898195,150077607,0,3,317078999,2234,12,0.81,42.7283494,-84.4846685,261.2,6.427144527435303,165.5205078125,0.004000000189989805,0.0,1
1667405061.19902396,150277649,0,3,317079199,2234,12,0.81,42.728338199999996,-84.4846646,261.16,6.511374473571777,165.8207550048828,0.06599999964237213,0.0,1
1667405061.39896393,150477589,0,3,317079399,2234,12,0.81,42.7283268,-84.4846608,261.15,6.571280479431152,166.10543823242188,0.08100000023841858,0.0,1
1667405061.57899094,150657616,0,3,317079599,2234,12,0.81,42.728315099999996,-84.484657,261.18,6.7515106201171875,167.17202758789062,-0.1420000046491623,0.0,1
1667405061.77898812,150857613,0,3,317079799,2234,12,0.81,42.7283033,-84.4846535,261.19,6.7204670906066895,167.73194885253906,-0.13600000739097595,0.0,1
1667405061.97895408,151057579,0,3,317079999,2234,12,0.81,42.7282915,-84.48465,261.19,6.805233955383301,167.81820678710938,-0.1080000028014183,0.0,1
1667405062.19904304,151277668,0,3,317080199,2234,12,0.81,42.7282795,-84.4846467,261.19,6.814920425415039,168.9687042236328,-0.15800000727176666,0.0,1
1667405062.39898515,151477610,0,3,317080399,2234,13,0.81,42.7282673,-84.4846439,261.33,6.758285999298096,170.62408447265625,-0.036000002175569534,0.0,1
1667405062.59897900,151677604,0,3,317080599,2234,13,0.81,42.728255,-84.48464159999999,261.52,6.561408519744873,171.71922302246094,0.04800000041723251,0.0,1
1667405062.79899001,151877615,0,3,317080799,2234,12,0.81,42.7282434,-84.4846396,261.47,6.5593647956848145,173.4080352783203,-0.007000000216066837,0.0,1
1667405062.99898314,152077608,0,3,317080999,2234,12,0.81,42.728231799999996,-84.4846381,261.48,6.490072727203369,175.72315979003906,-0.032999999821186066,0.0,1
1667405063.19896507,152277590,0,3,317081199,2234,13,0.81,42.72822,-84.4846373,261.55,6.378061771392822,177.50184631347656,-0.08000000566244125,0.0,1
1667405063.39894104,152477566,0,3,317081399,2234,13,0.81,42.728208599999995,-84.48463699999999,261.65,6.210026741027832,179.8339080810547,-0.0430000014603138,0.0,1
1667405063.57897615,152657601,0,3,317081599,2234,12,0.81,42.728197699999996,-84.4846372,261.6,6.014896392822266,181.43853759765625,0.0,0.0,1
1667405063.79894114,152877566,0,3,317081799,2234,12,0.81,42.7281871,-84.4846379,261.57,5.8747968673706055,183.47413635253906,-0.009000000543892384,0.0,1
1667405063.99902701,153077652,0,3,317081999,2234,12,0.81,42.7281767,-84.484639,261.55,5.737290859222412,185.79208374023438,-0.04100000113248825,0.0,1
1667405064.19903493,153277660,0,3,317082199,2234,12,0.81,42.728166699999996,-84.4846407,261.55,5.513023853302002,188.5328369140625,-0.10300000756978989,0.0,1
1667405064.39899898,153477624,0,3,317082399,2234,12,0.81,42.7281571,-84.48464299999999,261.57,5.363190650939941,191.257568359375,-0.11700000613927841,0.0,1
1667405064.59899902,153677624,0,3,317082599,2234,12,0.81,42.728147899999996,-84.4846458,261.56,5.1954545974731445,193.68319702148438,-0.16700001060962677,0.0,1
1667405064.79897308,153877598,0,3,317082799,2234,12,0.81,42.728139,-84.48464899999999,261.58,5.119300365447998,195.83624267578125,-0.23200000822544098,0.0,1
1667405064.97900105,154057626,0,3,317082999,2234,12,0.81,42.7281305,-84.4846525,261.6,4.797636032104492,197.40390014648438,-0.18900001049041748,0.0,1
1667405065.19897294,154277598,0,3,317083199,2234,12,0.81,42.7281226,-84.48465619999999,261.66,4.507397651672363,200.75094604492188,-0.3360000252723694,0.0,1
1667405065.37897611,154457601,0,3,317083399,2234,12,0.81,42.7281152,-84.4846602,261.69,4.46435546875,202.88345336914062,-0.27400001883506775,0.0,1
1667405065.59896207,154677587,0,3,317083599,2234,12,0.81,42.7281081,-84.4846645,261.71,4.198901176452637,204.88665771484375,-0.28300002217292786,0.0,1
1667405065.77889204,154857517,0,3,317083799,2234,12,0.81,42.728101599999995,-84.4846689,261.77,3.9210128784179688,208.21861267089844,-0.30900001525878906,0.0,1
1667405065.97903514,155057660,0,3,317083999,2234,12,0.81,42.728095599999996,-84.4846735,261.8,3.8473260402679443,209.57679748535156,-0.242000013589859,0.0,1
1667405066.17900300,155257628,0,3,317084199,2234,12,0.81,42.7280899,-84.4846781,261.84000000000003,3.5826127529144287,211.76466369628906,-0.4100000262260437,0.0,1
1667405066.37898302,155457608,0,3,317084399,2234,12,0.81,42.7280847,-84.4846829,261.89,3.3888018131256104,216.92738342285156,-0.2240000069141388,0.0,1
1667405066.57898593,155657611,0,3,317084599,2234,12,0.81,42.7280801,-84.4846879,261.92,3.246000289916992,219.0733184814453,-0.16700001060962677,0.0,1
1667405066.77903414,155857659,0,3,317084799,2234,12,0.81,42.7280759,-84.4846931,261.93,3.125427722930908,224.8185272216797,-0.15700000524520874,0.0,1
1667405066.99898696,156077612,0,3,317084999,2234,12,0.81,42.7280721,-84.48469829999999,261.93,2.902737617492676,226.82872009277344,-0.19500000774860382,0.0,1
1667405067.17896509,156257590,0,3,317085199,2234,12,0.81,42.7280687,-84.4847035,261.95,2.8524720668792725,228.61000061035156,-0.17800000309944153,0.0,1
1667405067.37899399,156457619,0,3,317085399,2234,12,0.81,42.7280654,-84.48470879999999,261.96,2.839357852935791,230.02906799316406,-0.0560000017285347,0.0,1
1667405067.57893705,156657562,0,3,317085599,2234,12,0.81,42.728062099999995,-84.484714,261.96,2.7956440448760986,228.3205108642578,-0.09600000083446503,0.0,1
1667405067.77900314,156857628,0,3,317085799,2234,12,0.81,42.7280588,-84.48471909999999,261.94,2.8488755226135254,228.3581085205078,-0.026000000536441803,0.0,1
1667405067.97899508,157057620,0,3,317085999,2234,12,0.81,42.7280556,-84.48472439999999,261.92,2.801586151123047,230.76527404785156,0.0010000000474974513,0.0,1
1667405068.17900515,157257630,0,3,317086199,2234,12,0.81,42.728052399999996,-84.4847296,261.91,2.7734463214874268,230.823974609375,-0.052000001072883606,0.0,1
1667405068.37898493,157457610,0,3,317086399,2234,12,0.81,42.7280496,-84.48473489999999,261.9,2.6495513916015625,236.56182861328125,0.11900000274181366,0.0,1
1667405068.57893801,157657563,0,3,317086599,2234,12,0.81,42.7280472,-84.4847403,261.87,2.487107992172241,239.7750701904297,0.06700000166893005,0.0,1
1667405068.77893615,157857561,0,3,317086799,2234,12,0.81,42.728045099999996,-84.4847454,261.85,2.3649063110351562,243.0990753173828,-0.02800000086426735,0.0,1
1667405068.97899294,158057618,0,3,317086999,2234,12,0.81,42.7280434,-84.4847504,261.83,2.1546361446380615,246.50462341308594,-0.029000001028180122,0.0,1
1667405069.17898512,158257610,0,3,317087199,2234,12,0.81,42.728042099999996,-84.48475499999999,261.81,1.902960181236267,250.6986083984375,-0.006000000052154064,0.0,1
1667405069.39897203,158477597,0,3,317087399,2234,12,0.81,42.7280412,-84.4847592,261.79,1.7130703926086426,255.5662841796875,-0.10700000822544098,0.0,1
1667405069.57899308,158657618,0,3,317087599,2234,12,0.81,42.7280407,-84.4847631,261.76,1.5128943920135498,261.1789855957031,-0.1120000034570694,0.0,1
1667405069.79900599,158877631,0,3,317087799,2234,12,0.81,42.7280405,-84.4847666,261.78000000000003,1.3797264099121094,267.1334533691406,-0.05300000309944153,0.0,1
1667405069.99901414,159077639,0,3,317087999,2234,12,0.81,42.7280407,-84.4847698,261.73,1.2355990409851074,278.1891174316406,0.012000000104308128,0.0,1
1667405070.19895601,159277581,0,3,317088199,2234,12,0.81,42.7280413,-84.48477249999999,261.72,1.1128723621368408,291.83966064453125,-0.06800000369548798,0.0,1
1667405070.37903595,159457661,0,3,317088399,2234,12,0.81,42.7280423,-84.48477489999999,261.7,1.0853248834609985,304.2611083984375,-0.08100000023841858,0.0,1
1667405070.59891415,159677539,0,3,317088599,2234,12,0.81,42.7280435,-84.4847769,261.7,1.0019766092300415,315.2021789550781,0.010000000707805157,0.0,1
1667405070.79897094,159877596,0,3,317088799,2234,12,0.81,42.728045099999996,-84.4847784,261.69,1.1309765577316284,329.85296630859375,-0.04100000113248825,0.0,1
1667405070.99895406,160077579,0,3,317088999,2234,12,0.81,42.728047,-84.4847798,261.69,1.1985408067703247,333.64874267578125,0.049000002443790436,0.0,1
1667405071.19896197,160277587,0,3,317089199,2234,12,0.81,42.728049,-84.484781,261.67,1.1910638809204102,338.47552490234375,-0.11000000685453415,0.0,1
1667405071.39896202,160477587,0,3,317089399,2234,12,0.81,42.7280514,-84.4847818,261.66,1.407366394996643,349.1052551269531,-0.05900000408291817,0.0,1
1667405071.59895396,160677579,0,3,317089599,2234,12,0.81,42.728054,-84.4847825,261.66,1.5092651844024658,349.5016174316406,-0.09600000083446503,0.0,1
1667405071.77900314,160857628,0,3,317089799,2234,12,0.81,42.728057,-84.484783,261.67,1.744701862335205,355.792724609375,-0.12000000476837158,0.0,1
1667405071.99896693,161077592,0,3,317089999,2234,13,0.81,42.7280602,-84.4847832,261.71,1.9210667610168457,359.5227966308594,-0.15700000524520874,0.0,1
1667405072.19898415,161277609,0,3,317090199,2234,13,0.81,42.7280638,-84.4847832,261.8,2.157944679260254,3.879422664642334,-0.09400000423192978,0.0,1
1667405072.39896703,161477592,0,3,317090399,2234,13,0.81,42.7280677,-84.48478279999999,261.87,2.2585980892181396,5.283999919891357,-0.24400001764297485,0.0,1
1667405072.59889793,161677523,0,3,317090599,2234,12,0.81,42.7280721,-84.4847822,261.87,2.616682291030884,6.473184108734131,-0.09300000220537186,0.0,1
1667405072.79896903,161877594,0,3,317090799,2234,12,0.81,42.7280771,-84.48478159999999,261.87,2.830718755722046,4.498058795928955,-0.06400000303983688,0.0,1
1667405072.99897909,162077604,0,3,317090999,2234,12,0.81,42.7280823,-84.48478109999999,261.87,2.9808714389801025,3.59671688079834,-0.02500000037252903,0.0,1
1667405073.19906807,162277693,0,3,317091199,2234,12,0.81,42.7280879,-84.4847805,261.82,3.1592464447021484,5.248612403869629,-0.04700000211596489,0.0,1
1667405073.39900494,162477630,0,3,317091399,2234,13,0.81,42.7280936,-84.4847798,261.85,3.246976613998413,5.1241350173950195,-0.06400000303983688,0.0,1
1667405073.59898305,162677608,0,3,317091599,2234,12,0.81,42.7280997,-84.48477919999999,261.82,3.4066386222839355,3.837568998336792,-0.03700000047683716,0.0,1
1667405073.79900908,162877634,0,3,317091799,2234,12,0.81,42.728105899999996,-84.48477869999999,261.81,3.496955633163452,3.344331741333008,0.020000001415610313,0.0,1
1667405073.99897909,163077604,0,3,317091999,2234,13,0.81,42.7281123,-84.4847783,261.77,3.5770630836486816,2.371273994445801,0.02200000174343586,0.0,1
1667405074.19889498,163277520,0,3,317092199,2234,13,0.81,42.728119,-84.4847779,261.73,3.7940661907196045,2.961195945739746,0.0010000000474974513,0.0,1
1667405074.37897301,163457598,0,3,317092399,2234,13,0.81,42.728125899999995,-84.4847774,261.71,3.839109420776367,2.956310510635376,0.07000000029802322,0.0,1
1667405074.59889603,163677521,0,3,317092599,2234,12,0.81,42.728133,-84.4847769,261.67,4.016591548919678,2.7398810386657715,0.0430000014603138,0.0,1
1667405074.79898500,163877610,0,3,317092799,2234,13,0.79,42.7281403,-84.4847764,261.64,4.099834442138672,3.762016773223877,0.004000000189989805,0.0,1
1667405074.99901700,164077642,0,3,317092999,2234,13,0.79,42.728147799999995,-84.4847758,261.6,4.18471622467041,3.9051506519317627,0.004000000189989805,0.0,1
1667405075.19903708,164277662,0,3,317093199,2234,13,0.79,42.7281555,-84.4847751,261.59000000000003,4.329873561859131,3.4558212757110596,0.058000002056360245,0.0,1
1667405075.39898396,164477609,0,3,317093399,2234,12,0.79,42.7281634,-84.4847743,261.55,4.468876838684082,4.350522041320801,0.07700000703334808,0.0,1
1667405075.59899092,164677616,0,3,317093599,2234,13,0.79,42.728171599999996,-84.4847734,261.53000000000003,4.601751327514648,5.174138069152832,0.006000000052154064,0.0,1
1667405075.77897215,164857597,0,3,317093799,2234,13,0.79,42.7281799,-84.4847724,261.49,4.688217639923096,5.704512596130371,-0.003000000026077032,0.0,1
1667405075.99898195,165077607,0,3,317093999,2234,13,0.79,42.728188499999995,-84.4847712,261.47,4.812849044799805,6.166655540466309,-0.06700000166893005,0.0,1
1667405076.19890499,165277530,0,3,317094199,2234,14,0.79,42.7281972,-84.48476989999999,261.45,4.883209228515625,6.785922527313232,-0.07000000029802322,0.0,1
1667405076.39898705,165477612,0,3,317094399,2234,14,0.79,42.7282061,-84.4847684,261.42,5.038809299468994,7.5608296394348145,-0.02200000174343586,0.0,1
1667405076.59900498,165677630,0,3,317094599,2234,14,0.79,42.7282152,-84.4847668,261.42,5.133603096008301,7.38665771484375,-0.05900000408291817,0.0,1
1667405076.79899311,165877618,0,3,317094799,2234,14,0.79,42.728224399999995,-84.4847652,261.38,5.16655969619751,8.257136344909668,-0.0560000017285347,0.0,1
1667405076.99899602,166077621,0,3,317094999,2234,14,0.79,42.7282337,-84.48476339999999,261.33,5.189741134643555,8.554783821105957,0.012000000104308128,0.0,1
1667405077.17901206,166257637,0,3,317095199,2234,14,0.79,42.7282431,-84.4847616,261.33,5.343647003173828,7.656994342803955,-0.0010000000474974513,0.0,1
1667405077.39898515,166477610,0,3,317095399,2234,14,0.79,42.7282527,-84.4847597,261.3,5.377904891967773,8.910593032836914,-0.026000000536441803,0.0,1
1667405077.59898305,166677608,0,3,317095599,2234,14,0.79,42.7282624,-84.4847577,261.28000000000003,5.481396198272705,9.386711120605469,-0.1210000067949295,0.0,1
1667405077.79892015,166877545,0,3,317095799,2234,14,0.72,42.7282722,-84.4847556,261.28000000000003,5.49337100982666,8.711270332336426,-0.11400000751018524,0.0,1
1667405077.99894905,167077574,0,3,317095999,2234,14,0.72,42.728282,-84.48475359999999,261.27,5.469986915588379,9.109307289123535,-0.07500000298023224,0.0,1
1667405078.19897413,167277599,0,3,317096199,2234,13,0.72,42.7282917,-84.4847516,261.25,5.40054178237915,8.797784805297852,0.0,0.0,1
1667405078.39898396,167477609,0,3,317096399,2234,13,0.72,42.7283012,-84.48474949999999,261.25,5.2627410888671875,9.471270561218262,-0.07600000500679016,0.0,1
1667405078.57900405,167657629,0,3,317096599,2234,13,0.72,42.7283106,-84.4847475,261.23,5.213144779205322,9.205748558044434,-0.00800000037997961,0.0,1
1667405078.79897809,167877603,0,3,317096799,2234,13,0.75,42.7283198,-84.4847454,261.21,5.202006816864014,9.806360244750977,-0.06400000303983688,0.0,1
1667405078.99895406,168077579,0,3,317096999,2234,13,0.75,42.728328999999995,-84.4847432,261.2,5.079902172088623,10.365374565124512,-0.06599999964237213,0.0,1
1667405079.19896007,168277585,0,3,317097199,2234,13,0.75,42.728338,-84.4847411,261.14,5.013758182525635,10.550156593322754,-0.09000000357627869,0.0,1
1667405079.39893007,168477555,0,3,317097399,2234,13,0.75,42.7283469,-84.4847388,261.11,5.016430854797363,10.835053443908691,-0.09800000488758087,0.0,1
1667405079.59897614,168677601,0,3,317097599,2234,13,0.75,42.728355799999996,-84.48473659999999,261.11,4.938758850097656,10.311071395874023,-0.05000000074505806,0.0,1
1667405079.79897404,168877599,0,3,317097799,2234,13,0.75,42.7283645,-84.4847346,261.09000000000003,4.88875675201416,9.96520709991455,-0.09700000286102295,0.0,1
1667405079.97898912,169057614,0,3,317097999,2234,13,0.75,42.7283731,-84.48473249999999,261.08,4.776066303253174,10.373517036437988,-0.05100000277161598,0.0,1
1667405080.19901109,169277636,0,3,317098199,2234,13,0.75,42.7283816,-84.4847305,261.05,4.755524635314941,10.088241577148438,-0.03100000135600567,0.0,1
1667405080.39898705,169477612,0,3,317098399,2234,13,0.75,42.7283901,-84.4847285,261.03000000000003,4.772869110107422,9.235365867614746,-0.02500000037252903,0.0,1
1667405080.59897113,169677596,0,3,317098599,2234,13,0.75,42.7283986,-84.4847267,261.03000000000003,4.747352123260498,9.517877578735352,-0.09300000220537186,0.0,1
1667405080.79898906,169877614,0,3,317098799,2234,13,0.75,42.728407,-84.4847248,261.04,4.718285083770752,9.244718551635742,-0.1080000028014183,0.0,1
1667405080.99898195,170077607,0,3,317098999,2234,13,0.75,42.728415299999995,-84.4847228,261.02,4.647913455963135,10.8385009765625,-0.20500001311302185,0.0,1
1667405081.19897914,170277604,0,3,317099199,2234,13,0.75,42.7284235,-84.4847207,261.07,4.588522434234619,10.129499435424805,-0.19500000774860382,0.0,1
1667405081.39896202,170477587,0,3,317099399,2234,13,0.75,42.7284316,-84.4847187,261.11,4.520525932312012,10.34792423248291,-0.30000001192092896,0.0,1
1667405081.59898615,170677611,0,3,317099599,2234,13,0.75,42.7284396,-84.48471669999999,261.12,4.5127973556518555,10.58533763885498,-0.049000002443790436,0.0,1
1667405081.79897809,170877603,0,3,317099799,2234,13,0.75,42.7284475,-84.4847147,261.11,4.377219200134277,10.917166709899902,-0.04000000283122063,0.0,1
1667405081.99898410,171077609,0,3,317099999,2234,13,0.75,42.7284552,-84.4847127,261.09000000000003,4.295626163482666,10.028068542480469,0.12700000405311584,0.0,1
1667405082.19903111,171277656,0,3,317100199,2234,13,0.75,42.7284626,-84.4847106,261.03000000000003,4.106276988983154,13.548919677734375,0.24300001561641693,0.0,1
1667405082.39898396,171477609,0,3,317100399,2234,13,0.75,42.7284697,-84.4847083,260.94,3.9330642223358154,13.273051261901855,0.40300002694129944,0.0,1
1667405082.57899904,171657624,0,3,317100599,2234,13,0.75,42.7284763,-84.4847059,260.82,3.689973831176758,17.197481155395508,0.562000036239624,0.0,1
1667405082.79898906,171877614,0,3,317100799,2234,13,0.75,42.7284825,-84.4847034,260.73,3.5463850498199463,15.219694137573242,0.43400001525878906,0.0,1
1667405082.99895906,172077584,0,3,317100999,2234,13,0.75,42.7284886,-84.48470089999999,260.61,3.4418251514434814,18.498117446899414,0.4710000157356262,0.0,1
1667405083.19896102,172277586,0,3,317101199,2234,13,0.75,42.7284942,-84.48469829999999,260.5,3.130885124206543,19.12940788269043,0.48100003600120544,0.0,1
1667405083.39896703,172477592,0,3,317101399,2234,13,0.75,42.7284996,-84.48469589999999,260.38,3.132554531097412,18.365541458129883,0.5560000538825989,0.0,1
1667405083.59891200,172677537,0,3,317101599,2234,13,0.75,42.728504799999996,-84.4846934,260.27,2.9633688926696777,20.648822784423828,0.5230000019073486,0.0,1
1667405083.79899502,172877620,0,3,317101799,2234,14,0.72,42.7285097,-84.4846907,260.12,2.8453922271728516,24.412288665771484,0.6100000143051147,0.0,1
1667405083.97903013,173057655,0,3,317101999,2234,14,0.72,42.7285141,-84.4846878,259.94,2.570958137512207,28.65848159790039,0.5760000348091125,0.0,1
1667405084.19901109,173277636,0,3,317102199,2234,14,0.72,42.728518,-84.48468489999999,259.86,2.361013650894165,27.878347396850586,0.5900000333786011,0.0,1
1667405084.39897299,173477598,0,3,317102399,2234,13,0.72,42.7285216,-84.4846822,259.73,2.2106637954711914,30.59037971496582,0.6320000290870667,0.0,1
1667405084.59898305,173677608,0,3,317102599,2234,13,0.72,42.7285249,-84.48467939999999,259.59000000000003,2.129507303237915,33.488582611083984,0.5640000104904175,0.0,1
1667405084.79898500,173877610,0,3,317102799,2234,13,0.75,42.7285282,-84.48467649999999,259.38,2.047516107559204,34.81549835205078,0.5490000247955322,0.0,1
1667405084.99894905,174077574,0,3,317102999,2234,13,0.75,42.7285311,-84.4846737,259.24,1.8166916370391846,39.19176483154297,0.5260000228881836,0.0,1
1667405085.17896795,174257593,0,3,317103199,2234,13,0.75,42.7285336,-84.4846711,259.11,1.6604819297790527,38.250247955322266,0.4970000088214874,0.0,1
1667405085.37899804,174457623,0,3,317103399,2234,13,0.75,42.728535699999995,-84.48466859999999,259.04,1.4565802812576294,40.656761169433594,0.6070000529289246,0.0,1
1667405085.57896495,174657590,0,3,317103599,2234,13,0.75,42.7285375,-84.48466619999999,258.95,1.4072331190109253,46.92928695678711,0.47200003266334534,0.0,1
