timestamp,TimeUS,Lat,Lng,Alt,RelHomeAlt,RelOriginAlt
1667405008.59928608,97677911,42.7285818,-84.4846941,257.42999267578125,0.009271245449781418,0.10927124321460724
1667405008.62055707,97699182,42.7285818,-84.4846941,257.44000244140625,0.011456433683633804,0.11145643144845963
1667405008.63936615,97717991,42.7285818,-84.4846941,257.44000244140625,0.012899260967969894,0.11289925873279572
1667405008.67935514,97757980,42.7285818,-84.4846941,257.44000244140625,0.016677621752023697,0.11667761951684952
1667405008.71986103,97798486,42.7285818,-84.4846941,257.4499816894531,0.020770501345396042,0.12077049911022186
1667405008.71993208,97798557,42.7285818,-84.4846941,257.4499816894531,0.020770501345396042,0.12077049911022186
1667405008.75962400,97838249,42.7285818,-84.48469399999999,257.4499816894531,0.023832406848669052,0.12383240461349487
1667405008.79926896,97877894,42.7285818,-84.48469399999999,257.4499816894531,0.025650065392255783,0.1256500631570816
1667405008.81988406,97898509,42.7285818,-84.48469399999999,257.4499816894531,0.025311794131994247,0.12531179189682007
1667405008.83923197,97917857,42.7285818,-84.48469399999999,257.4499816894531,0.02544921264052391,0.12544921040534973
1667405008.87926197,97957887,42.7285818,-84.48469399999999,257.4499816894531,0.025660019367933273,0.1256600171327591
1667405008.91993093,97998556,42.7285818,-84.4846939,257.4499816894531,0.02579691633582115,0.12579691410064697
1667405008.92002392,97998649,42.7285818,-84.4846939,257.4499816894531,0.02579691633582115,0.12579691410064697
1667405008.95987511,98038500,42.7285818,-84.4846939,257.4499816894531,0.026280056685209274,0.1262800544500351
1667405008.99937701,98078002,42.7285818,-84.4846939,257.4499816894531,0.02643800899386406,0.12643800675868988
1667405009.01970506,98098330,42.7285818,-84.4846939,257.4499816894531,0.026221778243780136,0.12622177600860596
1667405009.03925896,98117884,42.7285818,-84.4846939,257.4499816894531,0.026370819658041,0.12637081742286682
1667405009.07922792,98157853,42.7285818,-84.4846938,257.4499816894531,0.0266377292573452,0.12663772702217102
1667405009.11981511,98198440,42.7285818,-84.4846938,257.4499816894531,0.026844408363103867,0.1268444061279297
1667405009.11988711,98198512,42.7285818,-84.4846938,257.4499816894531,0.026844408363103867,0.1268444061279297
1667405009.15986514,98238490,42.7285818,-84.4846938,257.4499816894531,0.02723313495516777,0.1272331327199936
1667405009.19927502,98277900,42.7285818,-84.4846938,257.4499816894531,0.02666560932993889,0.1266656070947647
1667405009.21985507,98298480,42.7285818,-84.4846938,257.4499816894531,0.025900062173604965,0.1259000599384308
1667405009.23922896,98317854,42.7285818,-84.4846938,257.4499816894531,0.025760632008314133,0.12576062977313995
1667405009.27924109,98357866,42.7285818,-84.4846937,257.4499816894531,0.025188472121953964,0.12518846988677979
1667405009.31980801,98398433,42.7285818,-84.4846937,257.4499816894531,0.024435553699731827,0.12443555146455765
1667405009.31993294,98398558,42.7285818,-84.4846937,257.4499816894531,0.024435553699731827,0.12443555146455765
1667405009.35999608,98438621,42.7285818,-84.4846937,257.4499816894531,0.024162311106920242,0.12416230887174606
1667405009.39929914,98477924,42.7285818,-84.4846937,257.4499816894531,0.02348094806075096,0.12348094582557678
1667405009.41968799,98498313,42.7285818,-84.4846937,257.4499816894531,0.022804703563451767,0.12280470132827759
1667405009.43926907,98517894,42.7285818,-84.4846936,257.4499816894531,0.022657688707113266,0.12265768647193909
1667405009.47929406,98557919,42.7285818,-84.4846936,257.4499816894531,0.02220972254872322,0.12220972031354904
1667405009.51980710,98598432,42.7285818,-84.4846936,257.4499816894531,0.021679382771253586,0.1216793805360794
1667405009.51995206,98598577,42.7285818,-84.4846936,257.4499816894531,0.021679382771253586,0.1216793805360794
1667405009.55986905,98638494,42.7285818,-84.4846936,257.4499816894531,0.021589744836091995,0.12158974260091782
1667405009.59930396,98677929,42.7285818,-84.4846936,257.4499816894531,0.02009565755724907,0.12009565532207489
1667405009.61978698,98698412,42.7285818,-84.48469349999999,257.44000244140625,0.018577907234430313,0.11857790499925613
1667405009.63936996,98717995,42.7285818,-84.48469349999999,257.44000244140625,0.017993289977312088,0.11799328774213791
1667405009.67932200,98757947,42.7285818,-84.48469349999999,257.44000244140625,0.016437139362096786,0.11643713712692261
1667405009.71982098,98798446,42.7285818,-84.48469349999999,257.44000244140625,0.014651823788881302,0.11465182155370712
1667405009.71993303,98798558,42.7285818,-84.48469349999999,257.44000244140625,0.014651823788881302,0.11465182155370712
1667405009.75981712,98838442,42.7285818,-84.48469349999999,257.44000244140625,0.013688359409570694,0.11368835717439651
1667405009.79929304,98877918,42.7285818,-84.48469349999999,257.44000244140625,0.012694958597421646,0.11269495636224747
1667405009.81980205,98898427,42.7285818,-84.48469349999999,257.44000244140625,0.011910621076822281,0.1119106188416481
1667405009.83938098,98918006,42.7285818,-84.4846934,257.44000244140625,0.01161489263176918,0.111614890396595
1667405009.87930799,98957933,42.7285818,-84.4846934,257.44000244140625,0.010899070650339127,0.11089906841516495
1667405009.91981697,98998442,42.7285818,-84.4846934,257.44000244140625,0.010110314935445786,0.1101103127002716
1667405009.91988897,98998514,42.7285818,-84.4846934,257.44000244140625,0.010110314935445786,0.1101103127002716
1667405009.95980406,99038429,42.7285818,-84.4846934,257.42999267578125,0.009809549897909164,0.10980954766273499
1667405009.99927592,99077901,42.7285818,-84.4846934,257.42999267578125,0.009874019771814346,0.10987401753664017
1667405010.01984906,99098474,42.7285818,-84.4846934,257.42999267578125,0.008578214794397354,0.10857821255922318
1667405010.03927398,99117899,42.7285818,-84.4846934,257.42999267578125,0.008004669100046158,0.10800466686487198
1667405010.07941008,99158035,42.7285818,-84.4846934,257.42999267578125,0.006489668041467667,0.10648966580629349
1667405010.11982107,99198446,42.7285818,-84.48469329999999,257.42999267578125,0.004763644188642502,0.10476364195346832
1667405010.11993313,99198558,42.7285818,-84.48469329999999,257.42999267578125,0.004763644188642502,0.10476364195346832
1667405010.15982795,99238453,42.7285818,-84.48469329999999,257.42999267578125,0.0036942176520824432,0.10369421541690826
1667405010.19930506,99277930,42.7285818,-84.48469329999999,257.42999267578125,0.002006892114877701,0.10200688987970352
1667405010.21993995,99298565,42.7285818,-84.48469329999999,257.42999267578125,0.0006902702152729034,0.10069026798009872
1667405010.23925495,99317880,42.7285818,-84.48469329999999,257.42999267578125,5.114451050758362e-05,0.1000511422753334
1667405010.27926612,99357891,42.7285818,-84.48469329999999,257.41998291015625,-0.0015434660017490387,0.09845653176307678
1667405010.31985497,99398480,42.7285818,-84.48469329999999,257.41998291015625,-0.003317642956972122,0.0966823548078537
1667405010.31997108,99398596,42.7285818,-84.48469329999999,257.41998291015625,-0.003317642956972122,0.0966823548078537
1667405010.35997200,99438597,42.7285818,-84.48469329999999,257.41998291015625,-0.004449475556612015,0.0955505222082138
1667405010.39927506,99477900,42.7285818,-84.48469329999999,257.41998291015625,-0.005905721336603165,0.09409427642822266
1667405010.41980410,99498429,42.7285818,-84.48469329999999,257.41998291015625,-0.006983179599046707,0.09301681816577911
1667405010.43931198,99517937,42.7285818,-84.48469329999999,257.41998291015625,-0.007558304816484451,0.09244169294834137
1667405010.47928214,99557907,42.7285818,-84.48469329999999,257.41998291015625,-0.009003300219774246,0.09099669754505157
1667405010.51977110,99598396,42.7285818,-84.48469329999999,257.4100036621094,-0.010636743158102036,0.08936325460672379
1667405010.51990700,99598532,42.7285818,-84.48469329999999,257.4100036621094,-0.010636743158102036,0.08936325460672379
1667405010.55995011,99638575,42.7285818,-84.4846932,257.4100036621094,-0.011783149093389511,0.08821684867143631
1667405010.59926295,99677888,42.7285817,-84.4846932,257.4100036621094,-0.01293882355093956,0.08706117421388626
1667405010.62001514,99698640,42.7285817,-84.4846932,257.4100036621094,-0.01367134228348732,0.0863286554813385
1667405010.63924503,99717870,42.7285817,-84.4846932,257.4100036621094,-0.014124106615781784,0.08587589114904404
1667405010.67923212,99757857,42.7285817,-84.4846932,257.4100036621094,-0.015055153518915176,0.08494484424591064
1667405010.71980596,99798431,42.7285817,-84.4846932,257.4100036621094,-0.015991229563951492,0.08400876820087433
1667405010.71999502,99798620,42.7285817,-84.4846932,257.4100036621094,-0.015991229563951492,0.08400876820087433
1667405010.75990009,99838525,42.7285817,-84.4846932,257.4100036621094,-0.016766075044870377,0.08323392271995544
1667405010.79942513,99878050,42.7285817,-84.4846932,257.4100036621094,-0.018055859953165054,0.08194413781166077
1667405010.81973910,99898364,42.7285817,-84.4846931,257.4100036621094,-0.018963899463415146,0.08103609830141068
1667405010.83928800,99917913,42.7285817,-84.4846931,257.4100036621094,-0.01952921226620674,0.08047078549861908
1667405010.87923503,99957860,42.7285817,-84.4846931,257.3999938964844,-0.02051345631480217,0.07948654145002365
1667405010.91977406,99998399,42.7285817,-84.4846931,257.3999938964844,-0.02134537324309349,0.07865462452173233
1667405010.91990900,99998534,42.7285817,-84.4846931,257.3999938964844,-0.02134537324309349,0.07865462452173233
1667405010.95992208,100038547,42.7285817,-84.4846931,257.3999938964844,-0.021989192813634872,0.07801080495119095
1667405010.99934292,100077968,42.7285817,-84.4846931,257.3999938964844,-0.02325626090168953,0.07674373686313629
1667405011.01971602,100098341,42.7285817,-84.4846931,257.3999938964844,-0.024232644587755203,0.07576735317707062
1667405011.03939509,100118020,42.7285817,-84.4846931,257.3999938964844,-0.024870965629816055,0.07512903213500977
1667405011.07929015,100157915,42.7285817,-84.4846931,257.3999938964844,-0.026015687733888626,0.0739843100309372
1667405011.11976004,100198385,42.7285817,-84.484693,257.3999938964844,-0.027014482766389847,0.07298551499843597
1667405011.11985493,100198480,42.7285817,-84.484693,257.3999938964844,-0.027014482766389847,0.07298551499843597
1667405011.15990996,100238535,42.7285817,-84.484693,257.3999938964844,-0.0278228260576725,0.07217717170715332
1667405011.19937015,100277995,42.7285817,-84.484693,257.3999938964844,-0.02843700721859932,0.0715629905462265
1667405011.21975303,100298378,42.7285817,-84.484693,257.3999938964844,-0.02949998900294304,0.07050000876188278
1667405011.23929811,100317923,42.7285817,-84.484693,257.3899841308594,-0.03020726516842842,0.0697927325963974
1667405011.27928805,100357913,42.7285817,-84.484693,257.3899841308594,-0.031498391181230545,0.06850160658359528
1667405011.31984997,100398475,42.7285816,-84.48469279999999,257.3899841308594,-0.03263792768120766,0.06736207008361816
1667405011.31995106,100398576,42.7285816,-84.48469279999999,257.3899841308594,-0.03263792768120766,0.06736207008361816
1667405011.35981393,100438439,42.7285816,-84.48469279999999,257.3899841308594,-0.03355493023991585,0.06644506752490997
1667405011.39932895,100477954,42.7285816,-84.48469279999999,257.3899841308594,-0.03422047570347786,0.06577952206134796
1667405011.41979599,100498421,42.7285816,-84.48469279999999,257.3899841308594,-0.03472821041941643,0.0652717873454094
1667405011.43936396,100517989,42.7285816,-84.48469279999999,257.3899841308594,-0.03520045801997185,0.06479953974485397
1667405011.47931099,100557936,42.7285816,-84.48469279999999,257.3899841308594,-0.035783801227808,0.06421619653701782
1667405011.51980805,100598433,42.7285816,-84.48469279999999,257.3899841308594,-0.03610485419631004,0.06389514356851578
1667405011.51992798,100598553,42.7285816,-84.48469279999999,257.3899841308594,-0.03610485419631004,0.06389514356851578
1667405011.55984592,100638471,42.7285816,-84.48469279999999,257.3899841308594,-0.036508191376924515,0.0634918063879013
1667405011.59923792,100677863,42.7285816,-84.48469279999999,257.3899841308594,-0.03665907308459282,0.063340924680233
1667405011.61996102,100698586,42.7285816,-84.48469279999999,257.3899841308594,-0.03666510805487633,0.0633348897099495
1667405011.63930893,100717934,42.7285816,-84.48469279999999,257.3899841308594,-0.03691471740603447,0.06308528035879135
1667405011.67935514,100757980,42.7285816,-84.4846927,257.3899841308594,-0.036867205053567886,0.06313279271125793
1667405011.71982312,100798448,42.7285815,-84.4846927,257.3899841308594,-0.03646839037537575,0.06353160738945007
1667405011.71993995,100798565,42.7285815,-84.4846927,257.3899841308594,-0.03646839037537575,0.06353160738945007
1667405011.75985599,100838481,42.7285815,-84.4846927,257.3899841308594,-0.03644931688904762,0.0635506808757782
1667405011.79928613,100877911,42.7285815,-84.4846927,257.3899841308594,-0.03597177192568779,0.06402822583913803
1667405011.81989002,100898515,42.7285815,-84.4846926,257.3899841308594,-0.03544825688004494,0.06455174088478088
1667405011.83926105,100917886,42.7285815,-84.4846926,257.3899841308594,-0.03545263037085533,0.06454736739397049
1667405011.87932897,100957954,42.7285815,-84.4846926,257.3899841308594,-0.03486211970448494,0.06513787806034088
1667405011.91982102,100998446,42.728581399999996,-84.4846926,257.3899841308594,-0.033884380012750626,0.0661156177520752
1667405011.91994810,100998573,42.728581399999996,-84.4846926,257.3899841308594,-0.033884380012750626,0.0661156177520752
1667405011.95989513,101038520,42.728581399999996,-84.4846926,257.3899841308594,-0.03346913680434227,0.06653086096048355
1667405011.99929094,101077916,42.728581399999996,-84.4846926,257.3899841308594,-0.03395414724946022,0.0660458505153656
1667405012.01983500,101098460,42.728581399999996,-84.4846925,257.3899841308594,-0.0344451405107975,0.06555485725402832
1667405012.03933096,101117956,42.728581399999996,-84.4846925,257.3899841308594,-0.03494283929467201,0.06505715847015381
1667405012.07924104,101157866,42.728581399999996,-84.4846925,257.3899841308594,-0.03582843020558357,0.06417156755924225
1667405012.11977410,101198399,42.728581399999996,-84.4846925,257.3899841308594,-0.03657994791865349,0.06342004984617233
1667405012.11991096,101198536,42.728581399999996,-84.4846925,257.3899841308594,-0.03657994791865349,0.06342004984617233
1667405012.15994310,101238568,42.728581399999996,-84.4846925,257.3899841308594,-0.03729980066418648,0.06270019710063934
1667405012.19934702,101277972,42.728581399999996,-84.4846925,257.3899841308594,-0.03780192881822586,0.06219806894659996
1667405012.21981096,101298436,42.728581299999995,-84.4846924,257.3899841308594,-0.0368640311062336,0.06313596665859222
1667405012.23937511,101318000,42.728581299999995,-84.4846924,257.3899841308594,-0.03672511503100395,0.06327488273382187
1667405012.27923512,101357860,42.728581299999995,-84.4846924,257.3899841308594,-0.035533737391233444,0.06446626037359238
1667405012.31979895,101398424,42.728581299999995,-84.48469229999999,257.3899841308594,-0.033800121396780014,0.0661998763680458
1667405012.31995893,101398584,42.728581299999995,-84.48469229999999,257.3899841308594,-0.033800121396780014,0.0661998763680458
1667405012.35990715,101438532,42.728581299999995,-84.48469229999999,257.3899841308594,-0.03278803452849388,0.06721196323633194
1667405012.39931512,101477940,42.728581299999995,-84.48469229999999,257.3899841308594,-0.03276711329817772,0.0672328844666481
1667405012.41987610,101498501,42.728581299999995,-84.48469229999999,257.3899841308594,-0.033038217574357986,0.06696178019046783
1667405012.43929005,101517915,42.728581299999995,-84.48469229999999,257.3899841308594,-0.03346392884850502,0.0665360689163208
1667405012.47927403,101557899,42.728581299999995,-84.48469229999999,257.3899841308594,-0.03382186219096184,0.06617813557386398
1667405012.51976514,101598390,42.728581299999995,-84.4846922,257.3899841308594,-0.03385398909449577,0.06614600867033005
1667405012.51992202,101598547,42.728581299999995,-84.4846922,257.3899841308594,-0.03385398909449577,0.06614600867033005
1667405012.55986810,101638493,42.728581299999995,-84.4846922,257.3899841308594,-0.034127671271562576,0.06587232649326324
1667405012.59939504,101678020,42.728581299999995,-84.4846922,257.3899841308594,-0.03431147709488869,0.06568852066993713
1667405012.61981010,101698435,42.728581299999995,-84.4846922,257.3899841308594,-0.03441806510090828,0.06558193266391754
1667405012.63930607,101717931,42.728581299999995,-84.48469209999999,257.3899841308594,-0.03477517142891884,0.06522482633590698
1667405012.67924213,101757867,42.7285812,-84.48469209999999,257.3899841308594,-0.034957874566316605,0.06504212319850922
1667405012.71981692,101798442,42.7285812,-84.48469209999999,257.3899841308594,-0.034843411296606064,0.06515658646821976
1667405012.71994114,101798566,42.7285812,-84.48469209999999,257.3899841308594,-0.034843411296606064,0.06515658646821976
1667405012.75985408,101838479,42.7285812,-84.48469209999999,257.3899841308594,-0.03510868176817894,0.06489131599664688
1667405012.79927707,101877902,42.7285812,-84.484692,257.3899841308594,-0.03526536747813225,0.06473463028669357
1667405012.81977892,101898404,42.7285812,-84.484692,257.3899841308594,-0.035216834396123886,0.06478316336870193
1667405012.83936715,101917992,42.7285812,-84.484692,257.3899841308594,-0.03548978641629219,0.06451021134853363
1667405012.87980509,101958430,42.7285812,-84.484692,257.3899841308594,-0.0354316420853138,0.06456835567951202
1667405012.91982007,101998445,42.7285811,-84.484692,257.3899841308594,-0.034956108778715134,0.06504388898611069
1667405012.91989303,101998518,42.7285811,-84.484692,257.3899841308594,-0.034956108778715134,0.06504388898611069
1667405012.95989799,102038523,42.7285811,-84.4846919,257.3899841308594,-0.034807685762643814,0.065192312002182
1667405012.99929404,102077919,42.7285811,-84.4846919,257.3899841308594,-0.03536431863903999,0.06463567912578583
1667405013.01975894,102098384,42.7285811,-84.4846919,257.3899841308594,-0.0359223298728466,0.06407766789197922
1667405013.03931594,102117941,42.7285811,-84.4846919,257.3899841308594,-0.036510396748781204,0.06348960101604462
1667405013.07933092,102157956,42.7285811,-84.4846919,257.3899841308594,-0.03687887266278267,0.06312112510204315
1667405013.11986804,102198493,42.7285811,-84.4846918,257.3899841308594,-0.03666510805487633,0.0633348897099495
1667405013.11994600,102198571,42.7285811,-84.4846918,257.3899841308594,-0.03666510805487633,0.0633348897099495
1667405013.15988493,102238510,42.7285811,-84.4846918,257.3899841308594,-0.03675241395831108,0.06324758380651474
1667405013.19924903,102277874,42.728581,-84.4846918,257.3899841308594,-0.036391373723745346,0.06360862404108047
1667405013.21985507,102298480,42.728581,-84.4846918,257.3899841308594,-0.03599478676915169,0.06400521099567413
1667405013.23931098,102317936,42.728581,-84.4846918,257.3899841308594,-0.036113861948251724,0.0638861358165741
1667405013.27934408,102357969,42.728581,-84.4846917,257.3899841308594,-0.03550874814391136,0.06449124962091446
1667405013.31993699,102398562,42.728581,-84.4846917,257.3899841308594,-0.03436747565865517,0.06563252210617065
1667405013.32004213,102398667,42.728581,-84.4846917,257.3899841308594,-0.03436747565865517,0.06563252210617065
1667405013.35992193,102438547,42.728581,-84.4846917,257.3899841308594,-0.03387284651398659,0.06612715125083923
1667405013.39927602,102477901,42.728581,-84.4846917,257.3899841308594,-0.03463510051369667,0.06536489725112915
1667405013.41989994,102498525,42.7285809,-84.4846917,257.3899841308594,-0.03535157069563866,0.06464842706918716
1667405013.43933415,102517959,42.7285809,-84.48469159999999,257.3899841308594,-0.03601592406630516,0.06398407369852066
1667405013.47930002,102557925,42.7285809,-84.48469159999999,257.3899841308594,-0.03678290918469429,0.06321708858013153
1667405013.51985908,102598484,42.7285809,-84.48469159999999,257.3899841308594,-0.03698087856173515,0.06301911920309067
1667405013.51997900,102598604,42.7285809,-84.48469159999999,257.3899841308594,-0.03698087856173515,0.06301911920309067
1667405013.55996609,102638591,42.7285809,-84.48469159999999,257.3899841308594,-0.03728281334042549,0.06271718442440033
1667405013.59935808,102677983,42.7285809,-84.48469159999999,257.3899841308594,-0.03740500286221504,0.06259499490261078
1667405013.61990404,102698529,42.7285809,-84.48469159999999,257.3899841308594,-0.03747411444783211,0.06252588331699371
1667405013.63923812,102717863,42.7285809,-84.48469159999999,257.3899841308594,-0.03781740739941597,0.06218259036540985
1667405013.67935014,102757975,42.7285809,-84.4846915,257.3899841308594,-0.03744887933135033,0.0625511184334755
1667405013.71990895,102798534,42.7285809,-84.4846915,257.3899841308594,-0.036394331604242325,0.0636056661605835
1667405013.72002411,102798649,42.7285809,-84.4846915,257.3899841308594,-0.036394331604242325,0.0636056661605835
1667405013.75995493,102838580,42.7285809,-84.4846915,257.3899841308594,-0.035425227135419846,0.06457477062940598
1667405013.79934502,102877970,42.728580799999996,-84.4846915,257.3899841308594,-0.03358641639351845,0.06641358137130737
1667405013.81983495,102898460,42.728580799999996,-84.4846915,257.3899841308594,-0.0323522575199604,0.06764774024486542
1667405013.83935094,102917976,42.728580799999996,-84.4846915,257.3899841308594,-0.032079365104436874,0.06792063266038895
1667405013.87955999,102958185,42.728580799999996,-84.4846914,257.3999938964844,-0.029290329664945602,0.07070966809988022
1667405013.91977310,102998398,42.728580799999996,-84.4846914,257.3999938964844,-0.024702314287424088,0.07529768347740173
1667405013.91989994,102998525,42.728580799999996,-84.4846914,257.3999938964844,-0.024702314287424088,0.07529768347740173
1667405013.95992494,103038550,42.728580799999996,-84.4846914,257.3999938964844,-0.020315174013376236,0.07968482375144958
1667405013.99936295,103077988,42.728580699999995,-84.4846914,257.4100036621094,-0.013352800160646439,0.08664719760417938
1667405014.01979399,103098419,42.728580699999995,-84.4846913,257.41998291015625,-0.008585359901189804,0.09141463786363602
1667405014.03930402,103117929,42.728580699999995,-84.4846913,257.41998291015625,-0.005051877349615097,0.09494812041521072
1667405014.07930493,103157930,42.728580699999995,-84.4846913,257.42999267578125,0.0053284429013729095,0.10532844066619873
1667405014.11973095,103198356,42.7285806,-84.4846913,257.44000244140625,0.01851380243897438,0.1185138002038002
1667405014.11985207,103198477,42.7285806,-84.4846913,257.44000244140625,0.01851380243897438,0.1185138002038002
1667405014.15986395,103238489,42.7285806,-84.4846913,257.4599914550781,0.03155064210295677,0.1315506398677826
1667405014.19935513,103277980,42.7285805,-84.4846912,257.4700012207031,0.04827551171183586,0.14827550947666168
1667405014.21982002,103298445,42.7285805,-84.4846912,257.47998046875,0.058304961770772934,0.15830495953559875
1667405014.23936701,103317992,42.7285805,-84.4846912,257.489990234375,0.06665873527526855,0.16665872931480408
1667405014.27928805,103357913,42.7285804,-84.4846912,257.5099792480469,0.08684743940830231,0.18684743344783783
1667405014.31981397,103398439,42.7285803,-84.4846912,257.5400085449219,0.11002510786056519,0.2100251019001007
1667405014.31991911,103398544,42.7285803,-84.4846912,257.5400085449219,0.11002510786056519,0.2100251019001007
1667405014.35991001,103438535,42.7285803,-84.4846912,257.55999755859375,0.13315288722515106,0.23315288126468658
1667405014.39939094,103478016,42.728580199999996,-84.4846912,257.5899963378906,0.16006380319595337,0.2600637972354889
1667405014.41981196,103498437,42.728580199999996,-84.4846912,257.6000061035156,0.17522722482681274,0.27522721886634827
1667405014.43933010,103517955,42.728580099999995,-84.4846912,257.6099853515625,0.18838781118392944,0.28838780522346497
1667405014.47934699,103557972,42.72858,-84.4846912,257.6399841308594,0.21873506903648376,0.3187350630760193
1667405014.51984596,103598471,42.72858,-84.4846912,257.67999267578125,0.25160518288612366,0.3516051769256592
1667405014.51991701,103598542,42.72858,-84.4846912,257.67999267578125,0.25160518288612366,0.3516051769256592
1667405014.55996394,103638589,42.7285799,-84.4846912,257.7099914550781,0.28364434838294983,0.38364434242248535
1667405014.59931612,103677941,42.7285798,-84.4846912,257.739990234375,0.3184948265552521,0.4184948205947876
1667405014.61980700,103698432,42.7285798,-84.4846912,257.7599792480469,0.33751949667930603,0.43751949071884155
1667405014.63929105,103717916,42.7285797,-84.4846912,257.7799987792969,0.3542739748954773,0.4542739689350128
1667405014.67932415,103757949,42.728579599999996,-84.4846912,257.82000732421875,0.39188334345817566,0.4918833374977112
1667405014.71989298,103798518,42.728579499999995,-84.4846912,257.8599853515625,0.43307510018348694,0.5330750942230225
1667405014.71996403,103798589,42.728579499999995,-84.4846912,257.8599853515625,0.43307510018348694,0.5330750942230225
1667405014.75991392,103838539,42.728579499999995,-84.4846912,257.8999938964844,0.47259488701820374,0.5725948810577393
1667405014.79924297,103877868,42.7285794,-84.4846912,257.94000244140625,0.5139806866645813,0.6139807105064392
1667405014.81995797,103898583,42.7285793,-84.4846912,257.9599914550781,0.5362530946731567,0.6362531185150146
1667405014.83929396,103917919,42.7285793,-84.4846912,257.97998046875,0.5562341809272766,0.6562342047691345
1667405014.87941194,103958037,42.7285792,-84.4846912,258.0299987792969,0.601915180683136,0.7019152045249939
1667405014.91985893,103998484,42.7285791,-84.4846912,258.0799865722656,0.6518632769584656,0.7518633008003235
1667405014.91996908,103998594,42.7285791,-84.4846912,258.0799865722656,0.6518632769584656,0.7518633008003235
1667405014.96002507,104038650,42.728578999999996,-84.4846912,258.1199951171875,0.6983701586723328,0.7983701825141907
1667405014.99926305,104077888,42.728578899999995,-84.4846912,258.16998291015625,0.7447206974029541,0.844720721244812
1667405015.01989198,104098517,42.728578899999995,-84.4846912,258.19000244140625,0.7692829370498657,0.8692829608917236
1667405015.03927207,104117897,42.7285788,-84.4846912,258.2200012207031,0.7912657856941223,0.8912658095359802
1667405015.07929802,104157923,42.7285787,-84.4846912,258.2599792480469,0.8383820652961731,0.938382089138031
1667405015.11990499,104198530,42.7285786,-84.4846912,258.30999755859375,0.8876495361328125,0.9876495599746704
1667405015.12001109,104198636,42.7285786,-84.4846912,258.30999755859375,0.8876495361328125,0.9876495599746704
1667405015.15992403,104238549,42.7285786,-84.4846912,258.3599853515625,0.9341094493865967,1.0341094732284546
1667405015.19928503,104277910,42.7285785,-84.4846912,258.4100036621094,0.9811060428619385,1.0811060667037964
1667405015.21980715,104298432,42.728578399999996,-84.4846912,258.42999267578125,1.005232334136963,1.1052323579788208
1667405015.23934603,104317971,42.728578299999995,-84.4846913,258.4499816894531,1.0278699398040771,1.127869963645935
1667405015.27925992,104357885,42.7285782,-84.4846913,258.5,1.0748237371444702,1.1748237609863281
1667405015.31983495,104398460,42.7285781,-84.4846913,258.54998779296875,1.1236354112625122,1.2236354351043701
1667405015.31997108,104398596,42.7285781,-84.4846913,258.54998779296875,1.1236354112625122,1.2236354351043701
1667405015.35991096,104438536,42.728578,-84.4846913,258.6000061035156,1.1704593896865845,1.2704594135284424
1667405015.39937210,104477997,42.7285779,-84.4846913,258.6399841308594,1.21666419506073,1.316664218902588
1667405015.41983104,104498456,42.7285779,-84.4846913,258.6600036621094,1.2394182682037354,1.3394182920455933
1667405015.43929100,104517916,42.7285778,-84.4846913,258.69000244140625,1.261694073677063,1.361694097518921
1667405015.47930002,104557925,42.728577699999995,-84.4846913,258.72998046875,1.3070685863494873,1.4070686101913452
1667405015.51978302,104598408,42.7285776,-84.4846913,258.7799987792969,1.3529980182647705,1.4529980421066284
1667405015.51991510,104598540,42.7285776,-84.4846913,258.7799987792969,1.3529980182647705,1.4529980421066284
1667405015.55988193,104638507,42.7285776,-84.4846913,258.82000732421875,1.3983049392700195,1.4983049631118774
1667405015.59934902,104677974,42.7285775,-84.4846913,258.8699951171875,1.4418388605117798,1.5418388843536377
1667405015.61979914,104698424,42.7285774,-84.4846912,258.8899841308594,1.4634478092193604,1.5634478330612183
1667405015.63937306,104717998,42.7285774,-84.4846912,258.9100036621094,1.4851672649383545,1.5851672887802124
1667405015.67926407,104757889,42.7285773,-84.4846912,258.9499816894531,1.529054045677185,1.629054069519043
1667405015.71974707,104798372,42.7285772,-84.4846912,259.0,1.5727813243865967,1.6727813482284546
1667405015.71986508,104798490,42.7285772,-84.4846912,259.0,1.5727813243865967,1.6727813482284546
1667405015.75988007,104838505,42.728577099999995,-84.4846912,259.0400085449219,1.6172813177108765,1.7172813415527344
1667405015.79934502,104877970,42.728577,-84.4846912,259.0899963378906,1.6610597372055054,1.7610597610473633
1667405015.81982899,104898454,42.7285769,-84.4846912,259.1099853515625,1.6824809312820435,1.7824809551239014
1667405015.83938599,104918011,42.7285769,-84.4846912,259.1300048828125,1.7041903734207153,1.8041903972625732
1667405015.87939000,104958015,42.7285768,-84.4846912,259.16998291015625,1.7492358684539795,1.8492358922958374
1667405015.91977596,104998401,42.7285768,-84.4846913,259.2200012207031,1.7948275804519653,1.8948276042938232
1667405015.91984797,104998473,42.7285768,-84.4846913,259.2200012207031,1.7948275804519653,1.8948276042938232
1667405015.95984602,105038471,42.7285767,-84.4846913,259.2699890136719,1.8411141633987427,1.9411141872406006
1667405015.99932504,105077950,42.7285766,-84.4846913,259.30999755859375,1.8875813484191895,1.9875813722610474
1667405016.01986098,105098486,42.7285766,-84.4846913,259.3399963378906,1.9099973440170288,2.0099973678588867
1667405016.03931713,105117942,42.7285766,-84.4846914,259.3599853515625,1.932991623878479,2.032991647720337
1667405016.07935500,105157980,42.728576499999996,-84.4846914,259.3999938964844,1.9792834520339966,2.0792834758758545
1667405016.11983395,105198459,42.7285764,-84.4846914,259.4499816894531,2.027350902557373,2.1273508071899414
1667405016.11990499,105198530,42.7285764,-84.4846914,259.4499816894531,2.027350902557373,2.1273508071899414
1667405016.15981507,105238440,42.7285764,-84.4846915,259.5,2.074606418609619,2.1746063232421875
1667405016.19937205,105277997,42.7285763,-84.4846915,259.54998779296875,2.1216094493865967,2.221609354019165
1667405016.21979713,105298422,42.7285763,-84.4846915,259.57000732421875,2.1454684734344482,2.2454683780670166
1667405016.23937607,105318001,42.7285763,-84.4846915,259.5899963378906,2.168247938156128,2.2682478427886963
1667405016.27938795,105358013,42.7285762,-84.4846915,259.6399841308594,2.2161431312561035,2.316143035888672
1667405016.31990314,105398528,42.7285762,-84.48469159999999,259.69000244140625,2.2654776573181152,2.3654775619506836
1667405016.31997514,105398600,42.7285762,-84.48469159999999,259.69000244140625,2.2654776573181152,2.3654775619506836
1667405016.35992813,105438553,42.7285761,-84.48469159999999,259.739990234375,2.3121211528778076,2.412121057510376
1667405016.39919496,105477820,42.728576,-84.48469159999999,259.7799987792969,2.358151912689209,2.4581518173217773
1667405016.41984606,105498471,42.728576,-84.48469159999999,259.80999755859375,2.3811402320861816,2.48114013671875
1667405016.43929815,105517923,42.728576,-84.48469159999999,259.8299865722656,2.40334415435791,2.5033440589904785
1667405016.47936201,105557987,42.728575899999996,-84.4846917,259.8699951171875,2.449683904647827,2.5496838092803955
1667405016.51990294,105598528,42.728575899999996,-84.4846917,259.91998291015625,2.496669054031372,2.5966689586639404
1667405016.51997399,105598599,42.728575899999996,-84.4846917,259.91998291015625,2.496669054031372,2.5966689586639404
1667405016.55993414,105638559,42.7285758,-84.4846917,259.9700012207031,2.5424044132232666,2.642404317855835
1667405016.59929299,105677918,42.7285757,-84.4846918,260.0099792480469,2.5873498916625977,2.687349796295166
1667405016.61985707,105698482,42.7285757,-84.4846918,260.0299987792969,2.609628438949585,2.7096283435821533
1667405016.63924599,105717871,42.7285756,-84.4846918,260.05999755859375,2.6301722526550293,2.7301721572875977
1667405016.67929697,105757922,42.7285755,-84.4846918,260.1000061035156,2.672226905822754,2.7722268104553223
1667405016.71981406,105798439,42.7285754,-84.4846919,260.1399841308594,2.7137255668640137,2.813725471496582
1667405016.71995997,105798585,42.7285754,-84.4846919,260.1399841308594,2.7137255668640137,2.813725471496582
1667405016.76003909,105838664,42.728575299999996,-84.4846919,260.17999267578125,2.753554582595825,2.8535544872283936
1667405016.79925609,105877881,42.728575199999995,-84.4846919,260.2200012207031,2.791907787322998,2.8919076919555664
1667405016.81977892,105898404,42.7285751,-84.4846919,260.239990234375,2.810579776763916,2.9105796813964844
1667405016.83926702,105917892,42.728575,-84.4846919,260.25,2.828517198562622,2.9285171031951904
1667405016.87937808,105958003,42.7285748,-84.4846919,260.2900085449219,2.865338087081909,2.9653379917144775
1667405016.91991115,105998536,42.728574599999995,-84.4846918,260.3299865722656,2.9018173217773438,3.001817226409912
1667405016.92005515,105998680,42.728574599999995,-84.4846918,260.3299865722656,2.9018173217773438,3.001817226409912
1667405016.96058702,106039212,42.7285745,-84.4846918,260.3599853515625,2.937349319458008,3.037349224090576
1667405016.99931312,106077938,42.7285742,-84.4846918,260.3999938964844,2.971362352371216,3.071362257003784
1667405017.01978493,106098410,42.728574099999996,-84.4846918,260.4100036621094,2.988093137741089,3.0880930423736572
1667405017.03931594,106117941,42.728573999999995,-84.4846918,260.42999267578125,3.0045270919799805,3.104526996612549
1667405017.07934904,106157974,42.7285737,-84.4846917,260.4599914550781,3.038188934326172,3.1381888389587402
1667405017.11977315,106198398,42.728573499999996,-84.4846917,260.5,3.0716917514801025,3.171691656112671
1667405017.11990499,106198530,42.728573499999996,-84.4846917,260.5,3.0716917514801025,3.171691656112671
1667405017.16059113,106239216,42.7285732,-84.4846917,260.5299987792969,3.104501724243164,3.2045016288757324
1667405017.19935012,106277975,42.728572899999996,-84.4846917,260.55999755859375,3.1365647315979004,3.2365646362304688
1667405017.21979904,106298424,42.7285727,-84.4846917,260.5799865722656,3.152270555496216,3.252270460128784
1667405017.23937893,106318004,42.7285725,-84.48469159999999,260.5899963378906,3.167307138442993,3.2673070430755615
1667405017.27932405,106357949,42.728572199999995,-84.48469159999999,260.6199951171875,3.1975436210632324,3.297543525695801
1667405017.31977201,106398397,42.7285718,-84.4846917,260.6499938964844,3.2280821800231934,3.3280820846557617
1667405017.31987405,106398499,42.7285718,-84.4846917,260.6499938964844,3.2280821800231934,3.3280820846557617
1667405017.36057711,106439202,42.7285715,-84.48469159999999,260.67999267578125,3.2574076652526855,3.357407569885254
1667405017.39935493,106477980,42.728571099999996,-84.48469159999999,260.7099914550781,3.2868473529815674,3.3868472576141357
1667405017.41982794,106498453,42.7285709,-84.4846917,260.72998046875,3.30131196975708,3.4013118743896484
1667405017.43939114,106518016,42.7285707,-84.4846917,260.739990234375,3.315142869949341,3.415142774581909
1667405017.47925711,106557882,42.7285702,-84.4846917,260.7699890136719,3.3427720069885254,3.4427719116210938
1667405017.51976609,106598391,42.728569799999995,-84.4846917,260.79998779296875,3.370980978012085,3.4709808826446533
1667405017.51983595,106598461,42.728569799999995,-84.4846917,260.79998779296875,3.370980978012085,3.4709808826446533
1667405017.56064796,106639273,42.7285694,-84.4846917,260.82000732421875,3.3973259925842285,3.497325897216797
1667405017.59930992,106677935,42.7285689,-84.4846917,260.8500061035156,3.422584295272827,3.5225841999053955
1667405017.61982608,106698451,42.7285687,-84.4846918,260.8599853515625,3.4347522258758545,3.534752130508423
1667405017.63938498,106718010,42.7285684,-84.4846918,260.8699951171875,3.446234703063965,3.546234607696533
1667405017.67928314,106757908,42.7285679,-84.4846919,260.8999938964844,3.470456600189209,3.5704565048217773
1667405017.71980095,106798426,42.728567399999996,-84.484692,260.91998291015625,3.495037078857422,3.5950369834899902
1667405017.71987200,106798497,42.728567399999996,-84.484692,260.91998291015625,3.495037078857422,3.5950369834899902
1667405017.76061511,106839240,42.7285669,-84.484692,260.94000244140625,3.518235921859741,3.6182358264923096
1667405017.79934406,106877969,42.7285664,-84.48469209999999,260.9700012207031,3.5416932106018066,3.641693115234375
1667405017.81987810,106898503,42.728566199999996,-84.48469229999999,260.97998046875,3.55336332321167,3.6533632278442383
1667405017.83928514,106917910,42.7285659,-84.48469229999999,260.989990234375,3.5638320446014404,3.663831949234009
1667405017.87933111,106957956,42.7285654,-84.4846924,261.0099792480469,3.5865323543548584,3.6865322589874268
1667405017.91993999,106998565,42.7285648,-84.4846926,261.0299987792969,3.609829902648926,3.709829807281494
1667405017.92001414,106998639,42.7285648,-84.4846926,261.0299987792969,3.609829902648926,3.709829807281494
1667405017.96056700,107039192,42.728564299999995,-84.4846927,261.05999755859375,3.6315033435821533,3.7315032482147217
1667405017.99930811,107077933,42.728563699999995,-84.4846929,261.0799865722656,3.652270793914795,3.7522706985473633
1667405018.01982212,107098447,42.7285634,-84.484693,261.0899963378906,3.662496328353882,3.76249623298645
1667405018.03927302,107117898,42.728563099999995,-84.484693,261.1000061035156,3.671496629714966,3.771496534347534
1667405018.07932901,107157954,42.728562499999995,-84.4846931,261.1199951171875,3.6911771297454834,3.7911770343780518
1667405018.11989713,107198522,42.728561899999995,-84.48469329999999,261.1399841308594,3.7114295959472656,3.811429500579834
1667405018.11996794,107198593,42.728561899999995,-84.48469329999999,261.1399841308594,3.7114295959472656,3.811429500579834
1667405018.16054010,107239165,42.728561299999996,-84.4846934,261.1600036621094,3.7304024696350098,3.830402374267578
1667405018.19927311,107277898,42.7285606,-84.48469349999999,261.16998291015625,3.7495150566101074,3.849514961242676
1667405018.21981215,107298437,42.7285603,-84.4846937,261.17999267578125,3.7591044902801514,3.8591043949127197
1667405018.23924994,107317875,42.728559999999995,-84.4846937,261.19000244140625,3.767580270767212,3.8675801753997803
1667405018.27932596,107357951,42.7285593,-84.4846939,261.2099914550781,3.7859532833099365,3.885953187942505
1667405018.31994510,107398570,42.7285586,-84.48469419999999,261.22998046875,3.8050131797790527,3.905013084411621
1667405018.32003808,107398663,42.7285586,-84.48469419999999,261.22998046875,3.8050131797790527,3.905013084411621
1667405018.36060715,107439232,42.7285579,-84.4846943,261.25,3.8223605155944824,3.922360420227051
1667405018.39926100,107477886,42.7285572,-84.4846944,261.2599792480469,3.8391008377075195,3.939100742340088
1667405018.41983700,107498462,42.7285568,-84.4846946,261.2699890136719,3.84725284576416,3.9472527503967285
1667405018.43930697,107517932,42.728556399999995,-84.4846946,261.2799987792969,3.854754686355591,3.954754590988159
1667405018.47927213,107557897,42.7285557,-84.48469469999999,261.2900085449219,3.8699543476104736,3.969954252243042
1667405018.51985693,107598482,42.7285549,-84.4846949,261.30999755859375,3.885331630706787,3.9853315353393555
1667405018.52000999,107598635,42.7285549,-84.4846949,261.30999755859375,3.885331630706787,3.9853315353393555
1667405018.56056213,107639187,42.7285541,-84.484695,261.32000732421875,3.8999850749969482,3.9999849796295166
1667405018.59939694,107678022,42.7285533,-84.4846951,261.3399963378906,3.913501739501953,4.0135016441345215
1667405018.61977601,107698401,42.728552799999996,-84.48469519999999,261.3399963378906,3.9196367263793945,4.019636631011963
1667405018.63931799,107717943,42.7285524,-84.48469519999999,261.3500061035156,3.9260096549987793,4.026009559631348
1667405018.67927599,107757901,42.728551599999996,-84.4846953,261.3599853515625,3.939785957336426,4.039785861968994
1667405018.71979904,107798424,42.7285507,-84.48469539999999,261.3800048828125,3.954434394836426,4.054434299468994
1667405018.71992612,107798551,42.7285507,-84.48469539999999,261.3800048828125,3.954434394836426,4.054434299468994
1667405018.76058412,107839209,42.7285499,-84.48469539999999,261.3899841308594,3.9690775871276855,4.069077491760254
1667405018.79935694,107877982,42.728549,-84.4846955,261.4100036621094,3.9843759536743164,4.084375858306885
1667405018.81976604,107898391,42.728548499999995,-84.4846955,261.41998291015625,3.9920601844787598,4.092060089111328
1667405018.83933496,107917960,42.728547999999996,-84.4846955,261.41998291015625,3.9994187355041504,4.099418640136719
1667405018.87928796,107957913,42.7285471,-84.4846955,261.44000244140625,4.015017032623291,4.115016937255859
1667405018.91971302,107998338,42.728546099999996,-84.4846955,261.4599914550781,4.031181812286377,4.131181716918945
1667405018.91981792,107998443,42.728546099999996,-84.4846955,261.4599914550781,4.031181812286377,4.131181716918945
1667405018.96060610,108039231,42.7285452,-84.4846955,261.4700012207031,4.047104358673096,4.147104263305664
1667405018.99935198,108077977,42.728544199999995,-84.48469539999999,261.489990234375,4.063758373260498,4.163758277893066
1667405019.01985192,108098477,42.728543599999995,-84.4846955,261.5,4.072071075439453,4.1720709800720215
1667405019.03939795,108118023,42.728543099999996,-84.48469539999999,261.5,4.079874515533447,4.179874420166016
1667405019.07937694,108158002,42.7285421,-84.4846953,261.5199890136719,4.097407341003418,4.197407245635986
1667405019.11976409,108198389,42.728541,-84.4846953,261.5400085449219,4.11612606048584,4.216125965118408
1667405019.11988902,108198514,42.728541,-84.4846953,261.5400085449219,4.11612606048584,4.216125965118408
1667405019.16054893,108239174,42.728539999999995,-84.48469519999999,261.55999755859375,4.133838653564453,4.2338385581970215
1667405019.19930005,108277925,42.7285389,-84.484695,261.5799865722656,4.150900363922119,4.2509002685546875
1667405019.21983504,108298460,42.7285383,-84.484695,261.5799865722656,4.159358024597168,4.259357929229736
1667405019.23934412,108317969,42.7285378,-84.4846948,261.5899963378906,4.167022705078125,4.267022609710693
1667405019.27929592,108357921,42.7285367,-84.4846946,261.6099853515625,4.183115005493164,4.283114910125732
1667405019.31987715,108398502,42.7285355,-84.4846944,261.6199951171875,4.199256420135498,4.299256324768066
1667405019.31994700,108398572,42.7285355,-84.4846944,261.6199951171875,4.199256420135498,4.299256324768066
1667405019.36051393,108439139,42.7285344,-84.4846941,261.6399841308594,4.215511798858643,4.315511703491211
1667405019.39926696,108477892,42.7285332,-84.4846939,261.6600036621094,4.231678485870361,4.33167839050293
1667405019.41989708,108498522,42.7285326,-84.4846937,261.6600036621094,4.239623546600342,4.33962345123291
1667405019.43934608,108517971,42.728532,-84.4846936,261.66998291015625,4.247035980224609,4.347035884857178
1667405019.47933292,108557958,42.7285308,-84.4846932,261.69000244140625,4.263496398925781,4.36349630355835
1667405019.51980805,108598433,42.7285295,-84.4846929,261.7099914550781,4.281472206115723,4.381472110748291
1667405019.51993108,108598556,42.7285295,-84.4846929,261.7099914550781,4.281472206115723,4.381472110748291
1667405019.56054497,108639170,42.728528399999995,-84.4846925,261.7200012207031,4.298084259033203,4.3980841636657715
1667405019.59940696,108678032,42.7285271,-84.48469209999999,261.739990234375,4.314014434814453,4.4140143394470215
1667405019.61994004,108698565,42.7285264,-84.484692,261.75,4.321468353271484,4.421468257904053
1667405019.63925505,108717880,42.7285258,-84.4846918,261.75,4.32813024520874,4.428130149841309
1667405019.67928600,108757911,42.7285246,-84.4846914,261.7699890136719,4.343188285827637,4.443188190460205
1667405019.71984315,108798468,42.7285232,-84.484691,261.7799987792969,4.359267234802246,4.4592671394348145
1667405019.71991801,108798543,42.7285232,-84.484691,261.7799987792969,4.359267234802246,4.4592671394348145
1667405019.75979304,108838418,42.7285219,-84.4846906,261.79998779296875,4.373517036437988,4.473516941070557
1667405019.79937911,108878004,42.728520599999996,-84.4846902,261.80999755859375,4.3846330642700195,4.484632968902588
1667405019.81978393,108898409,42.728519899999995,-84.4846901,261.80999755859375,4.389012336730957,4.489012241363525
1667405019.83925009,108917875,42.7285192,-84.48468989999999,261.82000732421875,4.393301963806152,4.493301868438721
1667405019.87929010,108957915,42.7285178,-84.4846895,261.8299865722656,4.402909755706787,4.5029096603393555
1667405019.91983008,108998455,42.7285164,-84.48468919999999,261.8399963378906,4.413150310516357,4.513150215148926
1667405019.91996503,108998590,42.7285164,-84.48468919999999,261.8399963378906,4.413150310516357,4.513150215148926
1667405019.95982814,109038453,42.728515,-84.4846888,261.8500061035156,4.4233245849609375,4.523324489593506
1667405019.99925613,109077881,42.7285136,-84.4846884,261.8599853515625,4.433647632598877,4.533647537231445
1667405020.01985002,109098475,42.7285128,-84.4846882,261.8599853515625,4.4385480880737305,4.538547992706299
1667405020.03931499,109117940,42.728512099999996,-84.4846881,261.8699951171875,4.4425153732299805,4.542515277862549
1667405020.07926202,109157887,42.7285106,-84.4846877,261.8800048828125,4.452775955200195,4.552775859832764
1667405020.11975312,109198378,42.7285091,-84.48468729999999,261.8899841308594,4.464125633239746,4.5641255378723145
1667405020.11989212,109198517,42.7285091,-84.48468729999999,261.8899841308594,4.464125633239746,4.5641255378723145
1667405020.15980697,109238432,42.7285076,-84.484687,261.8999938964844,4.473933219909668,4.573933124542236
1667405020.19930196,109277927,42.7285061,-84.48468659999999,261.9100036621094,4.481608867645264,4.581608772277832
1667405020.21976304,109298388,42.728505299999995,-84.4846864,261.9100036621094,4.484710216522217,4.584710121154785
1667405020.23924708,109317872,42.7285046,-84.48468629999999,261.9100036621094,4.48756217956543,4.587562084197998
1667405020.27933693,109357962,42.7285031,-84.4846859,261.91998291015625,4.495031833648682,4.59503173828125
1667405020.31993198,109398557,42.7285015,-84.4846855,261.92999267578125,4.5036163330078125,4.603616237640381
1667405020.32004309,109398668,42.7285015,-84.4846855,261.92999267578125,4.5036163330078125,4.603616237640381
1667405020.35966110,109438286,42.7285,-84.4846851,261.94000244140625,4.511631488800049,4.611631393432617
1667405020.39933014,109477955,42.7284984,-84.4846848,261.94000244140625,4.518906116485596,4.618906021118164
1667405020.41975212,109498377,42.7284976,-84.4846846,261.9499816894531,4.522388458251953,4.6223883628845215
1667405020.43941998,109518045,42.728496899999996,-84.48468439999999,261.9499816894531,4.524864673614502,4.62486457824707
1667405020.47931099,109557936,42.7284953,-84.484684,261.9599914550781,4.5316948890686035,4.631694793701172
1667405020.51980996,109598435,42.7284937,-84.48468369999999,261.9599914550781,4.539134979248047,4.639134883880615
1667405020.51992202,109598547,42.7284937,-84.48468369999999,261.9599914550781,4.539134979248047,4.639134883880615
1667405020.55972195,109638347,42.7284921,-84.4846833,261.9700012207031,4.54536771774292,4.645367622375488
1667405020.59929204,109677917,42.7284905,-84.4846829,261.97998046875,4.550937175750732,4.650937080383301
1667405020.61983204,109698457,42.7284897,-84.4846827,261.97998046875,4.55325984954834,4.653259754180908
1667405020.63932896,109717954,42.728488899999995,-84.48468249999999,261.97998046875,4.554607391357422,4.65460729598999
1667405020.67940092,109758026,42.7284874,-84.4846822,261.97998046875,4.558799743652344,4.658799648284912
1667405020.71978211,109798407,42.7284857,-84.48468179999999,261.989990234375,4.563587665557861,4.66358757019043
1667405020.71986103,109798486,42.7284857,-84.48468179999999,261.989990234375,4.563587665557861,4.66358757019043
1667405020.75967097,109838296,42.7284842,-84.4846814,261.989990234375,4.567245960235596,4.667245864868164
1667405020.79932094,109877946,42.7284826,-84.4846811,262.0,4.5705132484436035,4.670513153076172
1667405020.81981707,109898442,42.7284818,-84.4846809,262.0,4.571876049041748,4.671875953674316
1667405020.83934903,109917974,42.7284809,-84.4846807,262.0,4.572531700134277,4.672531604766846
1667405020.87941003,109958035,42.7284793,-84.4846804,262.0,4.575168132781982,4.675168037414551
1667405020.91978502,109998410,42.7284777,-84.48468,262.0,4.578252792358398,4.678252696990967
1667405020.91990304,109998528,42.7284777,-84.48468,262.0,4.578252792358398,4.678252696990967
1667405020.95976305,110038388,42.728476099999995,-84.4846797,262.0099792480469,4.580246925354004,4.680246829986572
1667405020.99927115,110077896,42.7284745,-84.48467939999999,262.0099792480469,4.581919193267822,4.681919097900391
1667405021.01983500,110098460,42.728473699999995,-84.4846792,262.0099792480469,4.582408428192139,4.682408332824707
1667405021.03929496,110117920,42.7284729,-84.484679,262.0099792480469,4.582322597503662,4.6823225021362305
1667405021.07933402,110157959,42.728471299999995,-84.48467869999999,262.0099792480469,4.583364963531494,4.6833648681640625
1667405021.11991215,110198537,42.7284697,-84.48467839999999,262.0099792480469,4.585363388061523,4.685363292694092
1667405021.11998606,110198611,42.7284697,-84.48467839999999,262.0099792480469,4.585363388061523,4.685363292694092
1667405021.15979314,110238418,42.7284681,-84.4846781,262.0099792480469,4.58690071105957,4.686900615692139
1667405021.19928503,110277910,42.728466499999996,-84.48467769999999,262.0099792480469,4.588069915771484,4.688069820404053
1667405021.21989608,110298521,42.7284657,-84.48467749999999,262.0099792480469,4.588473796844482,4.688473701477051
1667405021.23936200,110317987,42.7284649,-84.4846774,262.0099792480469,4.587793350219727,4.687793254852295
1667405021.27930498,110357930,42.7284633,-84.48467699999999,262.0099792480469,4.589524745941162,4.6895246505737305
1667405021.31991601,110398541,42.7284617,-84.4846767,262.0199890136719,4.593273162841797,4.693273067474365
1667405021.31998610,110398611,42.7284617,-84.4846767,262.0199890136719,4.593273162841797,4.693273067474365
1667405021.35979104,110438416,42.7284601,-84.48467629999999,262.0199890136719,4.595621585845947,4.695621490478516
1667405021.39931512,110477940,42.728458499999995,-84.4846759,262.0199890136719,4.598227500915527,4.698227405548096
1667405021.41987014,110498495,42.7284576,-84.4846757,262.0199890136719,4.599703311920166,4.699703216552734
1667405021.43924904,110517874,42.7284568,-84.4846756,262.0199890136719,4.599482536315918,4.699482440948486
1667405021.47925401,110557879,42.7284552,-84.4846752,262.0299987792969,4.601104259490967,4.701104164123535
1667405021.51989913,110598524,42.7284535,-84.4846748,262.0299987792969,4.603909015655518,4.703908920288086
1667405021.52000308,110598628,42.7284535,-84.4846748,262.0299987792969,4.603909015655518,4.703908920288086
1667405021.55980897,110638434,42.728451899999996,-84.4846745,262.0299987792969,4.6052117347717285,4.705211639404297
1667405021.59941292,110678038,42.7284502,-84.48467409999999,262.0299987792969,4.606099605560303,4.706099510192871
1667405021.61975694,110698382,42.728449399999995,-84.48467389999999,262.0299987792969,4.606540679931641,4.706540584564209
1667405021.63926911,110717894,42.7284486,-84.4846737,262.0299987792969,4.605600833892822,4.705600738525391
1667405021.67924500,110757870,42.7284469,-84.4846733,262.0299987792969,4.606617450714111,4.70661735534668
1667405021.71977997,110798405,42.728445199999996,-84.48467289999999,262.0299987792969,4.609621524810791,4.709621429443359
1667405021.71990705,110798532,42.728445199999996,-84.48467289999999,262.0299987792969,4.609621524810791,4.709621429443359
1667405021.75978804,110838413,42.7284436,-84.4846725,262.0400085449219,4.611412048339844,4.711411952972412
1667405021.79929805,110877923,42.7284419,-84.48467219999999,262.0400085449219,4.61290168762207,4.712901592254639
1667405021.81979895,110898424,42.728441,-84.48467199999999,262.0400085449219,4.613751411437988,4.713751316070557
1667405021.83926797,110917893,42.7284401,-84.4846718,262.0400085449219,4.613123893737793,4.713123798370361
1667405021.87924194,110957867,42.728438399999995,-84.4846714,262.0400085449219,4.614843368530273,4.714843273162842
1667405021.91975498,110998380,42.728436699999996,-84.48467099999999,262.0400085449219,4.618581295013428,4.718581199645996
1667405021.91982603,110998451,42.728436699999996,-84.48467099999999,262.0400085449219,4.618581295013428,4.718581199645996
1667405021.95986605,111038491,42.728435,-84.4846707,262.04998779296875,4.62131404876709,4.721313953399658
1667405021.99933100,111077956,42.7284333,-84.48467029999999,262.04998779296875,4.6258544921875,4.725854396820068
1667405022.01974607,111098371,42.728432399999996,-84.4846701,262.04998779296875,4.627811908721924,4.727811813354492
1667405022.03928804,111117913,42.7284316,-84.48467,262.04998779296875,4.627998352050781,4.72799825668335
1667405022.07927608,111157901,42.728429899999995,-84.48466959999999,262.05999755859375,4.630801200866699,4.730801105499268
1667405022.11983609,111198461,42.728428099999995,-84.4846692,262.05999755859375,4.6354079246521,4.735407829284668
1667405022.11993814,111198563,42.728428099999995,-84.4846692,262.05999755859375,4.6354079246521,4.735407829284668
1667405022.15968108,111238306,42.7284264,-84.4846688,262.05999755859375,4.637435436248779,4.737435340881348
1667405022.19927812,111277903,42.7284246,-84.4846685,262.05999755859375,4.639152526855469,4.739152431488037
1667405022.21978498,111298410,42.728423799999995,-84.4846682,262.05999755859375,4.6393513679504395,4.739351272583008
1667405022.23938203,111318007,42.7284229,-84.484668,262.05999755859375,4.6385040283203125,4.738503932952881
1667405022.27929997,111357925,42.7284212,-84.4846676,262.05999755859375,4.638443946838379,4.738443851470947
1667405022.31991196,111398537,42.7284195,-84.48466719999999,262.05999755859375,4.639033317565918,4.739033222198486
1667405022.32002401,111398649,42.7284195,-84.48466719999999,262.05999755859375,4.639033317565918,4.739033222198486
1667405022.35972714,111438352,42.728417799999995,-84.4846668,262.05999755859375,4.639124393463135,4.739124298095703
1667405022.39933515,111477960,42.728415999999996,-84.4846664,262.05999755859375,4.6394195556640625,4.739419460296631
1667405022.41988015,111498505,42.7284152,-84.48466619999999,262.05999755859375,4.639599800109863,4.739599704742432
1667405022.43935895,111517984,42.7284143,-84.48466599999999,262.05999755859375,4.639035701751709,4.739035606384277
1667405022.47935295,111557978,42.7284125,-84.4846656,262.05999755859375,4.639657497406006,4.739657402038574
1667405022.51981401,111598439,42.7284108,-84.4846652,262.07000732421875,4.64152193069458,4.741521835327148
1667405022.51991606,111598541,42.7284108,-84.4846652,262.07000732421875,4.64152193069458,4.741521835327148
1667405022.55975699,111638382,42.728409,-84.48466479999999,262.07000732421875,4.64303731918335,4.743037223815918
1667405022.59923506,111677860,42.7284072,-84.4846644,262.07000732421875,4.645523548126221,4.745523452758789
1667405022.61991310,111698538,42.7284064,-84.4846642,262.07000732421875,4.646962642669678,4.746962547302246
1667405022.63929701,111717922,42.7284055,-84.484664,262.07000732421875,4.647345542907715,4.747345447540283
1667405022.67943501,111758060,42.728403799999995,-84.48466359999999,262.0799865722656,4.650357246398926,4.750357151031494
1667405022.71981001,111798435,42.728401999999996,-84.48466309999999,262.0799865722656,4.655271530151367,4.7552714347839355
1667405022.71992803,111798553,42.728401999999996,-84.48466309999999,262.0799865722656,4.655271530151367,4.7552714347839355
1667405022.75971699,111838342,42.728400199999996,-84.4846628,262.0799865722656,4.659012317657471,4.759012222290039
1667405022.79931903,111877944,42.7283985,-84.4846623,262.0899963378906,4.662254810333252,4.76225471496582
1667405022.81984401,111898469,42.728397699999995,-84.4846621,262.0899963378906,4.663812160491943,4.763812065124512
1667405022.83925509,111917880,42.7283968,-84.48466189999999,262.0899963378906,4.664279937744141,4.764279842376709
1667405022.87931204,111957937,42.7283951,-84.4846615,262.0899963378906,4.666183948516846,4.766183853149414
1667405022.91984010,111998465,42.728393399999995,-84.4846611,262.0899963378906,4.668478012084961,4.768477916717529
1667405022.91991496,111998540,42.728393399999995,-84.4846611,262.0899963378906,4.668478012084961,4.768477916717529
1667405022.95989895,112038524,42.728391699999996,-84.48466069999999,262.0899963378906,4.6694512367248535,4.769451141357422
1667405022.99930596,112077931,42.72839,-84.4846602,262.1000061035156,4.670112609863281,4.77011251449585
1667405023.01982403,112098449,42.7283891,-84.48465999999999,262.1000061035156,4.670146465301514,4.770146369934082
1667405023.03930998,112117935,42.7283883,-84.4846598,262.0899963378906,4.669513702392578,4.7695136070251465
1667405023.07926106,112157886,42.7283866,-84.4846594,262.0899963378906,4.6694655418396,4.769465446472168
1667405023.11979103,112198416,42.728384899999995,-84.4846589,262.0899963378906,4.669845104217529,4.769845008850098
1667405023.11986303,112198488,42.728384899999995,-84.4846589,262.0899963378906,4.669845104217529,4.769845008850098
1667405023.15973902,112238364,42.728383099999995,-84.4846585,262.0899963378906,4.669832229614258,4.769832134246826
1667405023.19928694,112277912,42.728381399999996,-84.48465809999999,262.1000061035156,4.670138359069824,4.770138263702393
1667405023.21999598,112298621,42.7283805,-84.4846578,262.1000061035156,4.670166492462158,4.770166397094727
1667405023.23930597,112317931,42.7283797,-84.48465759999999,262.0899963378906,4.669372081756592,4.76937198638916
1667405023.27923393,112357859,42.7283779,-84.4846572,262.0899963378906,4.669606685638428,4.769606590270996
1667405023.31986094,112398486,42.7283761,-84.4846567,262.1000061035156,4.671167373657227,4.771167278289795
1667405023.32001495,112398640,42.7283761,-84.4846567,262.1000061035156,4.671167373657227,4.771167278289795
1667405023.35976315,112438388,42.7283743,-84.4846563,262.1000061035156,4.671964168548584,4.771964073181152
1667405023.39942908,112478054,42.7283725,-84.48465589999999,262.1000061035156,4.672427654266357,4.772427558898926
1667405023.41977096,112498396,42.7283717,-84.4846556,262.1000061035156,4.6726555824279785,4.772655487060547
1667405023.43924713,112517872,42.7283707,-84.4846554,262.1000061035156,4.672434329986572,4.772434234619141
1667405023.47928715,112557912,42.7283689,-84.48465499999999,262.1000061035156,4.67384147644043,4.773841381072998
1667405023.51978993,112598415,42.7283671,-84.48465449999999,262.1000061035156,4.676674842834473,4.776674747467041
1667405023.51986194,112598487,42.7283671,-84.48465449999999,262.1000061035156,4.676674842834473,4.776674747467041
1667405023.55971909,112638344,42.7283653,-84.4846541,262.1000061035156,4.678939342498779,4.778939247131348
1667405023.59935093,112677976,42.7283635,-84.4846536,262.1099853515625,4.680974960327148,4.780974864959717
1667405023.61977196,112698397,42.7283626,-84.4846534,262.1099853515625,4.681900978088379,4.781900882720947
1667405023.63939500,112718020,42.7283616,-84.4846532,262.1099853515625,4.682477951049805,4.782477855682373
1667405023.67927814,112757903,42.7283598,-84.4846527,262.1099853515625,4.684445381164551,4.784445285797119
1667405023.71977806,112798403,42.728358,-84.4846522,262.1099853515625,4.68720006942749,4.787199974060059
1667405023.71984911,112798474,42.728358,-84.4846522,262.1099853515625,4.68720006942749,4.787199974060059
1667405023.75976014,112838385,42.7283562,-84.4846518,262.1199951171875,4.690061569213867,4.7900614738464355
