timestamp,TimeUS,C,Roll,Pitch,Yaw,VN,VE,VD,dPD,PN,PE,PD,GX,GY,GZ,OH
1667405008.59856606,97677191,1,0.43,0.31,263.16,0.03430328145623207,0.007090292405337095,-0.034317489713430405,-0.09186837077140808,-3.1429224014282227,0.485103964805603,-0.12080640345811844,0.02,0.0,0.02,257.33
1667405008.61860204,97697227,1,0.43,0.31,263.16,0.033877551555633545,0.007034664042294025,-0.034523215144872665,-0.08059649169445038,-3.143447160720825,0.4863434433937073,-0.12303505837917328,0.02,0.0,0.02,257.33
1667405008.63856101,97717186,1,0.43,0.31,263.16,0.0334676168859005,0.007195150479674339,-0.03463810682296753,-0.07667817920446396,-3.1434693336486816,0.4872451722621918,-0.12449821829795837,0.02,0.0,0.02,257.33
1667405008.67856193,97757187,1,0.42,0.31,263.16,0.03259887918829918,0.007586759515106678,-0.034566208720207214,-0.07804545760154724,-3.1440675258636475,0.4896118938922882,-0.1282695233821869,0.02,0.0,0.02,257.33
1667405008.71857405,97797199,1,0.42,0.31,263.16,0.0314871221780777,0.0075652929954230785,-0.034916188567876816,-0.08260606229305267,-3.144505739212036,0.4916961193084717,-0.1317056268453598,0.02,0.0,0.02,257.33
1667405008.75855803,97837183,1,0.42,0.31,263.16,0.030543990433216095,0.0077331592328846455,-0.0348418727517128,-0.08277644217014313,-3.145263433456421,0.49399954080581665,-0.13539889454841614,0.02,0.0,0.02,257.33
1667405008.79857993,97877205,1,0.42,0.31,263.16,0.030068300664424896,0.007919840514659882,-0.03446142002940178,-0.0788659155368805,-3.1452231407165527,0.4958769381046295,-0.1372632533311844,0.02,0.0,0.02,257.33
1667405008.81859612,97897221,1,0.42,0.31,263.16,0.029955042526125908,0.007905465550720692,-0.03356068953871727,-0.06523562222719193,-3.1449098587036133,0.4967027008533478,-0.13739073276519775,0.02,0.0,0.02,257.33
1667405008.83856392,97917189,1,0.42,0.31,263.16,0.0299950260668993,0.008338579908013344,-0.03272497281432152,-0.04711193963885307,-3.1448473930358887,0.49810686707496643,-0.13700047135353088,0.02,0.0,0.02,257.33
1667405008.87855911,97957184,1,0.42,0.31,263.16,0.03081812895834446,0.008259408175945282,-0.031796667724847794,-0.014630272053182125,-3.1443512439727783,0.500081479549408,-0.13714732229709625,0.02,0.0,0.02,257.33
1667405008.91857314,97997198,1,0.42,0.31,263.16,0.031011130660772324,0.008160985074937344,-0.030207987874746323,0.0044461325742304325,-3.143730878829956,0.5018212795257568,-0.13747574388980865,0.02,0.0,0.02,257.33
1667405008.95860505,98037230,1,0.43,0.31,263.16,0.03131009265780449,0.008127700537443161,-0.028965609148144722,0.012407246045768261,-3.1431655883789062,0.5037001371383667,-0.13762162625789642,0.02,0.0,0.02,257.33
1667405008.99860597,98077231,1,0.43,0.31,263.17,0.031098349019885063,0.007649492938071489,-0.028071900829672813,0.01387876458466053,-3.1429245471954346,0.5057421922683716,-0.13770808279514313,0.02,0.0,0.02,257.33
1667405009.01855803,98097183,1,0.43,0.31,263.17,0.031221972778439522,0.007762593682855368,-0.02792101353406906,0.015326227061450481,-3.1427125930786133,0.5065367817878723,-0.13784390687942505,0.02,0.0,0.02,257.33
1667405009.03857112,98117196,1,0.43,0.31,263.17,0.03084486350417137,0.007296891417354345,-0.027364317327737808,0.017078811302781105,-3.142845392227173,0.5078788995742798,-0.13759218156337738,0.02,0.0,0.02,257.33
1667405009.07855892,98157184,1,0.43,0.31,263.17,0.030948547646403313,0.007411949802190065,-0.026631055399775505,0.017154736444354057,-3.1426403522491455,0.5097337365150452,-0.13779187202453613,0.02,0.0,0.02,257.33
1667405009.11855912,98197184,1,0.43,0.31,263.17,0.030358605086803436,0.007529053837060928,-0.02554328739643097,0.012732158415019512,-3.1423237323760986,0.5113621354103088,-0.13812285661697388,0.02,0.0,0.02,257.33
1667405009.15859413,98237219,1,0.42,0.31,263.17,0.029374003410339355,0.007548426277935505,-0.02468862570822239,0.007082868833094835,-3.1421499252319336,0.5131391286849976,-0.13824670016765594,0.02,0.0,0.02,257.33
1667405009.19860315,98277228,1,0.42,0.32,263.18,0.028553184121847153,0.007561284117400646,-0.024138182401657104,0.0052458313293755054,-3.142413377761841,0.5151914358139038,-0.1376270204782486,0.02,0.0,0.02,257.33
1667405009.21856308,98297188,1,0.42,0.32,263.18,0.02810351550579071,0.00767591642215848,-0.02344769425690174,0.010519670322537422,-3.142394781112671,0.5160119533538818,-0.13746312260627747,0.02,0.0,0.02,257.33
1667405009.23859811,98317223,1,0.42,0.31,263.18,0.02713863179087639,0.007966363802552223,-0.022799428552389145,0.01638197898864746,-3.1429014205932617,0.5174049139022827,-0.13668933510780334,0.02,0.0,0.02,257.33
1667405009.27856708,98357192,1,0.42,0.32,263.19,0.026109468191862106,0.007552198134362698,-0.021750813350081444,0.02425961010158062,-3.1432807445526123,0.5193504095077515,-0.13608865439891815,0.02,0.0,0.02,257.33
1667405009.31856704,98397192,1,0.42,0.32,263.19,0.024951446801424026,0.007713499013334513,-0.020688701421022415,0.02506013959646225,-3.1435599327087402,0.5210599899291992,-0.13567332923412323,0.02,0.0,0.02,257.33
1667405009.35856009,98437185,1,0.42,0.31,263.19,0.023747973144054413,0.0076700663194060326,-0.01970568299293518,0.022219093516469002,-3.144118070602417,0.5229246020317078,-0.13497568666934967,0.02,0.0,0.02,257.33
1667405009.39859009,98477215,1,0.42,0.31,263.19,0.021739812567830086,0.007470089942216873,-0.019130494445562363,0.019519560039043427,-3.145085573196411,0.5249996781349182,-0.134262815117836,0.02,0.0,0.02,257.33
1667405009.41856098,98497186,1,0.42,0.31,263.19,0.02101520635187626,0.0074024442583322525,-0.018813010305166245,0.020758317783474922,-3.1453778743743896,0.525815486907959,-0.13410073518753052,0.02,0.0,0.02,257.33
1667405009.43858314,98517208,1,0.42,0.31,263.19,0.01938587985932827,0.007310046348720789,-0.018425900489091873,0.022232163697481155,-3.146374225616455,0.5271919369697571,-0.13342198729515076,0.02,0.0,0.02,257.33
1667405009.47860193,98557227,1,0.42,0.32,263.19,0.017204364761710167,0.007002389989793301,-0.017632825300097466,0.02294197678565979,-3.1475541591644287,0.5291135311126709,-0.1329760104417801,0.02,0.0,0.02,257.33
1667405009.51856208,98597187,1,0.42,0.32,263.19,0.01512893009930849,0.007314686197787523,-0.016933459788560867,0.018696077167987823,-3.148663282394409,0.5307974815368652,-0.1327148824930191,0.02,0.0,0.02,257.33
1667405009.55855203,98637177,1,0.42,0.31,263.19,0.013009036891162395,0.007380541879683733,-0.016456853598356247,0.01316700130701065,-3.150167465209961,0.5326530337333679,-0.13234922289848328,0.02,0.0,0.02,257.33
1667405009.59856296,98677188,1,0.42,0.31,263.19,0.011553946882486343,0.00684294942766428,-0.015463076531887054,0.012009577825665474,-3.1514127254486084,0.5344982743263245,-0.13084743916988373,0.02,0.0,0.02,257.33
1667405009.61857295,98697198,1,0.42,0.31,263.19,0.010939187370240688,0.00670319190248847,-0.014896276406943798,0.020317476242780685,-3.151782512664795,0.5351970195770264,-0.13022668659687042,0.02,0.0,0.02,257.33
1667405009.63857102,98717196,1,0.42,0.31,263.19,0.0104382848367095,0.006623667199164629,-0.013871702365577221,0.030140280723571777,-3.152709722518921,0.5363609194755554,-0.1287459284067154,0.02,0.0,0.02,257.33
1667405009.67857814,98757203,1,0.42,0.31,263.18,0.009121310897171497,0.00580252381041646,-0.012615441344678402,0.04446559399366379,-3.1538760662078857,0.5379586815834045,-0.1271655261516571,0.02,0.0,0.02,257.33
1667405009.71856809,98797193,1,0.41000000000000003,0.31,263.18,0.007917268201708794,0.005214343778789043,-0.011668368242681026,0.04755415767431259,-3.154921770095825,0.5393219590187073,-0.12590432167053223,0.02,0.0,0.02,257.33
1667405009.75857806,98837203,1,0.41000000000000003,0.32,263.18,0.006746900267899036,0.004554484039545059,-0.010541852563619614,0.04484971985220909,-3.1562466621398926,0.5407505035400391,-0.12439613044261932,0.02,0.0,0.02,257.33
1667405009.79856896,98877194,1,0.41000000000000003,0.32,263.17,0.005892161745578051,0.003983994014561176,-0.00966174341738224,0.03830309957265854,-3.157351493835449,0.542517364025116,-0.12338174879550934,0.02,0.0,0.02,257.33
1667405009.81860995,98897235,1,0.41000000000000003,0.31,263.17,0.005715685896575451,0.003629952436313033,-0.00924870278686285,0.036215487867593765,-3.1576991081237793,0.5432148575782776,-0.12306942790746689,0.02,0.0,0.02,257.33
1667405009.83860111,98917226,1,0.41000000000000003,0.31,263.17,0.005168292671442032,0.003417165484279394,-0.008371388539671898,0.035066865384578705,-3.1584601402282715,0.5444294810295105,-0.12228559702634811,0.02,0.0,0.02,257.33
1667405009.87859893,98957224,1,0.41000000000000003,0.32,263.17,0.004530277103185654,0.0030776893254369497,-0.007988791912794113,0.030552038922905922,-3.1594254970550537,0.5460657477378845,-0.12154947966337204,0.02,0.0,0.02,257.33
1667405009.91859698,98997222,1,0.41000000000000003,0.32,263.17,0.0032455711625516415,0.0027745477855205536,-0.007152673322707415,0.023524584248661995,-3.1602699756622314,0.5474668145179749,-0.12100782990455627,0.02,0.0,0.02,257.33
1667405009.95858407,99037209,1,0.41000000000000003,0.32,263.16,0.001963153015822172,0.0023181745782494545,-0.006727306637912989,0.0167920533567667,-3.1612930297851562,0.5489991903305054,-0.12044720351696014,0.02,0.0,0.02,257.33
1667405009.99856901,99077194,1,0.41000000000000003,0.32,263.17,0.0012972189579159021,0.002073219045996666,-0.006682483479380608,0.007673313841223717,-3.1619200706481934,0.5499705076217651,-0.12051843851804733,0.02,0.0,0.02,257.33
1667405010.01859307,99097218,1,0.41000000000000003,0.32,263.17,0.0016159492079168558,0.001345061231404543,-0.006075263023376465,0.00638593127951026,-3.1621737480163574,0.5504693388938904,-0.11991400271654129,0.02,0.0,0.02,257.33
1667405010.03856015,99117185,1,0.41000000000000003,0.32,263.17,0.001693193567916751,0.00010751338413683698,-0.005308860447257757,0.011332753114402294,-3.1626501083374023,0.5513306856155396,-0.11864300072193146,0.02,0.0,0.02,257.33
1667405010.07858896,99157214,1,0.41000000000000003,0.32,263.17,0.0013951282016932964,-0.0010671585332602262,-0.00408503133803606,0.02476876601576805,-3.1632375717163086,0.552408754825592,-0.11712037771940231,0.02,0.0,0.02,257.33
1667405010.11860299,99197228,1,0.41000000000000003,0.32,263.17,0.0011520411353558302,-0.0021146677900105715,-0.00319684948772192,0.032867077738046646,-3.1636974811553955,0.5532379150390625,-0.11581999063491821,0.02,0.0,0.02,257.33
1667405010.15859699,99237222,1,0.41000000000000003,0.32,263.18,0.001357975066639483,-0.0035768114030361176,-0.002624046988785267,0.035277705639600754,-3.164168357849121,0.5540538430213928,-0.11431808769702911,0.02,0.0,0.02,257.33
1667405010.19857001,99277195,1,0.41000000000000003,0.32,263.18,0.001453140750527382,-0.005311266984790564,-0.0017221204470843077,0.036247000098228455,-3.1646595001220703,0.5550190210342407,-0.11263236403465271,0.02,0.0,0.02,257.33
1667405010.21858096,99297206,1,0.41000000000000003,0.32,263.18,0.0012435419484972954,-0.0062297130934894085,-0.0014209143118932843,0.03969978541135788,-3.164827823638916,0.5553356409072876,-0.11197330802679062,0.02,0.0,0.02,257.33
1667405010.23856592,99317191,1,0.41000000000000003,0.32,263.18,0.0013306386535987258,-0.007036777213215828,-0.0006616120808757842,0.04418377950787544,-3.1651480197906494,0.555977463722229,-0.11069146543741226,0.02,0.0,0.02,257.33
1667405010.27856112,99357186,1,0.41000000000000003,0.32,263.19,0.0015979658346623182,-0.00813962146639824,0.0001394715072819963,0.0488535575568676,-3.165497303009033,0.5566645264625549,-0.10911846160888672,0.02,0.0,0.02,257.33
1667405010.31858706,99397212,1,0.41000000000000003,0.32,263.19,0.0016617780784144998,-0.009782218374311924,0.0009323703125119209,0.04723275452852249,-3.165743350982666,0.5570971369743347,-0.10776892304420471,0.02,0.0,0.02,257.33
1667405010.35857701,99437202,1,0.41000000000000003,0.32,263.19,0.0017878491198644042,-0.0116338599473238,0.0020524198189377785,0.043060265481472015,-3.165952444076538,0.5574841499328613,-0.10626116394996643,0.02,0.0,0.02,257.33
1667405010.39860415,99477229,1,0.41000000000000003,0.32,263.2,0.0014844927936792374,-0.0124816270545125,0.002913076663389802,0.03776245936751366,-3.1668283939361572,0.5584724545478821,-0.10481128841638565,0.02,0.0,0.02,257.33
1667405010.41859102,99497216,1,0.41000000000000003,0.32,263.2,0.0011795797618106008,-0.012610276229679585,0.0033365541603416204,0.03812357783317566,-3.1672236919403076,0.5588283538818359,-0.10422826558351517,0.02,0.0,0.02,257.33
1667405010.43857098,99517196,1,0.41000000000000003,0.31,263.2,0.0005581328296102583,-0.013035435229539871,0.0038986944127827883,0.039248738437891006,-3.1679890155792236,0.5596906542778015,-0.1031680479645729,0.02,0.0,0.02,257.33
1667405010.47856808,99557193,1,0.41000000000000003,0.31,263.2,-0.0004040387866552919,-0.013438885100185871,0.0052982899360358715,0.04104232415556908,-3.1690287590026855,0.560642659664154,-0.10172765702009201,0.02,0.0,0.02,257.33
1667405010.51856208,99597187,1,0.41000000000000003,0.32,263.2,-0.0015954889822751284,-0.014318491332232952,0.006256443448364735,0.03964194655418396,-3.169975757598877,0.5613576769828796,-0.10040569305419922,0.02,0.0,0.02,257.33
1667405010.55859494,99637220,1,0.41000000000000003,0.32,263.2,-0.0022857883013784885,-0.014967900700867176,0.007098670583218336,0.036660052835941315,-3.1710665225982666,0.5621858835220337,-0.09892526268959045,0.02,0.0,0.01,257.33
1667405010.59858704,99677212,1,0.41000000000000003,0.31,263.21,-0.0023897727951407433,-0.01493814866989851,0.007840468548238277,0.03287067264318466,-3.1720523834228516,0.5635858774185181,-0.09775550663471222,0.02,0.0,0.01,257.33
1667405010.61857200,99697197,1,0.41000000000000003,0.31,263.21,-0.0025773700326681137,-0.014962482266128063,0.008243193849921227,0.0318409763276577,-3.1724133491516113,0.5640726685523987,-0.09729010611772537,0.02,0.0,0.01,257.33
1667405010.63859606,99717221,1,0.41000000000000003,0.32,263.21,-0.0025040730834007263,-0.015105736441910267,0.008877434767782688,0.031343258917331696,-3.1730382442474365,0.565268874168396,-0.09655296057462692,0.02,0.0,0.01,257.33
1667405010.67856598,99757191,1,0.41000000000000003,0.32,263.21,-0.0029192320071160793,-0.014853838831186295,0.009390280582010746,0.028931202366948128,-3.1738975048065186,0.5666676759719849,-0.09557840973138809,0.02,0.0,0.01,257.33
1667405010.71856403,99797189,1,0.41000000000000003,0.32,263.22,-0.0033307038247585297,-0.014524774625897408,0.010107397101819515,0.02501635067164898,-3.1746551990509033,0.5678431391716003,-0.09473082423210144,0.02,0.0,0.01,257.33
1667405010.75860000,99837225,1,0.41000000000000003,0.32,263.22,-0.0033023632131516933,-0.013849877752363682,0.010709836147725582,0.021373869851231575,-3.175467014312744,0.569300651550293,-0.09378720074892044,0.02,0.0,0.01,257.33
1667405010.79859996,99877225,1,0.4,0.32,263.23,-0.0034354166127741337,-0.014551888220012188,0.01137833297252655,0.020718015730381012,-3.176337242126465,0.5703133344650269,-0.09244149923324585,0.02,0.0,0.01,257.33
1667405010.81856108,99897186,1,0.4,0.32,263.23,-0.0035175257362425327,-0.01520494557917118,0.011715183965861797,0.023831067606806755,-3.1766746044158936,0.5705309510231018,-0.09183415025472641,0.02,0.0,0.01,257.33
1667405010.83859611,99917221,1,0.41000000000000003,0.32,263.23,-0.003469575894996524,-0.01586521416902542,0.012211372144520283,0.02754104509949684,-3.1772313117980957,0.5711820721626282,-0.09089432656764984,0.02,0.0,0.01,257.33
1667405010.87856603,99957191,1,0.41000000000000003,0.32,263.23,-0.0034005227498710155,-0.01673843525350094,0.013193592429161072,0.03172259405255318,-3.177987813949585,0.5717891454696655,-0.08983389288187027,0.02,0.0,0.02,257.33
1667405010.91856503,99997190,1,0.41000000000000003,0.32,263.23,-0.003326588775962591,-0.018130255863070488,0.013885695487260818,0.02892117202281952,-3.178633689880371,0.5721532702445984,-0.08900097757577896,0.02,0.0,0.02,257.33
1667405010.95856404,100037189,1,0.41000000000000003,0.32,263.23,-0.0036401317920535803,-0.019259978085756302,0.014111391268670559,0.024569883942604065,-3.179297924041748,0.5725740194320679,-0.08820810914039612,0.02,0.0,0.02,257.33
1667405010.99860215,100077227,1,0.41000000000000003,0.32,263.23,-0.0031397088896483183,-0.019220631569623947,0.01506818924099207,0.021810848265886307,-3.179901599884033,0.5739887952804565,-0.08686933666467667,0.02,0.0,0.02,257.33
1667405011.01856709,100097192,1,0.41000000000000003,0.32,263.23,-0.002769695594906807,-0.019342582672834396,0.015724271535873413,0.025249682366847992,-3.1801185607910156,0.5745051503181458,-0.08619160205125809,0.02,0.0,0.02,257.33
1667405011.03860998,100117235,1,0.41000000000000003,0.32,263.23,-0.002637612633407116,-0.01917380280792713,0.01604565978050232,0.029176918789744377,-3.180447816848755,0.5758360028266907,-0.08519364893436432,0.02,0.0,0.02,257.33
1667405011.07859612,100157221,1,0.41000000000000003,0.32,263.22,-0.0019102356163784862,-0.018390273675322533,0.016626188531517982,0.0343194454908371,-3.1808791160583496,0.5773657560348511,-0.08397382497787476,0.02,0.0,0.02,257.33
1667405011.11856604,100197191,1,0.41000000000000003,0.32,263.22,-0.002230782760307193,-0.018404027447104454,0.017738360911607742,0.033147022128105164,-3.181192636489868,0.5786473155021667,-0.08297386020421982,0.02,0.0,0.02,257.33
1667405011.15856695,100237192,1,0.41000000000000003,0.32,263.22,-0.000653662602417171,-0.01812351867556572,0.019578082486987114,0.031137172132730484,-3.181431293487549,0.5802434086799622,-0.08199524879455566,0.02,0.0,0.01,257.33
1667405011.19856715,100277192,1,0.41000000000000003,0.32,263.22,-0.00015005102613940835,-0.01737360656261444,0.019588084891438484,0.025325139984488487,-3.1815173625946045,0.5810506343841553,-0.08128426969051361,0.02,0.0,0.01,257.33
1667405011.21858215,100297207,1,0.41000000000000003,0.32,263.22,0.00015776899817865342,-0.016747971996665,0.02075456641614437,0.025175854563713074,-3.181896448135376,0.5818113088607788,-0.08052701503038406,0.02,0.0,0.01,257.33
1667405011.23858595,100317211,1,0.41000000000000003,0.32,263.22,-0.0010156063362956047,-0.016350099816918373,0.0209267009049654,0.027720823884010315,-3.1826043128967285,0.583522617816925,-0.07940991222858429,0.02,0.0,0.01,257.33
1667405011.27857709,100357202,1,0.41000000000000003,0.32,263.22,-0.0014719784958288074,-0.015193295665085316,0.021946731954813004,0.03414207324385643,-3.1835784912109375,0.5856807231903076,-0.07801011204719543,0.02,0.0,0.02,257.33
1667405011.31859493,100397220,1,0.41000000000000003,0.32,263.22,-0.0025424412451684475,-0.01552542857825756,0.0217717494815588,0.03391500189900398,-3.1844325065612793,0.587530255317688,-0.07683528959751129,0.02,0.0,0.02,257.33
1667405011.35857296,100437198,1,0.42,0.32,263.22,-0.0025235682260245085,-0.015583095140755177,0.02277323417365551,0.032986853271722794,-3.185353994369507,0.589786946773529,-0.07574472576379776,0.02,0.0,0.02,257.33
1667405011.39857101,100477196,1,0.42,0.32,263.21,-0.0008092105854302645,-0.015514112077653408,0.022928331047296524,0.027782026678323746,-3.185960292816162,0.5909978151321411,-0.07497673481702805,0.02,0.0,0.02,257.33
1667405011.41860414,100497229,1,0.41000000000000003,0.32,263.21,-0.0014105276204645634,-0.016126934438943863,0.02278386428952217,0.025018801912665367,-3.1864469051361084,0.5916917324066162,-0.07446326315402985,0.02,0.0,0.02,257.33
1667405011.43858099,100517206,1,0.42,0.32,263.2,-0.0017612825613468885,-0.013472289778292179,0.023370569571852684,0.02412494271993637,-3.187337636947632,0.5932999849319458,-0.07393808662891388,0.02,0.0,0.02,257.33
1667405011.47860003,100557225,1,0.41000000000000003,0.32,263.2,-0.0019455020083114505,-0.012556887231767178,0.023547813296318054,0.0212102010846138,-3.188535451889038,0.5953549146652222,-0.07327452301979065,0.02,0.0,0.02,257.33
1667405011.51860809,100597233,1,0.41000000000000003,0.32,263.2,-0.0031995833851397038,-0.010531136766076088,0.02479717507958412,0.01678798347711563,-3.1895856857299805,0.5971308946609497,-0.07272136956453323,0.02,0.0,0.02,257.33
1667405011.55858898,100637214,1,0.42,0.32,263.2,-0.0013313558883965015,-0.013086427003145218,0.02503342181444168,0.013107668608427048,-3.1908061504364014,0.5992751717567444,-0.07235231250524521,0.02,0.0,0.02,257.33
1667405011.59856796,100677193,1,0.41000000000000003,0.33,263.21,-0.0037781314458698034,-0.010504391975700855,0.025678297504782677,0.00849208515137434,-3.1925406455993652,0.6014454960823059,-0.07208693027496338,0.02,0.0,0.02,257.33
1667405011.61858201,100697207,1,0.41000000000000003,0.33,263.21,-0.003093502251431346,-0.012627185322344303,0.026578854769468307,0.007065766956657171,-3.1932625770568848,0.6021918654441833,-0.07182487100362778,0.02,0.0,0.02,257.33
1667405011.63859200,100717217,1,0.41000000000000003,0.33,263.21,-0.0031526279635727406,-0.013409039005637169,0.026644231751561165,0.0052566747181117535,-3.194547414779663,0.6037338376045227,-0.07176045328378677,0.02,0.0,0.02,257.33
1667405011.67859411,100757219,1,0.41000000000000003,0.33,263.21,-0.004909330978989601,-0.011551815085113049,0.026872122660279274,0.002190445549786091,-3.196366310119629,0.6056760549545288,-0.07167565077543259,0.02,0.0,0.02,257.33
1667405011.71861196,100797237,1,0.41000000000000003,0.33,263.21,-0.005114643834531307,-0.012096823193132877,0.02704412303864956,-0.0019855499267578125,-3.1980018615722656,0.6073080897331238,-0.0716274231672287,0.02,0.0,0.02,257.33
1667405011.75860906,100837234,1,0.41000000000000003,0.33,263.2,-0.006500827148556709,-0.009672131389379501,0.02745870128273964,-0.003189732553437352,-3.1999073028564453,0.6093314290046692,-0.07179561257362366,0.02,0.0,0.02,257.33
1667405011.79858398,100877209,1,0.41000000000000003,0.34,263.19,-0.0072262464091181755,-0.010226421989500523,0.027165332809090614,-0.006107655353844166,-3.202028751373291,0.611383855342865,-0.07213106751441956,0.02,0.0,0.02,257.33
1667405011.81858993,100897215,1,0.41000000000000003,0.33,263.19,-0.006733854301273823,-0.00986280757933855,0.02718508429825306,-0.00899115577340126,-3.2028632164001465,0.6121006608009338,-0.07211548089981079,0.02,0.0,0.02,257.33
1667405011.83856797,100917193,1,0.41000000000000003,0.33,263.2,-0.004915940575301647,-0.010353168472647667,0.027422040700912476,-0.0115667087957263,-3.204284906387329,0.6136012077331543,-0.07253295928239822,0.02,0.0,0.02,257.33
1667405011.87856793,100957193,1,0.41000000000000003,0.32,263.2,-0.00550098717212677,-0.008795192465186119,0.02761998400092125,-0.01537888590246439,-3.20619797706604,0.6154987215995789,-0.07300937920808792,0.02,0.0,0.02,257.33
1667405011.91859794,100997223,1,0.38,0.32,263.2,-0.011971810832619667,-0.013952206820249557,0.028703849762678146,-0.016972636803984642,-3.208125114440918,0.6170356273651123,-0.07337971031665802,0.02,0.0,0.02,257.33
1667405011.95859408,101037219,1,0.37,0.31,263.2,-0.0044717323035001755,-0.012749013490974903,0.02980871871113777,-0.014837374910712242,-3.2101778984069824,0.6187113523483276,-0.07409790903329849,0.02,0.0,0.02,257.33
1667405011.99860215,101077227,1,0.38,0.31,263.2,-0.017704026773571968,-0.01494228933006525,0.0321570560336113,-0.009163990616798401,-3.211684465408325,0.6203486919403076,-0.07349617779254913,0.02,0.0,0.02,257.33
1667405012.01859713,101097222,1,0.4,0.3,263.2,-0.015939772129058838,-0.015378287062048912,0.03226295858621597,-0.002527079079300165,-3.212273597717285,0.6208558678627014,-0.07295641303062439,0.02,0.0,0.02,257.33
1667405012.03856611,101117191,1,0.41000000000000003,0.31,263.18,-0.00595269026234746,-0.00831624772399664,0.027985479682683945,0.0010154697811231017,-3.2130815982818604,0.6221095323562622,-0.0723937600851059,0.02,0.0,0.02,257.33
1667405012.07857299,101157198,1,0.37,0.3,263.16,-0.0074752094224095345,-0.00940672680735588,0.03381207585334778,0.020089106634259224,-3.214207410812378,0.6237509846687317,-0.07137222588062286,0.02,0.0,0.02,257.33
1667405012.11857009,101197195,1,0.37,0.29,263.14,-0.013535728678107262,-0.010731734335422516,0.03689832240343094,0.030891485512256622,-3.2152695655822754,0.6250418424606323,-0.07040753215551376,0.02,0.0,0.02,257.33
1667405012.15858912,101237214,1,0.42,0.31,263.11,-0.014186235144734383,-0.002474804176017642,0.022770317271351814,0.020845599472522736,-3.216062545776367,0.6267048120498657,-0.06959588080644608,0.02,0.0,0.02,257.33
1667405012.19857693,101277202,1,0.38,0.31,263.12,-0.0028310229536145926,-0.014195251278579235,0.031553126871585846,0.027797425165772438,-3.2169272899627686,0.6274244785308838,-0.06889694184064865,0.02,0.0,0.02,257.33
1667405012.21856594,101297191,1,0.38,0.31,263.1,-0.003748007584363222,-0.013668136671185493,0.0271117202937603,0.01940353959798813,-3.2175040245056152,0.6283594369888306,-0.06902873516082764,0.02,0.0,0.02,257.33
1667405012.23861504,101317240,1,0.37,0.31,263.1,-0.0029982062987983227,-0.009093211032450199,0.0265748780220747,0.01029316708445549,-3.218425750732422,0.630395233631134,-0.06979410350322723,0.02,0.0,0.02,257.33
1667405012.27856898,101357194,1,0.39,0.33,263.08,-0.004483903292566538,-0.010934409685432911,0.035829223692417145,-0.0010041097411885858,-3.2198984622955322,0.6328233480453491,-0.07079003751277924,0.02,0.0,0.02,257.33
1667405012.31856704,101397192,1,0.4,0.32,263.04,-0.010995452292263508,-0.0026752992998808622,0.039289690554142,-0.01381087489426136,-3.2209508419036865,0.6349839568138123,-0.07168251276016235,0.02,0.0,0.02,257.33
1667405012.35861301,101437238,1,0.4,0.32,263.01,-0.014692189171910286,-0.013975684531033039,0.03412238135933876,-0.0257476344704628,-3.2223353385925293,0.6375545263290405,-0.07311870157718658,0.02,0.0,0.02,257.33
1667405012.39860010,101477225,1,0.38,0.3,262.97,-0.0072890776209533215,-0.0016467166133224964,0.03475126996636391,-0.02713637612760067,-3.223173141479492,0.6400532722473145,-0.07298143208026886,0.02,0.0,0.02,257.33
1667405012.41857004,101497195,1,0.36,0.3,262.96,-0.007162953726947308,-0.001314282650128007,0.038215309381484985,-0.017335275188088417,-3.223501443862915,0.6410417556762695,-0.07250137627124786,0.02,0.0,0.02,257.33
1667405012.43860507,101517230,1,0.39,0.3,262.94,-0.00668819434940815,-0.005484441760927439,0.030141355469822884,-0.017430556938052177,-3.2239036560058594,0.6428249478340149,-0.07214134931564331,0.02,0.0,0.02,257.33
1667405012.47858810,101557213,1,0.4,0.32,262.92,0.002986160572618246,-0.00503392843529582,0.03193734213709831,-0.0003231339214835316,-3.224440574645996,0.6450816988945007,-0.07152917981147766,0.02,0.0,0.02,257.33
1667405012.51857305,101597198,1,0.38,0.32,262.9,-0.0031708371825516224,-0.0043407585471868515,0.03355565294623375,0.00952331256121397,-3.2248268127441406,0.6472285389900208,-0.07098796218633652,0.02,0.0,0.02,257.33
1667405012.55857205,101637197,1,0.37,0.32,262.87,0.004588100127875805,-0.005587509833276272,0.033200040459632874,0.014240297488868237,-3.2251176834106445,0.6494237184524536,-0.0707283467054367,0.02,0.0,0.02,257.33
1667405012.59860897,101677234,1,0.39,0.31,262.85,-0.005515893455594778,-0.005635865498334169,0.02773858606815338,0.008181610144674778,-3.2261831760406494,0.6519502401351929,-0.07045754790306091,0.02,0.0,0.02,257.33
1667405012.61857796,101697203,1,0.39,0.3,262.84000000000003,-0.008047182112932205,-0.00961924809962511,0.03235733136534691,0.011736935935914516,-3.226738452911377,0.6528001427650452,-0.07008182257413864,0.02,0.0,0.02,257.33
1667405012.63861108,101717236,1,0.4,0.3,262.82,-0.0004891056451015174,-0.009755028411746025,0.034355178475379944,0.01288451999425888,-3.227536678314209,0.6544152498245239,-0.06999912858009338,0.02,0.0,0.02,257.33
1667405012.67859912,101757224,1,0.42,0.31,262.8,-0.0031492707785218954,0.0028262007981538773,0.03223918750882149,0.009067855775356293,-3.2286508083343506,0.656826913356781,-0.06975758075714111,0.02,0.0,0.03,257.33
1667405012.71855712,101797182,1,0.4,0.31,262.76,0.0024495788384228945,-0.008388791233301163,0.03847770020365715,0.012286629527807236,-3.2295308113098145,0.6587451696395874,-0.06945928186178207,0.02,0.0,0.03,257.33
1667405012.75856614,101837191,1,0.38,0.31,262.74,-0.00719030573964119,0.0037031429819762707,0.03406376391649246,0.006914178840816021,-3.2305314540863037,0.661206066608429,-0.06945034116506577,0.02,0.0,0.03,257.33
1667405012.79857397,101877199,1,0.38,0.31,262.72,0.0005103456787765026,-0.004535983316600323,0.036788929253816605,0.008038077503442764,-3.2322628498077393,0.6634131669998169,-0.06922928243875504,0.02,0.0,0.03,257.33
1667405012.81857800,101897203,1,0.4,0.32,262.71,-0.00524529255926609,0.004374125972390175,0.03363656625151634,0.0040968358516693115,-3.2329788208007812,0.6642767786979675,-0.06889080256223679,0.02,0.0,0.03,257.33
1667405012.83859515,101917220,1,0.39,0.31,262.71,-0.005815398879349232,-0.00026952949701808393,0.03418733924627304,0.0041363914497196674,-3.234454393386841,0.6659270524978638,-0.06888195872306824,0.02,0.0,0.03,257.33
1667405012.87865806,101957283,1,0.41000000000000003,0.31,262.67,0.0005779554485343397,-0.003444460453465581,0.03522605821490288,0.003970069345086813,-3.2363102436065674,0.6678212881088257,-0.06877071410417557,0.02,0.0,0.03,257.33
1667405012.91860795,101997233,1,0.39,0.32,262.65,-0.011977669782936573,-0.00396464578807354,0.03787115588784218,0.0035980225075036287,-3.238055944442749,0.66963791847229,-0.0686613991856575,0.02,0.0,0.03,257.33
1667405012.95857000,102037195,1,0.39,0.31,262.61,0.002821722300723195,-0.0017799350898712873,0.03608253225684166,0.0012688121059909463,-3.2399613857269287,0.6714738607406616,-0.0689946636557579,0.02,0.0,0.03,257.33
1667405012.99856806,102077193,1,0.4,0.31,262.59000000000003,-0.008300923742353916,-0.0024849632754921913,0.03735460713505745,0.0009301546961069107,-3.2417685985565186,0.6737204194068909,-0.06831679493188858,0.02,0.0,0.03,257.33
1667405013.01860595,102097231,1,0.38,0.31,262.57,-0.0033055373933166265,-0.004162850324064493,0.03822176903486252,0.005979812238365412,-3.242521047592163,0.674476683139801,-0.06764963269233704,0.02,0.0,0.03,257.33
1667405013.03856993,102117195,1,0.39,0.31,262.56,-0.0005672923289239407,-0.0014292992418631911,0.03891840577125549,0.012198817916214466,-3.243664264678955,0.675990104675293,-0.06705189496278763,0.02,0.0,0.03,257.33
1667405013.07857704,102157202,1,0.4,0.31,262.53000000000003,-0.014322634786367416,-0.0014518691459670663,0.04003950208425522,0.02060418203473091,-3.245276689529419,0.6780993938446045,-0.06653337180614471,0.02,0.0,0.03,257.33
1667405013.11859703,102197222,1,0.38,0.3,262.51,0.005786827299743891,-0.001989157637581229,0.03828529268503189,0.01616230234503746,-3.246791124343872,0.6798798441886902,-0.06624161452054977,0.02,0.0,0.03,257.33
1667405013.15860105,102237226,1,0.41000000000000003,0.32,262.48,-0.012684609740972519,-0.00131398590747267,0.03906038776040077,0.014173570089042187,-3.2482943534851074,0.6818426847457886,-0.06633002310991287,0.02,0.0,0.03,257.33
1667405013.19856715,102277192,1,0.39,0.31,262.44,0.0023724958300590515,0.002149219624698162,0.03486284613609314,0.0030761361122131348,-3.2504396438598633,0.6840157508850098,-0.06652791798114777,0.02,0.0,0.03,257.33
1667405013.21860814,102297233,1,0.4,0.31,262.42,0.0002617460850160569,-0.006486346013844013,0.038799382746219635,0.002806550357490778,-3.251180410385132,0.6846985220909119,-0.06635157763957977,0.02,0.0,0.03,257.33
1667405013.23856902,102317194,1,0.37,0.31,262.41,-0.008771012537181377,-0.004019052721560001,0.032672781497240067,-0.0069549488835036755,-3.2527074813842773,0.6859928369522095,-0.06666665524244308,0.02,0.0,0.03,257.33
1667405013.27860594,102357231,1,0.33,0.32,262.37,-0.001019718125462532,-0.004007600713521242,0.0405409149825573,-0.00528610497713089,-3.254763603210449,0.6879521608352661,-0.06712473928928375,0.02,0.0,0.03,257.33
1667405013.31860209,102397227,1,0.32,0.32,262.34000000000003,-0.008390836417675018,3.922351424989756e-06,0.03551428020000458,-0.017051981762051582,-3.256589651107788,0.6894150972366333,-0.067536361515522,0.02,0.0,0.03,257.33
1667405013.35860014,102437225,1,0.4,0.31,262.32,-0.0151834012940526,0.004164098296314478,0.03174418583512306,-0.022550109773874283,-3.2586781978607178,0.6913367509841919,-0.06847461313009262,0.02,0.0,0.04,257.33
1667405013.39859009,102477215,1,0.42,0.33,262.29,-0.005290002096444368,-0.006888556759804487,0.041941724717617035,-0.010424789041280746,-3.260723114013672,0.6932200789451599,-0.06764881312847137,0.02,0.0,0.04,257.33
1667405013.41859412,102497219,1,0.39,0.33,262.26,-0.015531294047832489,0.005585254170000553,0.035612091422080994,-0.008777313865721226,-3.261460542678833,0.6939073801040649,-0.06694135814905167,0.02,0.0,0.04,257.33
1667405013.43856812,102517193,1,0.43,0.33,262.25,-0.01034227292984724,0.002654463518410921,0.04595333710312843,0.011196920648217201,-3.262572765350342,0.6952301263809204,-0.06622034311294556,0.02,0.0,0.04,257.33
1667405013.47856998,102557195,1,0.33,0.31,262.2,0.0024875125382095575,-0.004095088224858046,0.0391981415450573,0.018269900232553482,-3.2640533447265625,0.6968867182731628,-0.06542754918336868,0.02,0.0,0.04,257.33
1667405013.51859713,102597222,1,0.37,0.3,262.16,-0.005237588193267584,-0.005324141122400761,0.050363536924123764,0.03202241286635399,-3.265254259109497,0.69821697473526,-0.06488440185785294,0.02,0.0,0.04,257.33
1667405013.55860114,102637226,1,0.38,0.29,262.1,-0.010537647642195225,-0.005727837793529034,0.03619933873414993,0.01819041557610035,-3.2667908668518066,0.699661910533905,-0.06471389532089233,0.02,0.0,0.04,257.33
1667405013.59860802,102677233,1,0.36,0.28,262.05,-0.009865183383226395,-0.002653145231306553,0.03459037095308304,0.009711978957057,-3.268293857574463,0.7011873126029968,-0.06458847969770432,0.02,0.0,0.04,257.33
1667405013.61858010,102697205,1,0.35000000000000003,0.3,262.02,-0.006458887364715338,-0.006327553652226925,0.03545021638274193,0.007298010867089033,-3.268873691558838,0.7016585469245911,-0.06419070065021515,0.02,0.0,0.04,257.33
1667405013.63855600,102717181,1,0.38,0.3,261.99,-0.002341268816962838,-0.004406481049954891,0.031074997037649155,0.000726674625184387,-3.2698135375976562,0.7027684450149536,-0.06419011205434799,0.02,0.0,0.04,257.33
1667405013.67856598,102757191,1,0.42,0.28,261.94,-0.004188140854239464,-0.006165210157632828,0.050093743950128555,0.014243419282138348,-3.271068811416626,0.7042204737663269,-0.06455933302640915,0.02,0.0,0.05,257.33
1667405013.71856713,102797192,1,0.36,0.3,261.88,-0.003762361826375127,0.0007819518214091659,0.03915585204958916,-0.007863816805183887,-3.2721333503723145,0.7055369019508362,-0.06505955010652542,0.02,0.0,0.05,257.33
1667405013.75859594,102837221,1,0.34,0.28,261.82,-0.011190882883965969,0.0011312620481476188,0.02518586814403534,-0.02797681652009487,-3.273214817047119,0.7071118354797363,-0.06666383892297745,0.02,0.0,0.05,257.33
1667405013.79858899,102877214,1,0.27,0.3,261.74,-0.004626493901014328,0.0048722815699875355,0.0420772060751915,-0.027706509456038475,-3.274893283843994,0.7091014385223389,-0.0685841366648674,0.02,0.0,0.05,257.33
1667405013.81856799,102897193,1,0.4,0.31,261.72,-0.007182546425610781,0.0010387978982180357,0.026942063122987747,-0.05164689943194389,-3.2755825519561768,0.709850549697876,-0.06892145425081253,0.02,0.0,0.05,257.33
1667405013.83857799,102917203,1,0.33,0.29,261.69,-0.01880110800266266,-0.0013031053822487593,0.04124601557850838,-0.04397127777338028,-3.2768502235412598,0.711200475692749,-0.07021789252758026,0.02,0.0,0.05,257.33
1667405013.87857795,102957203,1,0.43,0.31,261.62,-0.018597472459077835,-0.004239079542458057,0.015600270591676235,-0.0807616263628006,-3.2785401344299316,0.7129308581352234,-0.07307298481464386,0.02,0.0,0.05,257.33
1667405013.91856909,102997194,1,0.24,0.3,261.53000000000003,-0.013681982643902302,0.0034471582621335983,-0.0006512302788905799,-0.109845370054245,-3.2801454067230225,0.7144314050674438,-0.07657532393932343,0.02,0.0,0.05,257.33
1667405013.95857000,103037195,1,0.05,0.28,261.46,-0.0037210071459412575,0.004222027026116848,-0.00842246413230896,-0.12081487476825714,-3.2823381423950195,0.71621173620224,-0.08216021955013275,0.02,0.0,0.05,257.33
1667405013.99859309,103077218,1,-0.2,0.22,261.39,-0.018684223294258118,-0.004464373458176851,-0.044737737625837326,-0.1654270887374878,-3.2855277061462402,0.7182931900024414,-0.08898887783288956,0.02,0.0,0.05,257.33
1667405014.01857495,103097200,1,-0.35000000000000003,0.2,261.35,-0.06765994429588318,0.013043738901615143,-0.07628148794174194,-0.20292001962661743,-3.287139654159546,0.7191490530967712,-0.09227841347455978,0.02,0.0,0.05,257.33
1667405014.03855300,103117178,1,-0.5700000000000001,0.1,261.31,-0.039772409945726395,0.003965745214372873,-0.11131381243467331,-0.24268895387649536,-3.289472818374634,0.720617413520813,-0.09720954298973083,0.02,0.0,0.05,257.33
1667405014.07860494,103157230,1,-0.92,-0.01,261.25,-0.045231983065605164,-0.0030635446310043335,-0.14359483122825623,-0.27945372462272644,-3.2935895919799805,0.7226596474647522,-0.10734245181083679,0.02,0.0,0.06,257.33
1667405014.11856914,103197194,1,-1.1400000000000001,-0.25,261.18,-0.05342428386211395,-0.009155772626399994,-0.19767212867736816,-0.33695873618125916,-3.29780912399292,0.7242475748062134,-0.118938148021698,0.02,0.0,0.06,257.33
1667405014.15856600,103237191,1,-1.27,-0.48,261.15,-0.07010020315647125,-0.005414141342043877,-0.249213308095932,-0.38244056701660156,-3.302542209625244,0.7259636521339417,-0.13312053680419922,0.02,0.0,0.06,257.33
1667405014.19859600,103277221,1,-1.34,-0.6900000000000001,261.12,-0.0880206897854805,-0.006669310387223959,-0.2910817861557007,-0.427682101726532,-3.3089256286621094,0.7280427813529968,-0.14954747259616852,0.02,0.0,0.06,257.33
1667405014.21856713,103297192,1,-1.54,-0.76,261.12,-0.09775647521018982,-0.007078808732330799,-0.28785619139671326,-0.43530139327049255,-3.3122034072875977,0.7287689447402954,-0.157572403550148,0.02,0.0,0.06,257.33
1667405014.23861098,103317236,1,-1.48,-0.8200000000000001,261.1,-0.1093759834766388,-0.011768942698836327,-0.34010472893714905,-0.4980204701423645,-3.3164844512939453,0.7301961779594421,-0.16783422231674194,0.02,0.0,0.06,257.33
1667405014.27859712,103357222,1,-1.76,-0.96,261.08,-0.1286449134349823,-0.009146983735263348,-0.37648871541023254,-0.5472506284713745,-3.3243353366851807,0.7319570183753967,-0.18781113624572754,0.02,0.0,0.06,257.33
1667405014.31857395,103397199,1,-1.99,-1.1300000000000001,261.09000000000003,-0.13552892208099365,-0.01864912547171116,-0.3965587317943573,-0.5674350261688232,-3.3323166370391846,0.733322262763977,-0.2088770717382431,0.02,0.0,0.06,257.33
1667405014.35857797,103437203,1,-2.0,-1.2,261.11,-0.13258430361747742,-0.023562394082546234,-0.4498370587825775,-0.6098023653030396,-3.3412063121795654,0.7347520589828491,-0.23347380757331848,0.02,0.0,0.06,257.33
1667405014.39857197,103477197,1,-1.78,-1.21,261.11,-0.13816387951374054,-0.032792460173368454,-0.5110391974449158,-0.6740326285362244,-3.3497583866119385,0.73541659116745,-0.25967419147491455,0.02,0.0,0.06,257.33
1667405014.41860294,103497228,1,-1.6600000000000001,-1.21,261.13,-0.14767657220363617,-0.030146142467856407,-0.512844443321228,-0.680203378200531,-3.3537797927856445,0.7353255748748779,-0.27256229519844055,0.02,0.0,0.06,257.33
1667405014.43859506,103517220,1,-1.44,-1.18,261.15,-0.15480084717273712,-0.03941623121500015,-0.5541765093803406,-0.7247291207313538,-3.358574390411377,0.7356371283531189,-0.28744447231292725,0.02,0.0,0.06,257.33
1667405014.47859812,103557223,1,-1.2,-1.1,261.16,-0.18410369753837585,-0.03744004666805267,-0.5813202857971191,-0.7562273144721985,-3.3673794269561768,0.7353453636169434,-0.31699466705322266,0.02,0.0,0.07,257.33
1667405014.51859808,103597223,1,-1.02,-0.9500000000000001,261.21,-0.18934859335422516,-0.04978103190660477,-0.5758223533630371,-0.7592187523841858,-3.3762335777282715,0.734551727771759,-0.34733861684799194,0.02,0.0,0.07,257.33
1667405014.55856895,103637194,1,-0.93,-0.85,261.26,-0.17851492762565613,-0.06199987977743149,-0.6176959872245789,-0.79729163646698,-3.385798215866089,0.733538806438446,-0.3807585537433624,0.02,0.0,0.07,257.33
1667405014.59857106,103677196,1,-0.8200000000000001,-0.72,261.29,-0.17743365466594696,-0.06970588862895966,-0.6942372918128967,-0.8851430416107178,-3.395500659942627,0.7324401140213013,-0.4153467118740082,0.02,0.0,0.07,257.33
1667405014.61859894,103697224,1,-0.71,-0.63,261.33,-0.20932498574256897,-0.06904393434524536,-0.7052351236343384,-0.9020540118217468,-3.3999598026275635,0.7315985560417175,-0.4314330816268921,0.02,0.0,0.07,257.33
1667405014.63856792,103717193,1,-0.58,-0.53,261.34000000000003,-0.18775849044322968,-0.07254885882139206,-0.7533255219459534,-0.9542901515960693,-3.405137777328491,0.7311137914657593,-0.4503204822540283,0.02,0.0,0.07,257.33
1667405014.67858815,103757213,1,-0.39,-0.31,261.39,-0.2023634910583496,-0.07660551369190216,-0.7690344452857971,-0.973377525806427,-3.4147660732269287,0.729402482509613,-0.487717866897583,0.02,0.0,0.07,257.33
1667405014.71858001,103797205,1,-0.26,-0.11,261.47,-0.20701253414154053,-0.08419954031705856,-0.7921410799026489,-1.0010192394256592,-3.42431378364563,0.7272084951400757,-0.5264003276824951,0.02,0.0,0.07,257.33
1667405014.75859499,103837220,1,-0.13,0.04,261.54,-0.2097228765487671,-0.0801902636885643,-0.8142707347869873,-1.014119029045105,-3.434044599533081,0.7250692248344421,-0.5675554871559143,0.02,0.0,0.08,257.33
1667405014.79856610,103877191,1,-0.04,0.13,261.61,-0.19902688264846802,-0.08803340047597885,-0.848352313041687,-1.0496463775634766,-3.444270372390747,0.7243319153785706,-0.6093624830245972,0.02,0.0,0.08,257.33
1667405014.81860209,103897227,1,-0.06,0.16,261.63,-0.2042991816997528,-0.08492599427700043,-0.8592756986618042,-1.0640054941177368,-3.449019193649292,0.7237875461578369,-0.6286571025848389,0.02,0.0,0.08,257.33
1667405014.83856702,103917192,1,-0.08,0.16,261.68,-0.2136363834142685,-0.08535931259393692,-0.871491551399231,-1.0791246891021729,-3.454683303833008,0.724193811416626,-0.6512802243232727,0.02,0.0,0.08,257.33
1667405014.87856793,103957193,1,-0.19,0.15,261.75,-0.20531006157398224,-0.08934491872787476,-0.8984635472297668,-1.1165059804916382,-3.464907646179199,0.723712146282196,-0.696480929851532,0.02,0.0,0.08,257.33
1667405014.91858101,103997206,1,-0.25,0.1,261.82,-0.19969850778579712,-0.09095850586891174,-0.9166116118431091,-1.163853645324707,-3.475001096725464,0.7228711843490601,-0.7428836822509766,0.02,0.0,0.08,257.33
1667405014.95858407,104037209,1,-0.16,-0.05,194.72,-0.2013891339302063,-0.08722396194934845,-0.9408977031707764,-1.1977531909942627,-3.48529314994812,0.7224414348602295,-0.7918922901153564,0.02,0.0,0.08,257.33
1667405014.99856400,104077189,1,-0.11,-0.14,194.8,-0.20667459070682526,-0.09465007483959198,-0.9608732461929321,-1.2171204090118408,-3.4947760105133057,0.7235301733016968,-0.8382142186164856,0.02,0.0,0.08,257.33
1667405015.01859498,104097220,1,-0.08,-0.17,194.84,-0.2122008055448532,-0.06537933647632599,-0.964106023311615,-1.2160122394561768,-3.4993128776550293,0.7236820459365845,-0.8600741028785706,0.02,0.0,0.08,257.33
1667405015.03856611,104117191,1,-0.05,-0.2,194.86,-0.20887455344200134,-0.07919199019670486,-0.9783346652984619,-1.222399353981018,-3.5043036937713623,0.7253017425537109,-0.8847655653953552,0.02,0.0,0.08,257.33
1667405015.07854509,104157170,1,0.03,-0.25,194.89000000000001,-0.210709348320961,-0.08073549717664719,-0.9866698384284973,-1.2126652002334595,-3.513655185699463,0.7266035676002502,-0.9314780831336975,0.02,0.0,0.08,257.33
1667405015.11859393,104197219,1,0.08,-0.27,194.89000000000001,-0.21874433755874634,-0.08230454474687576,-1.0014824867248535,-1.2108741998672485,-3.523085117340088,0.7274639010429382,-0.9783430099487305,0.02,0.0,0.08,257.33
1667405015.15859795,104237223,1,0.07,-0.25,194.87,-0.2235497683286667,-0.07674779742956161,-1.016117811203003,-1.203255534172058,-3.5327868461608887,0.7289518117904663,-1.027079463005066,0.02,0.0,0.08,257.33
1667405015.19860196,104277227,1,0.0,-0.23,194.87,-0.23079265654087067,-0.07987555861473083,-1.0330517292022705,-1.1999748945236206,-3.5438952445983887,0.7297719717025757,-1.0742312669754028,0.02,0.0,0.08,257.33
1667405015.21856999,104297195,1,0.0,-0.23,194.86,-0.22519177198410034,-0.07399414479732513,-1.0414546728134155,-1.197657823562622,-3.5492873191833496,0.7295907735824585,-1.09666907787323,0.02,0.0,0.08,257.33
1667405015.23858905,104317214,1,-0.04,-0.25,194.86,-0.23466159403324127,-0.0705554410815239,-1.0466045141220093,-1.1917705535888672,-3.5554802417755127,0.7305532693862915,-1.120661735534668,0.02,0.0,0.08,257.33
1667405015.27856708,104357192,1,-0.18,-0.25,194.83,-0.2375909686088562,-0.06950648874044418,-1.0614045858383179,-1.1883342266082764,-3.5670111179351807,0.7309221029281616,-1.1677390336990356,0.02,0.0,0.08,257.33
1667405015.31856894,104397194,1,-0.28,-0.24,194.8,-0.2400832325220108,-0.07116825878620148,-1.0591747760772705,-1.1785439252853394,-3.5784621238708496,0.7308085560798645,-1.214687705039978,0.02,0.0,0.08,257.33
1667405015.35859108,104437216,1,-0.36,-0.23,194.77,-0.2430271953344345,-0.0698690116405487,-1.0547324419021606,-1.1647616624832153,-3.5903637409210205,0.7311500310897827,-1.2625879049301147,0.02,0.0,0.08,257.33
1667405015.39859796,104477223,1,-0.38,-0.18,194.78,-0.24951770901679993,-0.07943330705165863,-1.0581127405166626,-1.162858247756958,-3.601454019546509,0.7312331795692444,-1.3085068464279175,0.02,0.0,0.08,257.33
1667405015.41856813,104497193,1,-0.41000000000000003,-0.16,194.78,-0.24315451085567474,-0.07073801010847092,-1.0490188598632812,-1.1479434967041016,-3.606867790222168,0.7308701872825623,-1.3311495780944824,0.02,0.0,0.08,257.33
1667405015.43860292,104517228,1,-0.35000000000000003,-0.14,194.79,-0.24825362861156464,-0.0775231420993805,-1.058780312538147,-1.151175618171692,-3.612391948699951,0.7314592599868774,-1.3538450002670288,0.02,0.0,0.08,257.33
1667405015.47856712,104557192,1,-0.37,-0.13,194.79,-0.24799282848834991,-0.07872921973466873,-1.0660691261291504,-1.1437761783599854,-3.6234633922576904,0.7313023805618286,-1.3998767137527466,0.02,0.0,0.08,257.33
1667405015.51857615,104597201,1,-0.38,-0.1,194.79,-0.24775280058383942,-0.07787999510765076,-1.0712612867355347,-1.1351381540298462,-3.634281635284424,0.7309147715568542,-1.4448260068893433,0.02,0.0,0.08,257.33
1667405015.55856705,104637192,1,-0.39,-0.06,194.79,-0.2500047981739044,-0.07141866534948349,-1.0664201974868774,-1.1171514987945557,-3.645246744155884,0.730990469455719,-1.4904663562774658,0.02,0.0,0.08,257.33
1667405015.59859514,104677220,1,-0.37,-0.05,194.81,-0.25974759459495544,-0.06075108423829079,-1.0643922090530396,-1.1045701503753662,-3.6562514305114746,0.7316783666610718,-1.533719778060913,0.02,0.0,0.08,257.33
1667405015.61857605,104697201,1,-0.33,-0.03,194.81,-0.25262054800987244,-0.07068631052970886,-1.0790235996246338,-1.1076065301895142,-3.661775588989258,0.7315735816955566,-1.5556902885437012,0.02,0.0,0.08,257.33
1667405015.63856292,104717188,1,-0.31,-0.05,194.83,-0.26088520884513855,-0.05400640890002251,-1.0713506937026978,-1.0878961086273193,-3.6675000190734863,0.732616126537323,-1.5772132873535156,0.02,0.0,0.08,257.33
1667405015.67858601,104757211,1,-0.28,0.0,194.83,-0.2641313076019287,-0.057522691786289215,-1.0828661918640137,-1.0816270112991333,-3.6785919666290283,0.7331687211990356,-1.6212519407272339,0.02,0.0,0.08,257.33
1667405015.71856499,104797190,1,-0.21,0.03,194.8,-0.2578117847442627,-0.053487759083509445,-1.0804427862167358,-1.0743576288223267,-3.6894564628601074,0.7334872484207153,-1.6650460958480835,0.02,0.0,0.08,257.33
1667405015.75857115,104837196,1,-0.15,0.1,194.78,-0.2533678114414215,-0.06172917038202286,-1.0865460634231567,-1.0798907279968262,-3.700305461883545,0.7342625260353088,-1.70940101146698,0.02,0.0,0.08,257.33
1667405015.79857898,104877204,1,-0.11,0.14,194.77,-0.24936917424201965,-0.06919829547405243,-1.0869429111480713,-1.0870487689971924,-3.7093236446380615,0.7331681847572327,-1.752906322479248,0.02,0.0,0.08,257.33
1667405015.81857109,104897196,1,-0.09,0.16,194.75,-0.25844842195510864,-0.051158253103494644,-1.0881664752960205,-1.0851792097091675,-3.71384596824646,0.732228696346283,-1.7749109268188477,0.02,0.0,0.08,257.33
1667405015.83860111,104917226,1,-0.13,0.18,194.73000000000002,-0.2484123259782791,-0.06444276124238968,-1.0828014612197876,-1.075117826461792,-3.717515468597412,0.7315396666526794,-1.79574716091156,0.02,0.0,0.08,257.33
1667405015.87860608,104957231,1,-0.1,0.2,194.70000000000002,-0.2500946819782257,-0.062110770493745804,-1.0778193473815918,-1.0697085857391357,-3.725701093673706,0.7296215295791626,-1.840498924255371,0.02,0.0,0.08,257.33
1667405015.91857100,104997196,1,-0.09,0.22,194.62,-0.24778245389461517,-0.05266072228550911,-1.09706449508667,-1.1091926097869873,-3.7339208126068115,0.7274558544158936,-1.8863613605499268,0.02,0.0,0.08,257.33
1667405015.95856810,105037193,1,-0.07,0.22,194.54,-0.247500479221344,-0.06375175714492798,-1.0856964588165283,-1.1140854358673096,-3.741481065750122,0.7251172661781311,-1.9328525066375732,0.02,0.0,0.08,257.33
1667405015.99856997,105077195,1,-0.1,0.22,194.43,-0.23316216468811035,-0.06961965560913086,-1.093616247177124,-1.1501147747039795,-3.7491281032562256,0.7223848700523376,-1.9790012836456299,0.02,0.0,0.08,257.33
1667405016.01860499,105097230,1,-0.11,0.2,194.36,-0.24417130649089813,-0.05607001483440399,-1.0818594694137573,-1.1450484991073608,-3.7532927989959717,0.7209327220916748,-2.0017731189727783,0.02,0.0,0.08,257.33
1667405016.03860092,105117226,1,-0.13,0.22,194.3,-0.23255524039268494,-0.0775800570845604,-1.0965133905410767,-1.1619818210601807,-3.756530523300171,0.7193973660469055,-2.0240650177001953,0.02,0.0,0.08,257.33
1667405016.07860804,105157233,1,-0.13,0.18,194.14000000000001,-0.23246131837368011,-0.06621889024972916,-1.0909981727600098,-1.16054368019104,-3.763962745666504,0.7162091732025146,-2.0705065727233887,0.02,0.0,0.08,257.33
1667405016.11861014,105197235,1,-0.17,0.2,193.93,-0.23376129567623138,-0.0675729513168335,-1.0951062440872192,-1.1787625551223755,-3.7714152336120605,0.7128472924232483,-2.117766857147217,0.02,0.0,0.08,257.33
1667405016.15856504,105237190,1,-0.15,0.17,193.71,-0.22199468314647675,-0.07517122477293015,-1.1026397943496704,-1.1927928924560547,-3.778268575668335,0.7091107368469238,-2.1656665802001953,0.02,0.0,0.08,257.33
1667405016.19857311,105277198,1,-0.22,0.12,193.49,-0.22336706519126892,-0.08598410338163376,-1.0751641988754272,-1.1789426803588867,-3.7848851680755615,0.7068672776222229,-2.2128000259399414,0.02,0.0,0.08,257.33
1667405016.21860003,105297225,1,-0.15,0.12,193.37,-0.21699118614196777,-0.06290272623300552,-1.0829702615737915,-1.1889541149139404,-3.7884457111358643,0.7057338356971741,-2.235490083694458,0.02,0.0,0.08,257.33
1667405016.23857212,105317197,1,-0.23,0.1,193.26,-0.22064940631389618,-0.07240796834230423,-1.073727011680603,-1.1787834167480469,-3.7911484241485596,0.7049821615219116,-2.2590014934539795,0.02,0.0,0.08,257.33
1667405016.27860093,105357226,1,-0.23,0.11,192.98000000000002,-0.21371956169605255,-0.06262345612049103,-1.079547643661499,-1.1840728521347046,-3.7973904609680176,0.7028870582580566,-2.306452751159668,0.02,0.0,0.08,257.33
1667405016.31858706,105397212,1,-0.22,0.06,192.70000000000002,-0.21590115129947662,-0.07951372116804123,-1.0868560075759888,-1.2028523683547974,-3.8036909103393555,0.7005593776702881,-2.353997230529785,0.02,0.0,0.08,257.33
1667405016.35862994,105437255,1,-0.3,0.02,192.39000000000001,-0.20685645937919617,-0.07910311967134476,-1.0748355388641357,-1.193986415863037,-3.8093464374542236,0.6983190178871155,-2.4020652770996094,0.02,0.0,0.08,257.33
1667405016.39856911,105477194,1,-0.35000000000000003,-0.12,192.08,-0.21529242396354675,-0.06638495624065399,-1.0643525123596191,-1.177569031715393,-3.8159987926483154,0.6958267688751221,-2.448239326477051,0.02,0.0,0.08,257.33
1667405016.41861105,105497236,1,-0.39,-0.21,191.89000000000001,-0.21504490077495575,-0.07738545536994934,-1.0692028999328613,-1.1740531921386719,-3.8196253776550293,0.6945474147796631,-2.47037410736084,0.02,0.0,0.08,257.33
1667405016.43856907,105517194,1,-0.48,-0.35000000000000003,191.72,-0.2171141803264618,-0.05973280593752861,-1.075857162475586,-1.1709647178649902,-3.822852373123169,0.6933891177177429,-2.493589401245117,0.02,0.0,0.08,257.33
1667405016.47857094,105557196,1,-0.77,-0.75,191.36,-0.22285065054893494,-0.07604064792394638,-1.0531418323516846,-1.1374244689941406,-3.8299310207366943,0.691013753414154,-2.5391087532043457,0.02,0.0,0.08,257.33
1667405016.51857615,105597201,1,-1.16,-1.27,191.02,-0.23420971632003784,-0.05246535688638687,-1.0312650203704834,-1.1236379146575928,-3.8375113010406494,0.6886960864067078,-2.5850162506103516,0.02,0.0,0.08,257.33
1667405016.55860114,105637226,1,-1.53,-1.78,190.64000000000001,-0.2474537193775177,-0.046129778027534485,-1.0275425910949707,-1.1242626905441284,-3.8451883792877197,0.6863965392112732,-2.632047176361084,0.02,0.0,0.08,257.33
1667405016.59861708,105677242,1,-2.0100000000000002,-2.38,190.3,-0.2550254464149475,-0.04818697273731232,-1.0138696432113647,-1.1235588788986206,-3.8542587757110596,0.6834974884986877,-2.6767096519470215,0.02,0.0,0.08,257.33
1667405016.61859298,105697218,1,-2.2800000000000002,-2.6,190.13,-0.2663002014160156,-0.028595570474863052,-1.001267671585083,-1.1120631694793701,-3.8592207431793213,0.6822630167007446,-2.6978607177734375,0.02,0.0,0.08,257.33
1667405016.63856912,105717194,1,-2.69,-2.79,189.96,-0.2783504128456116,-0.033069908618927,-0.9896155595779419,-1.0980170965194702,-3.864255905151367,0.6807215213775635,-2.7202110290527344,0.02,0.0,0.08,257.33
1667405016.67856598,105757191,1,-3.31,-3.2,189.62,-0.29493677616119385,-0.007869582623243332,-0.9767690896987915,-1.073914885520935,-3.874939203262329,0.6783902049064636,-2.762025833129883,0.02,0.0,0.08,257.33
1667405016.71859598,105797221,1,-4.04,-3.58,189.29,-0.3129780888557434,-0.0075875623151659966,-0.9583110809326172,-1.0390746593475342,-3.886547327041626,0.6767380833625793,-2.8026187419891357,0.02,0.0,0.08,257.33
1667405016.75859714,105837222,1,-4.73,-3.89,189.4,-0.345332533121109,0.008476894348859787,-0.9199265837669373,-0.9837548136711121,-3.8990509510040283,0.6753292679786682,-2.8427891731262207,0.02,0.0,0.08,257.33
1667405016.79859805,105877223,1,-5.14,-4.16,189.07,-0.37396931648254395,0.04223587363958359,-0.9054882526397705,-0.9540301561355591,-3.9152326583862305,0.6746642589569092,-2.880760669708252,0.02,0.0,0.08,257.33
1667405016.81856704,105897192,1,-5.32,-4.32,188.88,-0.39235803484916687,0.02923889458179474,-0.9099908471107483,-0.94831782579422,-3.923853635787964,0.6747841238975525,-2.899069309234619,0.02,0.0,0.08,257.33
1667405016.83857107,105917196,1,-5.38,-4.46,188.72,-0.4149734675884247,0.06549395620822906,-0.8882043361663818,-0.9160493016242981,-3.9338366985321045,0.6745889186859131,-2.917804718017578,0.02,0.0,0.08,257.33
1667405016.87857199,105957197,1,-5.5600000000000005,-4.65,188.49,-0.4423202574253082,0.08485097438097,-0.8836449980735779,-0.895367443561554,-3.953388214111328,0.6754582524299622,-2.9538443088531494,0.02,0.0,0.08,257.33
1667405016.91856503,105997190,1,-5.65,-4.71,188.43,-0.4769948720932007,0.09578143805265427,-0.8584958910942078,-0.867452085018158,-3.974106788635254,0.6773839592933655,-2.989537239074707,0.02,0.0,0.08,257.33
1667405016.95859313,106037218,1,-5.66,-4.7,188.35,-0.5173323154449463,0.12681610882282257,-0.8364337682723999,-0.8468145132064819,-3.9967751502990723,0.6799033284187317,-3.0246150493621826,0.02,0.0,0.08,257.33
1667405016.99859715,106077222,1,-5.55,-4.69,187.91,-0.5477166175842285,0.16905692219734192,-0.8278519511222839,-0.842725932598114,-4.021579265594482,0.6803013682365417,-3.0589020252227783,0.02,0.0,0.08,257.33
1667405017.01857400,106097199,1,-5.48,-4.69,187.71,-0.5692957639694214,0.15634693205356598,-0.807473361492157,-0.8229402303695679,-4.03442907333374,0.6812528371810913,-3.075803279876709,0.02,0.0,0.08,257.33
1667405017.03859997,106117225,1,-5.42,-4.69,187.5,-0.5899496674537659,0.17868418991565704,-0.8111798763275146,-0.8263669610023499,-4.04868745803833,0.6802184581756592,-3.092390298843384,0.02,0.0,0.08,257.33
1667405017.07856894,106157194,1,-5.36,-4.58,187.0,-0.6209585666656494,0.19892093539237976,-0.7843671441078186,-0.7993127703666687,-4.076674938201904,0.6815000176429749,-3.1254384517669678,0.02,0.0,0.08,257.33
1667405017.11856699,106197192,1,-5.24,-4.45,186.42000000000002,-0.664624810218811,0.23444002866744995,-0.7599156498908997,-0.7865756750106812,-4.1057915687561035,0.6840797662734985,-3.15879225730896,0.02,0.0,0.08,257.33
1667405017.15856409,106237189,1,-5.12,-4.29,185.77,-0.6890436410903931,0.24810296297073364,-0.7712498307228088,-0.8087366819381714,-4.1369524002075195,0.6862031817436218,-3.19173002243042,0.02,0.0,0.08,257.33
1667405017.19859505,106277220,1,-5.05,-4.18,185.14000000000001,-0.7334166169166565,0.25960013270378113,-0.7297957539558411,-0.7768324017524719,-4.171530246734619,0.6872735619544983,-3.2237608432769775,0.03,0.0,0.08,257.33
1667405017.21857095,106297196,1,-4.97,-4.12,184.82,-0.7444333434104919,0.26595646142959595,-0.7413873076438904,-0.7908718585968018,-4.1891021728515625,0.6891047954559326,-3.2393007278442383,0.03,0.0,0.08,257.33
1667405017.23859215,106317217,1,-4.9,-4.11,184.54,-0.7654626369476318,0.2929612994194031,-0.7204944491386414,-0.7705404758453369,-4.209074020385742,0.6876933574676514,-3.2547380924224854,0.03,0.0,0.08,257.33
1667405017.27861500,106357240,1,-4.84,-4.05,183.95000000000002,-0.8032137155532837,0.28439560532569885,-0.7053269743919373,-0.7531973719596863,-4.246773719787598,0.689219057559967,-3.284395694732666,0.03,0.0,0.08,257.33
1667405017.31856513,106397190,1,-4.82,-4.01,183.4,-0.8364147543907166,0.31425023078918457,-0.6673640608787537,-0.7219054698944092,-4.286427974700928,0.6925411820411682,-3.3148369789123535,0.03,0.0,0.08,257.33
1667405017.35856605,106437191,1,-4.73,-4.0,182.81,-0.8675495982170105,0.3329867124557495,-0.6518581509590149,-0.7105876803398132,-4.327993392944336,0.6941908001899719,-3.343987464904785,0.03,0.0,0.08,257.33
1667405017.39857101,106477196,1,-4.74,-3.99,182.38,-0.9062350988388062,0.3263002038002014,-0.6346105933189392,-0.7034491300582886,-4.371205806732178,0.6940672397613525,-3.3731768131256104,0.03,0.0,0.08,257.33
1667405017.41857600,106497201,1,-4.68,-3.99,182.21,-0.9277274012565613,0.33872920274734497,-0.6365046501159668,-0.7136532068252563,-4.39293909072876,0.6958203315734863,-3.387190341949463,0.03,0.0,0.08,257.33
1667405017.43859196,106517217,1,-4.68,-3.98,182.03,-0.9398168921470642,0.36004456877708435,-0.6123501658439636,-0.6964499354362488,-4.417522430419922,0.6927839517593384,-3.401707172393799,0.03,0.0,0.08,257.33
1667405017.47855902,106557184,1,-4.6000000000000005,-4.07,181.71,-0.9826759099960327,0.36032938957214355,-0.6026327013969421,-0.6934016942977905,-4.464757919311523,0.6927592754364014,-3.429483413696289,0.03,0.0,0.08,257.33
1667405017.51857996,106597205,1,-4.63,-4.04,181.41,-1.0074353218078613,0.35644328594207764,-0.5874279141426086,-0.6838565468788147,-4.512341499328613,0.6940661668777466,-3.45668625831604,0.03,0.0,0.08,257.33
1667405017.55857515,106637200,1,-4.63,-4.05,181.1,-1.0535972118377686,0.3826206922531128,-0.5659592747688293,-0.6615434288978577,-4.563106536865234,0.6927334666252136,-3.483807325363159,0.03,0.0,0.08,257.33
1667405017.59854698,106677172,1,-4.5,-4.0600000000000005,180.87,-1.0823434591293335,0.3869202435016632,-0.5588810443878174,-0.650827944278717,-4.613391876220703,0.6887563467025757,-3.509040355682373,0.03,0.0,0.08,257.33
1667405017.61859012,106697215,1,-4.55,-4.05,180.83,-1.1030972003936768,0.3847033381462097,-0.5546411871910095,-0.6395268440246582,-4.637847900390625,0.6889539361000061,-3.5207059383392334,0.03,0.0,0.08,257.33
1667405017.63860607,106717231,1,-4.49,-4.03,180.75,-1.1178324222564697,0.3606220781803131,-0.5397828221321106,-0.6159325242042542,-4.665154933929443,0.6822205185890198,-3.5326266288757324,0.03,0.0,0.08,257.33
1667405017.67859697,106757222,1,-4.42,-4.09,180.63,-1.1554341316223145,0.3845551609992981,-0.5186763405799866,-0.5782584547996521,-4.717889308929443,0.6769490838050842,-3.5561351776123047,0.03,0.0,0.08,257.33
1667405017.71859598,106797221,1,-4.36,-4.04,180.47,-1.1868380308151245,0.3674934506416321,-0.5283347368240356,-0.5896032452583313,-4.771501541137695,0.6730150580406189,-3.5799472332000732,0.03,0.0,0.08,257.33
