timestamp,TimeUS,C,Q1,Q2,Q3,Q4
1667405008.59856606,97677191,1,0.6636756658554077,0.004548644181340933,-0.001020363299176097,-0.7480059862136841
1667405008.61860204,97697227,1,0.6636704206466675,0.004543596412986517,-0.001025224570184946,-0.7480105757713318
1667405008.63856101,97717186,1,0.6636731624603271,0.004521485418081284,-0.0010166253196075559,-0.7480083703994751
1667405008.67856193,97757187,1,0.6636688113212585,0.004516382236033678,-0.0010052034631371498,-0.7480122447013855
1667405008.71857405,97797199,1,0.6636818051338196,0.004518008790910244,-0.0009884443134069443,-0.7480007410049438
1667405008.75855803,97837183,1,0.6636784076690674,0.004521553870290518,-0.0009835725650191307,-0.7480037212371826
1667405008.79857993,97877205,1,0.663683295249939,0.00453284801915288,-0.0009721856913529336,-0.7479993104934692
1667405008.81859612,97897221,1,0.6636863946914673,0.004527070093899965,-0.0009718281216919422,-0.7479966282844543
1667405008.83856392,97917189,1,0.6636943221092224,0.00453191576525569,-0.0009689938160590827,-0.7479895353317261
1667405008.87855911,97957184,1,0.6637023687362671,0.004548173397779465,-0.0009600318153388798,-0.7479823231697083
1667405008.91857314,97997198,1,0.6637098789215088,0.004539861343801022,-0.0009591594571247697,-0.7479757070541382
1667405008.95860505,98037230,1,0.6637125015258789,0.0045849974267184734,-0.0009860636200755835,-0.7479730844497681
1667405008.99860597,98077231,1,0.6637197732925415,0.004579968750476837,-0.0009867479093372822,-0.7479666471481323
1667405009.01855803,98097183,1,0.6637216806411743,0.004567412193864584,-0.0009908301290124655,-0.7479650378227234
1667405009.03857112,98117196,1,0.6637205481529236,0.0045625558122992516,-0.000978118390776217,-0.7479661107063293
1667405009.07855892,98157184,1,0.6637201905250549,0.004579332657158375,-0.000967279716860503,-0.7479662895202637
1667405009.11855912,98197184,1,0.6637367606163025,0.004570099990814924,-0.0009678805363364518,-0.7479516863822937
1667405009.15859413,98237219,1,0.6637633442878723,0.004569204058498144,-0.0009440979920327663,-0.7479280829429626
1667405009.19860315,98277228,1,0.6637961864471436,0.00456727622076869,-0.0009300301899202168,-0.7478989958763123
1667405009.21856308,98297188,1,0.6638098359107971,0.004561178851872683,-0.0009279204532504082,-0.7478868961334229
1667405009.23859811,98317223,1,0.6638234853744507,0.004548731725662947,-0.0009302065009251237,-0.7478748559951782
1667405009.27856708,98357192,1,0.6638514995574951,0.004546986892819405,-0.0009074119734577835,-0.7478500008583069
1667405009.31856704,98397192,1,0.663868248462677,0.004541030619293451,-0.0008907617884688079,-0.7478352785110474
1667405009.35856009,98437185,1,0.6638838052749634,0.0045091998763382435,-0.0009160891058854759,-0.747821569442749
1667405009.39859009,98477215,1,0.663908064365387,0.0045260051265358925,-0.0009189127013087273,-0.7477999329566956
1667405009.41856098,98497186,1,0.6639102101325989,0.0045364778488874435,-0.0009102420299313962,-0.747797966003418
1667405009.43858314,98517208,1,0.6639024615287781,0.004534706007689238,-0.0009100247407332063,-0.7478048801422119
1667405009.47860193,98557227,1,0.6639032959938049,0.004550314974039793,-0.0008773678564466536,-0.7478040456771851
1667405009.51856208,98597187,1,0.6638949513435364,0.004537801258265972,-0.0008920201216824353,-0.7478115558624268
1667405009.55855203,98637177,1,0.6638950109481812,0.004514019005000591,-0.0008959594997577369,-0.7478116154670715
1667405009.59856296,98677188,1,0.66387939453125,0.004530949983745813,-0.000905185064766556,-0.7478253841400146
1667405009.61857295,98697198,1,0.6638758778572083,0.004530899692326784,-0.0009033117676153779,-0.747828483581543
1667405009.63857102,98717196,1,0.6638665199279785,0.004525989759713411,-0.0009029378416016698,-0.7478368282318115
1667405009.67857814,98757203,1,0.6638349890708923,0.004527296870946884,-0.0008994420059025288,-0.747864842414856
1667405009.71856809,98797193,1,0.6638174653053284,0.0045120976865291595,-0.0008825205732136965,-0.7478804588317871
1667405009.75857806,98837203,1,0.6638006567955017,0.004513360559940338,-0.0008694345597177744,-0.7478954195976257
1667405009.79856896,98877194,1,0.6637681126594543,0.004512464627623558,-0.0008668873342685401,-0.747924268245697
1667405009.81860995,98897235,1,0.6637598276138306,0.0044925278052687645,-0.0008620503358542919,-0.7479317784309387
1667405009.83860111,98917226,1,0.6637401580810547,0.004482800606638193,-0.0008599604479968548,-0.7479493021965027
1667405009.87859893,98957224,1,0.6637277007102966,0.004487443715333939,-0.0008482870762236416,-0.7479603886604309
1667405009.91859698,98997222,1,0.6637190580368042,0.004505800548940897,-0.0008432790637016296,-0.7479678988456726
1667405009.95858407,99037209,1,0.6636984348297119,0.004508511163294315,-0.0008441765676252544,-0.7479861974716187
1667405009.99856901,99077194,1,0.6637192964553833,0.004513690248131752,-0.0008443766855634749,-0.7479676604270935
1667405010.01859307,99097218,1,0.6637284159660339,0.004522888455539942,-0.0008461123798042536,-0.7479594945907593
1667405010.03856015,99117185,1,0.663729190826416,0.004516005516052246,-0.0008425098494626582,-0.7479588389396667
1667405010.07858896,99157214,1,0.6637516021728516,0.004510951694101095,-0.0008345418027602136,-0.7479389905929565
1667405010.11860299,99197228,1,0.66377192735672,0.004487026482820511,-0.0008309651166200638,-0.7479211091995239
1667405010.15859699,99237222,1,0.6638002991676331,0.0045165494084358215,-0.0008450305904261768,-0.7478957176208496
1667405010.19857001,99277195,1,0.6638133525848389,0.004521006718277931,-0.0008608723874203861,-0.7478840947151184
1667405010.21858096,99297206,1,0.6638305187225342,0.004529893398284912,-0.0008636103011667728,-0.7478688359260559
1667405010.23856592,99317191,1,0.6638427376747131,0.00453658914193511,-0.0008722979109734297,-0.747857928276062
1667405010.27856112,99357186,1,0.6638655662536621,0.0045332093723118305,-0.00086919532623142,-0.7478376626968384
1667405010.31858706,99397212,1,0.6638941764831543,0.004512927960604429,-0.0008766679093241692,-0.7478123903274536
1667405010.35857701,99437202,1,0.6639084219932556,0.00450652651488781,-0.0008690869435667992,-0.747799813747406
1667405010.39860415,99477229,1,0.6639247536659241,0.004500577691942453,-0.0008555102976970375,-0.7477853298187256
1667405010.41859102,99497216,1,0.663936197757721,0.004505667369812727,-0.000852661847602576,-0.747775137424469
1667405010.43857098,99517196,1,0.6639419794082642,0.004489059094339609,-0.0008673481061123312,-0.7477701306343079
1667405010.47856808,99557193,1,0.6639506816864014,0.004493987187743187,-0.0008610098157078028,-0.7477623820304871
1667405010.51856208,99597187,1,0.6639643907546997,0.00449020229279995,-0.0008507947786711156,-0.7477502226829529
1667405010.55859494,99637220,1,0.6639734506607056,0.004489509854465723,-0.000843001005705446,-0.7477421760559082
1667405010.59858704,99677212,1,0.6639962196350098,0.004476055037230253,-0.0008554681553505361,-0.7477220296859741
1667405010.61857200,99697197,1,0.6640070676803589,0.004484119825065136,-0.0008490448235534132,-0.7477123737335205
1667405010.63859606,99717221,1,0.6640146970748901,0.004489504266530275,-0.0008478095405735075,-0.7477055191993713
1667405010.67856598,99757191,1,0.664039134979248,0.004476740024983883,-0.0008328983676619828,-0.7476839423179626
1667405010.71856403,99797189,1,0.6640617847442627,0.004480709321796894,-0.0008269689278677106,-0.7476637959480286
1667405010.75860000,99837225,1,0.6640767455101013,0.004509676713496447,-0.0007969385478645563,-0.7476503849029541
1667405010.79859996,99877225,1,0.6641138195991516,0.004497302696108818,-0.0007905210368335247,-0.7476175427436829
1667405010.81856108,99897186,1,0.6641306281089783,0.004496289417147636,-0.0007905602687969804,-0.7476025819778442
1667405010.83859611,99917221,1,0.6641449928283691,0.004507269710302353,-0.0007973346509970725,-0.7475897669792175
1667405010.87856603,99957191,1,0.6641502380371094,0.004518845584243536,-0.0008009066223166883,-0.7475850582122803
1667405010.91856503,99997190,1,0.6641583442687988,0.00452964473515749,-0.0008079774561338127,-0.7475777864456177
1667405010.95856404,100037189,1,0.6641385555267334,0.004537729546427727,-0.0007961425581015646,-0.7475953102111816
1667405010.99860215,100077227,1,0.6641221642494202,0.0045283492654562,-0.0007934389868751168,-0.7476099133491516
1667405011.01856709,100097192,1,0.6641234755516052,0.004543463699519634,-0.0007889802800491452,-0.7476086616516113
1667405011.03860998,100117235,1,0.6641199588775635,0.004541151691228151,-0.0007869635010138154,-0.7476118206977844
1667405011.07859612,100157221,1,0.6641011834144592,0.004561583045870066,-0.000809541204944253,-0.7476283311843872
1667405011.11856604,100197191,1,0.6640844345092773,0.004565298091620207,-0.000821825407911092,-0.7476431727409363
1667405011.15856695,100237192,1,0.6640777587890625,0.004558600019663572,-0.0008026819559745491,-0.7476491928100586
1667405011.19856715,100277192,1,0.6640774607658386,0.004517211113125086,-0.0008250516839325428,-0.7476496696472168
1667405011.21858215,100297207,1,0.6640803813934326,0.004497894085943699,-0.0008361457730643451,-0.7476471662521362
1667405011.23858595,100317211,1,0.6640787720680237,0.004506898578256369,-0.0008311604615300894,-0.7476485371589661
1667405011.27857709,100357202,1,0.6640679240226746,0.004528062418103218,-0.0008399944636039436,-0.7476580739021301
1667405011.31859493,100397220,1,0.6640650033950806,0.004548301454633474,-0.0008289855322800577,-0.7476605772972107
1667405011.35857296,100437198,1,0.6640534996986389,0.004557288251817226,-0.0008731415146030486,-0.7476706504821777
1667405011.39857101,100477196,1,0.6640210747718811,0.0045247310772538185,-0.0008888605516403913,-0.7476996183395386
1667405011.41860414,100497229,1,0.6639845967292786,0.004526116885244846,-0.0008802955853752792,-0.7477319836616516
1667405011.43858099,100517206,1,0.6639651656150818,0.004533316940069199,-0.000887127302121371,-0.7477492094039917
1667405011.47860003,100557225,1,0.6639549136161804,0.00453240005299449,-0.0008556290413253009,-0.7477583885192871
1667405011.51860809,100597233,1,0.6639358997344971,0.0045288787223398685,-0.0008676793659105897,-0.7477752566337585
1667405011.55858898,100637214,1,0.6639572381973267,0.004572577308863401,-0.0008621427114121616,-0.7477560639381409
1667405011.59856796,100677193,1,0.6639862656593323,0.004583975300192833,-0.0008105998276732862,-0.7477302551269531
1667405011.61858201,100697207,1,0.6640048623085022,0.004589661490172148,-0.0008178051211871207,-0.7477136850357056
1667405011.63859200,100717217,1,0.6640058755874634,0.004567631520330906,-0.0008029020973481238,-0.7477129697799683
1667405011.67859411,100757219,1,0.6640133261680603,0.004584450274705887,-0.0007650680490769446,-0.7477062940597534
1667405011.71861196,100797237,1,0.6640018224716187,0.004550913814455271,-0.0007849845569580793,-0.7477166652679443
1667405011.75860906,100837234,1,0.6639412641525269,0.004581342916935682,-0.0007840961334295571,-0.7477703094482422
1667405011.79858398,100877209,1,0.6638801097869873,0.004633161239326,-0.0007416567532345653,-0.7478243112564087
1667405011.81858993,100897215,1,0.6639010310173035,0.004629762377589941,-0.0007467619725503027,-0.7478057146072388
1667405011.83856797,100917193,1,0.663926899433136,0.004620468709617853,-0.0007429338293150067,-0.747782826423645
1667405011.87856793,100957193,1,0.6639136075973511,0.004523055162280798,-0.0007718665874563158,-0.7477952241897583
1667405011.91859794,100997223,1,0.6639528870582581,0.004310240503400564,-0.0006235747714526951,-0.7477617263793945
1667405011.95859408,101037219,1,0.663972795009613,0.004276537802070379,-0.0006189202540554106,-0.7477442622184753
1667405011.99860215,101077227,1,0.6639477014541626,0.004267323762178421,-0.0006468620849773288,-0.7477665543556213
1667405012.01859713,101097222,1,0.6639227867126465,0.0043806033208966255,-0.0008908234885893762,-0.7477877736091614
1667405012.03856611,101117191,1,0.6638115644454956,0.00443694181740284,-0.0008743699290789664,-0.7478862404823303
1667405012.07857299,101157198,1,0.6636835336685181,0.004152628593146801,-0.0006617155740968883,-0.7480016350746155
1667405012.11857009,101197195,1,0.6635475158691406,0.004125939216464758,-0.0007338254363276064,-0.7481223940849304
1667405012.15858912,101237214,1,0.6633777022361755,0.004476707894355059,-0.0009554206044413149,-0.7482706904411316
1667405012.19857693,101277202,1,0.6633931398391724,0.00431177020072937,-0.0006916005513630807,-0.7482582926750183
1667405012.21856594,101297191,1,0.663313627243042,0.004286035895347595,-0.0006550056277774274,-0.7483289837837219
1667405012.23861504,101317240,1,0.6632794737815857,0.004217693582177162,-0.0006583694485016167,-0.7483596205711365
1667405012.27856898,101357194,1,0.6631820797920227,0.004468509461730719,-0.0006875851540826261,-0.7484444379806519
1667405012.31856704,101397192,1,0.6628831624984741,0.004475886933505535,-0.0008141183643601835,-0.7487090229988098
1667405012.35861301,101437238,1,0.662685215473175,0.004450730513781309,-0.0007541961967945099,-0.7488844394683838
1667405012.39860010,101477225,1,0.6624478101730347,0.004240359645336866,-0.0007509831339120865,-0.7490957379341125
1667405012.41857004,101497195,1,0.6623539924621582,0.0041376459412276745,-0.0006404489395208657,-0.7491793632507324
1667405012.43860507,101517230,1,0.6622622013092041,0.004299675114452839,-0.0008119047270156443,-0.7492594122886658
1667405012.47858810,101557213,1,0.662102460861206,0.004451682325452566,-0.0007436745218001306,-0.749399721622467
1667405012.51857305,101597198,1,0.6619868278503418,0.004325391259044409,-0.000655503012239933,-0.7495027184486389
1667405012.55857205,101637197,1,0.6618144512176514,0.004330568015575409,-0.0005933488137088716,-0.7496549487113953
1667405012.59860897,101677234,1,0.6616771817207336,0.004365898668766022,-0.0007951339357532561,-0.7497757077217102
1667405012.61857796,101697203,1,0.6615965962409973,0.00427735410630703,-0.0007980149239301682,-0.7498472929000854
1667405012.63861108,101717236,1,0.6614506840705872,0.004351792857050896,-0.00086308823665604,-0.7499755024909973
1667405012.67859912,101757224,1,0.6613171100616455,0.004507005680352449,-0.00097959628328681,-0.7500922679901123
1667405012.71855712,101797182,1,0.6610623598098755,0.004415246192365885,-0.0008587725460529327,-0.7503175139427185
1667405012.75856614,101837191,1,0.6609644889831543,0.0043176873587071896,-0.0007234407239593565,-0.750404417514801
1667405012.79857397,101877199,1,0.6607890129089355,0.004291060846298933,-0.0007281837752088904,-0.7505590915679932
1667405012.81857800,101897203,1,0.6607413291931152,0.004465371835976839,-0.000807013944722712,-0.7505999803543091
1667405012.83859515,101917220,1,0.6607275605201721,0.004376240540295839,-0.0007533353054895997,-0.7506126761436462
1667405012.87865806,101957283,1,0.6605077981948853,0.004432327579706907,-0.0009048149222508073,-0.7508055567741394
1667405012.91860795,101997233,1,0.6603361964225769,0.004407117608934641,-0.0007479132036678493,-0.7509568333625793
1667405012.95857000,102037195,1,0.6601104140281677,0.004382379353046417,-0.0007854769937694073,-0.7511553764343262
1667405012.99856806,102077193,1,0.6599463224411011,0.004426458850502968,-0.0008113559451885521,-0.751299262046814
1667405013.01860595,102097231,1,0.6598421931266785,0.004297113977372646,-0.0007485471433028579,-0.7513915300369263
1667405013.03856993,102117195,1,0.6597344875335693,0.0043703122064471245,-0.0008007868309505284,-0.7514856457710266
1667405013.07857704,102157202,1,0.6595746278762817,0.004362702835351229,-0.0008467102306894958,-0.7516258955001831
1667405013.11859703,102197222,1,0.6594427227973938,0.00423717824742198,-0.000774949265178293,-0.7517424821853638
1667405013.15860105,102237226,1,0.659210205078125,0.004518500063568354,-0.0008715868461877108,-0.7519446015357971
1667405013.19856715,102277192,1,0.6589659452438354,0.004381140228360891,-0.0007637431845068932,-0.752159595489502
1667405013.21860814,102297233,1,0.6588603854179382,0.004400395322591066,-0.0008016350329853594,-0.752251923084259
1667405013.23856902,102317194,1,0.6587674617767334,0.004231882281601429,-0.0006855214014649391,-0.7523344159126282
1667405013.27860594,102357231,1,0.6585119366645813,0.004082402680069208,-0.0003698442014865577,-0.7525591254234314
1667405013.31860209,102397227,1,0.6582872271537781,0.003992790821939707,-0.00029121566331014037,-0.7527561783790588
1667405013.35860014,102437225,1,0.6581851840019226,0.004382710438221693,-0.000813054502941668,-0.7528428435325623
1667405013.39859009,102477215,1,0.6579549908638,0.00461429450660944,-0.0008673480479046702,-0.7530426383018494
1667405013.41859412,102497219,1,0.6578040719032288,0.004492349922657013,-0.0006426631007343531,-0.7531754374504089
1667405013.43856812,102517193,1,0.6577060222625732,0.004672899842262268,-0.0009489900548942387,-0.7532596588134766
1667405013.47856998,102557195,1,0.6574243903160095,0.004019270651042461,-0.00037403908208943903,-0.7535097002983093
1667405013.51859713,102597222,1,0.657122015953064,0.00417987909168005,-0.0006788013270124793,-0.7537723183631897
1667405013.55860114,102637226,1,0.6567422151565552,0.00415902491658926,-0.000825724855531007,-0.7541031837463379
1667405013.59860802,102677233,1,0.6564085483551025,0.003977232612669468,-0.000740846327971667,-0.7543947696685791
1667405013.61858010,102697205,1,0.6562130451202393,0.004026021808385849,-0.0006218220805749297,-0.754564642906189
1667405013.63855600,102717181,1,0.6560183167457581,0.004183903802186251,-0.0007926414837129414,-0.7547329068183899
1667405013.67856598,102757191,1,0.6556528806686401,0.004330837167799473,-0.0011322743957862258,-0.7550491690635681
1667405013.71856713,102797192,1,0.6553000211715698,0.004104115534573793,-0.0006099839811213315,-0.7553572654724121
1667405013.75859594,102837221,1,0.6549097299575806,0.003850040026009083,-0.0006981249898672104,-0.7556969523429871
1667405013.79858899,102877214,1,0.6543908715248108,0.00355143123306334,-8.077837264863774e-05,-0.756148099899292
1667405013.81856799,102897193,1,0.6542258858680725,0.004382431972771883,-0.0008994604577310383,-0.7562859654426575
1667405013.83857799,102917203,1,0.6540243625640869,0.003818115219473839,-0.0005158873973414302,-0.7564636468887329
1667405013.87857795,102957203,1,0.6535437107086182,0.004563670139759779,-0.0010577590437605977,-0.7568742632865906
1667405013.91856909,102997194,1,0.6529884338378906,0.00340257934294641,0.00011676354915834963,-0.7573602199554443
1667405013.95857000,103037195,1,0.6525494456291199,0.0021758156362921,0.0012192309368401766,-0.7577420473098755
1667405013.99859309,103077218,1,0.6520854830741882,0.0002923158463090658,0.002655201591551304,-0.7581407427787781
1667405014.01857495,103097200,1,0.6518045663833618,-0.0006517648580484092,0.003488493151962757,-0.7583786845207214
1667405014.03855300,103117178,1,0.6515423059463501,-0.0025383809115737677,0.0044020055793225765,-0.7585952877998352
1667405014.07860494,103157230,1,0.6511082649230957,-0.005361089948564768,0.006076882127672434,-0.758941650390625
1667405014.11856914,103197194,1,0.6506518125534058,-0.008174911141395569,0.006183471065014601,-0.7593070268630981
1667405014.15856600,103237191,1,0.6503661870956421,-0.010450135916471481,0.005689833778887987,-0.7595276832580566
1667405014.19859600,103277221,1,0.6501546502113342,-0.012230934575200081,0.004998244345188141,-0.7596870064735413
1667405014.21856713,103297192,1,0.6501030325889587,-0.013873662799596786,0.005902284290641546,-0.7596964836120605
1667405014.23861098,103317236,1,0.6500262022018433,-0.013890018686652184,0.005161338951438665,-0.7597672939300537
1667405014.27859712,103357222,1,0.6498275399208069,-0.016434330493211746,0.0062505509704351425,-0.7598782777786255
1667405014.31857395,103397199,1,0.6498464345932007,-0.018834087997674942,0.006770511157810688,-0.759801983833313
1667405014.35857797,103437203,1,0.6499546766281128,-0.019395792856812477,0.006427853833884001,-0.759698212146759
1667405014.39857197,103477197,1,0.6499478220939636,-0.018181277438998222,0.004889968782663345,-0.7597455978393555
1667405014.41860294,103497228,1,0.6501103043556213,-0.01748148910701275,0.004162872675806284,-0.7596272826194763
1667405014.43859506,103517220,1,0.6503114104270935,-0.016029134392738342,0.00285021448507905,-0.7594932317733765
1667405014.47859812,103557223,1,0.6504080891609192,-0.014137947000563145,0.0016940669156610966,-0.7594515085220337
1667405014.51859808,103597223,1,0.6507716774940491,-0.012141075916588306,0.0014144530287012458,-0.7591750621795654
1667405014.55856895,103637194,1,0.6510888934135437,-0.010988842695951462,0.0013273003278300166,-0.7589207291603088
1667405014.59857106,103677196,1,0.6513523459434509,-0.009443323127925396,0.0013273830991238356,-0.7587155103683472
1667405014.61859894,103697224,1,0.6516126394271851,-0.008234484121203423,0.0011457023210823536,-0.7585062980651855
1667405014.63856792,103717193,1,0.651700496673584,-0.006888954434543848,0.0008541455026715994,-0.758444607257843
1667405014.67858815,103757213,1,0.6520830392837524,-0.004361069295555353,0.0008488122257404029,-0.7581345438957214
1667405014.71858001,103797205,1,0.6525844931602478,-0.002244542120024562,0.001076343934983015,-0.7577118873596191
1667405014.75859499,103837220,1,0.6530687212944031,-0.00044579198583960533,0.0011200940934941173,-0.757297694683075
1667405014.79856610,103877191,1,0.6535236835479736,0.0006167876999825239,0.001082825823687017,-0.7569050788879395
1667405014.81860209,103897227,1,0.6536810398101807,0.0007500349311158061,0.0013571089366450906,-0.7567685842514038
1667405014.83856702,103917192,1,0.6539846658706665,0.0005609974032267928,0.0015169490361586213,-0.756506085395813
1667405014.87856793,103957193,1,0.6544206738471985,-5.476135993376374e-05,0.002185446908697486,-0.7561275362968445
1667405014.91858101,103997206,1,0.6548992991447449,-0.0007891879067756236,0.0023029830772429705,-0.7557122707366943
1667405014.95858407,104037209,1,-0.12813058495521545,0.0006914828554727137,-0.0014043799601495266,0.9917560815811157
1667405014.99856400,104077189,1,-0.12879474461078644,0.0013464101357385516,-0.0008109582704491913,0.9916700124740601
1667405015.01859498,104097220,1,-0.12915438413619995,0.0015727641293779016,-0.0005709910183213651,0.9916231036186218
1667405015.03856611,104117191,1,-0.12934082746505737,0.0018491892842575908,-0.00021125690545886755,0.9915984272956848
1667405015.07854509,104157170,1,-0.12958970665931702,0.0021691431757062674,0.000633937946986407,0.9915651082992554
1667405015.11859393,104197219,1,-0.12962566316127777,0.0022792236413806677,0.0010232435306534171,0.9915598630905151
1667405015.15859795,104237223,1,-0.12946441769599915,0.0020979640539735556,0.0008990894421003759,0.9915814399719238
1667405015.19860196,104277227,1,-0.12943246960639954,0.0020331565756350756,0.00034765811869874597,0.9915860891342163
1667405015.21856999,104297195,1,-0.12935791909694672,0.0020541087724268436,0.00031721769482828677,0.9915958046913147
1667405015.23858905,104317214,1,-0.12936632335186005,0.0022756110411137342,-0.00013491585559677333,0.9915942549705505
1667405015.27856708,104357192,1,-0.12906286120414734,0.0024015656672418118,-0.0013306267792358994,0.9916326403617859
1667405015.31856894,104397194,1,-0.12881238758563995,0.002405124017968774,-0.0022033490240573883,0.9916636347770691
1667405015.35859108,104437216,1,-0.12858732044696808,0.0024434297811239958,-0.002900301944464445,0.9916909337043762
1667405015.39859796,104477223,1,-0.12868808209896088,0.0020712120458483696,-0.003080822294577956,0.9916781783103943
1667405015.41856813,104497193,1,-0.12869605422019958,0.0018890112405642867,-0.0033884765580296516,0.9916765093803406
1667405015.43860292,104517228,1,-0.12875710427761078,0.0016588792204856873,-0.0028690726030617952,0.9916706085205078
1667405015.47856712,104557192,1,-0.12877391278743744,0.001551662920974195,-0.003086509881541133,0.9916679859161377
1667405015.51857615,104597201,1,-0.12879027426242828,0.0013278541155159473,-0.003176139434799552,0.9916658997535706
1667405015.55856705,104637192,1,-0.12871551513671875,0.000984247657470405,-0.0033468257170170546,0.9916754364967346
1667405015.59859514,104677220,1,-0.12894625961780548,0.0008910070755518973,-0.003202808788046241,0.9916459918022156
1667405015.61857605,104697201,1,-0.128895103931427,0.000672117224894464,-0.002861659275367856,0.9916538596153259
1667405015.63856292,104717188,1,-0.1291109025478363,0.0008161879959516227,-0.0026904603000730276,0.9916262030601501
1667405015.67858601,104757211,1,-0.12907208502292633,0.0002794351021293551,-0.002470392733812332,0.9916321039199829
1667405015.71856499,104797190,1,-0.1288449764251709,-4.3548956455197185e-05,-0.0018671989673748612,0.9916629791259766
1667405015.75857115,104837196,1,-0.12863697111606598,-0.0006983531638979912,-0.0014862113166600466,0.9916903972625732
1667405015.79857898,104877204,1,-0.12855400145053864,-0.0010972401360049844,-0.001185685396194458,0.9917011857032776
1667405015.81857109,104897196,1,-0.12841670215129852,-0.0013517702464014292,-0.0009858658304437995,0.9917188882827759
1667405015.83860111,104917226,1,-0.1282370239496231,-0.0014500506222248077,-0.001350077916868031,0.9917415976524353
1667405015.87860608,104957231,1,-0.12793636322021484,-0.0016177936922758818,-0.0011069222819060087,0.9917804598808289
1667405015.91857100,104997196,1,-0.1273176521062851,-0.0018308729631826282,-0.0010407126974314451,0.9918597340583801
1667405015.95856810,105037193,1,-0.12659308314323425,-0.001838661846704781,-0.0009052248205989599,0.9919525980949402
1667405015.99856997,105077195,1,-0.12564772367477417,-0.001837681862525642,-0.001151730422861874,0.9920725226402283
1667405016.01860499,105097230,1,-0.12507270276546478,-0.0016252122586593032,-0.0012250820873305202,0.9921454787254333
1667405016.03860092,105117226,1,-0.12449714541435242,-0.0017712201224640012,-0.0013725232565775514,0.9922174215316772
1667405016.07860804,105157233,1,-0.12310965359210968,-0.0014613725943490863,-0.0013730748323723674,0.992391049861908
1667405016.11861014,105197235,1,-0.12133032083511353,-0.0015684396494179964,-0.0016926013631746173,0.9926095008850098
1667405016.15856504,105237190,1,-0.11943088471889496,-0.0013205430004745722,-0.0015249383868649602,0.9928404688835144
1667405016.19857311,105277198,1,-0.1175030991435051,-0.0008821693481877446,-0.0020964094437658787,0.9930698871612549
1667405016.21860003,105297225,1,-0.1164730116724968,-0.0009466787450946867,-0.0014468925073742867,0.9931923747062683
1667405016.23857212,105317197,1,-0.11551252752542496,-0.0007065422250889242,-0.002188236452639103,0.9933033585548401
1667405016.27860093,105357226,1,-0.11307167261838913,-0.000745626981370151,-0.0021162480115890503,0.9935842752456665
1667405016.31858706,105397212,1,-0.11068635433912277,-0.00036180956522002816,-0.0020497420337051153,0.9938532114028931
1667405016.35862994,105437255,1,-0.10799237340688705,3.680004374473356e-05,-0.002653982490301132,0.9941481947898865
1667405016.39856911,105477194,1,-0.10523331165313721,0.0014128247275948524,-0.0029949061572551727,0.9944420456886292
1667405016.41861105,105497236,1,-0.10363878309726715,0.0022243184503167868,-0.003194462275132537,0.9946073889732361
1667405016.43856907,105517194,1,-0.1021585613489151,0.0034875967539846897,-0.0038802071940153837,0.994754433631897
1667405016.47857094,105557196,1,-0.09900516271591187,0.0072631132788956165,-0.0060683730989694595,0.9950419068336487
1667405016.51857615,105597201,1,-0.09594099223613739,0.012089069932699203,-0.009012793190777302,0.9952728152275085
1667405016.55860114,105637226,1,-0.09252752363681793,0.016720643267035484,-0.011873102746903896,0.9954988956451416
1667405016.59861708,105677242,1,-0.08942890167236328,0.022282639518380165,-0.015672536566853523,0.9956205487251282
1667405016.61859298,105697218,1,-0.08780016750097275,0.02442854270339012,-0.017810774967074394,0.9956792593002319
1667405016.63856912,105717194,1,-0.086268350481987,0.026357358321547508,-0.021258093416690826,0.9956963062286377
1667405016.67856598,105757191,1,-0.08301856368780136,0.03025156632065773,-0.02645917795598507,0.9957372546195984
1667405016.71859598,105797221,1,-0.07986103743314743,0.03405170887708664,-0.032664090394973755,0.9956885576248169
1667405016.75859714,105837222,1,-0.0804499015212059,0.03718378394842148,-0.038370076566934586,0.99532550573349
1667405016.79859805,105877223,1,-0.0773295983672142,0.039712339639663696,-0.04182014241814613,0.9953361749649048
1667405016.81856704,105897192,1,-0.07559249550104141,0.04119148477911949,-0.04332941770553589,0.9953449368476868
1667405016.83857107,105917196,1,-0.07409965246915817,0.042386725544929504,-0.04383121058344841,0.9953850507736206
1667405016.87857199,105957197,1,-0.07199084013700485,0.044014621526002884,-0.04539133235812187,0.9953992366790771
1667405016.91856503,105997190,1,-0.07139603793621063,0.044568296521902084,-0.046140942722558975,0.9953829646110535
1667405016.95859313,106037218,1,-0.07067398726940155,0.044459231197834015,-0.046242646872997284,0.9954346418380737
1667405016.99859715,106077222,1,-0.06691937893629074,0.04418178275227547,-0.04546288773417473,0.9957423806190491
1667405017.01857400,106097199,1,-0.06522256880998611,0.04405950754880905,-0.04497772082686424,0.9958823919296265
1667405017.03859997,106117225,1,-0.06338837742805481,0.04388215020298958,-0.044527824968099594,0.9960289001464844
1667405017.07856894,106157194,1,-0.05908941105008125,0.04273182153701782,-0.0442451536655426,0.9963557720184326
1667405017.11856699,106197192,1,-0.054168932139873505,0.04135685786604881,-0.04351304844021797,0.9967256188392639
1667405017.15856409,106237189,1,-0.048632752150297165,0.039601296186447144,-0.04274953529238701,0.9971153736114502
1667405017.19859505,106277220,1,-0.043224114924669266,0.038433391600847244,-0.042395759373903275,0.9974252581596375
1667405017.21857095,106297196,1,-0.040461357682943344,0.03770896792411804,-0.04180901125073433,0.9975935816764832
1667405017.23859215,106317217,1,-0.03803139179944992,0.03756681829690933,-0.041315753012895584,0.9977150559425354
1667405017.27861500,106357240,1,-0.03295854479074478,0.03679100051522255,-0.041024673730134964,0.9979364275932312
1667405017.31856513,106397190,1,-0.02817949280142784,0.03623923286795616,-0.04099908098578453,0.9981040358543396
1667405017.35856605,106437191,1,-0.02308688685297966,0.03594121336936951,-0.04042757302522659,0.9982689023017883
1667405017.39857101,106477196,1,-0.019302379339933395,0.035700470209121704,-0.040612392127513885,0.9983503818511963
1667405017.41857600,106497201,1,-0.017913218587636948,0.03559773787856102,-0.04018011316657066,0.9983974695205688
1667405017.43859196,106517217,1,-0.016278088092803955,0.035472627729177475,-0.04018586128950119,0.9984296560287476
1667405017.47855902,106557184,1,-0.013522128574550152,0.03608844429254532,-0.039577171206474304,0.998473048210144
1667405017.51857996,106597205,1,-0.010936063714325428,0.03575999289751053,-0.03997701779007912,0.9985005855560303
1667405017.55857515,106637200,1,-0.00819862075150013,0.03577132895588875,-0.04005200043320656,0.9985234141349792
1667405017.59854698,106677172,1,-0.006247523706406355,0.03570041060447693,-0.03904557228088379,0.9985799193382263
1667405017.61859012,106697215,1,-0.005907954182475805,0.03560786694288254,-0.03941600024700165,0.9985707402229309
1667405017.63860607,106717231,1,-0.0051925270818173885,0.035445790737867355,-0.03892963379621506,0.9985995888710022
1667405017.67859697,106757222,1,-0.004130342975258827,0.03587302565574646,-0.03841204196214676,0.9986093044281006
1667405017.71859598,106797221,1,-0.002781965769827366,0.035451166331768036,-0.03793114796280861,0.9986474514007568
1667405017.75859404,106837219,1,-0.001211509807035327,0.035638563334941864,-0.038058869540691376,0.9986390471458435
1667405017.79858994,106877215,1,2.9563665520981885e-05,0.035367369651794434,-0.03787836804986,0.9986562728881836
1667405017.81861115,106897236,1,-4.242339855409227e-06,0.03488447889685631,-0.038691699504852295,0.998642086982727
1667405017.83856511,106917190,1,0.0006116009317338467,0.035083282738924026,-0.038438938558101654,0.9986447095870972
1667405017.87859702,106957222,1,0.0016368264332413673,0.034147605299949646,-0.03961116448044777,0.998630166053772
1667405017.91859794,106997223,1,0.0032469320576637983,0.0329868346452713,-0.04118728265166283,0.998601496219635
1667405017.95860696,107037232,1,0.005626486148685217,0.03139819949865341,-0.04455086588859558,0.998497724533081
1667405017.99857807,107077203,1,0.007714131381362677,0.030520079657435417,-0.04692983627319336,0.9984019994735718
1667405018.01859093,107097216,1,0.008327534422278404,0.029572488740086555,-0.048263970762491226,0.9983620047569275
1667405018.03856897,107117194,1,0.009353816509246826,0.02967715635895729,-0.04874778911471367,0.998326301574707
1667405018.07857895,107157204,1,0.01130116730928421,0.029144223779439926,-0.050470516085624695,0.9982362389564514
1667405018.11859512,107197220,1,0.013829710893332958,0.02933657355606556,-0.05096299201250076,0.9981737732887268
1667405018.15858293,107237208,1,0.016701756045222282,0.029484868049621582,-0.05225587636232376,0.9980586171150208
1667405018.19860411,107277229,1,0.01974126324057579,0.02969806082546711,-0.052672065794467926,0.9979749321937561
1667405018.21860909,107297234,1,0.020974555984139442,0.030136553570628166,-0.05296553298830986,0.9979211091995239
1667405018.23857093,107317196,1,0.022350545972585678,0.030664188787341118,-0.05265374481678009,0.9978916645050049
1667405018.27856708,107357192,1,0.02501494251191616,0.03069857507944107,-0.05206594988703728,0.9978582262992859
1667405018.31856608,107397191,1,0.028020212426781654,0.030509021133184433,-0.051097795367240906,0.9978342056274414
1667405018.35857296,107437198,1,0.03154093027114868,0.02973180264234543,-0.05125589668750763,0.9977444410324097
1667405018.39859509,107477220,1,0.034452714025974274,0.029127949848771095,-0.050255242735147476,0.9977169036865234
1667405018.41856813,107497193,1,0.035941142588853836,0.02925199642777443,-0.051243044435977936,0.9976105093955994
1667405018.43856907,107517194,1,0.037575863301754,0.028761405497789383,-0.05099276080727577,0.9975773692131042
1667405018.47856998,107557195,1,0.04056490585207939,0.028524117544293404,-0.05095392465591431,0.9974690675735474
1667405018.51861715,107597242,1,0.04387645423412323,0.029353290796279907,-0.05118131637573242,0.9972931742668152
1667405018.55859494,107637220,1,0.047393281012773514,0.029153719544410706,-0.05245017260313034,0.997072160243988
1667405018.59860110,107677226,1,0.05078409984707832,0.029952416196465492,-0.05256089195609093,0.9968757033348083
1667405018.61856604,107697191,1,0.05203760415315628,0.030023006722331047,-0.05413776636123657,0.996724545955658
1667405018.63860512,107717230,1,0.0539686419069767,0.03039553575217724,-0.05403291434049606,0.9966162443161011
1667405018.67857313,107757198,1,0.056824058294296265,0.030245793983340263,-0.05530215799808502,0.9963924288749695
1667405018.71856904,107797194,1,0.05981944501399994,0.03011537343263626,-0.055370837450027466,0.9962172508239746
1667405018.75856495,107837190,1,0.06330785155296326,0.03002241998910904,-0.055498432368040085,0.9959973096847534
1667405018.79858994,107877215,1,0.06504227966070175,0.030461803078651428,-0.057210758328437805,0.9957753419876099
1667405018.81856513,107897190,1,0.06634987145662308,0.030004071071743965,-0.05680006369948387,0.995726466178894
1667405018.83859301,107917218,1,0.06725510209798813,0.029984699562191963,-0.05807678773999214,0.9955926537513733
1667405018.87860894,107957234,1,0.06843448430299759,0.03010038658976555,-0.05746055394411087,0.9955445528030396
1667405018.91856503,107997190,1,0.06937961280345917,0.02992185950279236,-0.05973855033516884,0.9953504204750061
1667405018.95856905,108037194,1,0.07117819041013718,0.030561545863747597,-0.0617842823266983,0.9950791001319885
1667405018.99857497,108077200,1,0.07108225673437119,0.030897611752152443,-0.06206418201327324,0.9950581192970276
1667405019.01858997,108097215,1,0.07128489762544632,0.03091234154999256,-0.0625496581196785,0.9950127601623535
1667405019.03859997,108117225,1,0.07153291255235672,0.031308818608522415,-0.061170171946287155,0.995068371295929
1667405019.07856798,108157193,1,0.0716969445347786,0.03215695917606354,-0.06268614530563354,0.994935154914856
1667405019.11861110,108197236,1,0.07237567752599716,0.03199373930692673,-0.06378067284822464,0.9948216676712036
1667405019.15856910,108237194,1,0.07377808541059494,0.03218390792608261,-0.063930943608284,0.9947028756141663
1667405019.19856715,108277192,1,0.07450303435325623,0.032485511153936386,-0.0621691569685936,0.9947507381439209
1667405019.21860504,108297230,1,0.07466428726911545,0.032765213400125504,-0.06227905675768852,0.9947226047515869
1667405019.23860002,108317225,1,0.07577303797006607,0.03327832743525505,-0.0622517466545105,0.9946234226226807
1667405019.27859402,108357219,1,0.07684070616960526,0.033961836248636246,-0.06183156371116638,0.9945446252822876
1667405019.31860995,108397235,1,0.07832680642604828,0.03398188576102257,-0.06079777330160141,0.994491696357727
1667405019.35859203,108437217,1,0.08088183403015137,0.03482930362224579,-0.05778073891997337,0.9944377541542053
1667405019.39857006,108477195,1,0.08174041658639908,0.03491289168596268,-0.056967101991176605,0.9944115281105042
1667405019.41859603,108497221,1,0.08232945948839188,0.035347193479537964,-0.056181225925683975,0.9943923354148865
1667405019.43856597,108517191,1,0.0831248089671135,0.03602044656872749,-0.05559435486793518,0.9943349957466125
1667405019.47859502,108557220,1,0.08407857269048691,0.03747553378343582,-0.05307625234127045,0.9943386316299438
1667405019.51860094,108597226,1,0.0855417400598526,0.04170377925038338,-0.04819650948047638,0.9942939877510071
1667405019.55860400,108637229,1,0.08749094605445862,0.046190742403268814,-0.041944216936826706,0.9942094683647156
1667405019.59857512,108677200,1,0.08835011720657349,0.05207647755742073,-0.031192272901535034,0.9942380785942078
1667405019.61861110,108697236,1,0.08916695415973663,0.05515778809785843,-0.026817264035344124,0.9941266179084778
1667405019.63857913,108717204,1,0.09014477580785751,0.058068305253982544,-0.02212364785373211,0.9939882159233093
1667405019.67856598,108757191,1,0.0928904190659523,0.06335513293743134,-0.014965781942009926,0.9935459494590759
1667405019.71859002,108797215,1,0.09580323845148087,0.06614872068166733,-0.010680907405912876,0.9931424856185913
1667405019.75859213,108837217,1,0.09965983033180237,0.0689035952091217,-0.005276108160614967,0.9926189184188843
1667405019.79859805,108877223,1,0.10422103852033615,0.06937259435653687,-0.004706022795289755,0.9921205639839172
1667405019.81860209,108897227,1,0.10634823888540268,0.07034006714820862,-0.002512954408302903,0.9918346405029297
1667405019.83856392,108917189,1,0.10911514610052109,0.07009715586900711,-0.00398766715079546,0.9915464520454407
1667405019.87857008,108957195,1,0.11448340117931366,0.07124412059783936,-0.0031582433730363846,0.9908621907234192
1667405019.91857195,108997197,1,0.12024698406457901,0.0704021006822586,-0.0044677224941551685,0.9902344346046448
1667405019.95858002,109037205,1,0.12670767307281494,0.0695224478840828,-0.006574469152837992,0.9894789457321167
1667405019.99859810,109077223,1,0.13260656595230103,0.06950988620519638,-0.007179480046033859,0.9887023568153381
1667405020.01856494,109097190,1,0.13603803515434265,0.0690845400094986,-0.005706803407520056,0.9882754683494568
1667405020.03861499,109117240,1,0.13886284828186035,0.06788011640310287,-0.009014480747282505,0.9879413843154907
1667405020.07857299,109157198,1,0.1455537974834442,0.06682340800762177,-0.009990059770643711,0.9870404601097107
1667405020.11856914,109197194,1,0.15159235894680023,0.0673203393816948,-0.009978055953979492,0.9860974550247192
1667405020.15860415,109237229,1,0.157777339220047,0.0677981749176979,-0.010151552967727184,0.9850922226905823
1667405020.19860411,109277229,1,0.1638948917388916,0.06914114952087402,-0.013069318607449532,0.9839650392532349
1667405020.21857095,109297196,1,0.16654840111732483,0.07081807404756546,-0.015679121017456055,0.9833618998527527
1667405020.23860693,109317232,1,0.1692582070827484,0.07295344769954681,-0.013856981880962849,0.9827702641487122
1667405020.27858901,109357214,1,0.17423492670059204,0.07471756637096405,-0.016046999022364616,0.9817341566085815
1667405020.31857395,109397199,1,0.1787068396806717,0.07566694915294647,-0.01707896590232849,0.9808397889137268
1667405020.35856700,109437192,1,0.18311184644699097,0.07388640195131302,-0.01712537184357643,0.9801620244979858
1667405020.39859414,109477219,1,0.18655584752559662,0.07084039598703384,-0.016981091350317,0.9797398447990417
1667405020.41857004,109497195,1,0.187919482588768,0.06798478215932846,-0.014052106067538261,0.9797279834747314
1667405020.43860006,109517225,1,0.1889164000749588,0.06660166382789612,-0.01231157872825861,0.9796546697616577
1667405020.47860813,109557233,1,0.19079214334487915,0.061573609709739685,-0.00839852262288332,0.9796614050865173
1667405020.51855707,109597182,1,0.19202856719493866,0.057799696922302246,-0.007566242478787899,0.9796565771102905
1667405020.55856800,109637193,1,0.19284681975841522,0.056198880076408386,-0.005677164066582918,0.9796017408370972
1667405020.59856510,109677190,1,0.19369687139987946,0.0550774522125721,-0.0036696617025882006,0.9795072674751282
1667405020.61858106,109697206,1,0.19386713206768036,0.05375441163778305,-0.004452292807400227,0.9795438647270203
1667405020.63859200,109717217,1,0.1938566416501999,0.05426740273833275,-0.0010238874237984419,0.9795272350311279
1667405020.67858195,109757207,1,0.19405750930309296,0.05292374640703201,-0.0003052602696698159,0.979561448097229
1667405020.71859503,109797220,1,0.19410036504268646,0.04970265552401543,0.0012898222776129842,0.9797208905220032
1667405020.75856495,109837190,1,0.1942683458328247,0.045828741043806076,0.00028539460618048906,0.9798772931098938
1667405020.79856515,109877190,1,0.19396346807479858,0.04204448312520981,0.0006456502596847713,0.9801071286201477
1667405020.81860113,109897226,1,0.1942218840122223,0.04045582562685013,0.00108008598908782,0.980122447013855
1667405020.83857203,109917197,1,0.1937890648841858,0.03941481560468674,0.0014881320530548692,0.9802500009536743
1667405020.87858295,109957208,1,0.19343505799770355,0.03856221213936806,-0.00010887550888583064,0.9803549647331238
1667405020.91862202,109997247,1,0.19339175522327423,0.03702419623732567,-0.00020498869707807899,0.9804227352142334
1667405020.95859003,110037215,1,0.19206473231315613,0.03698443993926048,-0.0008350430871360004,0.980684757232666
1667405020.99856615,110077191,1,0.19121181964874268,0.03756953403353691,-0.0005326108657754958,0.9808294177055359
1667405021.01859403,110097219,1,0.19064660370349884,0.036434728652238846,-0.004317504819482565,0.9809728264808655
1667405021.03856707,110117192,1,0.1903565227985382,0.0371113047003746,-0.004286420065909624,0.9810039401054382
1667405021.07859397,110157219,1,0.18875263631343842,0.0391203835606575,-0.0033123577013611794,0.9812395572662354
1667405021.11860704,110197232,1,0.18726006150245667,0.0408676341176033,-0.006829011719673872,0.9814361333847046
1667405021.15859413,110237219,1,0.1859665960073471,0.04378066211938858,-0.006718253716826439,0.9815571904182434
1667405021.19858813,110277213,1,0.18474081158638,0.04598839208483696,-0.007757878862321377,0.9816800355911255
1667405021.21859503,110297220,1,0.18391618132591248,0.04651143401861191,-0.005665064323693514,0.981824517250061
1667405021.23856711,110317192,1,0.18288782238960266,0.04663471505045891,-0.008511082269251347,0.9819902181625366
1667405021.27856708,110357192,1,0.1811792105436325,0.046885523945093155,-0.007486636284738779,0.9823033213615417
1667405021.31859303,110397218,1,0.1791629046201706,0.04728347808122635,-0.005363586358726025,0.982667863368988
1667405021.35860395,110437229,1,0.17741061747074127,0.0472719743847847,-0.004844550509005785,0.9829890131950378
1667405021.39861012,110477235,1,0.175354465842247,0.04712945967912674,-0.0033055644016712904,0.9833710789680481
1667405021.41858792,110497213,1,0.1740378737449646,0.04774162173271179,-0.004697082098573446,0.9835697412490845
1667405021.43856692,110517192,1,0.17287497222423553,0.049663640558719635,-0.0022188695147633553,0.9836884140968323
1667405021.47856998,110557195,1,0.17073987424373627,0.05074521154165268,-0.0018305127741768956,0.9840068221092224
1667405021.51856709,110597192,1,0.16820259392261505,0.052964553236961365,-0.0012908129720017314,0.9843276739120483
1667405021.55859208,110637217,1,0.16649886965751648,0.0532618872821331,-0.0006608347757719457,0.9846018552780151
1667405021.59857702,110677202,1,0.1640806496143341,0.05166656896471977,-0.0009700187365524471,0.9850924611091614
1667405021.61856413,110697189,1,0.16245034337043762,0.050316303968429565,-0.0011024146806448698,0.9854323863983154
1667405021.63859892,110717224,1,0.1617678999900818,0.04846792668104172,-0.001945322030223906,0.9856359362602234
1667405021.67856812,110757193,1,0.15909788012504578,0.047256048768758774,-0.0014358615735545754,0.9861301183700562
1667405021.71856499,110797190,1,0.15639503300189972,0.044464826583862305,-0.001094516017474234,0.9866926074028015
1667405021.75858593,110837211,1,0.15423274040222168,0.04336177930235863,-0.0025986148975789547,0.9870791435241699
1667405021.79861307,110877238,1,0.15204286575317383,0.041539084166288376,-0.004291377495974302,0.9874913096427917
1667405021.81859994,110897225,1,0.15033474564552307,0.04149898514151573,-0.0015396539820358157,0.9877625703811646
1667405021.83860707,110917232,1,0.14942798018455505,0.04162738099694252,-0.003964255563914776,0.9878880381584167
1667405021.87855411,110957179,1,0.1466194987297058,0.041398849338293076,-0.004970851354300976,0.9883137941360474
1667405021.91856599,110997191,1,0.1441573053598404,0.04131687805056572,-0.003960650879889727,0.9886839389801025
1667405021.95857310,111037198,1,0.14197957515716553,0.0400971882045269,-0.005283965729176998,0.9890429973602295
1667405021.99859905,111077224,1,0.13925117254257202,0.03897184506058693,-0.005619766190648079,0.9894739389419556
1667405022.01856494,111097190,1,0.13856442272663116,0.03992488235235214,-0.003673285013064742,0.9895415306091309
1667405022.03860712,111117232,1,0.13673867285251617,0.04044358432292938,-0.0033022069837898016,0.9897757172584534
1667405022.07860613,111157231,1,0.13480709493160248,0.04097903147339821,-0.004839629400521517,0.9900122880935669
1667405022.11857104,111197196,1,0.1324518620967865,0.04123251512646675,-0.003812662558630109,0.9903241395950317
1667405022.15856504,111237190,1,0.13055840134620667,0.04341431334614754,-0.004226161632686853,0.9904806017875671
1667405022.19856501,111277190,1,0.12871213257312775,0.046262603253126144,-0.0062208957970142365,0.9905827641487122
1667405022.21862411,111297249,1,0.12764984369277954,0.04727718606591225,-0.007705214433372021,0.9906619191169739
1667405022.23860192,111317227,1,0.12672296166419983,0.04836251959204674,-0.006909571122378111,0.9907343983650208
1667405022.27859497,111357220,1,0.1248740553855896,0.05173288658261299,-0.008280407637357712,0.9907884001731873
1667405022.31860709,111397232,1,0.1236441358923912,0.054837729781866074,-0.008835340850055218,0.9907708764076233
1667405022.35857201,111437197,1,0.12266722321510315,0.05779440328478813,-0.007444102317094803,0.990735650062561
1667405022.39857793,111477203,1,0.12206099927425385,0.05830052122473717,-0.008565154857933521,0.9907718300819397
1667405022.41861010,111497235,1,0.12209193408489227,0.058632880449295044,-0.008863800205290318,0.9907457828521729
1667405022.43856812,111517193,1,0.1216522678732872,0.057757943868637085,-0.009477097541093826,0.9908455610275269
1667405022.47858810,111557213,1,0.12176913022994995,0.05414728820323944,-0.009097452275454998,0.9910386204719543
1667405022.51857114,111597196,1,0.12193126231431961,0.049968454986810684,-0.0094606913626194,0.9912347793579102
1667405022.55859900,111637224,1,0.12269432842731476,0.043302178382873535,-0.00857997965067625,0.991462230682373
1667405022.59857607,111677201,1,0.123333640396595,0.035417068749666214,-0.008845179341733456,0.9916936159133911
1667405022.61860514,111697230,1,0.12371527403593063,0.03238758072257042,-0.007369368337094784,0.9917616844177246
1667405022.63856697,111717192,1,0.12415913492441177,0.027591988444328308,-0.00622753519564867,0.9918590784072876
1667405022.67858315,111757208,1,0.1251121610403061,0.019704069942235947,-0.005766519345343113,0.9919301867485046
1667405022.71860003,111797225,1,0.1268322765827179,0.013256664387881756,-0.004493112675845623,0.9918254017829895
1667405022.75857306,111837198,1,0.12817057967185974,0.00879249069839716,-0.004585203714668751,0.9917025566101074
1667405022.79857707,111877202,1,0.1296267807483673,0.008425160311162472,-0.00430499529466033,0.9915177226066589
1667405022.81859207,111897217,1,0.13011136651039124,0.008933077566325665,-0.005046915262937546,0.991446316242218
1667405022.83856511,111917190,1,0.1306513100862503,0.009816384874284267,-0.005087861325591803,0.9913667440414429
1667405022.87857294,111957198,1,0.13181480765342712,0.012013350613415241,-0.005396879278123379,0.9911868572235107
1667405022.91859698,111997222,1,0.13308806717395782,0.01656140200793743,-0.005715789273381233,0.9909493327140808
1667405022.95859194,112037217,1,0.13463106751441956,0.020392922684550285,-0.009680750779807568,0.9906386137008667
1667405022.99859905,112077224,1,0.1356632113456726,0.025895508006215096,-0.009687353856861591,0.9903691411018372
1667405023.01856709,112097192,1,0.13605040311813354,0.02743668109178543,-0.01173081062734127,0.9902524352073669
1667405023.03856707,112117192,1,0.13727641105651855,0.029781818389892578,-0.011123090982437134,0.9900224804878235
1667405023.07856894,112157194,1,0.1378353089094162,0.033535782247781754,-0.01189759373664856,0.9898157715797424
1667405023.11856508,112197190,1,0.13931377232074738,0.03997643291950226,-0.011683116666972637,0.9893720746040344
1667405023.15859413,112237219,1,0.141156405210495,0.04406776651740074,-0.014005700126290321,0.9889068603515625
1667405023.19859910,112277224,1,0.14212867617607117,0.04777880758047104,-0.013906256295740604,0.9885966181755066
1667405023.21856999,112297195,1,0.14257745444774628,0.05033573880791664,-0.01332407258450985,0.9884130954742432
1667405023.23859811,112317223,1,0.1435423642396927,0.051092542707920074,-0.013152574189007282,0.9882369041442871
1667405023.27857208,112357197,1,0.14534255862236023,0.05323757603764534,-0.01423823181539774,0.9878454208374023
1667405023.31856394,112397189,1,0.1467592716217041,0.05238870158791542,-0.012834629975259304,0.9877005815505981
1667405023.35856605,112437191,1,0.14837022125720978,0.05298840254545212,-0.010706641711294651,0.9874532222747803
1667405023.39858413,112477209,1,0.15045735239982605,0.05280887335538864,-0.011306931264698505,0.9871402978897095
1667405023.41856813,112497193,1,0.1510343700647354,0.05244194343686104,-0.010340359061956406,0.9870823621749878
1667405023.43857312,112517198,1,0.15208975970745087,0.05139211565256119,-0.011487315408885479,0.9869627952575684
1667405023.47859001,112557215,1,0.15406128764152527,0.04974689707159996,-0.009351002983748913,0.9867638945579529
1667405023.51856899,112597194,1,0.15600265562534332,0.046678103506565094,-0.009000023826956749,0.9866120219230652
1667405023.55857110,112637196,1,0.15817666053771973,0.04288408160209656,-0.008713747374713421,0.9864406585693359
1667405023.59860110,112677226,1,0.16020719707012177,0.039282314479351044,-0.00879238173365593,0.9862622618675232
1667405023.61856699,112697192,1,0.16099651157855988,0.03817477077245712,-0.008091112598776817,0.986183226108551
1667405023.63860106,112717226,1,0.16197988390922546,0.036739323288202286,-0.007326905149966478,0.9860826730728149
1667405023.67860293,112757228,1,0.16338881850242615,0.03410038724541664,-0.00391153059899807,0.9859644770622253
1667405023.71857715,112797202,1,0.16502517461776733,0.03296678140759468,-0.0026821147184818983,0.9857345819473267
1667405023.75856900,112837194,1,0.16714292764663696,0.031127052381634712,-0.001395423081703484,0.985440194606781
1667405023.79856300,112877188,1,0.16872531175613403,0.031148258596658707,0.0014393653254956007,0.9851697683334351
1667405023.81860614,112897231,1,0.16908186674118042,0.03200981393456459,0.003143271431326866,0.9850770831108093
1667405023.83859301,112917218,1,0.16955478489398956,0.031341202557086945,0.0015840712003409863,0.9850209951400757
1667405023.87860394,112957229,1,0.17134372889995575,0.03233877941966057,0.0021923366002738476,0.9846779704093933
1667405023.91858697,112997212,1,0.17245277762413025,0.03506059572100639,0.003957489505410194,0.9843856692314148
1667405023.95860600,113037231,1,0.1736997812986374,0.036006711423397064,0.002163821831345558,0.9841378331184387
1667405023.99856997,113077195,1,0.1750248223543167,0.03817358985543251,0.0015317624201998115,0.9838225245475769
1667405024.01860905,113097234,1,0.1753106415271759,0.03922337666153908,0.001759665785357356,0.9837299585342407
1667405024.03856492,113117190,1,0.17600378394126892,0.040021441876888275,0.0020893889013677835,0.9835733771324158
1667405024.07859111,113157216,1,0.17702245712280273,0.040463339537382126,-0.0009804869769141078,0.9833741784095764
1667405024.11859608,113197221,1,0.1776960790157318,0.04061177745461464,-0.002466157777234912,0.9832439422607422
1667405024.15859604,113237221,1,0.1790352463722229,0.039569780230522156,-0.002689450979232788,0.9830428957939148
1667405024.19857693,113277202,1,0.17987529933452606,0.03901008516550064,-0.004558208864182234,0.9829050302505493
1667405024.21860600,113297231,1,0.18038196861743927,0.03976297006011009,-0.002818826586008072,0.9827885627746582
1667405024.23855305,113317178,1,0.18051831424236298,0.039979174733161926,-0.0012576769804582,0.9827579855918884
1667405024.27856708,113357192,1,0.1810748428106308,0.038958169519901276,-0.0009942523902282119,0.9826968908309937
1667405024.31859112,113397216,1,0.18166381120681763,0.039079952985048294,-0.0019159176154062152,0.9825819730758667
1667405024.35860205,113437227,1,0.18209348618984222,0.03874348849058151,-0.001154055935330689,0.9825169444084167
1667405024.39858103,113477206,1,0.1820131242275238,0.03861776366829872,-0.0010518894996494055,0.9825369119644165
1667405024.41859508,113497220,1,0.18179668486118317,0.03850670903921127,0.0013568338472396135,0.9825809597969055
1667405024.43856692,113517192,1,0.18159005045890808,0.03958098962903023,0.0009910709923133254,0.9825769066810608
1667405024.47857308,113557198,1,0.18095634877681732,0.03881695121526718,0.0013624613638967276,0.9827238917350769
1667405024.51859403,113597219,1,0.18059910833835602,0.03777964785695076,0.003914902452379465,0.9828231334686279
1667405024.55859804,113637223,1,0.1793774962425232,0.03689529001712799,0.005961081478744745,0.9830701351165771
1667405024.59862804,113677253,1,0.17879725992679596,0.03540051728487015,0.008999550715088844,0.9832077026367188
1667405024.61857796,113697203,1,0.17776437103748322,0.0356992706656456,0.011608482338488102,0.9833568334579468
1667405024.63856792,113717193,1,0.17738056182861328,0.03507459908723831,0.010952314361929893,0.9834561347961426
1667405024.67856598,113757191,1,0.1761154979467392,0.035660408437252045,0.014799175783991814,0.983612060546875
1667405024.71856403,113797189,1,0.17436446249485016,0.03518854081630707,0.01683632656931877,0.9839081764221191
1667405024.75859594,113837221,1,0.17303302884101868,0.035362377762794495,0.01981065608561039,0.9840816259384155
1667405024.79861212,113877237,1,0.1708117127418518,0.036615438759326935,0.022698648273944855,0.9843614101409912
1667405024.81856608,113897191,1,0.1698552966117859,0.036172010004520416,0.025928810238838196,0.9844635128974915
1667405024.83860493,113917230,1,0.16917885839939117,0.0358123742043972,0.02403648942708969,0.9846411943435669
1667405024.87856698,113957192,1,0.16751313209533691,0.03579627722501755,0.02430863305926323,0.9849198460578918
1667405024.91856813,113997193,1,0.16552166640758514,0.036212190985679626,0.026253197342157364,0.9851913452148438
1667405024.95858002,114037205,1,0.16419154405593872,0.03599318489432335,0.02697211317718029,0.985402524471283
1667405024.99859214,114077217,1,0.1626652628183365,0.035310693085193634,0.026948614045977592,0.9856809377670288
1667405025.01856613,114097191,1,0.16137149930000305,0.03413734585046768,0.024350754916667938,0.986002504825592
1667405025.03857613,114117201,1,0.16023792326450348,0.03457271307706833,0.02772870473563671,0.9860829710960388
1667405025.07860613,114157231,1,0.15819218754768372,0.03321058675646782,0.026539482176303864,0.9864927530288696
1667405025.11856699,114197192,1,0.15602315962314606,0.03290895000100136,0.02612805925309658,0.9868592023849487
1667405025.15856600,114237191,1,0.15320642292499542,0.03191711753606796,0.025193193927407265,0.9873572587966919
1667405025.19856715,114277192,1,0.15054897964000702,0.03135202080011368,0.027253195643424988,0.9877293705940247
1667405025.21854210,114297167,1,0.14856842160224915,0.030169032514095306,0.026366930454969406,0.9880900979042053
1667405025.23860002,114317225,1,0.14749892055988312,0.02948411926627159,0.027073364704847336,0.9882518649101257
1667405025.27858400,114357209,1,0.14400051534175873,0.0285906121134758,0.027591604739427567,0.988779604434967
1667405025.31860614,114397231,1,0.14056089520454407,0.02538551203906536,0.027930274605751038,0.9893523454666138
1667405025.35856915,114437194,1,0.13729605078697205,0.022650757804512978,0.03136748448014259,0.9897741079330444
1667405025.39857101,114477196,1,0.13336114585399628,0.018981697037816048,0.03267021104693413,0.9903469681739807
1667405025.41860104,114497226,1,0.1312110424041748,0.01665005274116993,0.03305775299668312,0.9906632304191589
1667405025.43859506,114517220,1,0.12961862981319427,0.015196886844933033,0.033749058842659,0.990872859954834
1667405025.47859597,114557221,1,0.12565603852272034,0.012189500033855438,0.03669951111078262,0.9913198947906494
1667405025.51860404,114597229,1,0.12194748967885971,0.008654505014419556,0.038693565875291824,0.9917442798614502
1667405025.55858994,114637215,1,0.11822798103094101,0.005425863433629274,0.039712365716695786,0.9921772480010986
1667405025.59856796,114677193,1,0.11502145230770111,0.0037186150439083576,0.04023377224802971,0.9925408959388733
1667405025.61859703,114697222,1,0.11330141872167587,0.003284592181444168,0.03975073620676994,0.9927597045898438
1667405025.63856912,114717194,1,0.11137502640485764,0.0028592688031494617,0.04001307487487793,0.9929684400558472
1667405025.67859507,114757220,1,0.10837172716856003,0.002611609408631921,0.04084426164627075,0.9932675957679749
1667405025.71860313,114797228,1,0.10477927327156067,0.0018424664158374071,0.04171149060130119,0.9936186671257019
1667405025.75860310,114837228,1,0.10168007016181946,0.001703902380540967,0.04129284992814064,0.9939583539962769
1667405025.79856396,114877189,1,0.09919331222772598,0.0007144849514588714,0.04040156677365303,0.9942473769187927
1667405025.81861401,114897239,1,0.09721653163433075,0.0006604049121960998,0.04140642285346985,0.9944013357162476
1667405025.83856797,114917193,1,0.09562895447015762,0.00012689907453022897,0.03951273486018181,0.9946324825286865
1667405025.87857199,114957197,1,0.0922820046544075,-0.0007684740121476352,0.04146493971347809,0.9948688745498657
1667405025.91858315,114997208,1,0.08980219811201096,-0.0004110313893761486,0.04035262390971184,0.9951417446136475
1667405025.95859098,115037216,1,0.08687316626310349,0.0005624500336125493,0.03611301630735397,0.9955644607543945
1667405025.99860692,115077232,1,0.0836302638053894,0.0010741617297753692,0.03504886478185654,0.9958797097206116
1667405026.01859307,115097218,1,0.0824313536286354,0.0006366122979670763,0.033893752843141556,0.9960200190544128
1667405026.03857398,115117199,1,0.08061349391937256,0.0002517150132916868,0.03642616793513298,0.9960795640945435
1667405026.07857299,115157198,1,0.0776667669415474,0.00013991622836329043,0.03567948192358017,0.9963406920433044
1667405026.11861014,115197235,1,0.07488150149583817,0.0005640287999995053,0.03390107303857803,0.9966158270835876
