timestamp,TimeUS,DesRoll,Roll,DesPitch,Pitch,DesYaw,Yaw,ErrRP,ErrYaw,AEKF
1681941452.04147577,10505190,0.0,0.21,0.0,1.37,0.0,0.0,1.0,1.0,0
1681941452.14125299,10604967,0.0,0.21,0.0,1.36,104.64,104.64,1.0,0.8,0
1681941452.24115396,10704868,0.0,0.2,0.0,1.37,104.25,104.25,0.8,0.65,0
1681941452.34123492,10804949,0.0,0.2,0.0,1.37,104.35000000000001,104.35000000000001,0.8,0.52,0
1681941452.44107985,10904794,0.0,0.19,0.0,1.37,104.27,104.27,0.64,0.42,0
1681941452.54104185,11004756,0.0,0.18,0.0,1.37,104.11,104.11,0.64,0.34,0
1681941452.64112687,11104841,0.0,0.18,0.0,1.37,104.15,104.15,0.51,0.28,0
1681941452.74113488,11204849,0.0,0.17,0.0,1.37,103.76,103.76,0.51,0.24,0
1681941452.84115076,11304865,0.0,0.18,0.0,1.37,104.19,104.19,0.4,0.21,0
1681941452.94124389,11404958,0.0,0.19,0.0,1.36,104.32000000000001,104.32000000000001,0.4,0.17,0
1681941453.04132295,11505037,0.0,0.2,0.0,1.36,104.59,104.59,0.32,0.15,0
1681941453.14137387,11605088,0.0,0.19,0.0,1.36,104.56,104.56,0.32,0.12,0
1681941453.24124599,11704960,0.0,0.19,0.0,1.35,104.38,104.38,0.26,0.1,0
1681941453.34127998,11804994,0.0,0.18,0.0,1.35,104.44,104.44,0.26,0.08,0
1681941453.44116998,11904884,0.0,0.18,0.0,1.35,104.36,104.36,0.2,0.07,0
1681941453.54125881,12004973,0.0,0.18,0.0,1.35,104.53,104.53,0.2,0.06,0
1681941453.64125180,12104966,0.0,0.19,0.0,1.35,104.88,104.88,0.16,0.06,0
1681941453.74129081,12205005,0.0,0.19,0.0,1.35,104.82000000000001,104.82000000000001,0.16,0.05,0
1681941453.84129882,12305013,0.0,0.18,0.0,1.35,104.57000000000001,104.57000000000001,0.13,0.05,0
1681941453.94143176,12405146,0.0,0.18,0.0,1.34,104.82000000000001,104.82000000000001,0.13,0.05,0
1681941454.04138494,12505099,-0.24,-0.25,-0.01,1.31,0.0,0.0,0.1,0.04,3
1681941454.14138985,12605104,-0.12,-0.25,0.0,1.31,359.99,0.0,0.1,0.03,3
1681941454.24130082,12705015,-0.06,-0.25,0.0,1.31,359.99,0.0,0.08,0.03,3
1681941454.34119797,12804912,-0.03,-0.25,0.0,1.31,359.99,0.0,0.08,0.02,3
1681941454.44131088,12905025,-0.01,-0.24,0.0,1.32,359.99,0.0,0.06,0.02,3
1681941454.54158378,13005298,0.0,-0.24,0.0,1.32,359.99,0.0,0.06,0.02,3
1681941454.64156079,13105275,0.0,-0.24,0.0,1.32,359.98,359.99,0.05,0.03,3
1681941454.74133992,13205054,0.0,-0.24,0.0,1.32,359.98,359.99,0.05,0.03,3
1681941454.84135485,13305069,0.0,-0.24,0.0,1.32,359.98,359.99,0.04,0.03,3
1681941454.94144487,13405159,0.0,-0.24,0.0,1.33,359.98,359.99,0.04,0.04,3
1681941455.04130483,13505019,0.0,-0.24,0.0,1.33,359.98,359.99,0.03,0.03,3
1681941455.14134097,13605055,0.0,-0.24,0.0,1.33,359.97,359.98,0.03,0.03,3
1681941455.24146676,13705181,0.0,-0.24,0.0,1.34,359.97,359.98,0.02,0.02,3
1681941455.34161282,13805327,0.0,-0.24,0.0,1.35,359.97,359.98,0.02,0.02,3
1681941455.44128585,13905000,0.0,-0.24,0.0,1.36,359.96,359.97,0.02,0.02,3
1681941455.54142785,14005142,-0.01,-0.26,0.0,1.36,104.75,104.75,0.02,0.02,3
1681941455.64139390,14105108,0.0,-0.25,0.0,1.36,104.68,104.68,0.01,0.02,3
1681941455.74142385,14205138,0.0,-0.25,0.0,1.37,104.7,104.7,0.01,0.03,3
1681941455.84160495,14305319,0.0,-0.23,0.0,1.3800000000000001,104.95,104.95,0.01,0.04,3
1681941455.94165397,14405368,0.0,-0.21,0.0,1.3800000000000001,105.39,105.39,0.01,0.03,3
1681941456.04131579,14505030,0.0,-0.2,0.0,1.3900000000000001,105.82000000000001,105.82000000000001,0.01,0.04,3
1681941456.14123392,14604948,0.0,-0.2,0.0,1.3900000000000001,106.06,106.06,0.01,0.03,3
1681941456.24128890,14705003,0.0,-0.19,0.0,1.3900000000000001,106.07000000000001,106.07000000000001,0.0,0.03,3
1681941456.34130597,14805020,0.0,-0.19,0.0,1.3900000000000001,105.95,105.95,0.0,0.02,3
1681941456.44130492,14905019,0.0,-0.2,0.0,1.3900000000000001,105.77,105.77,0.0,0.02,3
1681941456.54138780,15005102,0.0,-0.2,0.0,1.3900000000000001,105.55,105.55,0.0,0.03,3
1681941456.64140487,15105119,0.0,-0.2,0.0,1.3900000000000001,105.31,105.31,0.0,0.03,3
1681941456.74141979,15205134,0.0,-0.2,0.0,1.3900000000000001,105.05,105.05,0.0,0.02,3
1681941456.84159684,15305311,0.0,-0.21,0.0,1.4000000000000001,104.85000000000001,104.85000000000001,0.0,0.02,3
1681941456.94168496,15405399,0.0,-0.21,0.0,1.4000000000000001,104.71000000000001,104.71000000000001,0.0,0.03,3
1681941457.04146099,15505175,0.0,-0.23,0.0,1.3900000000000001,104.67,104.67,0.0,0.02,3
1681941457.14174795,15605462,0.0,-0.23,0.0,1.3900000000000001,104.7,104.7,0.0,0.02,3
1681941457.24131393,15705028,0.0,-0.24,0.0,1.3900000000000001,104.75,104.75,0.0,0.02,3
1681941457.34133577,15805050,0.0,-0.24,0.0,1.3900000000000001,104.79,104.79,0.0,0.02,3
1681941457.44134283,15905057,0.0,-0.25,0.0,1.3800000000000001,104.79,104.79,0.0,0.02,3
1681941457.54142284,16005137,0.0,-0.25,0.0,1.3800000000000001,104.77,104.77,0.0,0.03,3
1681941457.64148593,16105200,0.0,-0.26,0.0,1.3800000000000001,104.79,104.79,0.0,0.03,3
1681941457.74162388,16205338,0.0,-0.26,0.0,1.37,104.84,104.84,0.0,0.03,3
1681941457.84129190,16305006,0.0,-0.27,0.0,1.37,104.89,104.89,0.0,0.03,3
1681941457.94122982,16404944,0.0,-0.27,0.0,1.37,104.91,104.91,0.0,0.02,3
1681941458.04128289,16504997,0.0,-0.27,0.0,1.37,104.92,104.92,0.0,0.03,3
1681941458.14132786,16605042,0.0,-0.27,0.0,1.37,104.92,104.92,0.0,0.02,3
1681941458.24131680,16705031,0.0,-0.27,0.0,1.37,104.93,104.93,0.0,0.02,3
1681941458.34158278,16805297,0.0,-0.26,0.0,1.37,104.96000000000001,104.96000000000001,0.0,0.02,3
1681941458.44158387,16905298,0.0,-0.27,0.0,1.37,105.0,105.0,0.0,0.02,3
1681941458.54142976,17005144,0.0,-0.27,0.0,1.3800000000000001,105.06,105.06,0.0,0.03,3
1681941458.64130497,17105019,0.0,-0.26,0.0,1.3800000000000001,105.11,105.11,0.0,0.02,3
1681941458.74131989,17205034,0.0,-0.26,0.0,1.3800000000000001,105.14,105.14,0.0,0.02,3
1681941458.84115195,17304866,0.0,-0.26,0.0,1.3800000000000001,105.14,105.14,0.0,0.01,3
1681941458.94135594,17405070,0.0,-0.26,0.0,1.3900000000000001,105.13,105.13,0.0,0.02,3
1681941459.04157495,17505289,0.0,-0.25,0.0,1.3800000000000001,105.10000000000001,105.10000000000001,0.0,0.01,3
1681941459.14161992,17605334,0.0,-0.25,0.0,1.3900000000000001,105.06,105.06,0.0,0.01,3
1681941459.24134398,17705058,0.0,-0.25,0.0,1.3900000000000001,105.03,105.03,0.0,0.01,3
1681941459.34140992,17805124,0.0,-0.25,0.0,1.3900000000000001,104.99000000000001,104.99000000000001,0.0,0.02,3
1681941459.44156289,17905277,0.0,-0.24,0.0,1.3900000000000001,104.98,104.98,0.0,0.01,3
1681941459.54159689,18005311,0.0,-0.24,0.0,1.3900000000000001,105.0,105.0,0.0,0.01,3
1681941459.64151883,18105233,0.0,-0.24,0.0,1.4000000000000001,105.03,105.03,0.0,0.01,3
1681941459.74149990,18205214,0.0,-0.23,0.0,1.4000000000000001,105.07000000000001,105.07000000000001,0.0,0.02,3
1681941459.84157276,18305287,0.0,-0.23,0.0,1.4000000000000001,105.13,105.13,0.0,0.01,3
1681941459.94186878,18405583,0.0,-0.22,0.0,1.41,105.2,105.2,0.0,0.02,3
1681941460.04156995,18505284,0.0,-0.22,0.0,1.41,105.23,105.23,0.0,0.02,3
1681941460.14160991,18605324,0.0,-0.22,0.0,1.41,105.25,105.25,0.0,0.02,3
1681941460.24159384,18705308,0.0,-0.21,0.0,1.41,105.26,105.26,0.0,0.01,3
1681941460.34143281,18805147,0.0,-0.21,0.0,1.41,105.28,105.28,0.0,0.02,3
1681941460.44130397,18905018,0.0,-0.21,0.0,1.41,105.31,105.31,0.0,0.03,3
1681941460.54166794,19005382,0.0,-0.2,0.0,1.42,105.31,105.31,0.0,0.02,3
1681941460.64147878,19105193,0.0,-0.2,0.0,1.42,105.27,105.27,0.0,0.02,3
1681941460.74158192,19205296,0.0,-0.2,0.0,1.42,105.22,105.22,0.0,0.03,3
1681941460.84156585,19305280,0.0,-0.19,0.0,1.42,105.2,105.2,0.0,0.03,3
1681941460.94160676,19405321,0.0,-0.19,0.0,1.42,105.21000000000001,105.21000000000001,0.0,0.02,3
1681941461.04155779,19505272,0.0,-0.19,0.0,1.43,105.21000000000001,105.21000000000001,0.0,0.04,3
1681941461.14163184,19605346,0.0,-0.18,0.0,1.43,105.18,105.18,0.0,0.03,3
1681941461.24158692,19705301,0.0,-0.18,0.0,1.43,105.12,105.12,0.0,0.03,3
1681941461.34181380,19805528,0.0,-0.18,0.0,1.43,105.06,105.06,0.0,0.02,3
1681941461.44164181,19905356,0.0,-0.18,0.0,1.44,105.02,105.02,0.0,0.04,3
1681941461.54120779,20004922,0.0,-0.18,0.0,1.44,105.02,105.02,0.0,0.04,3
1681941461.64127779,20104992,0.0,-0.18,0.0,1.45,105.06,105.06,0.0,0.04,3
1681941461.74128485,20204999,0.0,-0.18,0.0,1.45,105.05,105.05,0.0,0.03,3
1681941461.84140396,20305118,0.0,-0.17,0.0,1.45,105.02,105.02,0.0,0.03,3
1681941461.94142985,20405144,0.0,-0.17,0.0,1.45,104.98,104.98,0.0,0.03,3
1681941462.04142284,20505137,0.0,-0.17,0.0,1.46,104.95,104.96000000000001,0.0,0.02,3
1681941462.14147282,20605187,0.0,-0.17,0.0,1.46,104.94,104.94,0.0,0.02,3
1681941462.24160790,20705322,0.0,-0.17,0.0,1.45,104.91,104.91,0.0,0.02,3
1681941462.34132576,20805040,0.0,-0.16,0.0,1.45,104.89,104.89,0.0,0.02,3
1681941462.44119883,20904913,0.0,-0.17,0.0,1.45,104.87,104.87,0.0,0.03,3
1681941462.54127884,21004993,0.0,-0.16,0.0,1.45,104.87,104.87,0.0,0.03,3
1681941462.64128494,21104999,0.0,-0.17,0.0,1.45,104.91,104.91,0.0,0.03,3
1681941462.74130797,21205022,0.0,-0.16,0.0,1.45,104.97,104.97,0.0,0.03,3
1681941462.84134197,21305056,0.0,-0.17,0.0,1.45,105.05,105.05,0.0,0.03,3
1681941462.94162297,21405337,0.0,-0.16,0.0,1.45,105.09,105.09,0.0,0.02,3
1681941463.04141784,21505132,0.0,-0.16,0.0,1.45,105.10000000000001,105.10000000000001,0.0,0.03,3
1681941463.14147997,21605194,0.0,-0.15,0.0,1.45,105.11,105.11,0.0,0.02,3
1681941463.24129796,21705012,0.0,-0.17,0.0,1.46,105.14,105.14,0.0,0.02,3
1681941463.34119081,21804905,0.0,-0.16,0.0,1.44,105.15,105.15,0.0,0.02,3
1681941463.44127798,21904992,0.0,-0.16,0.0,1.45,105.17,105.17,0.0,0.02,3
1681941463.54131079,22005025,0.0,-0.16,0.0,1.45,105.18,105.18,0.0,0.02,3
1681941463.64157176,22105286,0.0,-0.16,0.0,1.44,105.21000000000001,105.21000000000001,0.0,0.02,3
1681941463.74140882,22205123,0.0,-0.16,0.0,1.44,105.27,105.27,0.0,0.02,3
1681941463.84141779,22305132,0.0,-0.16,0.0,1.44,105.34,105.34,0.0,0.02,3
1681941463.94151282,22405227,0.0,-0.16,0.0,1.44,105.4,105.4,0.0,0.02,3
1681941464.04135299,22505067,0.0,-0.16,0.0,1.44,105.46000000000001,105.46000000000001,0.0,0.02,3
1681941464.14134884,22605063,0.0,-0.16,0.0,1.44,105.49000000000001,105.49000000000001,0.0,0.01,3
1681941464.24118590,22704900,0.0,-0.17,0.0,1.44,105.49000000000001,105.49000000000001,0.0,0.01,3
1681941464.34129095,22805005,0.0,-0.16,0.0,1.44,105.5,105.5,0.0,0.02,3
1681941464.44153595,22905250,0.0,-0.16,0.0,1.44,105.49000000000001,105.49000000000001,0.0,0.01,3
1681941464.54157686,23005291,0.0,-0.16,0.0,1.44,105.48,105.48,0.0,0.03,3
1681941464.64134598,23105060,0.0,-0.16,0.0,1.44,105.45,105.45,0.0,0.03,3
1681941464.74140978,23205124,0.0,-0.17,0.0,1.45,105.38,105.38,0.0,0.03,3
1681941464.84142590,23305140,0.0,-0.17,0.0,1.44,105.31,105.31,0.0,0.03,3
1681941464.94140577,23405120,0.0,-0.16,0.0,1.44,105.27,105.27,0.0,0.02,3
1681941465.04130077,23505015,0.0,-0.16,0.0,1.44,105.25,105.25,0.0,0.02,3
1681941465.14155078,23605265,0.0,-0.16,0.0,1.44,105.26,105.26,0.0,0.02,3
1681941465.24157786,23705292,0.0,-0.16,0.0,1.44,105.28,105.28,0.0,0.02,3
1681941465.34158492,23805299,0.0,-0.16,0.0,1.44,105.3,105.3,0.0,0.01,3
1681941465.44156885,23905283,0.0,-0.16,0.0,1.44,105.32000000000001,105.32000000000001,0.0,0.02,3
1681941465.54135394,24005068,0.0,-0.15,0.0,1.44,105.35000000000001,105.35000000000001,0.0,0.03,3
1681941465.64139676,24105111,0.0,-0.15,0.0,1.44,105.38,105.38,0.0,0.02,3
1681941465.74157095,24205285,0.0,-0.15,0.0,1.44,105.39,105.39,0.0,0.03,3
1681941465.84158683,24305301,0.0,-0.15,0.0,1.43,105.37,105.37,0.0,0.02,3
1681941465.94167089,24405385,0.0,-0.16,0.0,1.43,105.34,105.34,0.0,0.02,3
1681941466.04148483,24505199,0.0,-0.16,0.0,1.44,105.29,105.29,0.0,0.01,3
1681941466.14167500,24605389,0.0,-0.16,0.0,1.44,105.26,105.26,0.0,0.01,3
1681941466.24178386,24705498,0.0,-0.16,0.0,1.44,105.23,105.23,0.0,0.01,3
1681941466.34131289,24805027,0.0,-0.16,0.0,1.44,105.2,105.2,0.0,0.03,3
1681941466.44134092,24905055,0.0,-0.16,0.0,1.44,105.16,105.16,0.0,0.03,3
1681941466.54142976,25005144,0.0,-0.16,0.0,1.44,105.09,105.09,0.0,0.02,3
1681941466.64142394,25105138,0.0,-0.16,0.0,1.44,105.02,105.02,0.0,0.02,3
1681941466.74138284,25205097,0.0,-0.16,0.0,1.44,104.97,104.97,0.0,0.02,3
1681941466.84129381,25305008,0.0,-0.17,0.0,1.44,104.92,104.92,0.0,0.03,3
1681941466.94123292,25404947,0.0,-0.16,0.0,1.45,104.86,104.86,0.0,0.03,3
1681941467.04132295,25505037,0.0,-0.16,0.0,1.44,104.77,104.77,0.0,0.03,3
1681941467.14158177,25605296,0.0,-0.16,0.0,1.45,104.68,104.68,0.0,0.02,3
1681941467.24155283,25705267,0.0,-0.15,0.0,1.44,104.62,104.62,0.0,0.02,3
1681941467.34157276,25805287,0.0,-0.15,0.0,1.45,104.58,104.58,0.0,0.02,3
1681941467.44158077,25905295,0.0,-0.15,0.0,1.45,104.56,104.56,0.0,0.02,3
1681941467.54160380,26005318,0.0,-0.15,0.0,1.44,104.55,104.55,0.0,0.01,3
1681941467.64161491,26105329,0.0,-0.15,0.0,1.45,104.53,104.53,0.0,0.01,3
1681941467.74166584,26205380,0.0,-0.15,0.0,1.44,104.5,104.5,0.0,0.02,3
1681941467.84145880,26305173,0.0,-0.15,0.0,1.44,104.49000000000001,104.49000000000001,0.0,0.01,3
1681941467.94167185,26405386,0.0,-0.14,0.0,1.44,104.48,104.48,0.0,0.02,3
1681941468.04155993,26505274,0.0,-0.14,0.0,1.44,104.49000000000001,104.49000000000001,0.0,0.02,3
1681941468.14165497,26605369,0.0,-0.14,0.0,1.44,104.48,104.48,0.0,0.03,3
1681941468.24134684,26705061,0.0,-0.14,0.0,1.44,104.43,104.43,0.0,0.04,3
1681941468.34140587,26805120,0.0,-0.14,0.0,1.44,104.33,104.33,0.0,0.05,3
1681941468.44135690,26905071,0.0,-0.13,0.0,1.44,104.19,104.19,0.0,0.05,3
1681941468.54135799,27005072,0.0,-0.13,0.0,1.43,104.03,104.03,0.0,0.06,3
1681941468.64131594,27105030,0.0,-0.13,0.0,1.43,103.87,103.87,0.0,0.07,3
1681941468.74146485,27205179,0.0,-0.12,0.0,1.43,103.68,103.68,0.0,0.07,3
1681941468.84160995,27305324,0.0,-0.12,0.0,1.43,103.47,103.47,0.0,0.07,3
1681941468.94133997,27405054,0.0,-0.12,0.0,1.43,103.26,103.26,0.0,0.05,3
1681941469.04128981,27505004,0.0,-0.12,0.0,1.43,103.07000000000001,103.07000000000001,0.0,0.05,3
1681941469.14141083,27605125,0.0,-0.11,0.0,1.43,102.91,102.91,0.0,0.05,3
1681941469.24141598,27705130,0.0,-0.11,0.0,1.43,102.77,102.77,0.0,0.04,3
1681941469.34142685,27805141,0.0,-0.11,0.0,1.43,102.65,102.65,0.0,0.03,3
1681941469.44137383,27905088,0.0,-0.11,0.0,1.43,102.54,102.54,0.0,0.03,3
1681941469.54131293,28005027,0.0,-0.1,0.0,1.42,102.45,102.45,0.0,0.03,3
1681941469.64119887,28104913,0.0,-0.1,0.0,1.43,102.36,102.36,0.0,0.02,3
1681941469.74126482,28204979,0.0,-0.1,0.0,1.43,102.27,102.27,0.0,0.03,3
1681941469.84157991,28305294,0.0,-0.1,0.0,1.43,102.18,102.18,0.0,0.03,3
1681941469.94161677,28405331,0.0,-0.09,0.0,1.43,102.07000000000001,102.07000000000001,0.0,0.03,3
1681941470.04132891,28505043,0.0,-0.09,0.0,1.43,101.94,101.94,0.0,0.03,3
1681941470.14143991,28605154,0.0,-0.09,0.0,1.43,101.82000000000001,101.82000000000001,0.0,0.03,3
1681941470.24148178,28705196,0.0,-0.08,0.0,1.43,101.68,101.68,0.0,0.04,3
1681941470.34136677,28805081,0.0,-0.09,0.0,1.44,101.53,101.53,0.0,0.04,3
1681941470.44130492,28905019,0.0,-0.08,0.0,1.43,101.38,101.38,0.0,0.04,3
1681941470.54120493,29004919,0.0,-0.08,0.0,1.43,101.21000000000001,101.21000000000001,0.0,0.04,3
1681941470.64128685,29105001,0.0,-0.08,0.0,1.43,101.05,101.05,0.0,0.03,3
1681941470.74155593,29205270,0.0,-0.08,0.0,1.43,100.9,100.9,0.0,0.03,3
1681941470.84130597,29305020,0.0,-0.08,0.0,1.42,100.75,100.75,0.0,0.03,3
1681941470.94143295,29405147,0.0,-0.08,0.0,1.42,100.63,100.63,0.0,0.02,3
1681941471.04141092,29505125,0.0,-0.08,0.0,1.42,100.51,100.51,0.0,0.03,3
1681941471.14146280,29605177,0.0,-0.08,0.0,1.42,100.39,100.39,0.0,0.03,3
1681941471.24132299,29705037,0.0,-0.07,0.0,1.43,100.28,100.28,0.0,0.05,3
1681941471.34154892,29805263,0.0,-0.07,0.0,1.42,100.21000000000001,100.21000000000001,0.0,0.05,3
1681941471.44143391,29905148,0.0,-0.07,0.0,1.43,100.17,100.17,0.0,0.04,3
1681941471.54155397,30005268,0.0,-0.07,0.0,1.42,100.14,100.14,0.0,0.04,3
1681941471.64177585,30105490,0.0,-0.06,0.0,1.42,100.12,100.12,0.0,0.03,3
1681941471.74154496,30205259,0.0,-0.06,0.0,1.42,100.09,100.09,0.0,0.03,3
1681941471.84132290,30305037,0.0,-0.06,0.0,1.42,100.06,100.06,0.0,0.03,3
1681941471.94143581,30405150,0.0,-0.06,0.0,1.42,100.01,100.01,0.0,0.03,3
1681941472.04141092,30505125,0.0,-0.06,0.0,1.42,99.94,99.94,0.0,0.02,3
1681941472.14138389,30605098,0.0,-0.05,0.0,1.41,99.87,99.87,0.0,0.02,3
1681941472.24129987,30705014,0.0,-0.06,0.0,1.41,99.8,99.8,0.0,0.02,3
1681941472.34119177,30804906,0.0,-0.06,0.0,1.41,99.72,99.72,0.0,0.02,3
1681941472.44127178,30904986,0.0,-0.05,0.0,1.41,99.64,99.64,0.0,0.02,3
1681941472.54127884,31004993,0.0,-0.05,0.0,1.41,99.57000000000001,99.57000000000001,0.0,0.02,3
1681941472.64156389,31105278,0.0,-0.05,0.0,1.41,99.52,99.52,0.0,0.02,3
1681941472.74133897,31205053,0.0,-0.04,0.0,1.41,99.47,99.47,0.0,0.02,3
1681941472.84134579,31305060,0.0,-0.04,0.0,1.4000000000000001,99.41,99.41,0.0,0.02,3
1681941472.94144988,31405164,0.0,-0.04,0.0,1.4000000000000001,99.35000000000001,99.35000000000001,0.0,0.01,3
1681941473.04130197,31505016,0.0,-0.04,0.0,1.4000000000000001,99.29,99.29,0.0,0.01,3
1681941473.14133286,31605047,0.0,-0.04,0.0,1.4000000000000001,99.23,99.23,0.0,0.02,3
1681941473.24118686,31704901,0.0,-0.04,0.0,1.4000000000000001,99.17,99.17,0.0,0.02,3
1681941473.34126687,31804981,0.0,-0.03,0.0,1.4000000000000001,99.12,99.12,0.0,0.01,3
1681941473.44154096,31905255,0.0,-0.03,0.0,1.4000000000000001,99.08,99.08,0.0,0.02,3
1681941473.54154897,32005263,0.0,-0.02,0.0,1.3900000000000001,99.02,99.02,0.0,0.03,3
1681941473.64131880,32105033,0.0,-0.02,0.0,1.3900000000000001,98.96000000000001,98.96000000000001,0.0,0.02,3
1681941473.74140978,32205124,0.0,-0.02,0.0,1.3900000000000001,98.91,98.91,0.0,0.02,3
1681941473.84141898,32305133,0.0,-0.02,0.0,1.3900000000000001,98.86,98.86,0.0,0.03,3
1681941473.94139886,32405113,0.0,-0.02,0.0,1.4000000000000001,98.81,98.81,0.0,0.04,3
1681941474.04131293,32505027,0.0,-0.01,0.0,1.4000000000000001,98.76,98.76,0.0,0.04,3
1681941474.14148784,32605202,0.0,-0.01,0.0,1.4000000000000001,98.71000000000001,98.71000000000001,0.0,0.03,3
1681941474.24157977,32705294,0.0,-0.01,0.0,1.4000000000000001,98.66,98.66,0.0,0.02,3
1681941474.34127283,32804987,0.0,-0.01,0.0,1.4000000000000001,98.61,98.61,0.0,0.02,3
1681941474.44138479,32905099,0.0,0.0,0.0,1.4000000000000001,98.57000000000001,98.57000000000001,0.0,0.02,3
1681941474.54132581,33005040,0.0,0.0,0.0,1.4000000000000001,98.52,98.52,0.0,0.03,3
1681941474.64141488,33105129,0.0,0.0,0.0,1.4000000000000001,98.45,98.45,0.0,0.03,3
1681941474.74140596,33205120,0.0,0.0,0.0,1.4000000000000001,98.38,98.38,0.0,0.02,3
1681941474.84158587,33305300,0.0,0.0,0.0,1.4000000000000001,98.31,98.31,0.0,0.02,3
1681941474.94133782,33405052,0.0,0.0,0.0,1.3900000000000001,98.27,98.27,0.0,0.03,3
1681941475.04119492,33504909,0.0,0.0,0.0,1.4000000000000001,98.22,98.22,0.0,0.04,3
1681941475.14137793,33605092,0.0,0.01,0.0,1.3900000000000001,98.16,98.16,0.0,0.03,3
1681941475.24128294,33704997,0.0,0.0,0.0,1.3900000000000001,98.09,98.09,0.0,0.03,3
1681941475.34142089,33805135,0.0,0.01,0.0,1.3900000000000001,98.02,98.02,0.0,0.02,3
1681941475.44133091,33905045,0.0,0.01,0.0,1.3900000000000001,97.96000000000001,97.96000000000001,0.0,0.02,3
1681941475.54134083,34005055,0.0,0.02,0.0,1.4000000000000001,97.9,97.9,0.0,0.02,3
1681941475.64159489,34105309,0.0,0.02,0.0,1.4000000000000001,97.85000000000001,97.85000000000001,0.0,0.02,3
1681941475.74158096,34205295,0.0,0.02,0.0,1.4000000000000001,97.81,97.81,0.0,0.03,3
1681941475.84161878,34305333,0.0,0.02,0.0,1.4000000000000001,97.78,97.78,0.0,0.02,3
1681941475.94183683,34405551,0.0,0.03,0.0,1.4000000000000001,97.75,97.75,0.0,0.03,3
1681941476.04161191,34505326,0.0,0.03,0.0,1.4000000000000001,97.72,97.72,0.0,0.03,3
1681941476.14158392,34605298,0.0,0.03,0.0,1.4000000000000001,97.67,97.67,0.0,0.03,3
1681941476.24155784,34705272,0.0,0.03,0.0,1.3900000000000001,97.61,97.61,0.0,0.02,3
1681941476.34155679,34805271,0.0,0.04,0.0,1.3900000000000001,97.55,97.55,0.0,0.02,3
1681941476.44157195,34905286,0.0,0.04,0.0,1.3800000000000001,97.49000000000001,97.49000000000001,0.0,0.02,3
1681941476.54174089,35005455,0.0,0.04,0.0,1.3800000000000001,97.45,97.45,0.0,0.03,3
1681941476.64160991,35105324,0.0,0.04,0.0,1.3800000000000001,97.43,97.43,0.0,0.03,3
1681941476.74131584,35205030,0.0,0.04,0.0,1.3800000000000001,97.42,97.42,0.0,0.03,3
1681941476.84118581,35304900,0.0,0.05,0.0,1.3800000000000001,97.43,97.43,0.0,0.03,3
1681941476.94137287,35405087,0.0,0.05,0.0,1.3800000000000001,97.45,97.45,0.0,0.04,3
1681941477.04127789,35504992,0.0,0.04,0.0,1.3800000000000001,97.47,97.47,0.0,0.04,3
1681941477.14133787,35605052,0.0,0.05,0.0,1.3800000000000001,97.49000000000001,97.49000000000001,0.0,0.04,3
1681941477.24133897,35705053,0.0,0.05,0.0,1.3800000000000001,97.51,97.51,0.0,0.03,3
1681941477.34136391,35805078,0.0,0.05,0.0,1.3800000000000001,97.52,97.52,0.0,0.03,3
1681941477.44141698,35905131,0.0,0.06,0.0,1.3800000000000001,97.53,97.53,0.0,0.03,3
1681941477.54158592,36005300,0.0,0.06,0.0,1.3900000000000001,97.53,97.53,0.0,0.03,3
1681941477.64129281,36105007,0.0,0.05,0.0,1.3800000000000001,97.51,97.51,0.0,0.03,3
1681941477.74122477,36204939,0.0,0.06,0.0,1.3800000000000001,97.47,97.47,0.0,0.02,3
1681941477.84127498,36304989,0.0,0.06,0.0,1.3800000000000001,97.43,97.43,0.0,0.02,3
1681941477.94139981,36405114,0.0,0.06,0.0,1.3800000000000001,97.4,97.4,0.0,0.02,3
1681941478.04132199,36505036,0.0,0.06,0.0,1.3800000000000001,97.38,97.38,0.0,0.03,3
1681941478.14142084,36605135,0.0,0.06,0.0,1.3800000000000001,97.37,97.37,0.0,0.03,3
1681941478.24158287,36705297,0.0,0.07,0.0,1.3800000000000001,97.37,97.37,0.0,0.02,3
1681941478.34143496,36805149,0.0,0.07,0.0,1.3800000000000001,97.37,97.37,0.0,0.02,3
1681941478.44130492,36905019,0.0,0.07,0.0,1.3800000000000001,97.37,97.37,0.0,0.03,3
1681941478.54129386,37005008,0.0,0.07,0.0,1.3800000000000001,97.35000000000001,97.35000000000001,0.0,0.03,3
1681941478.64119482,37104909,0.0,0.07,0.0,1.3800000000000001,97.33,97.33,0.0,0.03,3
1681941478.74129581,37205010,0.0,0.07,0.0,1.37,97.31,97.31,0.0,0.03,3
1681941478.84129190,37305006,0.0,0.08,0.0,1.37,97.29,97.29,0.0,0.03,3
1681941478.94139099,37405105,0.0,0.07,0.0,1.37,97.27,97.27,0.0,0.02,3
1681941479.04134297,37505057,0.0,0.07,0.0,1.37,97.25,97.25,0.0,0.03,3
1681941479.14160681,37605321,0.0,0.07,0.0,1.37,97.23,97.23,0.0,0.02,3
1681941479.24137592,37705090,0.0,0.07,0.0,1.37,97.2,97.2,0.0,0.02,3
1681941479.34131479,37805029,0.0,0.08,0.0,1.37,97.16,97.16,0.0,0.02,3
1681941479.44131088,37905025,0.0,0.07,0.0,1.37,97.13,97.13,0.0,0.02,3
1681941479.54118776,38004902,0.0,0.07,0.0,1.37,97.11,97.11,0.0,0.01,3
1681941479.64128590,38105000,0.0,0.07,0.0,1.37,97.08,97.08,0.0,0.01,3
1681941479.74127078,38204985,0.0,0.07,0.0,1.36,97.06,97.06,0.0,0.02,3
1681941479.84154582,38305260,0.0,0.07,0.0,1.36,97.04,97.04,0.0,0.02,3
1681941479.94142485,38405139,0.0,0.07,0.0,1.36,97.04,97.04,0.0,0.02,3
1681941480.04135394,38505068,0.0,0.07,0.0,1.37,97.03,97.03,0.0,0.02,3
1681941480.14144087,38605155,0.0,0.08,0.0,1.37,97.03,97.03,0.0,0.01,3
1681941480.24131179,38705026,0.0,0.08,0.0,1.37,97.02,97.02,0.0,0.01,3
1681941480.34152293,38805237,0.0,0.08,0.0,1.37,97.0,97.0,0.0,0.01,3
1681941480.44145298,38905167,0.0,0.08,0.0,1.37,96.97,96.97,0.0,0.02,3
1681941480.54156590,39005280,0.0,0.08,0.0,1.37,96.94,96.94,0.0,0.02,3
1681941480.64177084,39105485,0.0,0.08,0.0,1.37,96.92,96.92,0.0,0.02,3
1681941480.74161696,39205331,0.0,0.07,0.0,1.37,96.9,96.9,0.0,0.02,3
1681941480.84133697,39305051,0.0,0.08,0.0,1.37,96.88,96.88,0.0,0.01,3
1681941480.94145179,39405166,0.0,0.08,0.0,1.36,96.86,96.86,0.0,0.01,3
1681941481.04140782,39505122,0.0,0.08,0.0,1.36,96.84,96.84,0.0,0.01,3
1681941481.14138198,39605096,0.0,0.08,0.0,1.36,96.82000000000001,96.82000000000001,0.0,0.01,3
1681941481.24130177,39705016,0.0,0.08,0.0,1.36,96.79,96.79,0.0,0.01,3
1681941481.34144592,39805160,0.0,0.09,0.0,1.36,96.77,96.77,0.0,0.01,3
1681941481.44158888,39905303,0.0,0.09,0.0,1.36,96.75,96.75,0.0,0.0,3
1681941481.54127097,40004985,0.0,0.09,0.0,1.36,96.73,96.73,0.0,0.02,3
1681941481.64128995,40105004,0.0,0.09,0.0,1.36,96.7,96.7,0.0,0.03,3
1681941481.74131894,40205033,0.0,0.09,0.0,1.36,96.65,96.65,0.0,0.03,3
1681941481.84133983,40305054,0.0,0.09,0.0,1.36,96.59,96.59,0.0,0.04,3
1681941481.94151592,40405230,0.0,0.09,0.0,1.36,96.56,96.56,0.0,0.05,3
1681941482.04160786,40505322,0.0,0.09,0.0,1.36,96.54,96.54,0.0,0.04,3
1681941482.14168596,40605400,0.0,0.09,0.0,1.36,96.54,96.54,0.0,0.04,3
1681941482.24147391,40705188,0.0,0.09,0.0,1.36,96.54,96.54,0.0,0.04,3
1681941482.34159780,40805312,0.0,0.09,0.0,1.36,96.56,96.56,0.0,0.05,3
1681941482.44126987,40904984,0.0,0.08,0.0,1.36,96.58,96.58,0.0,0.05,3
1681941482.54129076,41005005,0.0,0.08,0.0,1.36,96.62,96.62,0.0,0.04,3
1681941482.64131999,41105034,0.0,0.08,0.0,1.36,96.64,96.64,0.0,0.04,3
1681941482.74140882,41205123,0.0,0.08,0.0,1.36,96.67,96.67,0.0,0.03,3
1681941482.84163594,41305350,0.0,0.08,0.0,1.36,96.68,96.68,0.0,0.03,3
1681941482.94164181,41405356,0.0,0.08,0.0,1.36,96.68,96.68,0.0,0.03,3
1681941483.04128098,41504995,0.0,0.08,0.0,1.35,96.67,96.67,0.0,0.03,3
1681941483.14122486,41604939,0.0,0.08,0.0,1.35,96.66,96.66,0.0,0.03,3
1681941483.24127793,41704992,0.0,0.07,0.0,1.36,96.63,96.63,0.0,0.03,3
1681941483.34134483,41805059,0.0,0.07,0.0,1.36,96.61,96.61,0.0,0.02,3
1681941483.44129395,41905008,0.0,0.07,0.0,1.36,96.59,96.59,0.0,0.02,3
1681941483.54156399,42005278,0.0,0.07,0.0,1.36,96.56,96.56,0.0,0.02,3
1681941483.64157987,42105294,0.0,0.07,0.0,1.36,96.54,96.54,0.0,0.02,3
1681941483.74137282,42205087,0.0,0.07,0.0,1.36,96.53,96.53,0.0,0.01,3
1681941483.84130287,42305017,0.0,0.07,0.0,1.37,96.52,96.52,0.0,0.01,3
1681941483.94140482,42405119,0.0,0.07,0.0,1.37,96.5,96.5,0.0,0.02,3
1681941484.04118776,42504902,0.0,0.06,0.0,1.37,96.48,96.48,0.0,0.02,3
1681941484.14130282,42605017,0.0,0.06,0.0,1.37,96.47,96.47,0.0,0.02,3
1681941484.24155879,42705273,0.0,0.06,0.0,1.37,96.45,96.45,0.0,0.02,3
1681941484.34154892,42805263,0.0,0.06,0.0,1.37,96.43,96.43,0.0,0.02,3
1681941484.44139695,42905111,0.0,0.06,0.0,1.37,96.4,96.4,0.0,0.02,3
1681941484.54134393,43005058,0.0,0.06,0.0,1.3800000000000001,96.37,96.37,0.0,0.02,3
1681941484.64136291,43105077,0.0,0.06,0.0,1.3800000000000001,96.33,96.33,0.0,0.02,3
1681941484.74139380,43205108,0.0,0.06,0.0,1.3800000000000001,96.29,96.29,0.0,0.02,3
1681941484.84131098,43305025,0.0,0.06,0.0,1.37,96.26,96.26,0.0,0.02,3
1681941484.94124889,43404963,0.0,0.06,0.0,1.37,96.25,96.25,0.0,0.03,3
1681941485.04126692,43504981,0.0,0.07,0.0,1.37,96.24000000000001,96.24000000000001,0.0,0.02,3
1681941485.14157581,43605290,0.0,0.06,0.0,1.3800000000000001,96.24000000000001,96.24000000000001,0.0,0.02,3
1681941485.24130583,43705020,0.0,0.06,0.0,1.3800000000000001,96.25,96.25,0.0,0.03,3
1681941485.34134388,43805058,0.0,0.06,0.0,1.3800000000000001,96.24000000000001,96.24000000000001,0.0,0.03,3
1681941485.44143796,43905152,0.0,0.06,0.0,1.3800000000000001,96.22,96.22,0.0,0.03,3
1681941485.54135585,44005070,0.0,0.07,0.0,1.3800000000000001,96.19,96.19,0.0,0.02,3
1681941485.64128089,44104995,0.0,0.07,0.0,1.3900000000000001,96.16,96.16,0.0,0.02,3
1681941485.74131680,44205031,0.0,0.07,0.0,1.3900000000000001,96.13,96.13,0.0,0.02,3
1681941485.84145188,44305166,0.0,0.07,0.0,1.3900000000000001,96.11,96.11,0.0,0.02,3
1681941485.94151688,44405231,0.0,0.07,0.0,1.3900000000000001,96.09,96.09,0.0,0.02,3
1681941486.04130578,44505020,0.0,0.07,0.0,1.3900000000000001,96.08,96.08,0.0,0.02,3
1681941486.14139986,44605114,0.0,0.07,0.0,1.3900000000000001,96.07000000000001,96.07000000000001,0.0,0.02,3
1681941486.24139380,44705108,0.0,0.07,0.0,1.3900000000000001,96.07000000000001,96.07000000000001,0.0,0.01,3
1681941486.34141278,44805127,0.0,0.07,0.0,1.3900000000000001,96.06,96.06,0.0,0.01,3
1681941486.44141078,44905125,0.0,0.07,0.0,1.3900000000000001,96.06,96.06,0.0,0.01,3
1681941486.54161882,45005333,0.0,0.07,0.0,1.3900000000000001,96.05,96.05,0.0,0.02,3
1681941486.64164376,45105358,0.0,0.07,0.0,1.3900000000000001,96.04,96.04,0.0,0.01,3
1681941486.74146199,45205176,0.0,0.06,0.0,1.3900000000000001,96.02,96.02,0.0,0.02,3
1681941486.84159184,45305306,0.0,0.06,0.0,1.3900000000000001,95.99000000000001,95.99000000000001,0.0,0.03,3
1681941486.94163394,45405348,0.0,0.06,0.0,1.3900000000000001,95.96000000000001,95.96000000000001,0.0,0.03,3
1681941487.04162598,45505340,0.0,0.06,0.0,1.3900000000000001,95.92,95.92,0.0,0.03,3
1681941487.14160299,45605317,0.0,0.06,0.0,1.3900000000000001,95.89,95.89,0.0,0.02,3
1681941487.24157882,45705293,0.0,0.07,0.0,1.3800000000000001,95.87,95.87,0.0,0.03,3
1681941487.34140992,45805124,0.0,0.07,0.0,1.3800000000000001,95.85000000000001,95.85000000000001,0.0,0.03,3
1681941487.44130993,45905024,0.0,0.07,0.0,1.3800000000000001,95.83,95.83,0.0,0.03,3
1681941487.54131079,46005025,0.0,0.06,0.0,1.3800000000000001,95.81,95.81,0.0,0.03,3
1681941487.64118791,46104902,0.0,0.07,0.0,1.3800000000000001,95.8,95.8,0.0,0.03,3
1681941487.74128795,46205002,0.0,0.07,0.0,1.3800000000000001,95.8,95.8,0.0,0.02,3
1681941487.84156799,46305282,0.0,0.07,0.0,1.3800000000000001,95.8,95.8,0.0,0.02,3
1681941487.94142699,46405141,0.0,0.07,0.0,1.3800000000000001,95.8,95.8,0.0,0.02,3
1681941488.04140997,46505124,0.0,0.08,0.0,1.3800000000000001,95.8,95.8,0.0,0.03,3
1681941488.14143777,46605152,0.0,0.08,0.0,1.3800000000000001,95.81,95.81,0.0,0.02,3
1681941488.24136186,46705076,0.0,0.08,0.0,1.3800000000000001,95.82000000000001,95.82000000000001,0.0,0.03,3
1681941488.34129882,46805013,0.0,0.08,0.0,1.3800000000000001,95.83,95.83,0.0,0.02,3
1681941488.44132686,46905041,0.0,0.08,0.0,1.3800000000000001,95.85000000000001,95.85000000000001,0.0,0.02,3
1681941488.54119396,47004908,0.0,0.08,0.0,1.3800000000000001,95.86,95.86,0.0,0.02,3
1681941488.64126587,47104980,0.0,0.08,0.0,1.3800000000000001,95.86,95.86,0.0,0.02,3
1681941488.74156880,47205283,0.0,0.08,0.0,1.3800000000000001,95.86,95.86,0.0,0.03,3
1681941488.84155893,47305273,0.0,0.08,0.0,1.3800000000000001,95.86,95.86,0.0,0.02,3
1681941488.94141293,47405127,0.0,0.09,0.0,1.37,95.87,95.87,0.0,0.02,3
1681941489.04134083,47505055,0.0,0.09,0.0,1.37,95.87,95.87,0.0,0.04,3
1681941489.14148879,47605203,0.0,0.09,0.0,1.37,95.89,95.89,0.0,0.03,3
1681941489.24130487,47705019,0.0,0.09,0.0,1.37,95.91,95.91,0.0,0.03,3
1681941489.34129882,47805013,0.0,0.1,0.0,1.37,95.92,95.92,0.0,0.02,3
1681941489.44153500,47905249,0.0,0.1,0.0,1.37,95.92,95.92,0.0,0.03,3
1681941489.54157782,48005292,0.0,0.1,0.0,1.37,95.93,95.93,0.0,0.02,3
1681941489.64126587,48104980,0.0,0.1,0.0,1.36,95.93,95.93,0.0,0.03,3
1681941489.74130297,48205017,0.0,0.1,0.0,1.36,95.92,95.92,0.0,0.03,3
1681941489.84131789,48305032,0.0,0.1,0.0,1.36,95.91,95.91,0.0,0.02,3
1681941489.94143081,48405145,0.0,0.1,0.0,1.36,95.91,95.91,0.0,0.02,3
1681941490.04137278,48505087,0.0,0.11,0.0,1.36,95.9,95.9,0.0,0.02,3
1681941490.14164782,48605362,0.0,0.11,0.0,1.37,95.89,95.89,0.0,0.02,3
1681941490.24130297,48705017,0.0,0.11,0.0,1.37,95.88,95.88,0.0,0.03,3
1681941490.34118891,48804903,0.0,0.11,0.0,1.37,95.88,95.88,0.0,0.03,3
1681941490.44135094,48905065,0.0,0.11,0.0,1.37,95.88,95.88,0.0,0.03,3
1681941490.54127789,49004992,0.0,0.11,0.0,1.37,95.89,95.89,0.0,0.02,3
1681941490.64129186,49105006,0.0,0.11,0.0,1.37,95.9,95.9,0.0,0.02,3
1681941490.74132681,49205041,0.0,0.11,0.0,1.36,95.9,95.9,0.0,0.02,3
1681941490.84156799,49305282,0.0,0.12,0.0,1.36,95.9,95.9,0.0,0.03,3
1681941490.94143391,49405148,0.0,0.11,0.0,1.36,95.88,95.88,0.0,0.02,3
1681941491.04127693,49504991,0.0,0.11,0.0,1.36,95.87,95.87,0.0,0.02,3
1681941491.14132881,49605043,0.0,0.11,0.0,1.36,95.85000000000001,95.85000000000001,0.0,0.02,3
1681941491.24119878,49704913,0.0,0.12,0.0,1.35,95.83,95.83,0.0,0.02,3
1681941491.34155583,49805270,0.0,0.12,0.0,1.35,95.8,95.8,0.0,0.02,3
1681941491.44189882,49905613,0.0,0.12,0.0,1.35,95.78,95.78,0.0,0.02,3
1681941491.54156184,50005276,0.0,0.12,0.0,1.35,95.77,95.77,0.0,0.02,3
1681941491.64131784,50105032,0.0,0.12,0.0,1.35,95.76,95.76,0.0,0.02,3
1681941491.74140596,50205120,0.0,0.12,0.0,1.35,95.76,95.76,0.0,0.02,3
1681941491.84136176,50305076,0.0,0.12,0.0,1.35,95.76,95.76,0.0,0.02,3
1681941491.94150686,50405221,0.0,0.12,0.0,1.35,95.76,95.76,0.0,0.02,3
1681941492.04131198,50505026,0.0,0.12,0.0,1.34,95.77,95.77,0.0,0.01,3
1681941492.14150190,50605216,0.0,0.12,0.0,1.34,95.77,95.77,0.0,0.01,3
1681941492.24158883,50705303,0.0,0.12,0.0,1.34,95.77,95.77,0.0,0.01,3
1681941492.34126997,50804984,0.0,0.12,0.0,1.34,95.77,95.77,0.0,0.01,3
1681941492.44129896,50905013,0.0,0.12,0.0,1.34,95.77,95.77,0.0,0.01,3
1681941492.54133987,51005054,0.0,0.11,0.0,1.34,95.77,95.77,0.0,0.01,3
1681941492.64141297,51105127,0.0,0.12,0.0,1.34,95.77,95.77,0.0,0.01,3
1681941492.74141884,51205133,0.0,0.12,0.0,1.33,95.77,95.77,0.0,0.01,3
1681941492.84160495,51305319,0.0,0.12,0.0,1.33,95.76,95.76,0.0,0.01,3
1681941492.94137692,51405091,0.0,0.12,0.0,1.34,95.76,95.76,0.0,0.02,3
1681941493.04118490,51504899,0.0,0.12,0.0,1.33,95.76,95.76,0.0,0.02,3
1681941493.14136577,51605080,0.0,0.12,0.0,1.33,95.74000000000001,95.74000000000001,0.0,0.02,3
1681941493.24128580,51705000,0.0,0.11,0.0,1.33,95.73,95.73,0.0,0.02,3
1681941493.34141183,51805126,0.0,0.11,0.0,1.33,95.74000000000001,95.74000000000001,0.0,0.03,3
1681941493.44134879,51905063,0.0,0.11,0.0,1.33,95.73,95.73,0.0,0.03,3
1681941493.54158497,52005299,0.0,0.11,0.0,1.33,95.72,95.72,0.0,0.03,3
1681941493.64136982,52105084,0.0,0.11,0.0,1.34,95.71000000000001,95.71000000000001,0.0,0.04,3
1681941493.74130893,52205023,0.0,0.11,0.0,1.33,95.68,95.68,0.0,0.05,3
1681941493.84129786,52305012,0.0,0.11,0.0,1.33,95.65,95.65,0.0,0.04,3
1681941493.94126391,52404978,0.0,0.1,0.0,1.33,95.61,95.61,0.0,0.04,3
1681941494.04128981,52505004,0.0,0.11,0.0,1.33,95.58,95.58,0.0,0.03,3
1681941494.14161396,52605328,0.0,0.1,0.0,1.33,95.55,95.55,0.0,0.03,3
1681941494.24157476,52705289,0.0,0.1,0.0,1.33,95.53,95.53,0.0,0.05,3
1681941494.34153581,52805250,0.0,0.1,0.0,1.34,95.53,95.53,0.0,0.05,3
1681941494.44155788,52905272,0.0,0.1,0.0,1.33,95.55,95.55,0.0,0.04,3
1681941494.54155898,53005273,0.0,0.1,0.0,1.33,95.58,95.58,0.0,0.05,3
1681941494.64156294,53105277,0.0,0.1,0.0,1.33,95.62,95.62,0.0,0.04,3
1681941494.74155688,53205271,0.0,0.1,0.0,1.34,95.65,95.65,0.0,0.04,3
1681941494.84176087,53305475,0.0,0.09,0.0,1.33,95.69,95.69,0.0,0.03,3
1681941494.94162393,53405338,0.0,0.09,0.0,1.33,95.71000000000001,95.71000000000001,0.0,0.04,3
1681941495.04126382,53504978,0.0,0.09,0.0,1.33,95.74000000000001,95.74000000000001,0.0,0.03,3
1681941495.14132690,53605041,0.0,0.09,0.0,1.33,95.76,95.76,0.0,0.03,3
1681941495.24133992,53705054,0.0,0.09,0.0,1.33,95.79,95.79,0.0,0.03,3
1681941495.34141088,53805125,0.0,0.09,0.0,1.34,95.81,95.81,0.0,0.03,3
1681941495.44147277,53905187,0.0,0.09,0.0,1.34,95.82000000000001,95.82000000000001,0.0,0.02,3
1681941495.54161096,54005325,0.0,0.08,0.0,1.34,95.84,95.84,0.0,0.02,3
1681941495.64129686,54105011,0.0,0.09,0.0,1.34,95.86,95.86,0.0,0.02,3
1681941495.74119091,54204905,0.0,0.08,0.0,1.33,95.87,95.87,0.0,0.02,3
1681941495.84127593,54304990,0.0,0.08,0.0,1.34,95.88,95.88,0.0,0.02,3
1681941495.94143081,54405145,0.0,0.08,0.0,1.34,95.87,95.87,0.0,0.02,3
1681941496.04129791,54505012,0.0,0.08,0.0,1.34,95.86,95.86,0.0,0.02,3
1681941496.14140677,54605121,0.0,0.09,0.0,1.34,95.85000000000001,95.85000000000001,0.0,0.02,3
1681941496.24159384,54705308,0.0,0.08,0.0,1.34,95.85000000000001,95.85000000000001,0.0,0.02,3
1681941496.34141588,54805130,0.0,0.08,0.0,1.34,95.84,95.84,0.0,0.04,3
1681941496.44130182,54905016,0.0,0.09,0.0,1.33,95.84,95.84,0.0,0.04,3
1681941496.54131389,55005028,0.0,0.09,0.0,1.33,95.85000000000001,95.85000000000001,0.0,0.03,3
1681941496.64119577,55104910,0.0,0.09,0.0,1.33,95.85000000000001,95.85000000000001,0.0,0.03,3
1681941496.74129581,55205010,0.0,0.09,0.0,1.33,95.84,95.84,0.0,0.03,3
1681941496.84155083,55305265,0.0,0.09,0.0,1.33,95.85000000000001,95.85000000000001,0.0,0.03,3
1681941496.94160581,55405320,0.0,0.09,0.0,1.33,95.86,95.86,0.0,0.03,3
1681941497.04132676,55505041,0.0,0.09,0.0,1.33,95.87,95.87,0.0,0.03,3
1681941497.14144087,55605155,0.0,0.09,0.0,1.33,95.88,95.88,0.0,0.02,3
1681941497.24136591,55705080,0.0,0.1,0.0,1.33,95.89,95.89,0.0,0.02,3
1681941497.34130883,55805023,0.0,0.1,0.0,1.33,95.9,95.9,0.0,0.02,3
1681941497.44128680,55905001,0.0,0.1,0.0,1.32,95.91,95.91,0.0,0.02,3
1681941497.54156089,56005275,0.0,0.1,0.0,1.33,95.91,95.91,0.0,0.02,3
1681941497.64159489,56105309,0.0,0.1,0.0,1.33,95.92,95.92,0.0,0.01,3
1681941497.74147987,56205194,0.0,0.1,0.0,1.33,95.92,95.92,0.0,0.02,3
1681941497.84153390,56305248,0.0,0.1,0.0,1.33,95.92,95.92,0.0,0.02,3
1681941497.94157290,56405287,0.0,0.1,0.0,1.33,95.92,95.92,0.0,0.03,3
1681941498.04154491,56505259,0.0,0.09,0.0,1.33,95.91,95.91,0.0,0.03,3
1681941498.14157987,56605294,0.0,0.09,0.0,1.34,95.89,95.89,0.0,0.03,3
1681941498.24157786,56705292,0.0,0.1,0.0,1.34,95.88,95.88,0.0,0.03,3
1681941498.34152293,56805237,0.0,0.09,0.0,1.34,95.87,95.87,0.0,0.03,3
1681941498.44141984,56905134,0.0,0.09,0.0,1.34,95.85000000000001,95.85000000000001,0.0,0.04,3
1681941498.54155588,57005270,0.0,0.09,0.0,1.34,95.84,95.84,0.0,0.04,3
1681941498.64174986,57105464,0.0,0.09,0.0,1.34,95.82000000000001,95.82000000000001,0.0,0.03,3
1681941498.74131179,57205026,0.0,0.09,0.0,1.34,95.8,95.8,0.0,0.04,3
1681941498.84133887,57305053,0.0,0.09,0.0,1.35,95.77,95.77,0.0,0.04,3
1681941498.94147682,57405191,0.0,0.09,0.0,1.35,95.76,95.76,0.0,0.04,3
1681941499.04138589,57505100,0.0,0.1,0.0,1.35,95.75,95.75,0.0,0.05,3
1681941499.14139080,57605105,0.0,0.1,0.0,1.35,95.76,95.76,0.0,0.04,3
1681941499.24133587,57705050,0.0,0.1,0.0,1.35,95.77,95.77,0.0,0.04,3
1681941499.34147787,57805192,0.0,0.1,0.0,1.35,95.78,95.78,0.0,0.03,3
1681941499.44129086,57905005,0.0,0.1,0.0,1.35,95.78,95.78,0.0,0.03,3
1681941499.54130483,58005019,0.0,0.1,0.0,1.35,95.79,95.79,0.0,0.03,3
1681941499.64140987,58105124,0.0,0.1,0.0,1.35,95.79,95.79,0.0,0.02,3
1681941499.74139786,58205112,0.0,0.1,0.0,1.35,95.8,95.8,0.0,0.03,3
1681941499.84140277,58305117,0.0,0.1,0.0,1.36,95.81,95.81,0.0,0.02,3
1681941499.94152498,58405239,0.0,0.1,0.0,1.35,95.82000000000001,95.82000000000001,0.0,0.02,3
1681941500.04163098,58505345,0.0,0.1,0.0,1.36,95.83,95.83,0.0,0.02,3
1681941500.14169693,58605411,0.0,0.1,0.0,1.36,95.84,95.84,0.0,0.01,3
1681941500.24148297,58705197,0.0,0.1,0.0,1.35,95.85000000000001,95.85000000000001,0.0,0.01,3
1681941500.34158683,58805301,0.0,0.1,0.0,1.35,95.85000000000001,95.85000000000001,0.0,0.01,3
1681941500.44128799,58905002,0.0,0.09,0.0,1.36,95.86,95.86,0.0,0.01,3
1681941500.54129577,59005010,0.0,0.09,0.0,1.36,95.85000000000001,95.85000000000001,0.0,0.02,3
1681941500.64132690,59105041,0.0,0.1,0.0,1.36,95.86,95.86,0.0,0.03,3
1681941500.74141884,59205133,0.0,0.09,0.0,1.36,95.87,95.87,0.0,0.02,3
1681941500.84140992,59305124,0.0,0.09,0.0,1.36,95.89,95.89,0.0,0.03,3
1681941500.94150090,59405215,0.0,0.09,0.0,1.37,95.9,95.9,0.0,0.03,3
1681941501.04167485,59505389,0.0,0.09,0.0,1.37,95.93,95.93,0.0,0.03,3
1681941501.14150786,59605222,0.0,0.09,0.0,1.37,95.94,95.94,0.0,0.03,3
1681941501.24160290,59705317,0.0,0.09,0.0,1.37,95.94,95.94,0.0,0.03,3
1681941501.34128976,59805004,0.0,0.1,0.0,1.37,95.94,95.94,0.0,0.03,3
1681941501.44156098,59905275,0.0,0.1,0.0,1.37,95.93,95.93,0.0,0.02,3
1681941501.54155684,60005271,0.0,0.11,0.0,1.37,95.92,95.92,0.0,0.02,3
1681941501.64157391,60105288,0.0,0.12,0.0,1.36,95.92,95.92,0.0,0.01,3
1681941501.74184394,60205558,0.0,0.12,0.0,1.36,95.91,95.91,0.0,0.02,3
1681941501.84176183,60305476,0.0,0.13,0.0,1.36,95.9,95.9,0.0,0.02,3
1681941501.94168878,60405403,0.0,0.13,0.0,1.36,95.89,95.89,0.0,0.03,3
1681941502.04145789,60505172,0.0,0.13,0.0,1.35,95.87,95.87,0.0,0.03,3
1681941502.14161181,60605326,0.0,0.14,0.0,1.35,95.86,95.86,0.0,0.03,3
1681941502.24153686,60705251,0.0,0.14,0.0,1.34,95.85000000000001,95.85000000000001,0.0,0.03,3
1681941502.34155798,60805272,0.0,0.15,0.0,1.34,95.84,95.84,0.0,0.02,3
1681941502.44154787,60905262,0.0,0.16,0.0,1.34,95.84,95.84,0.0,0.02,3
1681941502.54179883,61005513,0.0,0.16,0.0,1.33,95.84,95.84,0.0,0.02,3
1681941502.64137793,61105092,0.0,0.16,0.0,1.34,95.84,95.84,0.0,0.02,3
1681941502.74137378,61205088,0.0,0.17,0.0,1.34,95.85000000000001,95.85000000000001,0.0,0.03,3
1681941502.84154797,61305262,0.0,0.17,0.0,1.34,95.85000000000001,95.85000000000001,0.0,0.03,3
1681941502.94155383,61405268,0.0,0.17,0.0,1.33,95.85000000000001,95.85000000000001,0.0,0.02,3
1681941503.04155397,61505268,0.0,0.17,0.0,1.33,95.85000000000001,95.85000000000001,0.0,0.03,3
1681941503.14154577,61605260,0.0,0.17,0.0,1.33,95.86,95.86,0.0,0.02,3
1681941503.24149299,61705207,0.0,0.18,0.0,1.32,95.86,95.86,0.0,0.02,3
1681941503.34152794,61805242,0.0,0.18,0.0,1.32,95.85000000000001,95.85000000000001,0.0,0.03,3
1681941503.44154286,61905257,0.0,0.18,0.0,1.32,95.84,95.84,0.0,0.03,3
1681941503.54154396,62005258,0.0,0.18,0.0,1.32,95.83,95.83,0.0,0.02,3
1681941503.64159298,62105307,0.0,0.18,0.0,1.31,95.81,95.81,0.0,0.04,3
1681941503.74163580,62205350,0.0,0.19,0.0,1.3,95.8,95.8,0.0,0.04,3
1681941503.84120083,62304915,0.0,0.19,0.0,1.3,95.81,95.81,0.0,0.04,3
1681941503.94141388,62405128,0.0,0.19,0.0,1.3,95.83,95.83,0.0,0.03,3
1681941504.04128194,62504996,0.0,0.19,0.0,1.3,95.86,95.86,0.0,0.04,3
1681941504.14134479,62605059,0.0,0.2,0.0,1.3,95.86,95.86,0.0,0.03,3
1681941504.24133086,62705045,0.0,0.2,0.0,1.3,95.87,95.87,0.0,0.04,3
1681941504.34157586,62805290,0.0,0.21,0.0,1.3,95.86,95.86,0.0,0.03,3
1681941504.44140697,62905121,0.0,0.21,0.0,1.3,95.86,95.86,0.0,0.03,3
1681941504.54130983,63005024,0.0,0.2,0.0,1.3,95.85000000000001,95.85000000000001,0.0,0.02,3
1681941504.64129496,63105009,0.0,0.2,0.0,1.3,95.84,95.84,0.0,0.02,3
1681941504.74120378,63204918,0.0,0.2,0.0,1.3,95.83,95.83,0.0,0.01,3
1681941504.84132576,63305040,0.0,0.2,0.0,1.3,95.82000000000001,95.82000000000001,0.0,0.01,3
1681941504.94141984,63405134,0.0,0.2,0.0,1.3,95.82000000000001,95.82000000000001,0.0,0.02,3
1681941505.04131699,63505031,0.0,0.2,0.0,1.3,95.81,95.81,0.0,0.02,3
1681941505.14143777,63605152,0.0,0.21,0.0,1.31,95.81,95.81,0.0,0.02,3
1681941505.24136686,63705081,0.0,0.2,0.0,1.31,95.8,95.8,0.0,0.03,3
1681941505.34141397,63805128,0.0,0.2,0.0,1.32,95.79,95.79,0.0,0.03,3
1681941505.44159389,63905308,0.0,0.2,0.0,1.33,95.78,95.78,0.0,0.03,3
1681941505.54128981,64005004,0.0,0.2,0.0,1.33,95.76,95.76,0.0,0.03,3
1681941505.64142299,64105137,0.0,0.2,0.0,1.34,95.75,95.75,0.0,0.03,3
1681941505.74157095,64205285,0.0,0.19,0.0,1.34,95.74000000000001,95.74000000000001,0.0,0.02,3
1681941505.84148383,64305198,0.0,0.19,0.0,1.35,95.73,95.73,0.0,0.02,3
1681941505.94164276,64405357,0.0,0.19,0.0,1.35,95.73,95.73,0.0,0.02,3
1681941506.04152179,64505236,0.0,0.19,0.0,1.35,95.72,95.72,0.0,0.02,3
1681941506.14159298,64605307,0.0,0.19,0.0,1.35,95.73,95.73,0.0,0.02,3
1681941506.24157786,64705292,0.0,0.19,0.0,1.35,95.73,95.73,0.0,0.02,3
1681941506.34177995,64805494,0.0,0.19,0.0,1.36,95.73,95.73,0.0,0.02,3
1681941506.44160581,64905320,0.0,0.19,0.0,1.37,95.72,95.72,0.0,0.02,3
1681941506.54178190,65005496,0.0,0.2,0.0,1.3800000000000001,95.72,95.72,0.0,0.02,3
1681941506.64159298,65105307,0.0,0.2,0.0,1.3800000000000001,95.71000000000001,95.71000000000001,0.0,0.03,3
1681941506.74126577,65204980,0.0,0.2,0.0,1.3900000000000001,95.7,95.7,0.0,0.03,3
1681941506.84129190,65305006,0.0,0.19,0.0,1.3900000000000001,95.68,95.68,0.0,0.03,3
1681941506.94142389,65405138,0.0,0.19,0.0,1.3900000000000001,95.66,95.66,0.0,0.03,3
1681941507.04140878,65505123,0.0,0.19,0.0,1.4000000000000001,95.65,95.65,0.0,0.04,3
1681941507.14144993,65605164,0.0,0.19,0.0,1.41,95.63,95.63,0.0,0.05,3
1681941507.24161792,65705332,0.0,0.19,0.0,1.42,95.60000000000001,95.60000000000001,0.0,0.04,3
1681941507.34130597,65805020,0.0,0.19,0.0,1.43,95.58,95.58,0.0,0.03,3
1681941507.44147491,65905189,0.0,0.19,0.0,1.44,95.56,95.56,0.0,0.03,3
1681941507.54191279,66005627,0.0,0.19,0.0,1.45,95.54,95.54,0.0,0.03,3
1681941507.64157295,66105287,0.0,0.19,0.0,1.45,95.52,95.52,0.0,0.03,3
1681941507.74156690,66205281,0.0,0.19,0.0,1.46,95.51,95.51,0.0,0.03,3
1681941507.84155178,66305266,0.0,0.19,0.0,1.47,95.5,95.5,0.0,0.04,3
1681941507.94184899,66405563,0.0,0.18,0.0,1.47,95.49,95.49,0.0,0.04,3
1681941508.04146576,66505180,0.0,0.18,0.0,1.47,95.47,95.47,0.0,0.03,3
1681941508.14138198,66605096,0.0,0.18,0.0,1.48,95.46000000000001,95.46000000000001,0.0,0.03,3
1681941508.24130988,66705024,0.0,0.17,0.0,1.48,95.45,95.45,0.0,0.03,3
1681941508.34119177,66804906,0.0,0.17,0.0,1.48,95.44,95.44,0.0,0.03,3
1681941508.44131899,66905033,0.0,0.17,0.0,1.49,95.42,95.42,0.0,0.03,3
1681941508.54129791,67005012,0.0,0.17,0.0,1.5,95.4,95.4,0.0,0.02,3
1681941508.64129996,67105014,0.0,0.17,0.0,1.5,95.38,95.38,0.0,0.02,3
1681941508.74156594,67205280,0.0,0.17,0.0,1.51,95.37,95.37,0.0,0.02,3
1681941508.84158397,67305298,0.0,0.17,0.0,1.51,95.36,95.36,0.0,0.02,3
1681941508.94145894,67405173,0.0,0.17,0.0,1.51,95.35000000000001,95.35000000000001,0.0,0.02,3
1681941509.04157782,67505292,0.0,0.17,0.0,1.52,95.34,95.34,0.0,0.02,3
1681941509.14164376,67605358,0.0,0.17,0.0,1.52,95.33,95.33,0.0,0.02,3
1681941509.24143577,67705150,0.0,0.17,0.0,1.53,95.33,95.33,0.0,0.02,3
1681941509.34156299,67805277,0.0,0.17,0.0,1.53,95.32000000000001,95.32000000000001,0.0,0.02,3
1681941509.44154286,67905257,0.0,0.17,0.0,1.54,95.32000000000001,95.32000000000001,0.0,0.02,3
1681941509.54158783,68005302,0.0,0.17,0.0,1.55,95.32000000000001,95.32000000000001,0.0,0.03,3
1681941509.64132786,68105042,0.0,0.17,0.0,1.54,95.33,95.33,0.0,0.02,3
1681941509.74141979,68205134,0.0,0.17,0.0,1.55,95.33,95.33,0.0,0.02,3
1681941509.84141779,68305132,0.0,0.17,0.0,1.54,95.34,95.34,0.0,0.03,3
1681941509.94152093,68405235,0.0,0.17,0.0,1.55,95.33,95.33,0.0,0.04,3
1681941510.04131293,68505027,0.0,0.17,0.0,1.54,95.33,95.33,0.0,0.03,3
1681941510.14166999,68605384,0.0,0.17,0.0,1.54,95.32000000000001,95.32000000000001,0.0,0.03,3
1681941510.24161291,68705327,0.0,0.16,0.0,1.54,95.31,95.31,0.0,0.02,3
1681941510.34157681,68805291,0.0,0.16,0.0,1.54,95.31,95.31,0.0,0.02,3
1681941510.44156885,68905283,0.0,0.16,0.0,1.55,95.3,95.3,0.0,0.02,3
1681941510.54167295,69005387,0.0,0.16,0.0,1.54,95.3,95.3,0.0,0.02,3
1681941510.64158487,69105299,0.0,0.16,0.0,1.54,95.3,95.3,0.0,0.02,3
1681941510.74160576,69205320,0.0,0.16,0.0,1.54,95.3,95.3,0.0,0.03,3
1681941510.84162688,69305341,0.0,0.16,0.0,1.54,95.31,95.31,0.0,0.02,3
1681941510.94135976,69405074,0.0,0.16,0.0,1.54,95.31,95.31,0.0,0.02,3
1681941511.04120183,69504916,0.0,0.15,0.0,1.54,95.31,95.31,0.0,0.02,3
1681941511.14136386,69605078,0.0,0.15,0.0,1.54,95.31,95.31,0.0,0.02,3
1681941511.24133086,69705045,0.0,0.15,0.0,1.54,95.31,95.31,0.0,0.03,3
1681941511.34132981,69805044,0.0,0.15,0.0,1.54,95.31,95.31,0.0,0.02,3
1681941511.44134688,69905061,0.0,0.14,0.0,1.54,95.31,95.31,0.01,0.02,3
1681941511.54140592,70005120,0.0,0.14,0.0,1.54,95.3,95.3,0.01,0.04,3
1681941511.64141679,70105131,0.0,0.14,0.0,1.53,95.3,95.3,0.02,0.04,3
1681941511.74162197,70205336,0.0,0.14,0.0,1.53,95.31,95.31,0.02,0.04,3
1681941511.84130979,70305024,0.0,0.14,0.0,1.53,95.33,95.32000000000001,0.03,0.04,3
1681941511.94129181,70405006,0.0,0.14,0.0,1.53,95.34,95.34,0.03,0.03,3
1681941512.04133296,70505047,0.0,0.14,0.0,1.52,95.36,95.35000000000001,0.03,0.03,3
1681941512.14134383,70605058,0.0,0.14,0.0,1.51,95.36,95.36,0.03,0.03,3
1681941512.24144077,70705155,0.0,0.14,0.0,1.51,95.37,95.37,0.03,0.03,3
1681941512.34140682,70805121,0.0,0.15,0.0,1.5,95.38,95.38,0.03,0.02,3
1681941512.44160080,70905315,0.0,0.15,0.0,1.5,95.39,95.38,0.02,0.02,3
1681941512.54136777,71005082,0.0,0.15,0.0,1.5,95.38,95.38,0.02,0.02,3
1681941512.64158797,71105302,0.0,0.15,0.0,1.5,95.38,95.38,0.02,0.01,3
1681941512.74161386,71205328,0.0,0.15,0.0,1.5,95.37,95.37,0.02,0.02,3
1681941512.84143782,71305152,0.0,0.16,0.0,1.5,95.36,95.36,0.02,0.02,3
1681941512.94161487,71405329,0.0,0.16,0.0,1.49,95.36,95.36,0.02,0.02,3
1681941513.04147887,71505193,0.0,0.16,0.0,1.49,95.36,95.36,0.02,0.02,3
1681941513.14184880,71605563,0.0,0.17,0.0,1.49,95.36,95.36,0.02,0.03,3
1681941513.24152184,71705236,0.0,0.17,0.0,1.49,95.36,95.36,0.02,0.02,3
1681941513.34157991,71805294,0.0,0.18,0.0,1.49,95.37,95.37,0.02,0.02,3
1681941513.44158292,71905297,0.0,0.18,0.0,1.48,95.38,95.38,0.02,0.03,3
1681941513.54159689,72005311,0.0,0.19,0.0,1.48,95.38,95.38,0.02,0.02,3
1681941513.64162397,72105338,0.0,0.19,0.0,1.48,95.39,95.39,0.02,0.02,3
1681941513.74145389,72205168,0.0,0.2,0.0,1.49,95.4,95.4,0.02,0.02,3
1681941513.84158683,72305301,0.0,0.21,0.0,1.49,95.4,95.4,0.02,0.02,3
1681941513.94195080,72405665,0.0,0.21,0.0,1.49,95.4,95.4,0.02,0.03,3
1681941514.04132080,72505035,0.0,0.22,0.0,1.49,95.41,95.41,0.02,0.04,3
1681941514.14143395,72605148,0.0,0.23,0.0,1.49,95.42,95.42,0.02,0.04,3
1681941514.24163580,72705350,0.0,0.24,0.0,1.48,95.44,95.44,0.02,0.04,3
1681941514.34171796,72805432,0.0,0.25,0.0,1.49,95.45,95.45,0.02,0.04,3
1681941514.44165397,72905368,0.0,0.25,0.0,1.49,95.46000000000001,95.46000000000001,0.02,0.04,3
1681941514.54171586,73005430,0.0,0.26,0.0,1.49,95.48,95.48,0.02,0.03,3
1681941514.64184999,73105564,0.0,0.26,0.0,1.5,95.49,95.49,0.02,0.03,3
1681941514.74196291,73205677,0.0,0.27,0.0,1.49,95.5,95.5,0.02,0.04,3
1681941514.84164476,73305359,0.0,0.27,0.0,1.49,95.51,95.51,0.02,0.04,3
1681941514.94178677,73405501,0.0,0.28,0.0,1.5,95.52,95.52,0.02,0.03,3
1681941515.04160595,73505320,0.0,0.28,0.0,1.49,95.52,95.52,0.01,0.03,3
1681941515.14165688,73605371,0.0,0.29,0.0,1.49,95.52,95.51,0.01,0.03,3
1681941515.24163485,73705349,0.0,0.29,0.0,1.49,95.51,95.51,0.02,0.04,3
1681941515.34163785,73805352,0.0,0.3,0.0,1.5,95.51,95.51,0.02,0.04,3
1681941515.44168091,73905395,0.0,0.3,0.0,1.5,95.51,95.51,0.02,0.04,3
1681941515.54186296,74005577,0.0,0.31,0.0,1.5,95.52,95.52,0.02,0.03,3
1681941515.64166594,74105380,0.0,0.31,0.0,1.49,95.53,95.53,0.02,0.04,3
1681941515.74134588,74205060,0.0,0.32,0.0,1.49,95.53,95.53,0.02,0.03,3
1681941515.84132481,74305039,0.0,0.33,0.0,1.49,95.55,95.55,0.01,0.02,3
1681941515.94147491,74405189,0.0,0.34,0.0,1.49,95.56,95.56,0.01,0.03,3
1681941516.04141498,74505129,0.0,0.34,0.0,1.49,95.57000000000001,95.56,0.01,0.03,3
1681941516.14144897,74605163,0.0,0.35000000000000003,0.0,1.49,95.58,95.58,0.01,0.03,3
1681941516.24135399,74705068,0.0,0.36,0.0,1.49,95.58,95.57000000000001,0.01,0.02,3
1681941516.34130096,74805015,0.0,0.37,0.0,1.49,95.58,95.58,0.01,0.02,3
1681941516.44120479,74904919,0.0,0.37,0.0,1.49,95.58,95.58,0.01,0.02,3
1681941516.54129076,75005005,0.0,0.38,0.0,1.49,95.58,95.58,0.01,0.02,3
1681941516.64129090,75105005,0.0,0.39,0.0,1.49,95.58,95.58,0.01,0.02,3
1681941516.74159884,75205313,0.0,0.4,0.0,1.49,95.58,95.58,0.01,0.02,3
1681941516.84134078,75305055,0.0,0.4,0.0,1.5,95.58,95.58,0.01,0.01,3
1681941516.94150281,75405217,0.0,0.41000000000000003,0.0,1.5,95.57000000000001,95.57000000000001,0.01,0.01,3
1681941517.04140377,75505118,0.0,0.42,0.0,1.5,95.57000000000001,95.57000000000001,0.0,0.01,3
1681941517.14139199,75605106,0.0,0.43,0.0,1.5,95.56,95.56,0.0,0.02,3
1681941517.24130583,75705020,0.0,0.43,0.0,1.5,95.55,95.55,0.0,0.03,3
1681941517.34148884,75805203,0.0,0.44,0.0,1.51,95.54,95.54,0.0,0.03,3
1681941517.44162393,75905338,0.0,0.45,0.0,1.51,95.52,95.52,0.0,0.02,3
1681941517.54129791,76005012,0.0,0.45,0.0,1.52,95.5,95.5,0.0,0.03,3
1681941517.64150691,76105221,0.0,0.46,0.0,1.53,95.48,95.48,0.0,0.03,3
1681941517.74152780,76205242,0.0,0.46,0.0,1.54,95.46000000000001,95.46000000000001,0.0,0.02,3
1681941517.84156489,76305279,0.0,0.47000000000000003,0.0,1.55,95.44,95.44,0.0,0.02,3
1681941517.94161987,76405334,0.0,0.48,0.0,1.56,95.43,95.43,0.0,0.03,3
1681941518.04159594,76505310,0.0,0.49,0.0,1.57,95.42,95.42,0.0,0.02,3
1681941518.14164186,76605356,0.0,0.49,0.0,1.58,95.42,95.42,0.0,0.02,3
1681941518.24179482,76705509,0.0,0.5,0.0,1.59,95.42,95.42,0.0,0.02,3
1681941518.34157991,76805294,0.0,0.51,0.0,1.6,95.42,95.42,0.0,0.02,3
1681941518.44148588,76905200,0.0,0.52,0.0,1.62,95.42,95.42,0.0,0.02,3
1681941518.54160190,77005316,0.0,0.52,0.0,1.6300000000000001,95.42,95.42,0.0,0.02,3
1681941518.64153981,77105254,0.0,0.53,0.0,1.6300000000000001,95.42,95.42,0.0,0.02,3
1681941518.74157596,77205290,0.0,0.54,0.0,1.6500000000000001,95.42,95.42,0.0,0.02,3
1681941518.84156585,77305280,0.0,0.54,0.0,1.6600000000000001,95.41,95.41,0.0,0.01,3
1681941518.94187379,77405588,0.0,0.55,0.0,1.67,95.41,95.41,0.0,0.01,3
1681941519.04130697,77505021,0.0,0.56,0.0,1.68,95.41,95.41,0.0,0.02,3
1681941519.14121485,77604929,0.0,0.56,0.0,1.7,95.4,95.4,0.0,0.01,3
1681941519.24127388,77704988,0.0,0.5700000000000001,0.0,1.71,95.4,95.4,0.0,0.01,3
1681941519.34129596,77805010,0.0,0.58,0.0,1.71,95.39,95.39,0.0,0.01,3
1681941519.44131398,77905028,0.0,0.58,0.0,1.72,95.39,95.39,0.0,0.01,3
1681941519.54140282,78005117,0.0,0.59,0.0,1.73,95.38,95.38,0.0,0.02,3
1681941519.64136887,78105083,0.0,0.59,0.0,1.74,95.37,95.37,0.0,0.03,3
1681941519.74143577,78205150,0.0,0.59,0.0,1.76,95.35000000000001,95.35000000000001,0.0,0.03,3
1681941519.84165192,78305366,0.0,0.59,0.0,1.77,95.33,95.33,0.0,0.03,3
1681941519.94174099,78405455,0.0,0.59,0.0,1.79,95.32000000000001,95.32000000000001,0.0,0.03,3
1681941520.04120278,78504917,0.0,0.59,0.0,1.8,95.31,95.31,0.0,0.04,3
1681941520.14130378,78605018,0.0,0.6,0.0,1.81,95.31,95.31,0.0,0.04,3
1681941520.24129391,78705008,0.0,0.6,0.0,1.82,95.31,95.31,0.0,0.04,3
1681941520.34132576,78805040,0.0,0.61,0.0,1.84,95.31,95.31,0.0,0.03,3
1681941520.44133377,78905048,0.0,0.61,0.0,1.85,95.31,95.31,0.0,0.03,3
1681941520.54161286,79005327,0.0,0.62,0.0,1.86,95.31,95.31,0.0,0.03,3
1681941520.64146996,79105184,0.0,0.62,0.0,1.87,95.31,95.31,0.0,0.03,3
1681941520.74137092,79205085,0.0,0.63,0.0,1.8900000000000001,95.3,95.3,0.0,0.03,3
1681941520.84130192,79305016,0.0,0.63,0.0,1.9000000000000001,95.29,95.29,0.0,0.03,3
1681941520.94128299,79404997,0.0,0.63,0.0,1.9100000000000001,95.27,95.27,0.0,0.03,3
1681941521.04126596,79504980,0.0,0.63,0.0,1.92,95.26,95.26,0.0,0.03,3
1681941521.14165092,79605365,0.0,0.64,0.0,1.93,95.25,95.25,0.0,0.03,3
1681941521.24159193,79705306,0.0,0.65,0.0,1.94,95.24,95.24,0.0,0.03,3
1681941521.34160399,79805318,0.0,0.66,0.0,1.95,95.22,95.22,0.0,0.03,3
1681941521.44161177,79905326,0.0,0.67,0.0,1.95,95.21000000000001,95.21000000000001,0.0,0.02,3
1681941521.54142284,80005137,0.0,0.68,0.0,1.94,95.2,95.2,0.0,0.02,3
1681941521.64157176,80105286,0.0,0.6900000000000001,0.0,1.94,95.19,95.19,0.0,0.03,3
1681941521.74154997,80205264,0.0,0.6900000000000001,0.0,1.94,95.18,95.18,0.0,0.03,3
1681941521.84142900,80305143,0.0,0.6900000000000001,0.0,1.94,95.17,95.17,0.0,0.02,3
1681941521.94174886,80405463,0.0,0.6900000000000001,0.0,1.94,95.16,95.16,0.0,0.02,3
1681941522.04179382,80505508,0.0,0.68,0.0,1.94,95.15,95.15,0.0,0.02,3
1681941522.14186478,80605579,0.0,0.6900000000000001,0.0,1.94,95.13,95.13,0.0,0.02,3
1681941522.24159098,80705305,0.0,0.6900000000000001,0.0,1.94,95.11,95.11,0.0,0.02,3
1681941522.34161782,80805332,0.0,0.6900000000000001,0.0,1.94,95.09,95.09,0.0,0.03,3
1681941522.44161582,80905330,0.0,0.68,0.0,1.93,95.09,95.09,0.0,0.03,3
1681941522.54165578,81005370,0.0,0.68,0.0,1.93,95.08,95.08,0.0,0.03,3
1681941522.64166594,81105380,0.0,0.67,0.0,1.92,95.08,95.08,0.0,0.03,3
1681941522.74166584,81205380,0.0,0.67,0.0,1.92,95.07000000000001,95.07000000000001,0.0,0.03,3
1681941522.84160590,81305320,0.0,0.66,0.0,1.9100000000000001,95.06,95.06,0.0,0.02,3
1681941522.94198585,81405700,0.0,0.66,0.0,1.9100000000000001,95.05,95.05,0.0,0.02,3
1681941523.04160285,81505317,0.0,0.65,0.0,1.9000000000000001,95.04,95.04,0.0,0.02,3
1681941523.14143491,81605149,0.0,0.65,0.0,1.9000000000000001,95.02,95.02,0.0,0.02,3
1681941523.24142194,81705136,0.0,0.65,0.0,1.9000000000000001,95.01,95.01,0.0,0.02,3
1681941523.34143686,81805151,0.0,0.64,0.0,1.9000000000000001,95.0,95.0,0.0,0.02,3
1681941523.44137287,81905087,0.0,0.64,0.0,1.9000000000000001,94.99,94.99,0.0,0.01,3
1681941523.54166889,82005383,0.0,0.64,0.0,1.8900000000000001,94.98,94.98,0.0,0.02,3
1681941523.64149380,82105208,0.0,0.63,0.0,1.8900000000000001,94.97,94.97,0.0,0.02,3
1681941523.74168897,82205403,0.0,0.63,0.0,1.8800000000000001,94.95,94.95,0.0,0.02,3
1681941523.84128189,82304996,0.0,0.63,0.0,1.8800000000000001,94.94,94.94,0.0,0.03,3
1681941523.94144678,82405161,0.0,0.63,0.0,1.87,94.91,94.91,0.0,0.02,3
1681941524.04134488,82505059,0.0,0.63,0.0,1.87,94.89,94.89,0.0,0.02,3
1681941524.14145494,82605169,0.0,0.63,0.0,1.86,94.87,94.87,0.0,0.02,3
1681941524.24141979,82705134,0.0,0.63,0.0,1.86,94.86,94.86,0.0,0.02,3
1681941524.34136391,82805078,0.0,0.63,0.0,1.85,94.85000000000001,94.85000000000001,0.0,0.02,3
1681941524.44130182,82905016,0.0,0.63,0.0,1.85,94.85000000000001,94.85000000000001,0.0,0.01,3
1681941524.54153681,83005251,0.0,0.63,0.0,1.84,94.84,94.84,0.0,0.01,3
1681941524.64166594,83105380,0.0,0.62,0.0,1.84,94.83,94.83,0.0,0.01,3
1681941524.74131584,83205030,0.0,0.62,0.0,1.85,94.83,94.83,0.0,0.01,3
1681941524.84141397,83305128,0.0,0.61,0.0,1.86,94.82000000000001,94.82000000000001,0.0,0.01,3
1681941524.94142079,83405135,0.0,0.61,0.0,1.86,94.81,94.81,0.0,0.02,3
1681941525.04140997,83505124,0.0,0.61,0.0,1.87,94.8,94.8,0.0,0.02,3
1681941525.14144087,83605155,0.0,0.62,0.0,1.87,94.79,94.79,0.0,0.02,3
1681941525.24132180,83705036,0.0,0.62,0.0,1.87,94.78,94.78,0.0,0.01,3
1681941525.34131193,83805026,0.0,0.63,0.0,1.87,94.77,94.77,0.0,0.02,3
1681941525.44142890,83905143,0.0,0.63,0.0,1.87,94.76,94.76,0.0,0.03,3
1681941525.54157281,84005287,0.0,0.64,0.0,1.87,94.75,94.75,0.0,0.02,3
1681941525.64149189,84105206,0.0,0.64,0.0,1.87,94.75,94.75,0.0,0.02,3
1681941525.74154186,84205256,0.0,0.65,0.0,1.87,94.74,94.74,0.0,0.02,3
1681941525.84152079,84305235,0.0,0.65,0.0,1.87,94.74,94.74,0.0,0.02,3
1681941525.94160676,84405321,0.0,0.66,0.0,1.87,94.73,94.73,0.0,0.01,3
1681941526.04174399,84505458,0.0,0.65,0.0,1.8800000000000001,94.73,94.73,0.0,0.02,3
1681941526.14186382,84605578,0.0,0.65,0.0,1.8800000000000001,94.72,94.72,0.0,0.03,3
1681941526.24167085,84705385,0.0,0.65,0.0,1.8800000000000001,94.72,94.72,0.0,0.03,3
1681941526.34152985,84805244,0.0,0.65,0.0,1.8800000000000001,94.71000000000001,94.71000000000001,0.0,0.03,3
1681941526.44159794,84905312,0.0,0.65,0.0,1.87,94.71000000000001,94.71000000000001,0.0,0.03,3
1681941526.54157376,85005288,0.0,0.65,0.0,1.86,94.71000000000001,94.71000000000001,0.0,0.02,3
1681941526.64158392,85105298,0.0,0.66,0.0,1.85,94.7,94.7,0.0,0.03,3
1681941526.74159789,85205312,0.0,0.66,0.0,1.84,94.7,94.7,0.0,0.02,3
1681941526.84161592,85305330,0.0,0.66,0.0,1.84,94.69,94.69,0.0,0.02,3
1681941526.94179893,85405513,0.0,0.66,0.0,1.84,94.69,94.69,0.0,0.02,3
1681941527.04165888,85505373,0.0,0.67,0.0,1.84,94.68,94.68,0.0,0.02,3
1681941527.14172292,85605437,0.0,0.66,0.0,1.83,94.67,94.67,0.0,0.02,3
1681941527.24119592,85704910,0.0,0.67,0.0,1.83,94.7,94.7,0.0,0.02,3
1681941527.34129095,85805005,0.0,0.66,0.0,1.83,94.66,94.66,0.0,0.01,3
1681941527.44127798,85904992,0.0,0.67,0.0,1.84,94.65,94.65,0.0,0.02,3
1681941527.54131889,86005033,0.0,0.67,0.0,1.83,94.65,94.65,0.0,0.01,3
1681941527.64134789,86105062,0.0,0.67,0.0,1.83,94.66,94.66,0.0,0.02,3
1681941527.74162292,86205337,0.0,0.67,0.0,1.84,94.63,94.63,0.0,0.02,3
1681941527.84162593,86305340,0.0,0.67,0.0,1.83,94.62,94.62,0.0,0.03,3
1681941527.94142699,86405141,0.0,0.67,0.0,1.83,94.61,94.61,0.0,0.03,3
1681941528.04131985,86505034,0.0,0.66,0.0,1.83,94.59,94.59,0.0,0.03,3
1681941528.14122295,86604937,0.0,0.66,0.0,1.82,94.57000000000001,94.57000000000001,0.0,0.04,3
1681941528.24128699,86705001,0.0,0.66,0.0,1.82,94.55,94.55,0.0,0.04,3
1681941528.34157085,86805285,0.0,0.66,0.0,1.81,94.52,94.52,0.0,0.04,3
1681941528.44158292,86905297,0.0,0.65,0.0,1.8,94.5,94.5,0.0,0.04,3
1681941528.54158592,87005300,0.0,0.65,0.0,1.8,94.48,94.48,0.0,0.03,3
1681941528.64160776,87105322,0.0,0.66,0.0,1.79,94.47,94.47,0.0,0.03,3
1681941528.74141788,87205132,0.0,0.65,0.0,1.78,94.45,94.45,0.0,0.03,3
1681941528.84157491,87305289,0.0,0.67,0.0,1.77,94.46000000000001,94.46000000000001,0.0,0.02,3
1681941528.94166088,87405375,0.0,0.66,0.0,1.79,94.47,94.47,0.0,0.02,3
1681941529.04149079,87505205,0.0,0.65,0.0,1.76,94.42,94.42,0.0,0.03,3
1681941529.14160585,87605320,0.0,0.65,0.0,1.77,94.5,94.5,0.0,0.02,3
1681941529.24148083,87705195,0.0,0.64,0.0,1.76,94.41,94.41,0.0,0.03,3
1681941529.34153199,87805246,0.0,0.64,0.0,1.78,94.5,94.5,0.0,0.03,3
1681941529.44152498,87905239,0.0,0.64,0.0,1.74,94.44,94.44,0.0,0.03,3
1681941529.54155898,88005273,0.0,0.64,0.0,1.76,94.44,94.44,0.0,0.03,3
1681941529.64155388,88105268,0.0,0.64,0.0,1.75,94.47,94.47,0.0,0.03,3
1681941529.74176097,88205475,0.0,0.63,0.0,1.72,94.44,94.44,0.0,0.03,3
1681941529.84167194,88305386,0.0,0.63,0.0,1.74,94.4,94.4,0.0,0.02,3
