timestamp,TimeUS,Lat,Lng,Alt,RelHomeAlt,RelOriginAlt
1681941468.04177880,26505493,42.7247669,-84.48077599999999,278.79998779296875,-2.1382341384887695,-2.0219039916992188
1681941468.14191580,26605630,42.7247669,-84.48077599999999,278.79998779296875,-2.127352476119995,-2.026167392730713
1681941468.24152088,26705235,42.7247747,-84.48078439999999,276.6999816894531,-2.1001484394073486,-2.031275987625122
1681941468.34154797,26805262,42.7247747,-84.48078439999999,276.6999816894531,-2.007654905319214,-2.03613543510437
1681941468.44153690,26905251,42.7247749,-84.4807835,276.3500061035156,-1.9641284942626953,-2.040306568145752
1681941468.54155087,27005265,42.7247749,-84.4807835,276.3500061035156,-1.9206020832061768,-2.0423927307128906
1681941468.64151692,27105231,42.724775099999995,-84.48078269999999,276.0,-2.023977279663086,-2.041731834411621
1681941468.74172997,27205444,42.724775099999995,-84.48078269999999,276.0,-1.969569206237793,-2.038235902786255
1681941468.84186292,27305577,42.724775,-84.4807826,275.8899841308594,-1.9206020832061768,-2.033946990966797
1681941468.94154978,27405264,42.724775,-84.4807826,275.8899841308594,-2.0457403659820557,-2.029155969619751
1681941469.04148078,27505195,42.7247748,-84.4807822,275.8500061035156,-2.0511813163757324,-2.022986650466919
1681941469.14153790,27605252,42.7247748,-84.4807822,275.8500061035156,-1.9641284942626953,-2.0173702239990234
1681941469.24154186,27705256,42.7247749,-84.4807819,275.67999267578125,-1.969569206237793,-2.013154983520508
1681941469.34155393,27805268,42.7247749,-84.4807819,275.67999267578125,-2.143674850463867,-2.0087945461273193
1681941469.44155598,27905270,42.7247749,-84.4807823,275.67999267578125,-1.8281084299087524,-2.003913164138794
1681941469.54152179,28005236,42.7247749,-84.4807823,275.67999267578125,-2.0294179916381836,-2.001110076904297
1681941469.64142084,28105135,42.724775,-84.4807829,275.7099914550781,-1.9151612520217896,-1.996786117553711
1681941469.74153686,28205251,42.724775,-84.4807829,275.7099914550781,-2.0294179916381836,-1.9919953346252441
1681941469.84179378,28305508,42.7247749,-84.48078319999999,275.75,-1.9804508686065674,-1.986823558807373
1681941469.94182181,28405536,42.7247749,-84.48078319999999,275.75,-1.7628189325332642,-1.9821079969406128
1681941470.04151177,28505226,42.7247747,-84.4807829,275.6999816894531,-1.9369244575500488,-1.9779400825500488
1681941470.14156389,28605278,42.7247747,-84.4807829,275.6999816894531,-2.1327931880950928,-1.971010446548462
1681941470.24160695,28705321,42.724774599999996,-84.4807823,275.6600036621094,-1.9967732429504395,-1.9630793333053589
1681941470.34156394,28805278,42.724774599999996,-84.4807823,275.6600036621094,-2.1763195991516113,-1.9582700729370117
1681941470.44150782,28905222,42.724774499999995,-84.4807814,275.55999755859375,-1.8933980464935303,-1.9551297426223755
1681941470.54141784,29005132,42.724774499999995,-84.4807814,275.55999755859375,-2.0620627403259277,-1.954623818397522
1681941470.64155388,29105268,42.7247744,-84.4807806,275.4599914550781,-2.0675036907196045,-1.9535472393035889
1681941470.74178290,29205497,42.7247744,-84.4807806,275.4599914550781,-2.0294179916381836,-1.9524815082550049
1681941470.84148192,29305196,42.7247743,-84.4807799,275.3599853515625,-1.9967732429504395,-1.9524223804473877
1681941470.94155979,29405274,42.7247743,-84.4807799,275.3599853515625,-1.844430923461914,-1.9527183771133423
1681941471.04154897,29505263,42.7247741,-84.48077959999999,275.32000732421875,-1.8009045124053955,-1.952548623085022
1681941471.14158678,29605301,42.7247741,-84.48077959999999,275.32000732421875,-1.9478061199188232,-1.9499930143356323
1681941471.24156284,29705277,42.724774,-84.4807793,275.2799987792969,-1.7301740646362305,-1.9443203210830688
1681941471.34174776,29805462,42.724774,-84.4807793,275.2799987792969,-2.0130956172943115,-1.9381325244903564
1681941471.44163394,29905348,42.7247737,-84.48077909999999,275.2699890136719,-2.1708788871765137,-1.9298089742660522
1681941471.54180694,30005521,42.7247737,-84.48077909999999,275.2699890136719,-2.0457403659820557,-1.9221751689910889
1681941471.64196277,30105677,42.7247737,-84.4807787,275.239990234375,-1.9913324117660522,-1.9193764925003052
1681941471.74171782,30205432,42.7247737,-84.4807787,275.239990234375,-2.1164708137512207,-1.918515920639038
1681941471.84149480,30305209,42.7247737,-84.4807783,275.19000244140625,-1.7519372701644897,-1.9178574085235596
1681941471.94156599,30405280,42.7247737,-84.4807783,275.19000244140625,-2.0348589420318604,-1.9188894033432007
1681941472.04154778,30505262,42.7247737,-84.48077789999999,275.19000244140625,-1.9858916997909546,-1.9164363145828247
1681941472.14159083,30605305,42.7247737,-84.48077789999999,275.19000244140625,-1.926042914390564,-1.9141442775726318
1681941472.24149895,30705213,42.724773899999995,-84.48077719999999,275.1300048828125,-1.9151612520217896,-1.9124243259429932
1681941472.34146595,30805180,42.724773899999995,-84.48077719999999,275.1300048828125,-1.8933980464935303,-1.9101736545562744
1681941472.44154191,30905256,42.724773899999995,-84.4807768,275.1300048828125,-2.2307276725769043,-1.90707528591156
1681941472.54146099,31005175,42.724773899999995,-84.4807768,275.1300048828125,-1.9858916997909546,-1.903134822845459
1681941472.64178491,31105499,42.724774,-84.4807763,275.1300048828125,-1.7954636812210083,-1.9032810926437378
1681941472.74150991,31205224,42.724774,-84.4807763,275.1300048828125,-2.0348589420318604,-1.9041893482208252
1681941472.84151888,31305233,42.7247741,-84.4807755,275.07000732421875,-1.9314836263656616,-1.9021086692810059
1681941472.94157577,31405290,42.7247741,-84.4807755,275.07000732421875,-1.8770756721496582,-1.9005014896392822
1681941473.04155087,31505265,42.7247743,-84.4807743,274.9700012207031,-2.257931709289551,-1.8987765312194824
1681941473.14161992,31605334,42.7247743,-84.4807743,274.9700012207031,-1.8607532978057861,-1.8958768844604492
1681941473.24139881,31705113,42.7247743,-84.4807732,274.8699951171875,-2.0675036907196045,-1.8971517086029053
1681941473.34153199,31805246,42.7247743,-84.4807732,274.8699951171875,-1.953246831893921,-1.8973912000656128
1681941473.44176579,31905480,42.7247744,-84.4807723,274.8299865722656,-2.072944402694702,-1.8982656002044678
1681941473.54173684,32005451,42.7247744,-84.4807723,274.8299865722656,-2.203523635864258,-1.8987810611724854
1681941473.64149189,32105206,42.724774499999995,-84.4807714,274.7699890136719,-1.8825165033340454,-1.900282621383667
1681941473.74153399,32205248,42.724774499999995,-84.4807714,274.7699890136719,-2.1382341384887695,-1.9046493768692017
1681941473.84154582,32305260,42.7247749,-84.4807703,274.6399841308594,-2.149115562438965,-1.9071332216262817
1681941473.94160986,32405324,42.7247749,-84.4807703,274.6399841308594,-2.1872012615203857,-1.9105603694915771
1681941474.04153085,32505245,42.724775199999996,-84.48076929999999,274.55999755859375,-1.8498716354370117,-1.9157174825668335
1681941474.14177394,32605488,42.724775199999996,-84.48076929999999,274.55999755859375,-2.0185365676879883,-1.922545313835144
1681941474.24183679,32705551,42.7247755,-84.4807682,274.4499816894531,-1.9641284942626953,-1.9261908531188965
1681941474.34144783,32805162,42.7247755,-84.4807682,274.4499816894531,-1.958687663078308,-1.9285707473754883
1681941474.44154787,32905262,42.7247755,-84.4807676,274.41998291015625,-2.078385353088379,-1.9299163818359375
1681941474.54150987,33005224,42.7247755,-84.4807676,274.41998291015625,-2.094707727432251,-1.9302761554718018
1681941474.64153790,33105252,42.7247756,-84.48076619999999,274.2799987792969,-2.05662202835083,-1.9314810037612915
1681941474.74153090,33205245,42.7247756,-84.48076619999999,274.2799987792969,-2.007654905319214,-1.9339580535888672
1681941474.84170794,33305422,42.724775699999995,-84.4807651,274.17999267578125,-1.8770756721496582,-1.9369046688079834
1681941474.94157076,33405285,42.724775699999995,-84.4807651,274.17999267578125,-1.9913324117660522,-1.9394404888153076
1681941475.04142976,33505144,42.724775799999996,-84.48076379999999,274.0400085449219,-1.8825165033340454,-1.9398256540298462
1681941475.14161277,33605327,42.724775799999996,-84.48076379999999,274.0400085449219,-2.127352476119995,-1.9397014379501343
1681941475.24145293,33705167,42.724776,-84.4807624,273.9100036621094,-1.8933980464935303,-1.9383076429367065
1681941475.34158087,33805295,42.724776,-84.4807624,273.9100036621094,-1.675766110420227,-1.9387885332107544
1681941475.44150186,33905216,42.7247761,-84.480761,273.7900085449219,-1.942365288734436,-1.938428282737732
1681941475.54152298,34005237,42.7247761,-84.480761,273.7900085449219,-2.143674850463867,-1.9338966608047485
1681941475.64172387,34105438,42.724776299999995,-84.4807597,273.66998291015625,-1.855312466621399,-1.9291423559188843
1681941475.74170685,34205421,42.724776299999995,-84.4807597,273.66998291015625,-2.127352476119995,-1.9277560710906982
1681941475.84177685,34305491,42.724776299999995,-84.4807584,273.6000061035156,-2.0348589420318604,-1.925844430923462
1681941475.94195890,34405673,42.724776299999995,-84.4807584,273.6000061035156,-1.9314836263656616,-1.925977110862732
1681941476.04186797,34505582,42.724776399999996,-84.4807573,273.5199890136719,-1.9369244575500488,-1.9273320436477661
1681941476.14180684,34605521,42.724776399999996,-84.4807573,273.5199890136719,-2.2144052982330322,-1.9279133081436157
1681941476.24173594,34705450,42.724776399999996,-84.4807565,273.489990234375,-2.2416090965270996,-1.9276829957962036
1681941476.34171796,34805432,42.724776399999996,-84.4807565,273.489990234375,-1.8281084299087524,-1.9304115772247314
1681941476.44170189,34905416,42.724776299999995,-84.48075539999999,273.4499816894531,-2.089266777038574,-1.936554193496704
1681941476.54192090,35005635,42.724776299999995,-84.48075539999999,273.4499816894531,-1.9151612520217896,-1.9398657083511353
1681941476.64173794,35105452,42.724776399999996,-84.48075449999999,273.41998291015625,-1.9858916997909546,-1.9424482583999634
1681941476.74151587,35205230,42.724776399999996,-84.48075449999999,273.41998291015625,-2.0457403659820557,-1.9444520473480225
1681941476.84140992,35305124,42.7247765,-84.4807532,273.3299865722656,-1.926042914390564,-1.9454967975616455
1681941476.94160581,35405320,42.7247765,-84.4807532,273.3299865722656,-2.1219115257263184,-1.9469125270843506
1681941477.04145789,35505172,42.7247765,-84.4807519,273.25,-2.0511813163757324,-1.9476367235183716
1681941477.14154291,35605257,42.7247765,-84.4807519,273.25,-2.149115562438965,-1.9494011402130127
1681941477.24150991,35705224,42.7247767,-84.4807502,273.1199951171875,-2.05662202835083,-1.9521759748458862
1681941477.34153581,35805250,42.7247767,-84.4807502,273.1199951171875,-1.9804508686065674,-1.9563180208206177
1681941477.44154096,35905255,42.7247766,-84.4807491,273.05999755859375,-1.926042914390564,-1.961000680923462
1681941477.54172087,36005435,42.7247766,-84.4807491,273.05999755859375,-2.0130956172943115,-1.964642882347107
1681941477.64149785,36105212,42.7247765,-84.48074749999999,272.91998291015625,-2.05662202835083,-1.9665673971176147
1681941477.74144697,36205161,42.7247765,-84.48074749999999,272.91998291015625,-2.023977279663086,-1.9679421186447144
1681941477.84154296,36305257,42.7247766,-84.4807453,272.66998291015625,-1.9206020832061768,-1.9698433876037598
1681941477.94156098,36405275,42.7247766,-84.4807453,272.66998291015625,-1.9478061199188232,-1.9720312356948853
1681941478.04153395,36505248,42.7247766,-84.4807438,272.5400085449219,-1.958687663078308,-1.9732002019882202
1681941478.14154482,36605259,42.7247766,-84.4807438,272.5400085449219,-1.7464964389801025,-1.9733577966690063
1681941478.24170589,36705420,42.7247767,-84.4807423,272.3500061035156,-1.9314836263656616,-1.973059058189392
1681941478.34155893,36805273,42.7247767,-84.4807423,272.3500061035156,-1.9913324117660522,-1.970217227935791
1681941478.44154692,36905261,42.7247767,-84.4807414,272.2900085449219,-1.9097204208374023,-1.9664840698242188
1681941478.54152489,37005239,42.7247767,-84.4807414,272.2900085449219,-1.7301740646362305,-1.9638142585754395
1681941478.64145494,37105169,42.7247768,-84.48074009999999,272.1499938964844,-1.8607532978057861,-1.961409330368042
1681941478.74154592,37205260,42.7247768,-84.48074009999999,272.1499938964844,-1.9314836263656616,-1.9567980766296387
1681941478.84146881,37305183,42.724776899999995,-84.4807386,271.97998046875,-2.0185365676879883,-1.951132893562317
1681941478.94155383,37405268,42.724776899999995,-84.4807386,271.97998046875,-2.0457403659820557,-1.946210503578186
1681941479.04151797,37505232,42.7247768,-84.48073769999999,271.8899841308594,-1.8226677179336548,-1.9431407451629639
1681941479.14173388,37605448,42.7247768,-84.48073769999999,271.8899841308594,-1.9042797088623047,-1.9422062635421753
1681941479.24155784,37705272,42.7247768,-84.4807366,271.7599792480469,-1.871634840965271,-1.940556287765503
1681941479.34156084,37805275,42.7247768,-84.4807366,271.7599792480469,-2.0838260650634766,-1.9380754232406616
1681941479.44151783,37905232,42.724776999999996,-84.48073529999999,271.6199951171875,-1.8770756721496582,-1.9351272583007812
1681941479.54141498,38005129,42.724776999999996,-84.48073529999999,271.6199951171875,-1.8009045124053955,-1.9339423179626465
1681941479.64155197,38105266,42.7247771,-84.4807343,271.5099792480469,-1.942365288734436,-1.9329686164855957
1681941479.74144697,38205161,42.7247771,-84.4807343,271.5099792480469,-1.8226677179336548,-1.930208444595337
1681941479.84166980,38305384,42.7247771,-84.4807333,271.41998291015625,-1.7791413068771362,-1.927286982536316
1681941479.94155478,38405269,42.7247771,-84.4807333,271.41998291015625,-1.7845821380615234,-1.923750638961792
1681941480.04153585,38505250,42.724776999999996,-84.4807324,271.3399963378906,-1.9641284942626953,-1.9187676906585693
1681941480.14157987,38605294,42.724776999999996,-84.4807324,271.3399963378906,-1.7138516902923584,-1.9126275777816772
1681941480.24156189,38705276,42.724776999999996,-84.4807314,271.239990234375,-1.7138516902923584,-1.9076231718063354
1681941480.34173393,38805448,42.724776999999996,-84.4807314,271.239990234375,-1.790022850036621,-1.9017930030822754
1681941480.44167399,38905388,42.724776899999995,-84.4807309,271.1999816894531,-1.8172268867492676,-1.8941158056259155
1681941480.54180288,39005517,42.724776899999995,-84.4807309,271.1999816894531,-1.7084108591079712,-1.8859646320343018
1681941480.64197493,39105689,42.7247768,-84.48073029999999,271.1199951171875,-1.8226677179336548,-1.8782280683517456
1681941480.74186492,39205579,42.7247768,-84.48073029999999,271.1199951171875,-1.9913324117660522,-1.869810700416565
1681941480.84151196,39305226,42.7247767,-84.4807297,271.0400085449219,-1.7247333526611328,-1.8619954586029053
1681941480.94157791,39405292,42.7247767,-84.4807297,271.0400085449219,-1.7682596445083618,-1.8571767807006836
1681941481.04153895,39505253,42.7247767,-84.480729,270.9599914550781,-1.773700475692749,-1.851793646812439
1681941481.14158297,39605297,42.7247767,-84.480729,270.9599914550781,-1.675766110420227,-1.8457422256469727
1681941481.24150276,39705217,42.724776299999995,-84.480729,271.1099853515625,-1.5669500827789307,-1.8395297527313232
1681941481.34166598,39805380,42.724776299999995,-84.480729,271.1099853515625,-1.887957215309143,-1.8320709466934204
1681941481.44184494,39905559,42.7247759,-84.4807288,271.2099914550781,-1.8661941289901733,-1.8221209049224854
1681941481.54145694,40005171,42.7247759,-84.4807288,271.2099914550781,-1.8661941289901733,-1.8141511678695679
1681941481.64146090,40105175,42.7247754,-84.4807287,271.3299865722656,-1.7464964389801025,-1.8085119724273682
1681941481.74149394,40205208,42.7247754,-84.4807287,271.3299865722656,-1.5669500827789307,-1.8045296669006348
1681941481.84150982,40305224,42.724775,-84.4807285,271.42999267578125,-1.773700475692749,-1.8002971410751343
1681941481.94164181,40405356,42.724775,-84.4807285,271.42999267578125,-1.8770756721496582,-1.7932895421981812
1681941482.04174185,40505456,42.724774599999996,-84.48072839999999,271.5099792480469,-1.8825165033340454,-1.7863032817840576
1681941482.14181781,40605532,42.724774599999996,-84.48072839999999,271.5099792480469,-1.7410557270050049,-1.7814462184906006
1681941482.24173188,40705446,42.7247743,-84.4807283,271.5899963378906,-1.7029701471328735,-1.7786332368850708
1681941482.34184599,40805560,42.7247743,-84.4807283,271.5899963378906,-1.5995949506759644,-1.7755639553070068
1681941482.44144893,40905163,42.724773899999995,-84.48072839999999,271.66998291015625,-1.7845821380615234,-1.7713985443115234
1681941482.54148078,41005195,42.724773899999995,-84.48072839999999,271.66998291015625,-1.8281084299087524,-1.7650649547576904
1681941482.64148998,41105204,42.7247735,-84.4807282,271.739990234375,-1.6703252792358398,-1.7591872215270996
1681941482.74153495,41205249,42.7247735,-84.4807282,271.739990234375,-1.7247333526611328,-1.754949927330017
1681941482.84179997,41305514,42.7247731,-84.4807278,271.7699890136719,-1.6540029048919678,-1.7500824928283691
1681941482.94177294,41405487,42.7247731,-84.4807278,271.7699890136719,-1.7410557270050049,-1.7449499368667603
1681941483.04150581,41505220,42.724772699999995,-84.4807276,271.80999755859375,-1.7410557270050049,-1.739014744758606
1681941483.14144897,41605163,42.724772699999995,-84.4807276,271.80999755859375,-1.757378101348877,-1.733418345451355
1681941483.24153996,41705254,42.7247724,-84.48072719999999,271.8500061035156,-1.8607532978057861,-1.7284070253372192
1681941483.34155989,41805274,42.7247724,-84.48072719999999,271.8500061035156,-1.7247333526611328,-1.7241705656051636
1681941483.44147682,41905191,42.724772099999996,-84.4807268,271.8699951171875,-1.8933980464935303,-1.7217732667922974
1681941483.54173994,42005454,42.724772099999996,-84.4807268,271.8699951171875,-1.686647653579712,-1.7193900346755981
1681941483.64171386,42105428,42.7247717,-84.4807263,271.8999938964844,-1.6104764938354492,-1.7187128067016602
1681941483.74154496,42205259,42.7247717,-84.4807263,271.8999938964844,-1.9042797088623047,-1.7172704935073853
1681941483.84155989,42305274,42.7247713,-84.4807259,271.9100036621094,-1.773700475692749,-1.7136632204055786
1681941483.94166493,42405379,42.7247713,-84.4807259,271.9100036621094,-1.6812069416046143,-1.7119554281234741
1681941484.04140878,42505123,42.724770899999996,-84.4807258,271.97998046875,-1.675766110420227,-1.7110034227371216
1681941484.14156079,42605275,42.724770899999996,-84.4807258,271.97998046875,-1.7628189325332642,-1.7090498208999634
1681941484.24177098,42705485,42.7247705,-84.4807257,272.05999755859375,-1.6159173250198364,-1.706032156944275
1681941484.34171891,42805433,42.7247705,-84.4807257,272.05999755859375,-1.7247333526611328,-1.7033132314682007
1681941484.44152188,42905236,42.7247701,-84.4807256,272.1399841308594,-1.6267988681793213,-1.699342966079712
1681941484.54153180,43005246,42.7247701,-84.4807256,272.1399841308594,-1.855312466621399,-1.6954059600830078
1681941484.64154792,43105262,42.724769599999995,-84.4807258,272.2599792480469,-1.4418118000030518,-1.6907504796981812
1681941484.74161291,43205327,42.724769599999995,-84.4807258,272.2599792480469,-1.7029701471328735,-1.6881814002990723
1681941484.84151697,43305231,42.7247692,-84.4807261,272.3800048828125,-1.773700475692749,-1.682742953300476
1681941484.94154692,43405261,42.7247692,-84.4807261,272.3800048828125,-1.8498716354370117,-1.6772533655166626
1681941485.04153895,43505253,42.7247688,-84.4807264,272.489990234375,-1.6975293159484863,-1.6735774278640747
1681941485.14179587,43605510,42.7247688,-84.4807264,272.489990234375,-1.757378101348877,-1.6724557876586914
1681941485.24147582,43705190,42.724768399999995,-84.4807264,272.55999755859375,-1.757378101348877,-1.6715229749679565
1681941485.34151578,43805230,42.724768399999995,-84.4807264,272.55999755859375,-1.7301740646362305,-1.670892596244812
1681941485.44156384,43905278,42.7247681,-84.4807265,272.6499938964844,-1.7029701471328735,-1.670749306678772
1681941485.54153585,44005250,42.7247681,-84.4807265,272.6499938964844,-1.757378101348877,-1.6706267595291138
1681941485.64153385,44105248,42.7247677,-84.4807266,272.72998046875,-1.5451868772506714,-1.6700663566589355
1681941485.74151778,44205232,42.7247677,-84.4807266,272.72998046875,-1.7192925214767456,-1.6698081493377686
1681941485.84166288,44305377,42.7247675,-84.4807265,272.7799987792969,-1.5451868772506714,-1.6672919988632202
1681941485.94172287,44405437,42.7247675,-84.4807265,272.7799987792969,-1.675766110420227,-1.6646702289581299
1681941486.04148698,44505201,42.724767299999996,-84.4807265,272.8299865722656,-1.675766110420227,-1.6604561805725098
1681941486.14155793,44605272,42.724767299999996,-84.4807265,272.8299865722656,-1.6213581562042236,-1.6561007499694824
1681941486.24153280,44705247,42.724767,-84.48072669999999,272.9100036621094,-1.6104764938354492,-1.6522101163864136
1681941486.34154177,44805256,42.724767,-84.48072669999999,272.9100036621094,-1.675766110420227,-1.6480507850646973
1681941486.44154978,44905264,42.7247668,-84.4807268,272.9700012207031,-1.5179829597473145,-1.6434942483901978
1681941486.54176497,45005479,42.7247668,-84.4807268,272.9700012207031,-1.5125421285629272,-1.6395223140716553
1681941486.64177179,45105486,42.724766699999996,-84.4807265,272.97998046875,-1.5832725763320923,-1.634222388267517
1681941486.74173188,45205446,42.724766699999996,-84.4807265,272.97998046875,-1.6213581562042236,-1.627411961555481
1681941486.84184384,45305558,42.7247665,-84.4807263,273.0,-1.7029701471328735,-1.6204975843429565
1681941486.94186783,45405582,42.7247665,-84.4807263,273.0,-1.50710129737854,-1.6142942905426025
1681941487.04188895,45505603,42.7247663,-84.4807263,273.05999755859375,-1.7464964389801025,-1.6098711490631104
1681941487.14176297,45605477,42.7247663,-84.4807263,273.05999755859375,-1.5669500827789307,-1.6045808792114258
1681941487.24170089,45705415,42.7247662,-84.48072619999999,273.1000061035156,-1.6485620737075806,-1.6010034084320068
1681941487.34155798,45805272,42.7247662,-84.48072619999999,273.1000061035156,-1.4853380918502808,-1.5974968671798706
1681941487.44157481,45905289,42.7247661,-84.4807259,273.1099853515625,-1.6540029048919678,-1.5941667556762695
1681941487.54151988,46005234,42.7247661,-84.4807259,273.1099853515625,-1.5288645029067993,-1.5897040367126465
1681941487.64141393,46105128,42.724765999999995,-84.4807259,273.1600036621094,-1.6376805305480957,-1.585443377494812
1681941487.74155283,46205267,42.724765999999995,-84.4807259,273.1600036621094,-1.6920884847640991,-1.5809974670410156
1681941487.84178877,46305503,42.7247658,-84.4807261,273.25,-1.5343053340911865,-1.5769914388656616
1681941487.94158983,46405304,42.7247658,-84.4807261,273.25,-1.4254893064498901,-1.5744049549102783
1681941488.04155397,46505268,42.7247656,-84.48072619999999,273.3299865722656,-1.6322396993637085,-1.5715047121047974
1681941488.14156199,46605276,42.7247656,-84.48072619999999,273.3299865722656,-1.58871328830719,-1.5663526058197021
1681941488.24153686,46705251,42.724765399999995,-84.4807266,273.4499816894531,-1.605035662651062,-1.5613185167312622
1681941488.34154177,46805256,42.724765399999995,-84.4807266,273.4499816894531,-1.5941541194915771,-1.557130217552185
1681941488.44155288,46905267,42.7247653,-84.4807269,273.5400085449219,-1.6322396993637085,-1.5535188913345337
1681941488.54141188,47005126,42.7247653,-84.4807269,273.5400085449219,-1.8117860555648804,-1.5503580570220947
1681941488.64152193,47105236,42.7247652,-84.4807273,273.6499938964844,-1.7301740646362305,-1.5479474067687988
1681941488.74179578,47205510,42.7247652,-84.4807273,273.6499938964844,-1.490778923034668,-1.5483094453811646
1681941488.84177184,47305486,42.724765,-84.4807275,273.739990234375,-1.4472525119781494,-1.5506151914596558
1681941488.94154286,47405257,42.724765,-84.4807275,273.739990234375,-1.6812069416046143,-1.5513579845428467
1681941489.04152584,47505240,42.724764799999996,-84.48072789999999,273.8500061035156,-1.5125421285629272,-1.5491820573806763
1681941489.14162898,47605343,42.724764799999996,-84.48072789999999,273.8500061035156,-1.5832725763320923,-1.5473662614822388
1681941489.24152994,47705244,42.724764799999996,-84.4807282,273.9100036621094,-1.7029701471328735,-1.5453555583953857
1681941489.34149790,47805212,42.724764799999996,-84.4807282,273.9100036621094,-1.4690157175064087,-1.5431170463562012
1681941489.44178891,47905503,42.7247646,-84.4807287,274.0099792480469,-1.6213581562042236,-1.5424728393554688
1681941489.54183483,48005549,42.7247646,-84.4807287,274.0099792480469,-1.50710129737854,-1.541093349456787
1681941489.64143586,48105150,42.7247645,-84.48072909999999,274.1099853515625,-1.6322396993637085,-1.5396592617034912
1681941489.74147582,48205190,42.7247645,-84.48072909999999,274.1099853515625,-1.5560685396194458,-1.5378508567810059
1681941489.84149885,48305213,42.7247644,-84.4807297,274.1999816894531,-1.4690157175064087,-1.5364723205566406
1681941489.94157386,48405288,42.7247644,-84.4807297,274.1999816894531,-1.7084108591079712,-1.5354098081588745
1681941490.04154897,48505263,42.7247643,-84.4807302,274.2900085449219,-1.5669500827789307,-1.5332123041152954
1681941490.14178681,48605501,42.7247643,-84.4807302,274.2900085449219,-1.5179829597473145,-1.532382607460022
1681941490.24152088,48705235,42.724764199999996,-84.4807307,274.3899841308594,-1.7301740646362305,-1.5323184728622437
1681941490.34140778,48805122,42.724764199999996,-84.4807307,274.3899841308594,-1.5560685396194458,-1.5315396785736084
1681941490.44157481,48905289,42.7247641,-84.4807312,274.47998046875,-1.490778923034668,-1.5323123931884766
1681941490.54146695,49005181,42.7247641,-84.4807312,274.47998046875,-1.6920884847640991,-1.533496618270874
1681941490.64146996,49105184,42.7247639,-84.480732,274.6300048828125,-1.6159173250198364,-1.5333176851272583
1681941490.74149990,49205214,42.7247639,-84.480732,274.6300048828125,-1.659443736076355,-1.5340415239334106
1681941490.84169078,49305405,42.7247638,-84.4807325,274.739990234375,-1.7356148958206177,-1.5356841087341309
1681941490.94156599,49405280,42.7247638,-84.4807325,274.739990234375,-1.3438773155212402,-1.538010835647583
1681941491.04155898,49505273,42.7247637,-84.4807331,274.8599853515625,-1.5941541194915771,-1.5418680906295776
1681941491.14155579,49605270,42.7247637,-84.4807331,274.8599853515625,-1.6213581562042236,-1.5429840087890625
1681941491.24145699,49705171,42.724763499999995,-84.4807337,274.97998046875,-1.5179829597473145,-1.542751431465149
1681941491.34179592,49805510,42.724763499999995,-84.4807337,274.97998046875,-1.6812069416046143,-1.5432021617889404
1681941491.44204378,49905758,42.7247633,-84.4807343,275.1199951171875,-1.479897379875183,-1.5431758165359497
1681941491.54178691,50005501,42.7247633,-84.4807343,275.1199951171875,-1.490778923034668,-1.5442867279052734
1681941491.64149189,50105206,42.7247632,-84.480735,275.2699890136719,-1.5288645029067993,-1.5443060398101807
1681941491.74152899,50205243,42.7247632,-84.480735,275.2699890136719,-1.6540029048919678,-1.5429961681365967
1681941491.84153295,50305247,42.7247631,-84.4807354,275.3999938964844,-1.479897379875183,-1.5412522554397583
1681941491.94163799,50405352,42.7247631,-84.4807354,275.3999938964844,-1.5506277084350586,-1.5408852100372314
1681941492.04152083,50505235,42.724762999999996,-84.4807357,275.489990234375,-1.4254893064498901,-1.5397664308547974
1681941492.14176989,50605484,42.724762999999996,-84.4807357,275.489990234375,-1.8335492610931396,-1.538489818572998
1681941492.24182987,50705544,42.7247628,-84.4807361,275.6000061035156,-1.5832725763320923,-1.5358116626739502
1681941492.34144282,50805157,42.7247628,-84.4807361,275.6000061035156,-1.7791413068771362,-1.5368590354919434
1681941492.44147182,50905186,42.7247627,-84.48073649999999,275.69000244140625,-1.474456548690796,-1.5387517213821411
1681941492.54152679,51005241,42.7247627,-84.48073649999999,275.69000244140625,-1.6376805305480957,-1.5428369045257568
1681941492.64153695,51105251,42.7247626,-84.4807368,275.739990234375,-1.6159173250198364,-1.5452826023101807
1681941492.74154377,51205258,42.7247626,-84.4807368,275.739990234375,-1.675766110420227,-1.5475469827651978
1681941492.84172988,51305444,42.7247626,-84.4807371,275.79998779296875,-1.4853380918502808,-1.549890398979187
1681941492.94167399,51405388,42.7247626,-84.4807371,275.79998779296875,-1.5234237909317017,-1.5529494285583496
1681941493.04139876,51505113,42.7247626,-84.4807372,275.8500061035156,-1.7682596445083618,-1.5543186664581299
1681941493.14159489,51605309,42.7247626,-84.4807372,275.8500061035156,-1.6213581562042236,-1.5543761253356934
1681941493.24145579,51705170,42.7247625,-84.48073749999999,275.91998291015625,-1.675766110420227,-1.5567203760147095
1681941493.34157181,51805286,42.7247625,-84.48073749999999,275.91998291015625,-1.4635748863220215,-1.5596381425857544
1681941493.44152093,51905235,42.7247625,-84.48073769999999,275.97998046875,-1.5397461652755737,-1.5631250143051147
1681941493.54171991,52005434,42.7247625,-84.48073769999999,275.97998046875,-1.6703252792358398,-1.564464807510376
1681941493.64154077,52105255,42.724762399999996,-84.480738,276.05999755859375,-1.3493181467056274,-1.5645906925201416
1681941493.74155378,52205268,42.724762399999996,-84.480738,276.05999755859375,-1.605035662651062,-1.5657298564910889
1681941493.84151697,52305231,42.724762399999996,-84.4807383,276.1399841308594,-1.6376805305480957,-1.5640344619750977
1681941493.94149899,52405213,42.724762399999996,-84.4807383,276.1399841308594,-1.5506277084350586,-1.5624451637268066
1681941494.04155397,52505268,42.724762299999995,-84.4807386,276.22998046875,-1.6703252792358398,-1.5623164176940918
1681941494.14181685,52605531,42.724762299999995,-84.4807386,276.22998046875,-1.561509370803833,-1.562220573425293
1681941494.24181485,52705529,42.7247622,-84.4807391,276.3500061035156,-1.561509370803833,-1.563395619392395
1681941494.34169483,52805409,42.7247622,-84.4807391,276.3500061035156,-1.6485620737075806,-1.5644932985305786
1681941494.44168591,52905400,42.7247621,-84.48073959999999,276.4700012207031,-1.5016605854034424,-1.5651496648788452
1681941494.54169488,53005409,42.7247621,-84.48073959999999,276.4700012207031,-1.8117860555648804,-1.566603660583496
1681941494.64168596,53105400,42.7247619,-84.48074,276.5799865722656,-1.605035662651062,-1.5670915842056274
1681941494.74176598,53205480,42.7247619,-84.48074,276.5799865722656,-1.5343053340911865,-1.570300579071045
1681941494.84188485,53305599,42.724761799999996,-84.4807403,276.67999267578125,-1.5451868772506714,-1.5738534927368164
1681941494.94187999,53405594,42.724761799999996,-84.4807403,276.67999267578125,-1.6485620737075806,-1.5759894847869873
1681941495.04145694,53505171,42.724761699999995,-84.4807407,276.79998779296875,-1.3601998090744019,-1.5770186185836792
1681941495.14154291,53605257,42.724761699999995,-84.4807407,276.79998779296875,-1.58871328830719,-1.5785977840423584
1681941495.24151087,53705225,42.724761699999995,-84.48074079999999,276.8500061035156,-1.5995949506759644,-1.5772806406021118
1681941495.34153891,53805253,42.724761699999995,-84.48074079999999,276.8500061035156,-1.6322396993637085,-1.5758287906646729
1681941495.44160295,53905317,42.7247616,-84.4807411,276.9499816894531,-1.490778923034668,-1.5752341747283936
1681941495.54174590,54005460,42.7247616,-84.4807411,276.9499816894531,-1.7029701471328735,-1.5757300853729248
1681941495.64150596,54105220,42.7247615,-84.48074129999999,277.0299987792969,-1.3493181467056274,-1.5753222703933716
1681941495.74140382,54205118,42.7247615,-84.48074129999999,277.0299987792969,-1.6703252792358398,-1.5764234066009521
1681941495.84154391,54305258,42.7247614,-84.4807417,277.1399841308594,-1.3438773155212402,-1.5748276710510254
1681941495.94159484,54405309,42.7247614,-84.4807417,277.1399841308594,-1.5560685396194458,-1.5741022825241089
1681941496.04149389,54505208,42.724761199999996,-84.48074199999999,277.25,-1.5179829597473145,-1.57101571559906
1681941496.14153194,54605246,42.724761199999996,-84.48074199999999,277.25,-1.4853380918502808,-1.5678483247756958
1681941496.24172187,54705436,42.724761099999995,-84.4807424,277.3599853515625,-1.6159173250198364,-1.564955472946167
1681941496.34153986,54805254,42.724761099999995,-84.4807424,277.3599853515625,-1.4690157175064087,-1.5616865158081055
1681941496.44150281,54905217,42.724761,-84.4807428,277.4599914550781,-1.4363709688186646,-1.5597182512283325
1681941496.54152894,55005243,42.724761,-84.4807428,277.4599914550781,-1.3874037265777588,-1.5572556257247925
1681941496.64141893,55105133,42.7247609,-84.4807431,277.54998779296875,-1.5397461652755737,-1.5535606145858765
1681941496.74155283,55205267,42.7247609,-84.4807431,277.54998779296875,-1.659443736076355,-1.548371434211731
1681941496.84176588,55305480,42.7247608,-84.4807433,277.6300048828125,-1.577831745147705,-1.5439136028289795
1681941496.94184089,55405555,42.7247608,-84.4807433,277.6300048828125,-1.3874037265777588,-1.542035698890686
1681941497.04150486,55505219,42.7247607,-84.4807436,277.739990234375,-1.224179744720459,-1.5413893461227417
1681941497.14156580,55605280,42.7247607,-84.4807436,277.739990234375,-1.5016605854034424,-1.5389751195907593
1681941497.24153876,55705253,42.7247607,-84.48074369999999,277.82000732421875,-1.474456548690796,-1.5325881242752075
1681941497.34156489,55805279,42.7247607,-84.48074369999999,277.82000732421875,-1.4309301376342773,-1.526346206665039
1681941497.44149995,55905214,42.724760599999996,-84.48074369999999,277.8899841308594,-1.6485620737075806,-1.5208996534347534
1681941497.54185081,56005565,42.724760599999996,-84.48074369999999,277.8899841308594,-1.3329957723617554,-1.5154166221618652
1681941497.64182782,56105542,42.724760499999995,-84.4807441,277.989990234375,-1.58871328830719,-1.5125411748886108
1681941497.74172282,56205437,42.724760499999995,-84.4807441,277.989990234375,-1.5941541194915771,-1.508301854133606
1681941497.84165692,56305371,42.7247604,-84.48074419999999,278.0799865722656,-1.5125421285629272,-1.5052919387817383
1681941497.94173098,56405445,42.7247604,-84.48074419999999,278.0799865722656,-1.5506277084350586,-1.5041720867156982
1681941498.04167795,56505392,42.7247604,-84.4807441,278.1399841308594,-1.3601998090744019,-1.5033693313598633
1681941498.14170980,56605424,42.7247604,-84.4807441,278.1399841308594,-1.479897379875183,-1.5029399394989014
1681941498.24170399,56705418,42.7247604,-84.48074419999999,278.19000244140625,-1.7084108591079712,-1.5004960298538208
1681941498.34174776,56805462,42.7247604,-84.48074419999999,278.19000244140625,-1.4363709688186646,-1.497542381286621
1681941498.44157577,56905290,42.7247603,-84.480744,278.2099914550781,-1.4635748863220215,-1.4975758790969849
1681941498.54179382,57005508,42.7247603,-84.480744,278.2099914550781,-1.3874037265777588,-1.4971054792404175
1681941498.64195585,57105670,42.7247603,-84.4807438,278.2200012207031,-1.4200485944747925,-1.4956730604171753
1681941498.74148893,57205203,42.7247603,-84.4807438,278.2200012207031,-1.5179829597473145,-1.492720127105713
1681941498.84151793,57305232,42.7247604,-84.48074369999999,278.25,-1.490778923034668,-1.4889017343521118
1681941498.94161487,57405329,42.7247604,-84.48074369999999,278.25,-1.3547589778900146,-1.485834002494812
1681941499.04156280,57505277,42.724760499999995,-84.4807436,278.2699890136719,-1.4200485944747925,-1.4833669662475586
1681941499.14159489,57605309,42.724760499999995,-84.4807436,278.2699890136719,-1.561509370803833,-1.4795383214950562
1681941499.24156094,57705275,42.724760499999995,-84.4807434,278.2900085449219,-1.2731469869613647,-1.4751700162887573
1681941499.34175181,57805466,42.724760499999995,-84.4807434,278.2900085449219,-1.561509370803833,-1.4724314212799072
1681941499.44156289,57905277,42.724760499999995,-84.4807433,278.3299865722656,-1.577831745147705,-1.4677563905715942
1681941499.54148579,58005200,42.724760499999995,-84.4807433,278.3299865722656,-1.5343053340911865,-1.464378833770752
1681941499.64157295,58105287,42.724760499999995,-84.4807435,278.3899841308594,-1.3710813522338867,-1.4631942510604858
1681941499.74152398,58205238,42.724760499999995,-84.4807435,278.3899841308594,-1.5941541194915771,-1.4630433320999146
1681941499.84152985,58305244,42.7247604,-84.48074319999999,278.4100036621094,-1.5016605854034424,-1.4614222049713135
1681941499.94164991,58405364,42.7247604,-84.48074319999999,278.4100036621094,-1.5560685396194458,-1.461033582687378
1681941500.04176497,58505479,42.7247604,-84.4807433,278.5099792480469,-1.5016605854034424,-1.4611594676971436
1681941500.14182591,58605540,42.7247604,-84.4807433,278.5099792480469,-1.4472525119781494,-1.462005853652954
1681941500.24170089,58705415,42.7247604,-84.4807434,278.5799865722656,-1.5397461652755737,-1.4628938436508179
1681941500.34184384,58805558,42.7247604,-84.4807434,278.5799865722656,-1.5941541194915771,-1.4629002809524536
1681941500.44147182,58905186,42.7247604,-84.48074319999999,278.57000732421875,-1.4472525119781494,-1.4632879495620728
1681941500.54148793,59005202,42.7247604,-84.48074319999999,278.57000732421875,-1.6322396993637085,-1.4649503231048584
1681941500.64149594,59105210,42.7247604,-84.4807431,278.5799865722656,-1.50710129737854,-1.46580970287323
1681941500.74154282,59205257,42.7247604,-84.4807431,278.5799865722656,-1.6267988681793213,-1.467878818511963
1681941500.84153581,59305250,42.724760499999995,-84.4807427,278.5799865722656,-1.6703252792358398,-1.4698666334152222
1681941500.94164777,59405362,42.724760499999995,-84.4807427,278.5799865722656,-1.5125421285629272,-1.4728811979293823
1681941501.04182291,59505537,42.724760599999996,-84.48074059999999,278.5199890136719,-0.007596196606755257,-0.007596196606755257
1681941501.14179277,59605507,42.7247607,-84.4807404,278.5099792480469,-0.01160520501434803,-0.01160520501434803
1681941501.24186897,59705583,42.7247608,-84.48074009999999,278.489990234375,-0.033222854137420654,-0.033222854137420654
1681941501.34147191,59805186,42.7247608,-84.48074,278.4700012207031,-0.05799227952957153,-0.05799227952957153
1681941501.44177198,59905486,42.7247608,-84.4807399,278.42999267578125,-0.09399241209030151,-0.09399241209030151
1681941501.54173088,60005445,42.7247607,-84.4807397,278.3999938964844,-0.12818390130996704,-0.12818390130996704
1681941501.64170194,60105416,42.7247607,-84.48073959999999,278.3599853515625,-0.1672007441520691,-0.1672007441520691
1681941501.74202394,60205738,42.7247607,-84.4807395,278.32000732421875,-0.20350509881973267,-0.20350509881973267
1681941501.84188986,60305604,42.7247607,-84.48073939999999,278.2799987792969,-0.24369627237319946,-0.24369627237319946
1681941501.94182491,60405539,42.724760599999996,-84.4807392,278.25,-0.2776561379432678,-0.2776561379432678
1681941502.04172683,60505441,42.724760599999996,-84.4807391,278.2099914550781,-0.3143077492713928,-0.3143077492713928
1681941502.14185691,60605571,42.724760599999996,-84.480739,278.17999267578125,-0.3470626473426819,-0.3470626473426819
1681941502.24175596,60705470,42.724760599999996,-84.48073889999999,278.1399841308594,-0.38266533613204956,-0.38266533613204956
1681941502.34178281,60805497,42.724760599999996,-84.4807388,278.1099853515625,-0.41642051935195923,-0.41642051935195923
1681941502.44171596,60905430,42.724760599999996,-84.48073869999999,278.07000732421875,-0.4557803273200989,-0.4557803273200989
1681941502.54202890,61005743,42.724760499999995,-84.4807386,278.0400085449219,-0.4868353009223938,-0.4868353009223938
1681941502.64155078,61105265,42.724760499999995,-84.48073839999999,278.0,-0.5218963027000427,-0.5218963027000427
1681941502.74158382,61205298,42.724760499999995,-84.4807383,277.9700012207031,-0.5537710785865784,-0.5537710785865784
1681941502.84175396,61305468,42.724760499999995,-84.48073819999999,277.94000244140625,-0.5859819054603577,-0.5859819054603577
1681941502.94180799,61405522,42.724760499999995,-84.480738,277.9100036621094,-0.6172693371772766,-0.6172693371772766
1681941503.04181790,61505532,42.724760499999995,-84.4807379,277.8699951171875,-0.6523528695106506,-0.6523528695106506
1681941503.14177680,61605491,42.724760499999995,-84.4807378,277.8399963378906,-0.6811264157295227,-0.6811264157295227
1681941503.24165297,61705367,42.724760499999995,-84.48073769999999,277.82000732421875,-0.7100043892860413,-0.7100043892860413
1681941503.34169388,61805408,42.724760499999995,-84.48073749999999,277.7900085449219,-0.7375982403755188,-0.7375982403755188
1681941503.44167280,61905387,42.724760499999995,-84.4807374,277.7599792480469,-0.7647972702980042,-0.7647972702980042
1681941503.54167795,62005392,42.724760499999995,-84.4807372,277.739990234375,-0.7873488068580627,-0.7873488068580627
1681941503.64171982,62105434,42.724760499999995,-84.4807371,277.7099914550781,-0.811462938785553,-0.811462938785553
1681941503.74179292,62205507,42.724760499999995,-84.4807369,277.69000244140625,-0.8342898488044739,-0.8342898488044739
1681941503.84147477,62305189,42.724760499999995,-84.4807368,277.6600036621094,-0.8636077046394348,-0.8636077046394348
1681941503.94161081,62405325,42.724760499999995,-84.4807367,277.6399841308594,-0.8882096409797668,-0.8882096409797668
1681941504.04148889,62505203,42.724760499999995,-84.4807366,277.6099853515625,-0.9127076268196106,-0.9127076268196106
1681941504.14155579,62605270,42.724760499999995,-84.48073649999999,277.5899963378906,-0.9332457184791565,-0.9332457184791565
1681941504.24151087,62705225,42.724760499999995,-84.4807364,277.57000732421875,-0.9557152390480042,-0.9557152390480042
1681941504.34170389,62805418,42.7247604,-84.48073629999999,277.54998779296875,-0.9767361283302307,-0.9767361283302307
1681941504.44153595,62905250,42.7247604,-84.48073629999999,277.5299987792969,-0.9988494515419006,-0.9988494515419006
1681941504.54156780,63005282,42.7247604,-84.4807362,277.5099792480469,-1.0178254842758179,-1.0178254842758179
1681941504.64149785,63105212,42.7247604,-84.4807361,277.489990234375,-1.0361710786819458,-1.0361710786819458
1681941504.74142098,63205135,42.7247604,-84.4807361,277.4700012207031,-1.0531097650527954,-1.0531097650527954
1681941504.84156489,63305279,42.7247603,-84.4807361,277.4499816894531,-1.070137619972229,-1.070137619972229
1681941504.94158483,63405299,42.7247603,-84.480736,277.44000244140625,-1.0834928750991821,-1.0834928750991821
1681941505.04151487,63505229,42.7247603,-84.4807361,277.42999267578125,-1.0968812704086304,-1.0968812704086304
1681941505.14156580,63605280,42.7247602,-84.4807361,277.41998291015625,-1.1090408563613892,-1.1090408563613892
1681941505.24156880,63705283,42.7247602,-84.4807362,277.3999938964844,-1.1227177381515503,-1.1227177381515503
1681941505.34155178,63805266,42.7247602,-84.48073629999999,277.3899841308594,-1.1341837644577026,-1.1341837644577026
1681941505.44172788,63905442,42.7247602,-84.4807364,277.3800048828125,-1.1448475122451782,-1.1448475122451782
1681941505.54151487,64005229,42.7247602,-84.4807364,277.3699951171875,-1.1536647081375122,-1.1536647081375122
1681941505.64163184,64105346,42.7247602,-84.4807366,277.3599853515625,-1.1608206033706665,-1.1608206033706665
1681941505.74182296,64205537,42.7247602,-84.4807366,277.3599853515625,-1.1677113771438599,-1.1677113771438599
1681941505.84171987,64305434,42.7247602,-84.4807368,277.3500061035156,-1.1755317449569702,-1.1755317449569702
1681941505.94190478,64405619,42.7247602,-84.4807368,277.3399963378906,-1.183754563331604,-1.183754563331604
1681941506.04169989,64505414,42.7247602,-84.48073699999999,277.3299865722656,-1.1913701295852661,-1.1913701295852661
1681941506.14172792,64605442,42.7247602,-84.48073699999999,277.3299865722656,-1.1975215673446655,-1.1975215673446655
1681941506.24170494,64705419,42.7247602,-84.4807372,277.32000732421875,-1.205363154411316,-1.205363154411316
1681941506.34191489,64805629,42.7247601,-84.4807373,277.30999755859375,-1.2115188837051392,-1.2115188837051392
1681941506.44180679,64905521,42.7247601,-84.48073749999999,277.30999755859375,-1.2173088788986206,-1.2173088788986206
1681941506.54191780,65005632,42.7247601,-84.4807376,277.29998779296875,-1.2233425378799438,-1.2233425378799438
1681941506.64187288,65105587,42.7247601,-84.48073769999999,277.29998779296875,-1.2280036211013794,-1.2280036211013794
1681941506.74145293,65205167,42.7247601,-84.4807378,277.2900085449219,-1.2311433553695679,-1.2311433553695679
1681941506.84147978,65305194,42.7247601,-84.4807381,277.2900085449219,-1.2334669828414917,-1.2334669828414917
1681941506.94155598,65405270,42.7247601,-84.48073819999999,277.2900085449219,-1.234113335609436,-1.234113335609436
1681941507.04155397,65505268,42.7247601,-84.4807385,277.2900085449219,-1.234662652015686,-1.234662652015686
1681941507.14157796,65605292,42.7247601,-84.48073869999999,277.2900085449219,-1.232833743095398,-1.232833743095398
1681941507.24174881,65705463,42.7247601,-84.480739,277.29998779296875,-1.227491021156311,-1.227491021156311
1681941507.34154296,65805257,42.7247601,-84.4807391,277.29998779296875,-1.2217029333114624,-1.2217029333114624
1681941507.44173384,65905448,42.7247601,-84.4807393,277.30999755859375,-1.216779351234436,-1.216779351234436
1681941507.54205489,66005769,42.7247601,-84.48073939999999,277.30999755859375,-1.2115525007247925,-1.2115525007247925
1681941507.64178586,66105500,42.7247602,-84.4807397,277.32000732421875,-1.2080715894699097,-1.2080715894699097
1681941507.74179983,66205514,42.7247602,-84.4807399,277.32000732421875,-1.206241488456726,-1.206241488456726
1681941507.84172583,66305440,42.7247602,-84.48074009999999,277.32000732421875,-1.202036738395691,-1.202036738395691
1681941507.94207692,66405791,42.7247602,-84.4807403,277.3299865722656,-1.1950730085372925,-1.1950730085372925
1681941508.04160500,66505319,42.7247603,-84.4807405,277.3299865722656,-1.1913870573043823,-1.1913870573043823
1681941508.14156699,66605281,42.7247603,-84.4807407,277.3399963378906,-1.1855469942092896,-1.1855469942092896
1681941508.24152088,66705235,42.7247603,-84.48074079999999,277.3399963378906,-1.1819080114364624,-1.1819080114364624
1681941508.34140992,66805124,42.7247604,-84.480741,277.3500061035156,-1.1789358854293823,-1.1789358854293823
1681941508.44155383,66905268,42.7247604,-84.4807412,277.3500061035156,-1.1752315759658813,-1.1752315759658813
1681941508.54149699,67005211,42.7247604,-84.4807414,277.3500061035156,-1.17119562625885,-1.17119562625885
1681941508.64147782,67105192,42.7247604,-84.4807416,277.3599853515625,-1.1645630598068237,-1.1645630598068237
1681941508.74172997,67205444,42.7247604,-84.48074179999999,277.3699951171875,-1.1564074754714966,-1.1564074754714966
1681941508.84171391,67305428,42.7247604,-84.48074199999999,277.3800048828125,-1.1460014581680298,-1.1460014581680298
1681941508.94159198,67405306,42.7247604,-84.4807422,277.3899841308594,-1.13685142993927,-1.13685142993927
1681941509.04172087,67505435,42.724760499999995,-84.4807424,277.3999938964844,-1.129043459892273,-1.129043459892273
1681941509.14179778,67605512,42.724760599999996,-84.4807426,277.3999938964844,-1.1208950281143188,-1.1208950281143188
1681941509.24164486,67705359,42.724760599999996,-84.4807428,277.41998291015625,-1.1087197065353394,-1.1087197065353394
1681941509.34180498,67805519,42.724760599999996,-84.48074299999999,277.42999267578125,-1.0971969366073608,-1.0971969366073608
1681941509.44175792,67905472,42.7247607,-84.4807433,277.44000244140625,-1.0864759683609009,-1.0864759683609009
1681941509.54183388,68005548,42.7247607,-84.4807435,277.4499816894531,-1.074724555015564,-1.074724555015564
1681941509.64150977,68105224,42.7247607,-84.48074369999999,277.4599914550781,-1.0643643140792847,-1.0643643140792847
1681941509.74154997,68205264,42.7247607,-84.4807439,277.4700012207031,-1.0558210611343384,-1.0558210611343384
1681941509.84154582,68305260,42.7247607,-84.4807441,277.47998046875,-1.046587586402893,-1.046587586402893
1681941509.94166780,68405382,42.7247607,-84.48074419999999,277.489990234375,-1.0366889238357544,-1.0366889238357544
1681941510.04152393,68505238,42.7247608,-84.48074439999999,277.5,-1.0247067213058472,-1.0247067213058472
1681941510.14188480,68605599,42.7247609,-84.4807445,277.5099792480469,-1.0140217542648315,-1.0140217542648315
1681941510.24187589,68705590,42.724761,-84.4807447,277.5199890136719,-1.0049692392349243,-1.0049692392349243
1681941510.34180284,68805517,42.724761,-84.4807448,277.5299987792969,-0.9972279667854309,-0.9972279667854309
1681941510.44179392,68905508,42.724761,-84.480745,277.5400085449219,-0.9882872700691223,-0.9882872700691223
1681941510.54189897,69005613,42.724761,-84.4807451,277.54998779296875,-0.9791534543037415,-0.9791534543037415
1681941510.64171696,69105431,42.724761,-84.4807453,277.54998779296875,-0.970788300037384,-0.970788300037384
1681941510.74173689,69205451,42.724761099999995,-84.48074539999999,277.55999755859375,-0.9628193974494934,-0.9628193974494934
1681941510.84176993,69305484,42.724761099999995,-84.48074559999999,277.57000732421875,-0.9562419056892395,-0.9562419056892395
1681941510.94166994,69405384,42.724761099999995,-84.4807458,277.5799865722656,-0.9471595883369446,-0.9471595883369446
1681941511.04143882,69505153,42.724761199999996,-84.4807459,277.5899963378906,-0.9382966160774231,-0.9382966160774231
1681941511.14159083,69605305,42.7247613,-84.480746,277.6000061035156,-0.9283998608589172,-0.9283998608589172
1681941511.24153781,69705252,42.7247614,-84.48074609999999,277.6099853515625,0.010882707312703133,-0.919117271900177
1681941511.34153581,69805250,42.7247614,-84.48074629999999,277.6099853515625,0.0161114651709795,-0.9138885140419006
1681941511.44154382,69905258,42.7247615,-84.4807464,277.6099853515625,0.015765758231282234,-0.9142342209815979
1681941511.54157376,70005288,42.7247615,-84.4807465,277.6099853515625,0.012050004675984383,-0.9179499745368958
1681941511.64156699,70105281,42.7247616,-84.48074659999999,277.6000061035156,0.006073327735066414,-0.9239266514778137
1681941511.74176979,70205484,42.7247616,-84.4807467,277.5899963378906,-0.0017224829643964767,-0.9317224621772766
1681941511.84160399,70305318,42.7247616,-84.4807467,277.5799865722656,-0.010182050988078117,-0.9401820302009583
1681941511.94155788,70405272,42.724761699999995,-84.4807467,277.5799865722656,-0.01816740445792675,-0.9481673836708069
1681941512.04158378,70505298,42.724761699999995,-84.48074679999999,277.57000732421875,-0.02611246518790722,-0.9561124444007874
1681941512.14156890,70605283,42.7247619,-84.48074679999999,277.55999755859375,-0.03358665108680725,-0.9635866284370422
1681941512.24162292,70705337,42.7247619,-84.48074679999999,277.54998779296875,-0.043918758630752563,-0.9739187359809875
1681941512.34154987,70805264,42.724762,-84.48074679999999,277.5400085449219,-0.05391421914100647,-0.9839141964912415
1681941512.44178081,70905495,42.7247621,-84.48074679999999,277.5299987792969,-0.06475415825843811,-0.9947541356086731
1681941512.54159784,71005312,42.7247621,-84.4807467,277.5199890136719,-0.07532140612602234,-1.0053213834762573
1681941512.64173889,71105453,42.7247622,-84.4807467,277.5099792480469,-0.08799001574516296,-1.017989993095398
1681941512.74178982,71205504,42.724762299999995,-84.48074659999999,277.489990234375,-0.10024949908256531,-1.0302494764328003
1681941512.84167290,71305387,42.724762399999996,-84.48074659999999,277.47998046875,-0.11592337489128113,-1.0459233522415161
1681941512.94187999,71405594,42.7247626,-84.4807465,277.4599914550781,-0.1314525306224823,-1.0614525079727173
1681941513.04175091,71505465,42.7247627,-84.4807465,277.44000244140625,-0.1506938636302948,-1.0806938409805298
1681941513.14205599,71605770,42.7247628,-84.48074659999999,277.42999267578125,-0.16891548037528992,-1.098915457725525
1681941513.24169993,71705414,42.724762899999995,-84.4807465,277.3999938964844,-0.1908397376537323,-1.1208397150039673
1681941513.34172392,71805438,42.724762999999996,-84.4807464,277.3800048828125,-0.21161839365959167,-1.1416183710098267
1681941513.44172883,71905443,42.7247631,-84.48074629999999,277.3599853515625,-0.2382030189037323,-1.1682029962539673
1681941513.54176283,72005477,42.7247632,-84.4807462,277.3299865722656,-0.26137277483940125,-1.1913727521896362
1681941513.64179897,72105513,42.7247634,-84.4807462,277.30999755859375,-0.28592631220817566,-1.2159262895584106
1681941513.74174690,72205461,42.724763499999995,-84.48074609999999,277.2900085449219,-0.3091840445995331,-1.239184021949768
1681941513.84185481,72305569,42.724763599999996,-84.4807459,277.2599792480469,-0.334865540266037,-1.264865517616272
1681941513.94210196,72405816,42.7247638,-84.4807458,277.239990234375,-0.35780760645866394,-1.287807583808899
1681941514.04155684,72505271,42.7247639,-84.4807457,277.2099914550781,-0.3855385482311249,-1.3155385255813599
1681941514.14158082,72605295,42.724764,-84.4807455,277.19000244140625,-0.40807220339775085,-1.3380721807479858
1681941514.24183893,72705553,42.7247641,-84.48074539999999,277.1600036621094,-0.43723174929618835,-1.3672317266464233
1681941514.34191585,72805630,42.724764199999996,-84.4807452,277.1300048828125,-0.46065255999565125,-1.3906525373458862
1681941514.44179988,72905514,42.7247643,-84.480745,277.1000061035156,-0.49034377932548523,-1.4203437566757202
1681941514.54187489,73005589,42.7247644,-84.4807448,277.0799865722656,-0.5148369669914246,-1.444836974143982
1681941514.64199686,73105711,42.7247645,-84.4807447,277.04998779296875,-0.5472127795219421,-1.4772127866744995
1681941514.74211097,73205825,42.7247646,-84.4807445,277.0199890136719,-0.573542058467865,-1.5035420656204224
1681941514.84189677,73305611,42.7247647,-84.48074439999999,276.989990234375,-0.6081342101097107,-1.538134217262268
1681941514.94194078,73405655,42.724764799999996,-84.48074419999999,276.9599914550781,-0.6363705992698669,-1.5663706064224243
1681941515.04178786,73505502,42.7247649,-84.4807441,276.92999267578125,-0.668595016002655,-1.5985950231552124
1681941515.14184093,73605555,42.724765,-84.4807439,276.8999938964844,-0.6989664435386658,-1.6289664506912231
1681941515.24178982,73705504,42.7247651,-84.4807438,276.8599853515625,-0.7330362200737,-1.6630362272262573
1681941515.34178495,73805499,42.7247652,-84.48074369999999,276.8299865722656,-0.7644755244255066,-1.694475531578064
1681941515.44182897,73905543,42.7247653,-84.4807436,276.7900085449219,-0.802123486995697,-1.7321234941482544
1681941515.54201388,74005728,42.724765399999995,-84.4807434,276.7599792480469,-0.8375067114830017,-1.767506718635559
1681941515.64189792,74105612,42.7247655,-84.4807433,276.7200012207031,-0.872226893901825,-1.8022269010543823
1681941515.74157095,74205285,42.7247656,-84.48074319999999,276.69000244140625,-0.9054169058799744,-1.8354169130325317
1681941515.84155083,74305265,42.7247657,-84.4807431,276.6600036621094,-0.9381744265556335,-1.868174433708191
1681941515.94165683,74405371,42.7247658,-84.48074299999999,276.6399841308594,-0.9548148512840271,-1.8848148584365845
1681941516.04156780,74505282,42.7247659,-84.48074299999999,276.6300048828125,-0.960260808467865,-1.8902608156204224
1681941516.14159489,74605309,42.724765999999995,-84.4807429,276.6399841308594,-0.9520451426506042,-1.8820451498031616
1681941516.24157476,74705289,42.7247661,-84.4807428,276.6600036621094,-0.9391409754753113,-1.8691409826278687
1681941516.34153891,74805253,42.7247662,-84.4807427,276.67999267578125,-0.9174010157585144,-1.8474010229110718
1681941516.44148397,74905198,42.7247663,-84.4807427,276.6999816894531,-0.8969547152519226,-1.82695472240448
1681941516.54159188,75005306,42.7247664,-84.4807426,276.7200012207031,-0.8730706572532654,-1.8030706644058228
1681941516.64148283,75105197,42.7247665,-84.4807426,276.75,-0.8498818278312683,-1.7798818349838257
1681941516.74185181,75205566,42.724766599999995,-84.48074249999999,276.7699890136719,-0.8250650763511658,-1.7550650835037231
1681941516.84153581,75305250,42.724766699999996,-84.48074249999999,276.7900085449219,-0.8025481104850769,-1.7325481176376343
1681941516.94164991,75405364,42.7247668,-84.4807424,276.82000732421875,-0.7770656943321228,-1.7070657014846802
1681941517.04157281,75505287,42.7247669,-84.4807424,276.8399963378906,-0.7551130652427673,-1.6851130723953247
1681941517.14161682,75605331,42.724767,-84.4807424,276.8599853515625,-0.7319156527519226,-1.66191565990448
1681941517.24160886,75705323,42.724767,-84.4807424,276.8899841308594,-0.7094952464103699,-1.6394952535629272
1681941517.34180880,75805523,42.7247671,-84.4807424,276.9100036621094,-0.688546359539032,-1.6185463666915894
1681941517.44189692,75905611,42.7247671,-84.4807424,276.91998291015625,-0.6712142825126648,-1.6012142896652222
1681941517.54153585,76005250,42.724767199999995,-84.4807424,276.94000244140625,-0.6529557108879089,-1.5829557180404663
1681941517.64167500,76105389,42.724767299999996,-84.48074249999999,276.9599914550781,-0.6360530257225037,-1.566053032875061
1681941517.74171591,76205430,42.724767299999996,-84.48074249999999,276.9700012207031,-0.620022714138031,-1.5500227212905884
1681941517.84171677,76305431,42.7247674,-84.4807426,276.989990234375,-0.6039339900016785,-1.5339339971542358
1681941517.94176984,76405484,42.7247674,-84.4807426,277.0099792480469,-0.5882033705711365,-1.5182033777236938
1681941518.04174876,76505463,42.7247675,-84.4807427,277.0199890136719,-0.5742670893669128,-1.5042670965194702
1681941518.14179683,76605511,42.7247675,-84.4807427,277.0400085449219,-0.5593613982200623,-1.4893614053726196
1681941518.24194193,76705656,42.7247676,-84.4807428,277.04998779296875,-0.5427619814872742,-1.4727619886398315
1681941518.34186482,76805579,42.7247676,-84.4807428,277.07000732421875,-0.5269097685813904,-1.4569097757339478
1681941518.44174576,76905460,42.7247677,-84.4807429,277.0799865722656,-0.5124277472496033,-1.4424277544021606
1681941518.54188895,77005603,42.7247677,-84.48074299999999,277.1000061035156,-0.4969610869884491,-1.426961064338684
1681941518.64171982,77105434,42.724767799999995,-84.4807431,277.1099853515625,-0.48280999064445496,-1.41280996799469
1681941518.74172688,77205441,42.724767799999995,-84.4807431,277.1199951171875,-0.47020599246025085,-1.4002059698104858
1681941518.84171391,77305428,42.724767899999996,-84.4807433,277.1399841308594,-0.4575490653514862,-1.3875490427017212
1681941518.94206190,77405776,42.724767899999996,-84.4807433,277.1499938964844,-0.44367358088493347,-1.3736735582351685
1681941519.04163980,77505354,42.724767899999996,-84.4807433,277.1600036621094,-0.43283936381340027,-1.3628393411636353
1681941519.14148188,77605196,42.724767899999996,-84.4807435,277.16998291015625,-0.4211141765117645,-1.3511141538619995
1681941519.24156499,77705279,42.724768,-84.4807436,277.19000244140625,-0.40826985239982605,-1.338269829750061
1681941519.34153581,77805250,42.724768,-84.4807436,277.1999816894531,-0.39429566264152527,-1.3242956399917603
1681941519.44153976,77905254,42.724768,-84.4807438,277.2099914550781,-0.38019606471061707,-1.310196042060852
1681941519.54155993,78005274,42.724768,-84.4807438,277.22998046875,-0.36633798480033875,-1.2963379621505737
1681941519.64156985,78105284,42.724768,-84.480744,277.239990234375,-0.35164305567741394,-1.281643033027649
1681941519.74158287,78205297,42.7247681,-84.4807441,277.2599792480469,-0.3366250693798065,-1.2666250467300415
1681941519.84180498,78305519,42.7247681,-84.48074439999999,277.2699890136719,-0.3209781348705292,-1.2509781122207642
1681941519.94189477,78405609,42.7247682,-84.4807446,277.2900085449219,-0.30544230341911316,-1.2354422807693481
1681941520.04145694,78505171,42.7247682,-84.4807448,277.29998779296875,-0.2941991984844208,-1.2241991758346558
1681941520.14159799,78605312,42.7247683,-84.4807452,277.30999755859375,-0.2801317870616913,-1.2101317644119263
1681941520.24152780,78705242,42.7247683,-84.4807455,277.3299865722656,-0.2673744857311249,-1.1973744630813599
1681941520.34155297,78805267,42.7247683,-84.4807457,277.3399963378906,-0.25477334856987,-1.184773325920105
1681941520.44152689,78905241,42.7247683,-84.480746,277.3500061035156,-0.24294206500053406,-1.172942042350769
1681941520.54180789,79005522,42.7247683,-84.48074629999999,277.3599853515625,-0.23184916377067566,-1.1618491411209106
1681941520.64161777,79105332,42.7247683,-84.4807467,277.3800048828125,-0.21853157877922058,-1.1485315561294556
1681941520.74159479,79205309,42.7247683,-84.480747,277.3899841308594,-0.20517560839653015,-1.1351755857467651
