timestamp,TimeUS,C,Roll,Pitch,Yaw,VN,VE,VD,dPD,PN,PE,PD,GX,GY,GZ,OH
1681941453.04078293,11504497,2,0.0,0.0,0.0,0.0,0.0,0.0,0.0,0.0,0.0,0.0,0.0,0.0,0.0,0.0
1681941453.14080596,11604520,2,0.0,0.0,0.0,0.0,0.0,0.0,0.0,0.0,0.0,0.0,0.0,0.0,0.0,0.0
1681941453.24078298,11704497,2,0.0,0.0,0.0,0.0,0.0,0.0,0.0,0.0,0.0,0.0,0.0,0.0,0.0,0.0
1681941453.34077597,11804490,2,0.0,0.0,0.0,0.0,0.0,0.0,0.0,0.0,0.0,0.0,0.0,0.0,0.0,0.0
1681941453.44077682,11904491,2,0.0,0.0,0.0,0.0,0.0,0.0,0.0,0.0,0.0,0.0,0.0,0.0,0.0,0.0
1681941453.54084992,12004564,2,0.0,0.0,0.0,0.0,0.0,0.0,0.0,0.0,0.0,0.0,0.0,0.0,0.0,0.0
1681941453.64085793,12104572,2,0.0,0.0,0.0,0.0,0.0,0.0,0.0,0.0,0.0,0.0,0.0,0.0,0.0,0.0
1681941453.74086881,12204583,2,0.0,0.0,0.0,0.0,0.0,0.0,0.0,0.0,0.0,0.0,0.0,0.0,0.0,0.0
1681941453.84085298,12304567,2,0.0,0.0,0.0,0.0,0.0,0.0,0.0,0.0,0.0,0.0,0.0,0.0,0.0,0.0
1681941453.94078588,12404500,2,0.0,0.0,0.0,0.0,0.0,0.0,0.0,0.0,0.0,0.0,0.0,0.0,0.0,0.0
1681941454.04079795,12504512,2,0.35000000000000003,1.9000000000000001,0.0,-0.0006521724280901253,0.0013880474725738168,0.010919230990111828,-0.00047255103709176183,0.0,0.0,0.00035365918301977217,0.0,0.0,0.0,0.0
1681941454.14077091,12604485,2,0.35000000000000003,1.8900000000000001,0.0,-0.0003508665249682963,0.0029766105581074953,0.04847622662782669,0.02309536747634411,0.0,0.0,0.0035291125532239676,0.0,0.0,0.0,0.0
1681941454.24078393,12704498,2,0.34,1.8900000000000001,359.99,-0.0015506811905652285,0.003962659277021885,0.09349359571933746,2.308468818664551,0.0,0.0,0.2775142788887024,0.0,0.0,0.0,0.0
1681941454.34077191,12804486,2,0.34,1.8900000000000001,0.0,-0.002679546130821109,0.005450104363262653,0.12386976182460785,3.473649024963379,0.0,0.0,0.5546872019767761,0.0,0.0,0.0,0.0
1681941454.44086599,12904580,2,0.34,1.8900000000000001,0.0,-0.004125888459384441,0.0066320146434009075,0.14482581615447998,2.965104579925537,0.0,0.0,0.7876602411270142,0.0,0.0,0.0,0.0
1681941454.54085898,13004573,2,0.34,1.8900000000000001,0.0,-0.004630018025636673,0.008271030150353909,0.15985001623630524,2.20066499710083,0.0,0.0,0.9796132445335388,0.0,0.0,0.0,0.0
1681941454.64087081,13104585,2,0.33,1.8800000000000001,0.0,-0.005052026826888323,0.009761572815477848,0.16834276914596558,1.5036684274673462,0.0,0.0,1.126658320426941,0.0,0.0,0.0,0.0
1681941454.74084091,13204555,2,0.33,1.8800000000000001,0.0,-0.004996133502572775,0.011844921857118607,0.17398621141910553,0.966012716293335,0.0,0.0,1.2363317012786865,0.0,0.0,0.0,0.0
1681941454.84077883,13304493,2,0.33,1.8800000000000001,0.0,-0.006569392047822475,0.01264232862740755,0.17681753635406494,0.6663624048233032,0.0,0.0,1.3232309818267822,0.0,0.0,0.0,0.0
1681941454.94081092,13404525,2,0.32,1.8800000000000001,0.0,-0.006497438531368971,0.01341769378632307,0.17732813954353333,0.4817351698875427,0.0,0.0,1.389224886894226,0.0,0.0,0.0,0.0
1681941455.04077578,13504490,2,0.31,1.8800000000000001,0.01,-0.007106147240847349,0.013290909118950367,0.17669110000133514,0.3583768606185913,0.0,0.0,1.4414927959442139,0.0,0.0,0.0,0.0
1681941455.14077187,13604486,2,0.3,1.8800000000000001,0.01,-0.00503578269854188,0.011774116195738316,0.17673780024051666,0.325837641954422,0.0,0.0,1.4874273538589478,0.0,0.0,0.0,0.0
1681941455.24078679,13704501,2,0.29,1.87,0.01,-0.0055528730154037476,0.010760702192783356,0.17436330020427704,0.275794118642807,0.0,0.0,1.5233945846557617,0.0,0.0,0.0,0.0
1681941455.34085083,13804565,2,0.28,1.86,0.01,-0.003226109081879258,0.00782111007720232,0.17156407237052917,0.21349355578422546,0.0,0.0,1.5517616271972656,0.0,0.0,0.0,0.0
1681941455.44084382,13904558,2,0.27,1.85,0.0,-0.0023155699018388987,0.005842988379299641,0.17001372575759888,0.21583667397499084,0.0,0.0,1.5801799297332764,0.0,0.0,0.0,0.0
1681941455.54080486,14004519,2,0.25,1.85,101.72,0.00030457903631031513,0.0049997903406620026,0.16867706179618835,0.23828621208667755,0.0,0.0,1.6072697639465332,0.0,0.0,0.0,0.0
1681941455.64085579,14104570,2,0.25,1.85,101.66,0.0012975090648978949,0.0046250298619270325,0.16716904938220978,0.25324252247810364,0.0,0.0,1.635351538658142,0.0,0.0,0.0,0.0
1681941455.74078894,14204503,2,0.25,1.85,101.68,0.0017038031946867704,0.00375200342386961,0.16844263672828674,0.30450567603111267,0.0,0.0,1.6675187349319458,0.0,0.0,0.0,0.0
1681941455.84079885,14304513,2,0.25,1.85,101.91,0.0022662479896098375,0.004453676752746105,0.1708468347787857,0.327871173620224,0.0,0.0,1.699039101600647,0.0,0.0,0.0,0.0
1681941455.94077396,14404488,2,0.27,1.84,102.33,0.0020617349073290825,0.005703918170183897,0.17156338691711426,0.29251548647880554,0.0,0.0,1.7269577980041504,0.0,0.0,-0.01,0.0
1681941456.04076886,14504483,2,0.28,1.84,102.75,0.0011596173280850053,0.004760993644595146,0.1707753837108612,0.24452057480812073,0.0,0.0,1.751501441001892,0.0,0.0,-0.01,0.0
1681941456.14076281,14604477,2,0.29,1.83,102.99000000000001,0.0002482527052052319,0.0056396713480353355,0.16791214048862457,0.19929255545139313,0.0,0.0,1.7723761796951294,0.0,0.0,0.0,0.0
1681941456.24086094,14704575,2,0.29,1.83,103.02,0.0004912746953777969,0.005633968859910965,0.16415059566497803,0.1597943753004074,0.0,0.0,1.7900007963180542,0.0,0.0,0.0,0.0
1681941456.34083486,14804549,2,0.29,1.82,102.9,0.001090274192392826,0.006351748015731573,0.16019406914710999,0.15074653923511505,0.0,0.0,1.8074573278427124,0.0,0.0,0.01,0.0
1681941456.44080591,14904520,2,0.28,1.83,102.72,0.0012424382148310542,0.006104468833655119,0.15862110257148743,0.186296284198761,0.0,0.0,1.8282907009124756,0.0,0.0,0.01,0.0
1681941456.54085279,15004567,2,0.27,1.84,102.52,0.0019235521322116256,0.006404111627489328,0.1572556495666504,0.20581457018852234,0.0,0.0,1.8482823371887207,0.0,0.0,0.02,0.0
1681941456.64079595,15104510,2,0.26,1.84,102.28,0.003764443565160036,0.0054496703669428825,0.15610697865486145,0.20406049489974976,0.0,0.0,1.8689255714416504,0.0,0.0,0.04,0.0
1681941456.74080491,15204519,2,0.26,1.85,102.05,0.005522299092262983,0.0059567601419985294,0.15460625290870667,0.19678287208080292,0.0,0.0,1.887793779373169,0.0,0.0,0.05,0.0
1681941456.84077191,15304486,2,0.25,1.85,101.85000000000001,0.006360200233757496,0.004245006944984198,0.15086929500102997,0.1631382554769516,0.0,0.0,1.9041370153427124,0.0,0.0,0.05,0.0
1681941456.94077778,15404492,2,0.25,1.85,101.72,0.006958748213946819,0.002816098043695092,0.14671888947486877,0.13455678522586823,0.0,0.0,1.9181642532348633,0.0,0.0,0.04,0.0
1681941457.04077387,15504488,2,0.25,1.85,101.68,0.006235827691853046,0.0025710456538945436,0.14108656346797943,0.09895416349172592,0.0,0.0,1.9288126230239868,0.0,0.0,0.02,0.0
1681941457.14086199,15604576,2,0.25,1.86,101.71000000000001,0.00653540063649416,-0.001990236807614565,0.13463060557842255,0.062350451946258545,0.0,0.0,1.9364093542099,0.0,0.0,0.02,0.0
1681941457.24084187,15704556,2,0.25,1.85,101.77,0.005566515494138002,-8.385559340240434e-05,0.12518341839313507,0.005931904539465904,0.0,0.0,1.9375368356704712,0.0,0.0,0.02,0.0
1681941457.34088683,15804601,2,0.25,1.85,101.8,0.004543928429484367,-0.0030019255355000496,0.11516402661800385,-0.05942101031541824,0.0,0.0,1.9338351488113403,0.0,0.0,0.03,0.0
1681941457.44085097,15904565,2,0.26,1.85,101.79,0.00397711805999279,-0.004356139339506626,0.10369651019573212,-0.09444205462932587,0.0,0.0,1.9273263216018677,-0.01,0.0,0.05,0.0
1681941457.54078078,16004495,2,0.26,1.84,101.78,0.0029947205912321806,-0.0028475732542574406,0.09004135429859161,-0.10958004742860794,0.0,0.0,1.9183754920959473,-0.01,0.0,0.04,0.0
1681941457.64079595,16104510,2,0.26,1.85,101.8,0.002133636735379696,-0.0044768997468054295,0.07820680737495422,-0.11193161457777023,0.0,0.0,1.9096591472625732,-0.01,0.0,0.01,0.0
1681941457.74076676,16204481,2,0.26,1.84,101.84,0.0016873470740392804,-0.0038174523506313562,0.06724897772073746,-0.08868737518787384,0.0,0.0,1.9025633335113525,0.0,0.0,0.0,0.0
1681941457.84076691,16304481,2,0.26,1.85,101.88,-3.697139982250519e-05,-0.004132626578211784,0.05748200789093971,-0.07011813670396805,0.0,0.0,1.8959271907806396,-0.01,0.0,0.02,0.0
1681941457.94077396,16404488,2,0.27,1.84,101.9,-0.000605135690420866,-0.003963874187320471,0.049563731998205185,-0.03654813766479492,0.0,0.0,1.8930290937423706,-0.01,0.0,0.02,0.0
1681941458.04084682,16504561,2,0.26,1.84,101.89,-0.0010380047606304288,-0.002542342757806182,0.043392665684223175,0.012040640227496624,0.0,0.0,1.8939027786254883,-0.01,0.0,0.03,0.0
1681941458.14082599,16604540,2,0.26,1.84,101.89,-0.0010210158070549369,-0.0003258156357333064,0.03854028508067131,0.03963962197303772,0.0,0.0,1.896180510520935,-0.01,0.0,0.01,0.0
1681941458.24081278,16704527,2,0.26,1.84,101.9,-0.0016700384439900517,-0.001021882053464651,0.034150540828704834,0.04806145280599594,0.0,0.0,1.8994615077972412,-0.01,0.0,0.01,0.0
1681941458.34084892,16804563,2,0.26,1.84,101.92,-0.0019080144120380282,0.0007117354543879628,0.031745415180921555,0.06090933457016945,0.0,0.0,1.9046528339385986,0.0,0.0,0.0,0.0
1681941458.44077992,16904494,2,0.26,1.83,101.97,-0.0011272806441411376,0.0013756038388237357,0.030636779963970184,0.08301210403442383,0.0,0.0,1.912212610244751,0.0,0.0,-0.01,0.0
1681941458.54079986,17004514,2,0.25,1.83,102.03,-0.0017408450366929173,0.001516617019660771,0.030068414285779,0.09269727766513824,0.0,0.0,1.9200425148010254,0.0,0.0,-0.03,0.0
1681941458.64076686,17104481,2,0.25,1.83,102.07000000000001,-0.0014358549378812313,0.0017616850091144443,0.02793017402291298,0.08795281499624252,0.0,0.0,1.927917242050171,0.0,0.0,0.0,0.0
1681941458.74076200,17204476,2,0.25,1.84,102.10000000000001,-0.0012759289238601923,0.0014043150003999472,0.025408053770661354,0.07827847450971603,0.0,0.0,1.9350467920303345,0.0,0.0,-0.01,0.0
1681941458.84076786,17304482,2,0.25,1.84,102.11,-0.002455089706927538,0.0019005341455340385,0.021995719522237778,0.042513325810432434,0.0,0.0,1.9382630586624146,0.0,0.0,-0.01,0.0
1681941458.94084382,17404558,2,0.24,1.83,102.11,-0.0027053868398070335,0.0023259788285940886,0.019615933299064636,0.019936129450798035,0.0,0.0,1.9412533044815063,0.0,0.0,0.0,0.0
1681941459.04084992,17504564,2,0.24,1.83,102.09,-0.002442097757011652,0.0012067168718203902,0.01861943118274212,0.055129677057266235,0.0,0.0,1.9487265348434448,0.0,0.0,0.0,0.0
1681941459.14086485,17604579,2,0.24,1.83,102.06,-0.0023011029697954655,0.0028534880839288235,0.018406055867671967,0.08469656854867935,0.0,0.0,1.9564237594604492,0.0,0.0,0.0,0.0
1681941459.24083996,17704554,2,0.24,1.83,102.03,-0.0017454297048971057,0.0016775645781308413,0.017198169603943825,0.07938750088214874,0.0,0.0,1.963429570198059,0.0,0.0,0.0,0.0
1681941459.34077883,17804493,2,0.24,1.83,102.0,-0.0024036308750510216,0.0016887499950826168,0.016062743961811066,0.05483066663146019,0.0,0.0,1.9679349660873413,0.0,0.0,0.01,0.0
1681941459.44079685,17904511,2,0.23,1.83,102.0,-0.0021952190436422825,0.0013409060193225741,0.011344599537551403,-0.005379909183830023,0.0,0.0,1.966413974761963,0.0,0.0,-0.01,0.0
1681941459.54076290,18004477,2,0.23,1.83,102.02,-0.0013191262260079384,0.0002319063787581399,0.005055912304669619,-0.04999058321118355,0.0,0.0,1.9633452892303467,0.0,0.0,-0.01,0.0
1681941459.64076591,18104480,2,0.23,1.84,102.05,-0.0021392484195530415,-0.00011862271639984101,-0.0012181876227259636,-0.062076181173324585,0.0,0.0,1.958807110786438,0.0,0.0,-0.03,0.0
1681941459.74077082,18204485,2,0.23,1.84,102.11,-0.002259274013340473,0.00010055536404252052,-0.005126559641212225,-0.04075642675161362,0.0,0.0,1.9572020769119263,0.0,0.0,-0.04,0.0
1681941459.84084392,18304558,2,0.23,1.83,102.18,-0.001722527202218771,0.00024785628193058074,-0.007010329980403185,-0.002876667771488428,0.0,0.0,1.9574244022369385,0.0,0.0,-0.07,0.0
1681941459.94083381,18404548,2,0.22,1.83,102.26,-0.0010977486381307244,0.0002543024893384427,-0.010898913256824017,-0.006017904728651047,0.0,0.0,1.9555706977844238,0.0,0.0,-0.07,0.0
1681941460.04086089,18504575,2,0.22,1.83,102.31,-0.0009089734521694481,-0.0010779257863759995,-0.015193711966276169,-0.0500250943005085,0.0,0.0,1.949946641921997,0.0,0.0,-0.04,0.0
1681941460.14085388,18604568,2,0.22,1.83,102.33,-0.001571623724885285,-0.0010967697016894817,-0.018947597593069077,-0.06389790028333664,0.0,0.0,1.9450712203979492,0.0,0.0,-0.06,0.0
1681941460.24077797,18704492,2,0.21,1.84,102.36,-0.001283167628571391,-0.0012842549476772547,-0.020770125091075897,-0.022234566509723663,0.0,0.0,1.9439735412597656,0.0,0.0,-0.07,0.0
1681941460.34079885,18804513,2,0.22,1.84,102.4,-0.0009725677082315087,-0.0031436611898243427,-0.022372424602508545,0.008976719342172146,0.0,0.0,1.9442411661148071,0.0,0.0,-0.08,0.0
1681941460.44076395,18904478,2,0.21,1.84,102.44,-0.0003424942842684686,-0.003932562656700611,-0.021858246996998787,0.022003602236509323,0.0,0.0,1.9454429149627686,0.0,0.0,-0.1,0.0
1681941460.54076290,19004477,2,0.21,1.85,102.45,-0.00020991030032746494,-0.005101349670439959,-0.0213656984269619,0.03615269437432289,0.0,0.0,1.9482462406158447,0.0,0.0,-0.04,0.0
1681941460.64077592,19104490,2,0.21,1.85,102.42,0.0005303893703967333,-0.006536385975778103,-0.023415230214595795,0.017768867313861847,0.0,0.0,1.9485498666763306,0.0,0.0,-0.04,0.0
1681941460.74083185,19204546,2,0.21,1.85,102.39,0.001794960000552237,-0.0060206213966012,-0.02422948181629181,0.014841963537037373,0.0,0.0,1.9506059885025024,0.0,0.0,-0.05,0.0
1681941460.84085584,19304570,2,0.21,1.85,102.4,0.0020846689585596323,-0.00694431085139513,-0.026471493765711784,0.007072268985211849,0.0,0.0,1.950441598892212,0.0,0.0,-0.08,0.0
1681941460.94085693,19404571,2,0.2,1.85,102.41,0.0021780026145279408,-0.0068246228620409966,-0.029742704704403877,-0.019717145711183548,0.0,0.0,1.948895812034607,0.0,0.0,-0.06,0.0
1681941461.04084992,19504564,2,0.2,1.84,102.43,0.0038129177410155535,-0.0066088237799704075,-0.0309941116720438,-0.011592918075621128,0.0,0.0,1.948617935180664,0.0,0.0,-0.07,0.0
1681941461.14079690,19604511,2,0.2,1.83,102.4,0.003991103731095791,-0.006493276916444302,-0.030843866989016533,0.020046105608344078,0.0,0.0,1.9511640071868896,0.0,0.0,-0.01,0.0
1681941461.24080086,19704515,2,0.19,1.83,102.34,0.004507458768785,-0.006217950489372015,-0.031527016311883926,0.03857269510626793,0.0,0.0,1.954096794128418,0.0,0.0,-0.01,0.0
1681941461.34077287,19804487,2,0.19,1.83,102.3,0.0050185807049274445,-0.00662314984947443,-0.031658295542001724,0.01637028157711029,0.0,0.0,1.954357385635376,0.0,0.0,-0.03,0.0
1681941461.44076991,19904484,2,0.2,1.83,102.28,0.0055824145674705505,-0.005879571661353111,-0.032028019428253174,0.011965824291110039,0.0,0.0,1.9561702013015747,0.0,0.0,-0.03,0.0
1681941461.54076886,20004483,2,0.2,1.83,102.3,0.005564113147556782,-0.004676374141126871,-0.0315161794424057,0.035719677805900574,0.0,0.0,1.9597071409225464,0.0,0.0,-0.08,0.0
1681941461.64085197,20104566,2,0.2,1.82,102.35000000000001,0.005988894961774349,-0.003694717539474368,-0.032424069941043854,0.031561579555273056,0.0,0.0,1.9619598388671875,0.0,0.0,-0.06,0.0
1681941461.74082398,20204538,2,0.2,1.82,102.35000000000001,0.005423577036708593,-0.0028852454852312803,-0.033005304634571075,0.008916261605918407,0.0,0.0,1.962416410446167,0.0,0.0,-0.02,0.0
1681941461.84087992,20304594,2,0.2,1.82,102.33,0.005136583931744099,-0.0023136779200285673,-0.034433748573064804,-0.006647590082138777,0.0,0.0,1.9622806310653687,0.0,0.0,-0.02,0.0
1681941461.94086289,20404577,2,0.21,1.82,102.3,0.005194506142288446,-0.0006740845274180174,-0.037922266870737076,-0.043333377689123154,0.0,0.0,1.9573230743408203,0.0,0.0,-0.02,0.0
1681941462.04078484,20504499,2,0.21,1.81,102.28,0.005274313036352396,0.0006333573837764561,-0.04326783865690231,-0.08673792332410812,0.0,0.0,1.9502406120300293,0.0,0.0,-0.04,0.0
1681941462.14080095,20604515,2,0.21,1.81,102.28,0.0053028143011033535,0.00174702110234648,-0.0465022474527359,-0.07986962795257568,0.0,0.0,1.9442464113235474,0.0,0.0,-0.03,0.0
1681941462.24077177,20704486,2,0.22,1.81,102.27,0.004918620456010103,0.002117231721058488,-0.05000010132789612,-0.062461577355861664,0.0,0.0,1.938905119895935,0.0,0.0,-0.02,0.0
1681941462.34077978,20804494,2,0.22,1.8,102.26,0.0049285730347037315,0.002939802361652255,-0.05095945671200752,-0.02461155876517296,0.0,0.0,1.9374362230300903,0.0,0.0,-0.03,0.0
1681941462.44077778,20904492,2,0.22,1.8,102.27,0.005060042720288038,0.0025436151772737503,-0.051261402666568756,0.007210486568510532,0.0,0.0,1.9369103908538818,0.0,0.0,-0.02,0.0
1681941462.54084778,21004562,2,0.22,1.8,102.29,0.004836400039494038,0.0035015323664993048,-0.05187222361564636,0.014605280011892319,0.0,0.0,1.937572956085205,0.0,0.0,-0.05,0.0
1681941462.64083290,21104547,2,0.21,1.8,102.35000000000001,0.003956897649914026,0.005417975131422281,-0.052234549075365067,0.02766941487789154,0.0,0.0,1.9394677877426147,0.0,0.0,-0.07,0.0
1681941462.74080896,21204523,2,0.21,1.8,102.43,0.003671675454825163,0.005330381914973259,-0.04955935478210449,0.061712149530649185,0.0,0.0,1.9456380605697632,0.0,0.0,-0.1,0.0
1681941462.84084892,21304563,2,0.21,1.8,102.53,0.0036784904077649117,0.005438891239464283,-0.04584343731403351,0.09441167116165161,0.0,0.0,1.9530853033065796,0.0,0.0,-0.09,0.0
1681941462.94078588,21404500,2,0.21,1.79,102.59,0.003526030108332634,0.007155615370720625,-0.04306311905384064,0.0984468162059784,0.0,0.0,1.9615392684936523,0.0,0.0,-0.08,0.0
1681941463.04079580,21504510,2,0.21,1.8,102.63,0.004637415520846844,0.006006258074194193,-0.03949303552508354,0.11099769920110703,0.0,0.0,1.9715241193771362,0.0,0.0,-0.07,0.0
1681941463.14078379,21604498,2,0.21,1.79,102.66,0.0031169976573437452,0.0101012596860528,-0.03698140010237694,0.07665829360485077,0.0,0.0,1.9766309261322021,0.0,0.0,-0.1,0.0
1681941463.24077082,21704485,2,0.2,1.8,102.7,0.004571372643113136,0.007878421805799007,-0.036387182772159576,0.026074137538671494,0.0,0.0,1.9797295331954956,0.0,0.0,-0.1,0.0
1681941463.34076595,21804480,2,0.21,1.79,102.74000000000001,0.004872829653322697,0.009145601652562618,-0.034544479101896286,0.04070515185594559,0.0,0.0,1.9855778217315674,0.0,0.0,-0.1,0.0
1681941463.44085598,21904570,2,0.21,1.79,102.76,0.004494381602853537,0.012861687690019608,-0.03517933189868927,0.016842616721987724,0.0,0.0,1.9858583211898804,0.0,0.0,-0.1,0.0
1681941463.54083991,22004554,2,0.21,1.79,102.78,0.006533599458634853,0.0076308404095470905,-0.03811296075582504,-0.06624092161655426,0.0,0.0,1.9795440435409546,0.0,0.0,-0.11,0.0
1681941463.64088798,22104602,2,0.21,1.78,102.82000000000001,0.004869125783443451,0.013377029448747635,-0.042797353118658066,-0.12207190692424774,0.0,0.0,1.9696033000946045,0.0,0.0,-0.13,0.0
1681941463.74085784,22204572,2,0.21,1.79,102.88,0.004712338093668222,0.012113434262573719,-0.04713818058371544,-0.1381780058145523,0.0,0.0,1.9587582349777222,0.0,0.0,-0.14,0.0
1681941463.84078097,22304495,2,0.21,1.78,102.96000000000001,0.005596268456429243,0.011099670082330704,-0.04982629045844078,-0.11098296195268631,0.0,0.0,1.9502545595169067,0.0,0.0,-0.15,0.0
1681941463.94079590,22404510,2,0.2,1.79,103.04,0.005959723610430956,0.014758910052478313,-0.052142299711704254,-0.061549633741378784,0.0,0.0,1.9454708099365234,0.0,0.0,-0.15,0.0
1681941464.04076982,22504484,2,0.2,1.79,103.11,0.006230426486581564,0.011905046179890633,-0.05141029506921768,-0.0048729609698057175,0.0,0.0,1.944942831993103,0.0,0.0,-0.15,0.0
1681941464.14076686,22604481,2,0.2,1.78,103.14,0.006070137955248356,0.014192850328981876,-0.051380034536123276,0.015047806315124035,0.0,0.0,1.9439945220947266,0.0,0.0,-0.14,0.0
1681941464.24076295,22704477,2,0.2,1.79,103.16,0.00613329466432333,0.01498489361256361,-0.05112556368112564,0.0211808979511261,0.0,0.0,1.945280909538269,0.0,0.0,-0.14,0.0
1681941464.34084082,22804555,2,0.2,1.79,103.18,0.006143452133983374,0.01210698764771223,-0.05021587014198303,0.030897105112671852,0.0,0.0,1.9470152854919434,0.0,0.0,-0.15,0.0
1681941464.44083691,22904551,2,0.2,1.78,103.18,0.005028617102652788,0.014889906160533428,-0.050440896302461624,0.01743197813630104,0.0,0.0,1.9475692510604858,0.0,0.0,-0.14,0.0
1681941464.54086590,23004580,2,0.2,1.78,103.17,0.004681990947574377,0.01420415285974741,-0.04963895305991173,0.016963904723525047,0.0,0.0,1.9493377208709717,0.0,0.0,-0.14,0.0
1681941464.64084196,23104556,2,0.2,1.78,103.14,0.003957865294069052,0.01498239953070879,-0.048366013914346695,0.03177031874656677,0.0,0.0,1.9523290395736694,0.0,0.0,-0.11,0.0
1681941464.74077892,23204493,2,0.21,1.77,103.08,0.0038309874944388866,0.015910020098090172,-0.047848016023635864,0.02166520617902279,0.0,0.0,1.953354001045227,0.0,0.0,-0.1,0.0
1681941464.84079790,23304512,2,0.21,1.78,103.02,0.0039367410354316235,0.015567903406918049,-0.045776937156915665,0.0329471156001091,0.0,0.0,1.9575247764587402,0.0,0.0,-0.1,0.0
1681941464.94076681,23404481,2,0.2,1.78,102.99000000000001,0.004010832402855158,0.017433984205126762,-0.04461297020316124,0.053298529237508774,0.0,0.0,1.962243676185608,0.0,0.0,-0.12,0.0
1681941465.04076576,23504480,2,0.2,1.78,102.99000000000001,0.004611254204064608,0.015716450288891792,-0.04091917723417282,0.10040087252855301,0.0,0.0,1.972809910774231,0.0,0.0,-0.11,0.0
1681941465.14077997,23604494,2,0.2,1.78,103.0,0.00463391188532114,0.016889750957489014,-0.036779388785362244,0.15090611577033997,0.0,0.0,1.9860910177230835,0.0,0.0,-0.12,0.0
1681941465.24082589,23704540,2,0.2,1.78,103.03,0.005705507937818766,0.01685902290046215,-0.03386954218149185,0.12816667556762695,0.0,0.0,1.9955217838287354,0.0,0.0,-0.12,0.0
1681941465.34082389,23804538,2,0.21,1.78,103.06,0.004882987588644028,0.016500981524586678,-0.030406897887587547,0.11039324104785919,0.0,0.0,2.006411075592041,0.0,0.0,-0.12,0.0
1681941465.44087577,23904590,2,0.21,1.78,103.09,0.004641379229724407,0.016269974410533905,-0.02712484635412693,0.10702579468488693,0.0,0.0,2.016404628753662,0.0,0.0,-0.12,0.0
1681941465.54084897,24004563,2,0.21,1.78,103.14,0.00384803325869143,0.017017852514982224,-0.02521253004670143,0.07405662536621094,0.0,0.0,2.022965908050537,0.0,0.0,-0.13,0.0
1681941465.64077997,24104494,2,0.21,1.79,103.18,0.005212925374507904,0.015333070419728756,-0.024846883490681648,0.030635064467787743,0.0,0.0,2.026322364807129,0.0,0.0,-0.12,0.0
1681941465.74079990,24204514,2,0.21,1.79,103.2,0.0045511359348893166,0.01732235960662365,-0.02649657055735588,-0.027698112651705742,0.0,0.0,2.023911237716675,0.0,0.0,-0.12,0.0
1681941465.84076691,24304481,2,0.21,1.8,103.19,0.008723045699298382,0.016688942909240723,-0.03668494522571564,-0.06014755368232727,0.0,0.0,2.021806478500366,0.0,0.0,-0.1,0.0
1681941465.94076586,24404480,2,0.2,1.8,103.17,0.006908704061061144,0.01974932849407196,-0.026859961450099945,-0.030794942751526833,0.0,0.0,2.020627498626709,0.0,0.0,-0.11,0.0
1681941466.04076886,24504483,2,0.2,1.8,103.14,0.007865660823881626,0.013831359334290028,-0.029040135443210602,-0.044248294085264206,0.0,0.0,2.0158586502075195,0.0,0.0,-0.1,0.0
1681941466.14085078,24604565,2,0.19,1.8,103.11,0.007644131314009428,0.014955107122659683,-0.030231887474656105,-0.056299205869436264,0.0,0.0,2.011575222015381,0.0,0.0,-0.1,0.0
1681941466.24084496,24704559,2,0.19,1.81,103.07000000000001,0.007168913725763559,0.016818398609757423,-0.03108787164092064,-0.04480303078889847,0.0,0.0,2.0079424381256104,0.0,0.0,-0.09,0.0
1681941466.34086895,24804583,2,0.19,1.81,103.05,0.007279141340404749,0.012905281037092209,-0.03149636834859848,-0.043563928455114365,0.0,0.0,2.0037200450897217,0.0,0.0,-0.09,0.0
1681941466.44085097,24904565,2,0.19,1.81,103.02,0.005933674052357674,0.01570155844092369,-0.03309384733438492,-0.04058089852333069,0.0,0.0,2.0000603199005127,-0.01,0.0,-0.07,0.0
1681941466.54077697,25004491,2,0.19,1.82,102.95,0.007125639356672764,0.013217922300100327,-0.03459439054131508,-0.0438263937830925,0.0,0.0,1.9953885078430176,-0.01,0.0,-0.06,0.0
1681941466.64079690,25104511,2,0.19,1.82,102.89,0.007952663116157055,0.012134900316596031,-0.035695500671863556,-0.04589087516069412,0.0,0.0,1.9911348819732666,-0.01,-0.01,-0.06,0.0
1681941466.74076295,25204477,2,0.19,1.82,102.82000000000001,0.00837448239326477,0.014909518882632256,-0.03545252978801727,-0.031582143157720566,0.0,0.0,1.9880880117416382,-0.01,-0.01,-0.06,0.0
1681941466.84076381,25304478,2,0.19,1.83,102.78,0.007700517773628235,0.013435189612209797,-0.035916395485401154,-0.021935516968369484,0.0,0.0,1.9855895042419434,-0.01,-0.01,-0.05,0.0
1681941466.94076490,25404479,2,0.19,1.83,102.72,0.008290603756904602,0.008924857713282108,-0.03440576046705246,0.024013416841626167,0.0,0.0,1.9884369373321533,-0.01,-0.01,-0.02,0.0
1681941467.04085183,25504566,2,0.18,1.84,102.64,0.0068516978062689304,0.012630769051611423,-0.03222056105732918,0.07917744666337967,0.0,0.0,1.9949049949645996,-0.01,-0.01,-0.01,0.0
1681941467.14083481,25604549,2,0.17,1.85,102.56,0.008751681074500084,0.0081084705889225,-0.02952245995402336,0.08475134521722794,0.0,0.0,2.0011444091796875,-0.01,-0.01,-0.02,0.0
1681941467.24081087,25704525,2,0.17,1.85,102.5,0.009900666773319244,0.007652019616216421,-0.027802513912320137,0.0611959807574749,0.0,0.0,2.0054566860198975,-0.01,-0.01,-0.02,0.0
1681941467.34084582,25804560,2,0.16,1.85,102.47,0.01010329369455576,0.008096730336546898,-0.027196131646633148,0.019148288294672966,0.0,0.0,2.006535530090332,-0.01,-0.01,-0.02,0.0
1681941467.44078279,25904497,2,0.16,1.85,102.44,0.012303640134632587,0.004446066915988922,-0.026380030438303947,-0.0058945463970303535,0.0,0.0,2.00687575340271,-0.01,-0.01,-0.01,0.0
1681941467.54079890,26004513,2,0.16,1.85,102.42,0.013245832175016403,0.007170964032411575,-0.02680685743689537,0.014336192049086094,0.0,0.0,2.0098280906677246,-0.01,-0.01,-0.01,0.0
1681941467.64077091,26104485,2,0.16,1.86,102.4,0.01518508605659008,0.006246788427233696,-0.02538580447435379,0.04804588854312897,0.0,0.0,2.01485276222229,-0.01,-0.01,0.0,0.0
1681941467.74076891,26204483,2,0.16,1.86,102.38,0.016834834590554237,0.004675080068409443,-0.024642057716846466,0.0543704591691494,0.0,0.0,2.019104242324829,-0.01,-0.01,0.0,0.0
1681941467.84077883,26304493,2,0.15,1.86,102.35000000000001,0.017496377229690552,0.005743064917623997,-0.023110281676054,0.059712883085012436,0.0,0.0,2.024970769882202,-0.01,-0.01,-0.01,0.0
1681941467.94084883,26404563,2,0.15,1.86,102.35000000000001,0.019210349768400192,0.002656945027410984,-0.022156795486807823,0.055824920535087585,0.0,0.0,2.0292866230010986,-0.01,-0.01,0.0,0.0
1681941468.04085994,26504574,2,0.15,1.86,102.36,0.019838808104395866,0.0026076254434883595,-0.020656146109104156,0.0425950363278389,0.0,0.0,2.0337166786193848,-0.01,-0.01,-0.01,0.0
1681941468.14087582,26604590,2,0.14,1.86,102.35000000000001,0.020137282088398933,0.002226387383416295,-0.018544228747487068,0.05112239345908165,0.0,0.0,2.0388636589050293,-0.01,-0.01,0.0,0.0
1681941468.24084592,26704560,2,0.14,1.87,102.29,0.021415522322058678,0.0003036063280887902,-0.01767994649708271,0.05242591351270676,0.0,0.0,2.0439093112945557,-0.01,-0.01,0.02,0.0
1681941468.34078288,26804497,2,0.14,1.86,102.19,0.022535203024744987,-1.5846448150114156e-05,-0.015927044674754143,0.05047854781150818,0.0,0.0,2.0486903190612793,-0.01,-0.01,0.04,0.0
1681941468.44079280,26904507,2,0.13,1.87,102.06,0.023945419117808342,-0.0017252766992896795,-0.01501917839050293,0.041403502225875854,0.0,0.0,2.052739143371582,-0.01,-0.01,0.06,0.0
1681941468.54076385,27004478,2,0.13,1.87,101.91,0.02516813389956951,-0.002062493935227394,-0.014341890811920166,0.023267189040780067,0.0,0.0,2.0547361373901367,-0.01,-0.01,0.07,0.0
1681941468.64076495,27104479,2,0.13,1.8800000000000001,101.75,0.027867598459124565,-0.0021550669334828854,-0.01496879942715168,-0.011086438782513142,0.0,0.0,2.053708076477051,-0.01,-0.01,0.09,0.0
1681941468.74077177,27204486,2,0.13,1.8800000000000001,101.56,0.02918059751391411,-0.003667856100946665,-0.01592746190726757,-0.04632871598005295,0.0,0.0,2.049818754196167,-0.01,-0.01,0.12,0.0
1681941468.84084678,27304561,2,0.13,1.8800000000000001,101.34,0.02895982563495636,-0.0011322905775159597,-0.016681473702192307,-0.06001709774136543,0.0,0.0,2.045492649078369,-0.02,-0.01,0.14,0.0
1681941468.94083977,27404554,2,0.12,1.87,101.13,0.03111148253083229,-0.007385233882814646,-0.01734439842402935,-0.06058664619922638,0.0,0.0,2.0405375957489014,-0.02,-0.01,0.15,0.0
1681941469.04085493,27504569,2,0.12,1.87,100.94,0.032390907406806946,-0.003787851659581065,-0.018551168963313103,-0.06940951943397522,0.0,0.0,2.0341877937316895,-0.02,-0.01,0.16,0.0
1681941469.14084792,27604562,2,0.11,1.8800000000000001,100.78,0.03390102833509445,-0.006076295860111713,-0.018993733450770378,-0.0652037039399147,0.0,0.0,2.0287585258483887,-0.02,-0.01,0.17,0.0
1681941469.24078798,27704502,2,0.11,1.8800000000000001,100.63,0.03404153138399124,-0.008975950069725513,-0.019540490582585335,-0.04624052345752716,0.0,0.0,2.024764060974121,-0.02,-0.01,0.19,0.0
1681941469.34079599,27804510,2,0.11,1.8800000000000001,100.5,0.03527695685625076,-0.006543606054037809,-0.01970609463751316,-0.03933877870440483,0.0,0.0,2.0204238891601562,-0.02,-0.01,0.19,0.0
1681941469.44077587,27904490,2,0.11,1.8800000000000001,100.39,0.03678230568766594,-0.010090227238833904,-0.02019011415541172,-0.04473593458533287,0.0,0.0,2.0156867504119873,-0.02,-0.01,0.2,0.0
1681941469.54076290,28004477,2,0.11,1.8800000000000001,100.29,0.03821462020277977,-0.008335954509675503,-0.022278977558016777,-0.030343690887093544,0.0,0.0,2.0133631229400635,-0.02,-0.01,0.21,0.0
1681941469.64076686,28104481,2,0.11,1.8800000000000001,100.19,0.040192026644945145,-0.00874309428036213,-0.023151157423853874,-0.03621363639831543,0.0,0.0,2.008554458618164,-0.02,-0.01,0.22,0.0
1681941469.74083090,28204545,2,0.1,1.87,100.10000000000001,0.04192081838846207,-0.00951824989169836,-0.024489762261509895,-0.04983021318912506,0.0,0.0,2.0038790702819824,-0.02,-0.01,0.22,0.0
1681941469.84085083,28304565,2,0.1,1.87,100.0,0.043370477855205536,-0.009601341560482979,-0.02488119900226593,-0.05383234843611717,0.0,0.0,1.9985102415084839,-0.02,-0.01,0.24,0.0
1681941469.94080877,28404523,2,0.1,1.87,99.88,0.043976157903671265,-0.008978049270808697,-0.026554400101304054,-0.051851432770490646,0.0,0.0,1.993932843208313,-0.02,-0.01,0.25,0.0
1681941470.04084587,28504560,2,0.1,1.87,99.75,0.04540843889117241,-0.010625893250107765,-0.026909736916422844,-0.04275122284889221,0.0,0.0,1.9897334575653076,-0.02,-0.01,0.25,0.0
1681941470.14078689,28604501,2,0.1,1.8800000000000001,99.63,0.045092757791280746,-0.012647191062569618,-0.02845037169754505,-0.06523166596889496,0.0,0.0,1.98232102394104,-0.02,-0.01,0.27,0.0
1681941470.24079394,28704508,2,0.1,1.8800000000000001,99.49000000000001,0.047131385654211044,-0.012986039742827415,-0.030590031296014786,-0.08632500469684601,0.0,0.0,1.9744820594787598,-0.02,0.0,0.28,0.0
1681941470.34076977,28804484,2,0.09,1.8800000000000001,99.34,0.048652563244104385,-0.009291533380746841,-0.031178275123238564,-0.059216003865003586,0.0,0.0,1.9701669216156006,-0.02,0.0,0.29,0.0
1681941470.44076681,28904481,2,0.09,1.8900000000000001,99.2,0.05069707706570625,-0.015198955312371254,-0.031125983223319054,-0.027679910883307457,0.0,0.0,1.9671355485916138,-0.02,0.0,0.3,0.0
1681941470.54076481,29004479,2,0.09,1.8900000000000001,99.03,0.05007711425423622,-0.009256089106202126,-0.030519971624016762,0.002923168009147048,0.0,0.0,1.9671863317489624,-0.02,0.0,0.32,0.0
1681941470.64083886,29104553,2,0.08,1.9000000000000001,98.87,0.05103564262390137,-0.011875134892761707,-0.030260387808084488,0.0060698892921209335,0.0,0.0,1.965937614440918,-0.02,0.0,0.33,0.0
1681941470.74084783,29204562,2,0.08,1.8900000000000001,98.71000000000001,0.051832716912031174,-0.013328221626579762,-0.03075341507792473,-0.003398212371394038,0.0,0.0,1.9651318788528442,-0.03,0.0,0.34,0.0
1681941470.84086895,29304583,2,0.08,1.8900000000000001,98.57000000000001,0.05245411396026611,-0.010235888883471489,-0.03021019510924816,0.004271920304745436,0.0,0.0,1.9653542041778564,-0.03,0.0,0.34,0.0
1681941470.94085693,29404571,2,0.08,1.8800000000000001,98.45,0.054491281509399414,-0.013999780640006065,-0.030030569061636925,0.00930845458060503,0.0,0.0,1.9657889604568481,-0.03,0.0,0.35000000000000003,0.0
1681941471.04077888,29504493,2,0.08,1.8800000000000001,98.32000000000001,0.055051952600479126,-0.013088180683553219,-0.028856957331299782,0.005912213586270809,0.0,0.0,1.965790033340454,-0.03,0.0,0.36,0.0
1681941471.14079976,29604514,2,0.08,1.8900000000000001,98.2,0.05602804198861122,-0.013357298448681831,-0.02862912230193615,-0.018381480127573013,0.0,0.0,1.9632123708724976,-0.03,0.0,0.37,0.0
1681941471.24076390,29704478,2,0.09,1.8900000000000001,98.08,0.056070175021886826,-0.015495067462325096,-0.02916625700891018,-0.05670863017439842,0.0,0.0,1.9576034545898438,-0.03,0.0,0.37,0.0
1681941471.34076595,29804480,2,0.09,1.8900000000000001,98.01,0.05638531222939491,-0.014127997681498528,-0.029390068724751472,-0.07039087265729904,0.0,0.0,1.9518964290618896,-0.03,0.0,0.35000000000000003,0.0
1681941471.44076991,29904484,2,0.09,1.9000000000000001,97.97,0.05635187029838562,-0.014956842176616192,-0.02941242977976799,-0.08436496555805206,0.0,0.0,1.9437448978424072,-0.03,0.0,0.36,0.0
1681941471.54083085,30004545,2,0.09,1.9000000000000001,97.94,0.05711739882826805,-0.01671198569238186,-0.03029724769294262,-0.08292847126722336,0.0,0.0,1.9371815919876099,-0.03,0.0,0.36,0.0
1681941471.64082289,30104537,2,0.09,1.9100000000000001,97.91,0.05596568062901497,-0.015748118981719017,-0.028283461928367615,-0.03392051160335541,0.0,0.0,1.9353419542312622,-0.03,0.0,0.36,0.0
1681941471.74080682,30204521,2,0.09,1.9100000000000001,97.88,0.05661286786198616,-0.017639314755797386,-0.027268756181001663,0.009498190134763718,0.0,0.0,1.9352617263793945,-0.03,0.0,0.36,0.0
1681941471.84083390,30304548,2,0.09,1.92,97.84,0.05707748606801033,-0.018033238127827644,-0.026584792882204056,0.02081931382417679,0.0,0.0,1.9358196258544922,-0.03,0.0,0.36,0.0
1681941471.94076991,30404484,2,0.08,1.93,97.79,0.05757903680205345,-0.018767286092042923,-0.025402097031474113,0.029245445504784584,0.0,0.0,1.9378347396850586,-0.03,0.0,0.37,0.0
1681941472.04078889,30504503,2,0.09,1.93,97.71000000000001,0.058627206832170486,-0.019829832017421722,-0.02573438547551632,0.008839648216962814,0.0,0.0,1.9371720552444458,-0.03,0.0,0.38,0.0
1681941472.14075184,30604466,2,0.08,1.93,97.64,0.059390708804130554,-0.01944943144917488,-0.025681382045149803,-0.015336615964770317,0.0,0.0,1.9358383417129517,-0.03,0.0,0.38,0.0
1681941472.24075198,30704466,2,0.08,1.93,97.56,0.059631917625665665,-0.0197075754404068,-0.025800935924053192,-0.011272980831563473,0.0,0.0,1.935203194618225,-0.03,0.0,0.38,0.0
1681941472.34075880,30804473,2,0.08,1.92,97.47,0.06069193780422211,-0.020318839699029922,-0.02579193003475666,-0.012032046914100647,0.0,0.0,1.9340085983276367,-0.03,0.0,0.39,0.0
1681941472.44082999,30904544,2,0.08,1.92,97.39,0.06107301637530327,-0.019859859719872475,-0.025675209239125252,-0.020329399034380913,0.0,0.0,1.9320250749588013,-0.03,0.0,0.39,0.0
1681941472.54084897,31004563,2,0.08,1.92,97.31,0.06230500712990761,-0.020440392196178436,-0.02629321813583374,-0.030648265033960342,0.0,0.0,1.929167628288269,-0.03,0.0,0.38,0.0
1681941472.64080477,31104519,2,0.07,1.92,97.25,0.06308812648057938,-0.020256513729691505,-0.025675063952803612,-0.007425977382808924,0.0,0.0,1.9295889139175415,-0.03,0.0,0.39,0.0
1681941472.74085283,31204567,2,0.08,1.92,97.19,0.06458555161952972,-0.020433561876416206,-0.02507111243903637,0.02418060228228569,0.0,0.0,1.9314137697219849,-0.03,0.0,0.39,0.0
1681941472.84076476,31304479,2,0.08,1.92,97.13,0.06472252309322357,-0.021619591861963272,-0.02558141015470028,0.005410126410424709,0.0,0.0,1.930501103401184,-0.03,0.0,0.4,0.0
1681941472.94078398,31404498,2,0.08,1.92,97.06,0.06560072302818298,-0.022229870781302452,-0.024803586304187775,-0.012702127918601036,0.0,0.0,1.9294184446334839,-0.03,0.0,0.4,0.0
1681941473.04075384,31504468,2,0.08,1.92,96.99000000000001,0.06645042449235916,-0.022568354383111,-0.0244623813778162,-0.01158760767430067,0.0,0.0,1.9284605979919434,-0.03,0.0,0.4,0.0
1681941473.14075184,31604466,2,0.07,1.92,96.92,0.06764185428619385,-0.022717127576470375,-0.024438781663775444,-0.020588474348187447,0.0,0.0,1.9263732433319092,-0.03,0.0,0.4,0.0
1681941473.24075389,31704468,2,0.07,1.92,96.85000000000001,0.06867396831512451,-0.023004472255706787,-0.02351190522313118,0.0015452991938218474,0.0,0.0,1.92764151096344,-0.03,0.0,0.4,0.0
1681941473.34082580,31804540,2,0.07,1.92,96.79,0.06936082988977432,-0.023310953751206398,-0.023229166865348816,0.02089722827076912,0.0,0.0,1.9287943840026855,-0.03,0.0,0.4,0.0
1681941473.44082093,31904535,2,0.07,1.92,96.74000000000001,0.07017264515161514,-0.02329643815755844,-0.022903302684426308,0.015919702127575874,0.0,0.0,1.929980754852295,-0.03,0.0,0.4,0.0
1681941473.54080176,32004516,2,0.08,1.92,96.68,0.07121644914150238,-0.023146463558077812,-0.023331694304943085,0.014494117349386215,0.0,0.0,1.931018352508545,-0.03,0.0,0.41000000000000003,0.0
1681941473.64082885,32104543,2,0.08,1.92,96.62,0.07181321829557419,-0.023877715691924095,-0.022074958309531212,0.01688196137547493,0.0,0.0,1.9326553344726562,-0.03,0.0,0.41000000000000003,0.0
1681941473.74077582,32204490,2,0.08,1.92,96.56,0.07173199951648712,-0.024486174806952477,-0.021808313205838203,0.04038185253739357,0.0,0.0,1.9368677139282227,-0.03,0.0,0.41000000000000003,0.0
1681941473.84078193,32304496,2,0.08,1.92,96.5,0.07219390571117401,-0.024596743285655975,-0.021169787272810936,0.04344507306814194,0.0,0.0,1.9399126768112183,-0.03,0.0,0.41000000000000003,0.0
1681941473.94075394,32404468,2,0.08,1.92,96.45,0.07314971834421158,-0.024880066514015198,-0.02143988013267517,0.03385373577475548,0.0,0.0,1.9431254863739014,-0.03,0.0,0.41000000000000003,0.0
1681941474.04075980,32504474,2,0.08,1.92,96.39,0.07416295260190964,-0.025464855134487152,-0.020074376836419106,0.04918454587459564,0.0,0.0,1.9480279684066772,-0.04,0.0,0.42,0.0
1681941474.14075685,32604471,2,0.08,1.92,96.34,0.07575027644634247,-0.02531796507537365,-0.01831156201660633,0.06909403949975967,0.0,0.0,1.9545578956604004,-0.04,0.0,0.41000000000000003,0.0
1681941474.24083495,32704549,2,0.08,1.92,96.28,0.0763263925909996,-0.02491770125925541,-0.0169986542314291,0.055822551250457764,0.0,0.0,1.9586279392242432,-0.04,0.0,0.42,0.0
1681941474.34082794,32804542,2,0.08,1.92,96.23,0.07606647163629532,-0.024948997423052788,-0.015709351748228073,0.024890266358852386,0.0,0.0,1.9609869718551636,-0.04,0.0,0.42,0.0
1681941474.44080281,32904517,2,0.08,1.92,96.18,0.0761597529053688,-0.026014171540737152,-0.015031365677714348,0.009946584701538086,0.0,0.0,1.9624390602111816,-0.04,0.0,0.42,0.0
1681941474.54083300,33004547,2,0.08,1.92,96.12,0.07640727609395981,-0.02506924979388714,-0.0148847084492445,-0.0015912802191451192,0.0,0.0,1.9629064798355103,-0.04,0.0,0.42,0.0
1681941474.64076877,33104483,2,0.08,1.92,96.04,0.0763196274638176,-0.024925997480750084,-0.014044580049812794,0.001769550028257072,0.0,0.0,1.9639440774917603,-0.04,0.0,0.43,0.0
1681941474.74078488,33204499,2,0.08,1.93,95.96000000000001,0.0771462693810463,-0.026033645495772362,-0.014206361025571823,0.01781264692544937,0.0,0.0,1.9661895036697388,-0.04,0.0,0.43,0.0
1681941474.84074998,33304464,2,0.08,1.92,95.89,0.07725217193365097,-0.02572619542479515,-0.014363820664584637,0.028987132012844086,0.0,0.0,1.9688762426376343,-0.04,0.0,0.42,0.0
1681941474.94075489,33404469,2,0.08,1.92,95.84,0.07795126736164093,-0.024762209504842758,-0.013017113320529461,0.02840726636350155,0.0,0.0,1.9711543321609497,-0.04,0.0,0.42,0.0
1681941475.04077387,33504488,2,0.08,1.9100000000000001,95.8,0.0787990465760231,-0.02587590366601944,-0.013395601883530617,0.008028971962630749,0.0,0.0,1.9714405536651611,-0.04,0.0,0.42,0.0
1681941475.14084077,33604555,2,0.08,1.9100000000000001,95.74000000000001,0.07861857116222382,-0.025499043986201286,-0.013640489429235458,-0.010518588125705719,0.0,0.0,1.9708174467086792,-0.04,0.0,0.43,0.0
1681941475.24081182,33704526,2,0.08,1.9100000000000001,95.66,0.07836110889911652,-0.024704424664378166,-0.0145878866314888,-0.022454315796494484,0.0,0.0,1.9689875841140747,-0.04,0.0,0.43,0.0
1681941475.34080577,33804520,2,0.09,1.9100000000000001,95.59,0.0776589885354042,-0.026098843663930893,-0.013717753812670708,-0.016398310661315918,0.0,0.0,1.9684725999832153,-0.04,0.0,0.43,0.0
1681941475.44084096,33904555,2,0.09,1.9100000000000001,95.53,0.07730468362569809,-0.02380109578371048,-0.013882040046155453,-0.006849125027656555,0.0,0.0,1.967667579650879,-0.04,0.0,0.43,0.0
1681941475.54076385,34004478,2,0.09,1.9100000000000001,95.48,0.0769575908780098,-0.024220839142799377,-0.015212765894830227,-0.03947615623474121,0.0,0.0,1.9629648923873901,-0.04,0.0,0.43,0.0
1681941475.64079595,34104510,2,0.09,1.9000000000000001,95.43,0.07717180252075195,-0.02404094859957695,-0.01729017123579979,-0.0687735453248024,0.0,0.0,1.9572559595108032,-0.04,0.0,0.43,0.0
1681941475.74075985,34204474,2,0.09,1.9100000000000001,95.4,0.07699704170227051,-0.0226094052195549,-0.01852281764149666,-0.04560932517051697,0.0,0.0,1.954492449760437,-0.04,0.0,0.43,0.0
1681941475.84075880,34304473,2,0.09,1.9100000000000001,95.36,0.0776456743478775,-0.022816061973571777,-0.0203779935836792,-0.024949511513113976,0.0,0.0,1.9517735242843628,-0.04,0.0,0.43,0.0
1681941475.94076490,34404479,2,0.09,1.9000000000000001,95.34,0.07784131914377213,-0.02166021429002285,-0.02086283266544342,-0.014301889576017857,0.0,0.0,1.950434923171997,-0.04,0.0,0.43,0.0
1681941476.04084587,34504560,2,0.1,1.9100000000000001,95.3,0.07720332592725754,-0.019671127200126648,-0.019665032625198364,0.0076899779960513115,0.0,0.0,1.9506880044937134,-0.04,0.0,0.43,0.0
1681941476.14083195,34604546,2,0.11,1.9100000000000001,95.26,0.0762401595711708,-0.018941471353173256,-0.019024403765797615,0.008885960094630718,0.0,0.0,1.9504749774932861,-0.04,0.0,0.43,0.0
1681941476.24079585,34704510,2,0.11,1.9100000000000001,95.19,0.07488521188497543,-0.018361693248152733,-0.0192534402012825,-0.004478456452488899,0.0,0.0,1.9493904113769531,-0.04,0.0,0.44,0.0
1681941476.34083796,34804552,2,0.11,1.9000000000000001,95.13,0.07432177662849426,-0.018010634928941727,-0.01911313273012638,0.006612814497202635,0.0,0.0,1.9507043361663818,-0.04,0.0,0.43,0.0
1681941476.44076586,34904480,2,0.1,1.9000000000000001,95.07000000000001,0.07392305880784988,-0.016332291066646576,-0.017842600122094154,0.04763185977935791,0.0,0.0,1.9555221796035767,-0.04,0.0,0.43,0.0
1681941476.54079700,35004511,2,0.1,1.9000000000000001,95.03,0.07336333394050598,-0.015703966841101646,-0.017218878492712975,0.05018092691898346,0.0,0.0,1.9584436416625977,-0.04,0.0,0.43,0.0
1681941476.64076185,35104476,2,0.1,1.8900000000000001,95.0,0.07349078357219696,-0.015091883018612862,-0.015702933073043823,0.027644431218504906,0.0,0.0,1.9605802297592163,-0.04,0.0,0.43,0.0
1681941476.74075890,35204473,2,0.1,1.8900000000000001,94.99,0.07262659817934036,-0.014584977179765701,-0.01528860256075859,0.015039765276014805,0.0,0.0,1.9617964029312134,-0.04,0.0,0.42,0.0
1681941476.84075499,35304469,2,0.11,1.8900000000000001,94.99,0.07137975841760635,-0.013501680456101894,-0.015822770074009895,-0.0003455968981143087,0.0,0.0,1.9620853662490845,-0.04,0.0,0.42,0.0
1681941476.94084883,35404563,2,0.11,1.8800000000000001,95.0,0.07064454257488251,-0.012600132264196873,-0.01559973880648613,-0.00011008442379534245,0.0,0.0,1.9627009630203247,-0.04,0.0,0.42,0.0
1681941477.04080677,35504521,2,0.11,1.8900000000000001,95.02,0.06972623616456985,-0.012075284495949745,-0.016065679490566254,-0.0015040059806779027,0.0,0.0,1.9626339673995972,-0.04,0.0,0.41000000000000003,0.0
1681941477.14079881,35604513,2,0.11,1.8900000000000001,95.04,0.06848520785570145,-0.012502167373895645,-0.015356311574578285,0.0028528240509331226,0.0,0.0,1.9634863138198853,-0.04,0.0,0.41000000000000003,0.0
1681941477.24083996,35704554,2,0.11,1.8900000000000001,95.06,0.06695760041475296,-0.012208972126245499,-0.014416621066629887,0.017800897359848022,0.0,0.0,1.9653815031051636,-0.04,0.0,0.4,0.0
1681941477.34076786,35804482,2,0.1,1.8900000000000001,95.07000000000001,0.06587403267621994,-0.012071698904037476,-0.012821677140891552,0.033290330320596695,0.0,0.0,1.9686648845672607,-0.04,0.0,0.4,0.0
1681941477.44078398,35904498,2,0.1,1.8800000000000001,95.08,0.06538721174001694,-0.011509031988680363,-0.011627014726400375,0.04463133215904236,0.0,0.0,1.9724712371826172,-0.04,0.0,0.4,0.0
1681941477.54075098,36004465,2,0.1,1.8900000000000001,95.08,0.06408959627151489,-0.01095258817076683,-0.010528277605772018,0.037259191274642944,0.0,0.0,1.9752836227416992,-0.04,0.0,0.4,0.0
1681941477.64075398,36104468,2,0.11,1.8800000000000001,95.07000000000001,0.06305968761444092,-0.010782758705317974,-0.009723179042339325,0.015560702420771122,0.0,0.0,1.976304292678833,-0.04,0.0,0.4,0.0
1681941477.74079299,36204507,2,0.11,1.8800000000000001,95.03,0.062295861542224884,-0.010526195168495178,-0.00789402611553669,0.003626144491136074,0.0,0.0,1.9770314693450928,-0.04,0.0,0.4,0.0
1681941477.84082794,36304542,2,0.1,1.8800000000000001,94.99,0.061462704092264175,-0.009506377391517162,-0.006465508136898279,0.008412569761276245,0.0,0.0,1.9784607887268066,-0.04,0.0,0.4,0.0
1681941477.94082785,36404542,2,0.1,1.8800000000000001,94.96000000000001,0.06108977273106575,-0.008433987386524677,-0.006077543366700411,0.014482950791716576,0.0,0.0,1.9801093339920044,-0.04,0.0,0.4,0.0
1681941478.04080677,36504521,2,0.1,1.8800000000000001,94.94,0.060445137321949005,-0.00863592978566885,-0.006725596729665995,0.0056465668603777885,0.0,0.0,1.98039710521698,-0.04,0.0,0.39,0.0
1681941478.14084291,36604557,2,0.1,1.8900000000000001,94.94,0.0600937157869339,-0.008585338480770588,-0.0065816836431622505,-0.008011966943740845,0.0,0.0,1.9797090291976929,-0.04,0.0,0.39,0.0
1681941478.24076796,36704482,2,0.11,1.8900000000000001,94.94,0.05919774994254112,-0.0077741979621350765,-0.00649223243817687,-0.015009774826467037,0.0,0.0,1.9786306619644165,-0.04,0.0,0.39,0.0
1681941478.34078884,36804503,2,0.1,1.8900000000000001,94.94,0.05882496014237404,-0.0077106342650949955,-0.0076939696446061134,-0.03790324926376343,0.0,0.0,1.9746228456497192,-0.04,0.0,0.39,0.0
1681941478.44075394,36904468,2,0.11,1.8800000000000001,94.95,0.05907807499170303,-0.006734217517077923,-0.00920791644603014,-0.05545618012547493,0.0,0.0,1.9701968431472778,-0.04,0.0,0.38,0.0
1681941478.54075193,37004466,2,0.11,1.8800000000000001,94.94,0.058783844113349915,-0.006660359911620617,-0.009878775104880333,-0.045475270599126816,0.0,0.0,1.9668378829956055,-0.04,0.0,0.39,0.0
1681941478.64075494,37104469,2,0.11,1.87,94.91,0.05853276327252388,-0.0054615568369627,-0.009838302619755268,-0.035253409296274185,0.0,0.0,1.9635083675384521,-0.04,0.0,0.38,0.0
1681941478.74085188,37204566,2,0.12,1.87,94.89,0.05806947126984596,-0.004881865344941616,-0.01130982767790556,-0.05271800234913826,0.0,0.0,1.9577248096466064,-0.04,0.0,0.38,0.0
1681941478.84082294,37304537,2,0.12,1.87,94.87,0.0576915480196476,-0.004485135432332754,-0.011456578969955444,-0.06919492781162262,0.0,0.0,1.9513369798660278,-0.04,0.0,0.38,0.0
1681941478.94079685,37404511,2,0.12,1.87,94.85000000000001,0.05723391845822334,-0.0045211100950837135,-0.012882796116173267,-0.06422434747219086,0.0,0.0,1.9458950757980347,-0.04,0.0,0.38,0.0
1681941479.04083085,37504545,2,0.13,1.87,94.83,0.056687284260988235,-0.0036254688166081905,-0.01329000759869814,-0.041042450815439224,0.0,0.0,1.942455768585205,-0.04,0.0,0.38,0.0
1681941479.14076996,37604484,2,0.13,1.87,94.8,0.055509816855192184,-0.0029485260602086782,-0.012107156217098236,-0.0112821776419878,0.0,0.0,1.941203236579895,-0.05,0.0,0.38,0.0
1681941479.24078798,37704502,2,0.13,1.87,94.77,0.05562899261713028,-0.002633165568113327,-0.012370400130748749,-0.010097241960465908,0.0,0.0,1.9388740062713623,-0.05,0.0,0.38,0.0
1681941479.34075689,37804471,2,0.13,1.87,94.74,0.05459284037351608,-0.0023927921429276466,-0.01266541052609682,-0.02388686314225197,0.0,0.0,1.9359798431396484,-0.05,0.0,0.38,0.0
1681941479.44076180,37904476,2,0.13,1.8800000000000001,94.71000000000001,0.05346401035785675,-0.002293443074449897,-0.013329328037798405,-0.03302960842847824,0.0,0.0,1.9326198101043701,-0.05,0.0,0.38,0.0
1681941479.54075193,38004466,2,0.14,1.8800000000000001,94.68,0.052942488342523575,-0.0009958058362826705,-0.013010373339056969,-0.018521102145314217,0.0,0.0,1.931490182876587,-0.05,0.0,0.38,0.0
1681941479.64082479,38104539,2,0.14,1.8800000000000001,94.65,0.05233287066221237,-0.0011103461729362607,-0.012007921934127808,-0.00715848570689559,0.0,0.0,1.9301705360412598,-0.05,0.0,0.38,0.0
1681941479.74082589,38204540,2,0.14,1.8800000000000001,94.63,0.05195296183228493,-0.0004985200939700007,-0.012492898851633072,-0.023683063685894012,0.0,0.0,1.9270713329315186,-0.05,0.0,0.37,0.0
1681941479.84080195,38304516,2,0.15,1.8800000000000001,94.62,0.051716163754463196,-0.0003163631772622466,-0.012294305488467216,-0.03202397748827934,0.0,0.0,1.9242806434631348,-0.05,0.0,0.37,0.0
1681941479.94083381,38404548,2,0.15,1.8900000000000001,94.62,0.05179555341601372,-0.0006668385467492044,-0.013308219611644745,-0.03681127354502678,0.0,0.0,1.9206920862197876,-0.05,0.0,0.37,0.0
1681941480.04077077,38504485,2,0.15,1.8800000000000001,94.61,0.05215516686439514,-0.00030016075470484793,-0.014559649862349033,-0.051714397966861725,0.0,0.0,1.9155781269073486,-0.05,0.0,0.37,0.0
1681941480.14078498,38604499,2,0.15,1.8800000000000001,94.60000000000001,0.05176936835050583,-0.0004298887506593019,-0.016454476863145828,-0.067156121134758,0.0,0.0,1.9093204736709595,-0.05,0.0,0.37,0.0
1681941480.24076200,38704476,2,0.15,1.8800000000000001,94.58,0.052065517753362656,-0.0007940024952404201,-0.01712639629840851,-0.05860089510679245,0.0,0.0,1.9046108722686768,-0.05,0.0,0.37,0.0
1681941480.34076595,38804480,2,0.15,1.8800000000000001,94.56,0.0515253059566021,-0.0008457927033305168,-0.017464645206928253,-0.05588175356388092,0.0,0.0,1.8985925912857056,-0.05,0.0,0.36,0.0
1681941480.44075680,38904471,2,0.15,1.8800000000000001,94.53,0.05094602704048157,-0.0005915473448112607,-0.019311217591166496,-0.07657556980848312,0.0,0.0,1.8908222913742065,-0.05,0.0,0.37,0.0
1681941480.54082990,39004544,2,0.15,1.8800000000000001,94.5,0.05088263377547264,-0.0007921067881397903,-0.021040072664618492,-0.08739914000034332,0.0,0.0,1.882831335067749,-0.05,0.0,0.36,0.0
1681941480.64081693,39104531,2,0.15,1.8800000000000001,94.48,0.050396617501974106,-6.715193012496457e-05,-0.023656366392970085,-0.0836864560842514,0.0,0.0,1.8753225803375244,-0.05,0.0,0.36,0.0
1681941480.74079680,39204511,2,0.16,1.8900000000000001,94.46000000000001,0.04983297735452652,-0.00025750265922397375,-0.024749457836151123,-0.08319933712482452,0.0,0.0,1.8676247596740723,-0.05,0.0,0.36,0.0
1681941480.84085679,39304571,2,0.16,1.9000000000000001,94.44,0.049774207174777985,-0.0003797745448537171,-0.02572767622768879,-0.08314242213964462,0.0,0.0,1.8596787452697754,-0.05,0.0,0.36,0.0
1681941480.94078088,39404495,2,0.16,1.9100000000000001,94.42,0.048829663544893265,-0.001605630968697369,-0.026170939207077026,-0.05712130293250084,0.0,0.0,1.8544750213623047,-0.05,0.0,0.36,0.0
1681941481.04078388,39504498,2,0.16,1.9000000000000001,94.4,0.047949910163879395,-0.003406120464205742,-0.0266678836196661,-0.043048325926065445,0.0,0.0,1.849331259727478,-0.05,0.0,0.36,0.0
1681941481.14075089,39604465,2,0.16,1.9100000000000001,94.38,0.04685042425990105,-0.0038481128867715597,-0.027571089565753937,-0.05397459492087364,0.0,0.0,1.8433150053024292,-0.05,0.0,0.36,0.0
1681941481.24074984,39704464,2,0.17,1.9000000000000001,94.36,0.046599116176366806,-0.004243975505232811,-0.028515620157122612,-0.06127437204122543,0.0,0.0,1.837019920349121,-0.05,0.0,0.36,0.0
1681941481.34075689,39804471,2,0.16,1.9000000000000001,94.34,0.04604614898562431,-0.004687932785600424,-0.029939014464616776,-0.07358145713806152,0.0,0.0,1.8295806646347046,-0.05,0.0,0.36,0.0
1681941481.44083381,39904548,2,0.17,1.9000000000000001,94.31,0.04532025009393692,-0.005455045495182276,-0.0313619002699852,-0.09895505756139755,0.0,0.0,1.8197214603424072,-0.05,0.0,0.36,0.0
1681941481.54081678,40004531,2,0.17,1.9000000000000001,94.29,0.044800981879234314,-0.006113114766776562,-0.03326571360230446,-0.10052948445081711,0.0,0.0,1.811147928237915,-0.05,0.0,0.36,0.0
1681941481.64079690,40104511,2,0.17,1.8900000000000001,94.25,0.043785210698843,-0.00745402742177248,-0.03242816403508186,-0.06723197549581528,0.0,0.0,1.8051083087921143,-0.05,0.0,0.36,0.0
1681941481.74083495,40204549,2,0.17,1.8900000000000001,94.19,0.042483389377593994,-0.007903020828962326,-0.03273705393075943,-0.039729394018650055,0.0,0.0,1.8008469343185425,-0.05,0.0,0.36,0.0
1681941481.84077096,40304485,2,0.17,1.8900000000000001,94.13,0.04199381545186043,-0.009044408798217773,-0.032935526221990585,-0.03240560367703438,0.0,0.0,1.796566367149353,-0.05,0.0,0.36,0.0
1681941481.94078279,40404497,2,0.17,1.9000000000000001,94.09,0.04108569771051407,-0.009378548711538315,-0.03336343169212341,-0.0566374771296978,0.0,0.0,1.7897734642028809,-0.05,0.0,0.36,0.0
1681941482.04075789,40504472,2,0.16,1.9000000000000001,94.07000000000001,0.03974766284227371,-0.01062790583819151,-0.03295782208442688,-0.07521083205938339,0.0,0.0,1.782631754875183,-0.05,0.0,0.35000000000000003,0.0
1681941482.14075184,40604466,2,0.16,1.9000000000000001,94.07000000000001,0.0382518544793129,-0.011806377209722996,-0.033116597682237625,-0.059214118868112564,0.0,0.0,1.7775704860687256,-0.05,0.0,0.35000000000000003,0.0
1681941482.24075294,40704467,2,0.16,1.9000000000000001,94.07000000000001,0.03719746321439743,-0.013123161159455776,-0.031692024320364,-0.0291806198656559,0.0,0.0,1.7747009992599487,-0.05,0.0,0.35000000000000003,0.0
1681941482.34082985,40804544,2,0.17,1.9000000000000001,94.08,0.036522746086120605,-0.014300038106739521,-0.03088684007525444,-0.018044671043753624,0.0,0.0,1.7719483375549316,-0.05,0.0,0.35000000000000003,0.0
1681941482.44083381,40904548,2,0.17,1.9100000000000001,94.10000000000001,0.035599466413259506,-0.01606316864490509,-0.030898626893758774,-0.02984180860221386,0.0,0.0,1.7681716680526733,-0.05,0.0,0.34,0.0
1681941482.54080582,41004520,2,0.17,1.92,94.13,0.0348997637629509,-0.017993664368987083,-0.0318448431789875,-0.05453958734869957,0.0,0.0,1.7623398303985596,-0.05,0.0,0.34,0.0
1681941482.64083099,41104545,2,0.17,1.92,94.15,0.03463904932141304,-0.01895722560584545,-0.03208193928003311,-0.06526418775320053,0.0,0.0,1.7565650939941406,-0.05,0.0,0.34,0.0
1681941482.74078393,41204498,2,0.17,1.92,94.16,0.03496218100190163,-0.02018793672323227,-0.031669359654188156,-0.04853124916553497,0.0,0.0,1.7524328231811523,-0.05,0.0,0.34,0.0
1681941482.84078979,41304504,2,0.17,1.92,94.16,0.034102026373147964,-0.021345259621739388,-0.03151918575167656,-0.04051642864942551,0.0,0.0,1.7481051683425903,-0.05,0.0,0.33,0.0
1681941482.94075179,41404466,2,0.17,1.93,94.16,0.03276647999882698,-0.023183874785900116,-0.03148842230439186,-0.04557909816503525,0.0,0.0,1.7433916330337524,-0.05,0.0,0.34,0.0
1681941483.04075384,41504468,2,0.17,1.93,94.14,0.03194616734981537,-0.024237871170043945,-0.031686726957559586,-0.05262228474020958,0.0,0.0,1.7380309104919434,-0.05,0.0,0.33,0.0
1681941483.14076686,41604481,2,0.18,1.93,94.12,0.03157871216535568,-0.025263970717787743,-0.03168299049139023,-0.05491616576910019,0.0,0.0,1.7328287363052368,-0.05,0.0,0.33,0.0
1681941483.24083090,41704545,2,0.17,1.92,94.10000000000001,0.03038603626191616,-0.02584679052233696,-0.03097802773118019,-0.04664359241724014,0.0,0.0,1.7283529043197632,-0.05,0.0,0.33,0.0
1681941483.34084797,41804562,2,0.17,1.92,94.06,0.02976362779736519,-0.02735210582613945,-0.029578357934951782,-0.03597305715084076,0.0,0.0,1.7247329950332642,-0.05,0.0,0.33,0.0
1681941483.44080186,41904516,2,0.17,1.92,94.03,0.028868932276964188,-0.028151631355285645,-0.028203537687659264,-0.01749446615576744,0.0,0.0,1.722939133644104,-0.05,0.0,0.33,0.0
1681941483.54084992,42004564,2,0.17,1.93,94.0,0.028216013684868813,-0.028817441314458847,-0.02763613499701023,-0.006013799458742142,0.0,0.0,1.721580982208252,-0.05,0.0,0.33,0.0
1681941483.64078093,42104495,2,0.17,1.93,93.98,0.028053831309080124,-0.030117403715848923,-0.025587964802980423,0.004971719346940517,0.0,0.0,1.7217062711715698,-0.05,0.0,0.33,0.0
1681941483.74079585,42204510,2,0.16,1.93,93.97,0.027682967483997345,-0.03152003511786461,-0.024255847558379173,0.008518640883266926,0.0,0.0,1.7216098308563232,-0.05,0.0,0.33,0.0
1681941483.84075999,42304474,2,0.16,1.93,93.96000000000001,0.027549445629119873,-0.0323139950633049,-0.023884953930974007,-0.014490121975541115,0.0,0.0,1.7193809747695923,-0.05,0.0,0.33,0.0
1681941483.94078898,42404503,2,0.16,1.93,93.95,0.027600739151239395,-0.03254062682390213,-0.023157605901360512,-0.01628190465271473,0.0,0.0,1.7185219526290894,-0.05,0.0,0.33,0.0
1681941484.04075694,42504471,2,0.16,1.93,93.93,0.02748434618115425,-0.033589594066143036,-0.022674959152936935,0.0013129038270562887,0.0,0.0,1.7187581062316895,-0.05,0.0,0.33,0.0
1681941484.14081883,42604533,2,0.16,1.93,93.91,0.027918681502342224,-0.03368847817182541,-0.021952133625745773,-0.0012434371747076511,0.0,0.0,1.7180602550506592,-0.05,0.0,0.33,0.0
1681941484.24083495,42704549,2,0.15,1.93,93.89,0.02852601744234562,-0.03391024470329285,-0.02084391936659813,-0.014818789437413216,0.0,0.0,1.7163078784942627,-0.05,0.0,0.33,0.0
1681941484.34079790,42804512,2,0.16,1.93,93.87,0.02872532233595848,-0.0332568995654583,-0.020190857350826263,-0.019817832857370377,0.0,0.0,1.7147396802902222,-0.05,0.0,0.33,0.0
1681941484.44083381,42904548,2,0.16,1.93,93.84,0.029267020523548126,-0.03335372731089592,-0.02081599086523056,-0.025782667100429535,0.0,0.0,1.7121646404266357,-0.05,0.0,0.33,0.0
1681941484.54076576,43004480,2,0.16,1.94,93.8,0.029112963005900383,-0.033519502729177475,-0.020823240280151367,-0.033187322318553925,0.0,0.0,1.7092845439910889,-0.05,0.0,0.33,0.0
1681941484.64078379,43104498,2,0.16,1.94,93.75,0.03009968437254429,-0.03222457319498062,-0.022584855556488037,-0.038423072546720505,0.0,0.0,1.7057113647460938,-0.05,0.0,0.33,0.0
1681941484.74076390,43204478,2,0.16,1.94,93.71000000000001,0.030677109956741333,-0.03212689980864525,-0.022375043481588364,-0.029040740802884102,0.0,0.0,1.7035908699035645,-0.05,0.0,0.33,0.0
1681941484.84074998,43304464,2,0.16,1.94,93.68,0.03149391710758209,-0.03255591541528702,-0.02249341458082199,-0.03376976400613785,0.0,0.0,1.6994117498397827,-0.05,0.0,0.33,0.0
1681941484.94075179,43404466,2,0.16,1.93,93.66,0.03073166310787201,-0.03263968601822853,-0.02243807725608349,-0.0538756363093853,0.0,0.0,1.6944129467010498,-0.05,0.0,0.32,0.0
1681941485.04082179,43504536,2,0.17,1.93,93.65,0.030569834634661674,-0.03243183344602585,-0.022409159690141678,-0.041949111968278885,0.0,0.0,1.6911436319351196,-0.05,0.0,0.32,0.0
1681941485.14081478,43604529,2,0.16,1.93,93.66,0.0313948318362236,-0.03357940539717674,-0.02118411660194397,-0.012373864650726318,0.0,0.0,1.690317153930664,-0.05,0.0,0.32,0.0
1681941485.24079490,43704509,2,0.16,1.93,93.67,0.03179313242435455,-0.03447086364030838,-0.019359223544597626,0.006750236265361309,0.0,0.0,1.6900798082351685,-0.05,0.0,0.32,0.0
1681941485.34083390,43804548,2,0.15,1.93,93.67,0.03200386464595795,-0.03417809680104256,-0.018003303557634354,0.008100492879748344,0.0,0.0,1.690131664276123,-0.05,0.0,0.32,0.0
1681941485.44077492,43904489,2,0.16,1.93,93.65,0.03228502348065376,-0.03361256420612335,-0.01676592044532299,0.010996079072356224,0.0,0.0,1.6907275915145874,-0.05,0.0,0.32,0.0
1681941485.54078293,44004497,2,0.16,1.93,93.62,0.032403770834207535,-0.03412014618515968,-0.015984835103154182,0.01160384714603424,0.0,0.0,1.6914241313934326,-0.05,0.0,0.32,0.0
1681941485.64075279,44104467,2,0.16,1.94,93.58,0.03368344530463219,-0.034883588552474976,-0.015165766701102257,0.007217679638415575,0.0,0.0,1.691749095916748,-0.05,0.0,0.32,0.0
1681941485.74076581,44204480,2,0.16,1.94,93.56,0.03395429626107216,-0.03534480184316635,-0.01382493507117033,0.005930169485509396,0.0,0.0,1.6923270225524902,-0.05,0.0,0.32,0.0
1681941485.84075189,44304466,2,0.15,1.95,93.54,0.034101810306310654,-0.03580816462635994,-0.012621995992958546,-0.006577943451702595,0.0,0.0,1.6911351680755615,-0.05,0.0,0.32,0.0
1681941485.94084787,44404562,2,0.16,1.95,93.52,0.033519160002470016,-0.03554889187216759,-0.012515383772552013,-0.022029349580407143,0.0,0.0,1.6894421577453613,-0.05,0.0,0.32,0.0
