timestamp,TimeUS,DesRoll,Roll,DesPitch,Pitch,DesYaw,Yaw,ErrRP,ErrYaw,AEKF
8.99591500,8995915,0.0,-0.03,0.0,0.34,359.99,0.0,1.0,1.0,0
9.09575900,9095759,0.0,-0.03,0.0,0.34,134.7,134.7,1.0,0.8,0
9.19588400,9195884,0.0,-0.03,0.0,0.34,134.92000000000002,134.92000000000002,0.8,0.64,0
9.29567300,9295673,0.0,-0.03,0.0,0.34,135.06,135.06,0.8,0.52,0
9.39569200,9395692,0.0,-0.03,0.0,0.35000000000000003,135.23,135.23,0.64,0.42,0
9.49563800,9495638,0.0,-0.03,0.0,0.35000000000000003,135.43,135.43,0.64,0.35000000000000003,0
9.59566300,9595663,0.0,-0.04,0.0,0.36,135.62,135.62,0.51,0.28,0
9.69562200,9695622,0.0,-0.04,0.0,0.36,135.74,135.74,0.51,0.23,0
9.79573900,9795739,0.0,-0.04,0.0,0.36,135.97,135.97,0.4,0.19,0
9.89574100,9895741,0.0,-0.04,0.0,0.37,136.03,136.03,0.4,0.16,0
9.99595400,9995954,0.0,-0.05,0.0,0.37,136.18,136.18,0.32,0.13,0
10.09586700,10095867,0.0,-0.05,0.0,0.37,136.25,136.25,0.32,0.11,0
10.19590100,10195901,0.0,-0.05,0.0,0.37,136.39000000000001,136.39000000000001,0.26,0.09,0
10.29574900,10295749,0.0,-0.06,0.0,0.37,136.46,136.46,0.26,0.07,0
10.39578700,10395787,0.0,-0.06,0.0,0.37,136.48,136.48,0.21,0.06,0
10.49572500,10495725,0.0,-0.05,0.0,0.38,136.54,136.54,0.21,0.05,0
10.59578100,10595781,0.0,-0.05,0.0,0.38,136.6,136.6,0.16,0.04,0
10.69585100,10695851,0.0,-0.05,0.0,0.38,136.58,136.58,0.16,0.03,0
10.79582100,10795821,0.0,-0.05,0.0,0.37,136.58,136.58,0.13,0.02,0
10.89596400,10895964,0.0,-0.06,0.0,0.37,136.59,136.59,0.13,0.02,0
10.99613100,10996131,-0.01,-0.09,0.06,0.5,0.0,0.0,0.1,0.02,3
11.09609800,11096098,0.0,-0.09,0.03,0.5,0.0,0.0,0.1,0.01,3
11.19591800,11195918,0.0,-0.09,0.01,0.51,0.0,0.0,0.08,0.01,3
11.29585600,11295856,0.0,-0.09,0.0,0.49,0.0,0.0,0.08,0.01,3
11.39578300,11395783,0.0,-0.09,0.0,0.5,0.0,0.0,0.06,0.01,3
11.49580900,11495809,0.0,-0.08,0.0,0.5,0.01,0.01,0.06,0.01,3
11.59582100,11595821,0.0,-0.09,0.0,0.51,0.01,0.01,0.05,0.03,3
11.69584700,11695847,0.0,-0.09,0.0,0.51,0.01,0.01,0.05,0.09,3
11.79622100,11796221,0.0,-0.09,0.0,0.5,0.01,0.01,0.04,0.12,3
11.89614300,11896143,0.0,-0.08,0.0,0.49,0.01,0.01,0.04,0.1,3
11.99611700,11996117,0.0,-0.09,0.0,0.49,0.01,0.01,0.03,0.1,3
12.09591800,12095918,0.0,-0.09,0.0,0.49,0.01,0.01,0.03,0.09,3
12.19585300,12195853,0.0,-0.09,0.0,0.48,0.01,0.01,0.02,0.08,3
12.29579100,12295791,0.0,-0.09,0.0,0.47000000000000003,0.01,0.01,0.02,0.07,3
12.39581100,12395811,0.0,-0.11,0.0,0.5,0.0,0.0,0.02,0.06,3
12.49585600,12495856,0.0,-0.09,-0.02,0.39,136.85,136.85,0.02,0.11,3
12.59589400,12595894,0.0,-0.13,-0.01,0.46,136.0,136.0,0.02,0.15,3
12.69601300,12696013,0.0,-0.14,0.0,0.44,133.92000000000002,133.92000000000002,0.02,0.18,3
12.79603700,12796037,0.0,-0.16,0.0,0.44,131.15,131.15,0.01,0.19,3
12.89615000,12896150,0.0,-0.18,0.0,0.45,128.29,128.29,0.01,0.2,3
12.99592200,12995922,0.0,-0.18,0.0,0.42,125.73,125.73,0.01,0.18,3
13.09587900,13095879,0.0,-0.19,0.0,0.42,123.99000000000001,123.99000000000001,0.01,0.17,3
13.19579400,13195794,0.0,-0.19,0.0,0.42,123.3,123.3,0.01,0.16,3
13.29581800,13295818,0.0,-0.19,0.0,0.41000000000000003,123.53,123.53,0.01,0.15,3
13.39585100,13395851,0.0,-0.18,0.0,0.42,124.36,124.36,0.01,0.14,3
13.49587700,13495877,0.0,-0.17,0.0,0.42,125.49000000000001,125.49000000000001,0.01,0.13,3
13.59598400,13595984,0.0,-0.15,0.0,0.43,126.69,126.69,0.0,0.12,3
13.69595600,13695956,0.0,-0.15,0.0,0.43,127.83,127.83,0.0,0.11,3
13.79612900,13796129,0.0,-0.14,0.0,0.43,128.82,128.82,0.0,0.1,3
13.89600900,13896009,0.0,-0.13,0.0,0.43,129.65,129.65,0.0,0.09,3
13.99587900,13995879,0.0,-0.13,0.0,0.43,130.32,130.32,0.0,0.09,3
14.09587200,14095872,0.0,-0.12,0.0,0.43,130.87,130.87,0.0,0.08,3
14.19582700,14195827,0.0,-0.12,0.0,0.43,131.33,131.33,0.0,0.07,3
14.29583100,14295831,0.0,-0.12,0.0,0.42,131.73,131.73,0.0,0.07,3
14.39586400,14395864,0.0,-0.12,0.0,0.41000000000000003,132.09,132.09,0.0,0.06,3
14.49599000,14495990,0.0,-0.12,0.0,0.4,132.42000000000002,132.42000000000002,0.0,0.06,3
14.59618000,14596180,0.0,-0.11,0.0,0.39,132.74,132.74,0.0,0.06,3
14.69608300,14696083,0.0,-0.12,0.0,0.38,133.05,133.05,0.0,0.05,3
14.79607200,14796072,0.0,-0.11,0.0,0.38,133.35,133.35,0.0,0.05,3
14.89614100,14896141,0.0,-0.11,0.0,0.37,133.63,133.63,0.0,0.04,3
14.99589200,14995892,0.0,-0.11,0.0,0.36,133.91,133.91,0.0,0.03,3
15.09580200,15095802,0.0,-0.11,0.0,0.36,134.14000000000001,134.14000000000001,0.0,0.03,3
15.19585000,15195850,0.0,-0.1,0.0,0.35000000000000003,134.37,134.37,0.0,0.03,3
15.29588000,15295880,0.0,-0.11,0.0,0.34,134.58,134.58,0.0,0.03,3
15.39598600,15395986,0.0,-0.1,0.0,0.34,134.79,134.79,0.0,0.02,3
15.49613400,15496134,0.0,-0.1,0.0,0.34,134.99,134.99,0.0,0.02,3
15.59611000,15596110,0.0,-0.1,0.0,0.34,135.19,135.19,0.0,0.02,3
15.69591300,15695913,0.0,-0.1,0.0,0.34,135.38,135.38,0.0,0.02,3
15.79590700,15795907,0.0,-0.1,0.0,0.34,135.57,135.57,0.0,0.02,3
15.89589300,15895893,0.0,-0.1,0.0,0.34,135.76,135.76,0.0,0.02,3
15.99586800,15995868,0.0,-0.1,0.0,0.34,135.94,135.94,0.0,0.01,3
16.09583000,16095830,0.0,-0.1,0.0,0.34,136.12,136.12,0.0,0.01,3
16.19585100,16195851,0.0,-0.1,0.0,0.35000000000000003,136.28,136.28,0.0,0.01,3
16.29597300,16295973,0.0,-0.1,0.0,0.34,136.42000000000002,136.42000000000002,0.0,0.01,3
16.39596900,16395969,0.0,-0.11,0.0,0.35000000000000003,136.57,136.57,0.0,0.01,3
16.49590800,16495908,0.0,-0.11,0.0,0.35000000000000003,136.70000000000002,136.70000000000002,0.0,0.01,3
16.59592600,16595926,0.0,-0.11,0.0,0.35000000000000003,136.81,136.81,0.0,0.01,3
16.69610600,16696106,0.0,-0.11,0.0,0.36,136.95000000000002,136.95000000000002,0.0,0.01,3
16.79591500,16795915,0.0,-0.11,0.0,0.36,137.08,137.08,0.0,0.01,3
16.89585800,16895858,0.0,-0.11,0.0,0.36,137.22,137.22,0.0,0.01,3
16.99592200,16995922,0.0,-0.11,0.0,0.36,137.36,137.36,0.0,0.01,3
17.09586200,17095862,0.0,-0.11,0.0,0.37,137.5,137.5,0.0,0.01,3
17.19600300,17196003,0.0,-0.12,0.0,0.37,137.62,137.62,0.0,0.01,3
17.29596300,17295963,0.0,-0.11,0.0,0.37,137.74,137.74,0.0,0.01,3
17.39593800,17395938,0.0,-0.11,0.0,0.37,137.85,137.85,0.0,0.01,3
17.49592500,17495925,0.0,-0.12,0.0,0.37,137.96,137.96,0.0,0.0,3
17.59613800,17596138,0.0,-0.11,0.0,0.37,138.06,138.06,0.0,0.0,3
17.69578900,17695789,0.0,-0.12,0.0,0.37,138.15,138.15,0.0,0.0,3
17.79579900,17795799,0.0,-0.12,0.0,0.37,138.23,138.23,0.0,0.0,3
17.89591800,17895918,0.0,-0.12,0.0,0.38,138.32,138.32,0.0,0.0,3
17.99586300,17995863,0.0,-0.12,0.0,0.38,138.4,138.4,0.0,0.01,3
18.09598900,18095989,0.0,-0.12,0.0,0.38,138.46,138.46,0.0,0.0,3
18.19596400,18195964,0.0,-0.12,0.0,0.38,138.51,138.51,0.0,0.0,3
18.29591900,18295919,0.0,-0.11,0.0,0.39,138.55,138.55,0.0,0.0,3
18.39594000,18395940,0.0,-0.11,0.0,0.4,138.58,138.58,0.0,0.0,3
18.49610100,18496101,0.0,-0.11,0.0,0.4,138.61,138.61,0.0,0.0,3
18.59603300,18596033,0.0,-0.12,0.0,0.41000000000000003,138.64000000000001,138.64000000000001,0.0,0.0,3
18.69606300,18696063,0.0,-0.12,0.0,0.41000000000000003,138.67000000000002,138.67000000000002,0.0,0.0,3
18.79601600,18796016,0.0,-0.12,0.0,0.41000000000000003,138.70000000000002,138.70000000000002,0.0,0.0,3
18.89605900,18896059,0.0,-0.11,0.0,0.41000000000000003,138.74,138.74,0.0,0.0,3
18.99643600,18996436,0.0,-0.11,0.0,0.41000000000000003,138.75,138.75,0.0,0.0,3
19.09599300,19095993,0.0,-0.11,0.0,0.41000000000000003,138.77,138.77,0.0,0.0,3
19.19593100,19195931,0.0,-0.11,0.0,0.42,138.78,138.78,0.0,0.0,3
19.29592300,19295923,0.0,-0.11,0.0,0.42,138.8,138.8,0.0,0.0,3
19.39587900,19395879,0.0,-0.12,0.0,0.42,138.81,138.81,0.0,0.0,3
19.49586200,19495862,0.0,-0.11,0.0,0.42,138.83,138.83,0.0,0.0,3
19.59580500,19595805,0.0,-0.11,0.0,0.42,138.85,138.85,0.0,0.0,3
19.69582100,19695821,0.0,-0.11,0.0,0.42,138.87,138.87,0.0,0.0,3
19.79606900,19796069,0.0,-0.1,0.0,0.42,138.89000000000001,138.89000000000001,0.0,0.0,3
19.89624400,19896244,0.0,-0.1,0.0,0.42,138.9,138.9,0.0,0.0,3
19.99596600,19995966,0.0,-0.1,0.0,0.42,138.93,138.93,0.0,0.0,3
20.09592500,20095925,0.0,-0.1,0.0,0.42,138.96,138.96,0.0,0.0,3
20.19599800,20195998,0.0,-0.09,0.0,0.41000000000000003,138.99,138.99,0.0,0.0,3
20.29590100,20295901,0.0,-0.09,0.0,0.42,139.02,139.02,0.0,0.0,3
20.39579200,20395792,0.0,-0.09,0.0,0.41000000000000003,139.03,139.03,0.0,0.0,3
20.49579000,20495790,0.0,-0.08,0.0,0.41000000000000003,139.04,139.04,0.0,0.0,3
20.59586300,20595863,0.0,-0.08,0.0,0.41000000000000003,139.06,139.06,0.0,0.0,3
20.69605800,20696058,0.0,-0.08,0.0,0.41000000000000003,139.07,139.07,0.0,0.0,3
20.79619500,20796195,0.0,-0.08,0.0,0.42,139.08,139.08,0.0,0.0,3
20.89597600,20895976,0.0,-0.07,0.0,0.42,139.09,139.09,0.0,0.0,3
20.99593600,20995936,0.0,-0.07,0.0,0.42,139.09,139.09,0.0,0.0,3
21.09591500,21095915,0.0,-0.07,0.0,0.42,139.09,139.09,0.0,0.0,3
21.19588900,21195889,0.0,-0.07,0.0,0.43,139.08,139.08,0.0,0.0,3
21.29578400,21295784,0.0,-0.07,0.0,0.43,139.08,139.08,0.0,0.0,3
21.39582900,21395829,0.0,-0.06,0.0,0.43,139.07,139.07,0.0,0.0,3
21.49583100,21495831,0.0,-0.06,0.0,0.43,139.07,139.07,0.0,0.0,3
21.59586500,21595865,0.0,-0.06,0.0,0.43,139.08,139.08,0.0,0.0,3
21.69597900,21695979,0.0,-0.06,0.0,0.43,139.09,139.09,0.0,0.0,3
21.79597200,21795972,0.0,-0.06,0.0,0.43,139.09,139.09,0.0,0.0,3
21.89611300,21896113,0.0,-0.06,0.0,0.43,139.09,139.09,0.0,0.0,3
21.99594600,21995946,0.0,-0.05,0.0,0.43,139.08,139.08,0.0,0.0,3
22.09588300,22095883,0.0,-0.05,0.0,0.43,139.08,139.08,0.0,0.0,3
22.19593000,22195930,0.0,-0.05,0.0,0.44,139.08,139.08,0.0,0.0,3
22.29584200,22295842,0.0,-0.05,0.0,0.44,139.09,139.09,0.0,0.0,3
22.39584700,22395847,0.0,-0.05,0.0,0.44,139.09,139.09,0.0,0.0,3
22.49586900,22495869,0.0,-0.05,0.0,0.44,139.09,139.09,0.0,0.0,3
22.59600400,22596004,0.0,-0.04,0.0,0.44,139.08,139.08,0.0,0.0,3
22.69595200,22695952,0.0,-0.04,0.0,0.44,139.07,139.07,0.0,0.0,3
22.79610300,22796103,0.0,-0.04,0.0,0.44,139.06,139.06,0.0,0.0,3
22.89595800,22895958,0.0,-0.04,0.0,0.43,139.05,139.05,0.0,0.0,3
22.99588000,22995880,0.0,-0.04,0.0,0.43,139.04,139.04,0.0,0.0,3
23.09577900,23095779,0.0,-0.03,0.0,0.43,139.01,139.01,0.0,0.0,3
23.19583200,23195832,0.0,-0.03,0.0,0.43,139.0,139.0,0.0,0.0,3
23.29585400,23295854,0.0,-0.03,0.0,0.44,138.98,138.98,0.0,0.0,3
23.39587700,23395877,0.0,-0.04,0.0,0.44,138.97,138.97,0.0,0.0,3
23.49619800,23496198,0.0,-0.04,0.0,0.43,138.95000000000002,138.95000000000002,0.0,0.0,3
23.59596200,23595962,0.0,-0.04,0.0,0.43,138.93,138.93,0.0,0.0,3
23.69607600,23696076,0.0,-0.04,0.0,0.43,138.9,138.9,0.0,0.0,3
23.79610500,23796105,0.0,-0.04,0.0,0.43,138.89000000000001,138.89000000000001,0.0,0.0,3
23.89610800,23896108,0.0,-0.04,0.0,0.43,138.87,138.87,0.0,0.0,3
23.99606800,23996068,0.0,-0.04,0.0,0.44,138.86,138.86,0.0,0.0,3
24.09604000,24096040,0.0,-0.04,0.0,0.44,138.84,138.84,0.0,0.0,3
24.19601900,24196019,0.0,-0.03,0.0,0.44,138.81,138.81,0.0,0.0,3
24.29607000,24296070,0.0,-0.03,0.0,0.44,138.79,138.79,0.0,0.0,3
24.39618900,24396189,0.0,-0.03,0.0,0.44,138.77,138.77,0.0,0.0,3
24.49610900,24496109,0.0,-0.03,0.0,0.44,138.74,138.74,0.0,0.0,3
24.59613200,24596132,0.0,-0.03,0.0,0.44,138.73,138.73,0.0,0.0,3
24.69612200,24696122,0.0,-0.03,0.0,0.44,138.71,138.71,0.0,0.0,3
24.79619400,24796194,0.0,-0.03,0.0,0.44,138.69,138.69,0.0,0.0,3
24.89622900,24896229,0.0,-0.02,0.0,0.44,138.67000000000002,138.67000000000002,0.0,0.0,3
24.99607400,24996074,0.0,-0.02,0.0,0.44,138.64000000000001,138.64000000000001,0.0,0.0,3
25.09613300,25096133,0.0,-0.02,0.0,0.44,138.61,138.61,0.0,0.0,3
25.19611100,25196111,0.0,-0.02,0.0,0.44,138.58,138.58,0.0,0.0,3
25.29670800,25296708,0.0,-0.01,0.0,0.45,138.56,138.56,0.0,0.0,3
25.39598400,25395984,0.0,-0.01,0.0,0.44,138.54,138.54,0.0,0.0,3
25.49591900,25495919,0.0,-0.01,0.0,0.44,138.53,138.53,0.0,0.0,3
25.59591400,25595914,0.0,-0.01,0.0,0.45,138.51,138.51,0.0,0.01,3
25.69589700,25695897,0.0,-0.01,0.0,0.45,138.5,138.5,0.0,0.0,3
25.79579500,25795795,0.0,-0.01,0.0,0.45,138.48,138.48,0.0,0.01,3
25.89611000,25896110,0.0,-0.01,0.0,0.45,138.47,138.47,0.0,0.01,3
25.99614700,25996147,0.0,-0.02,0.0,0.46,138.46,138.46,0.0,0.0,3
26.09588700,26095887,0.0,-0.02,0.0,0.46,138.46,138.46,0.0,0.0,3
26.19603400,26196034,0.0,-0.02,0.0,0.46,138.45000000000002,138.45000000000002,0.0,0.0,3
26.29597400,26295974,0.0,-0.02,0.0,0.46,138.44,138.44,0.0,0.01,3
26.39594400,26395944,0.0,-0.02,0.0,0.45,138.43,138.43,0.0,0.0,3
26.49600700,26496007,0.0,-0.02,0.0,0.45,138.43,138.43,0.0,0.01,3
26.59612200,26596122,0.0,-0.02,0.0,0.45,138.41,138.41,0.0,0.01,3
26.69589300,26695893,0.0,-0.02,0.0,0.45,138.4,138.4,0.0,0.01,3
26.79582300,26795823,0.0,-0.02,0.0,0.45,138.37,138.37,0.0,0.01,3
26.89586700,26895867,0.0,-0.02,0.0,0.45,138.34,138.34,0.0,0.01,3
26.99588700,26995887,0.0,-0.02,0.0,0.45,138.32,138.32,0.0,0.0,3
27.09599300,27095993,0.0,-0.01,0.0,0.45,138.29,138.29,0.0,0.0,3
27.19597000,27195970,0.0,-0.01,0.0,0.45,138.27,138.27,0.0,0.0,3
27.29612300,27296123,0.0,-0.01,0.0,0.45,138.25,138.25,0.0,0.0,3
27.39613600,27396136,0.0,-0.02,0.0,0.45,138.23,138.23,0.0,0.0,3
27.49591300,27495913,0.0,-0.02,0.0,0.45,138.21,138.21,0.0,0.0,3
27.59592100,27595921,0.0,-0.02,0.0,0.45,138.20000000000002,138.20000000000002,0.0,0.0,3
27.69581400,27695814,0.0,-0.02,0.0,0.44,138.18,138.18,0.0,0.0,3
27.79585600,27795856,0.0,-0.02,0.0,0.44,138.16,138.16,0.0,0.0,3
27.89588600,27895886,0.0,-0.02,0.0,0.45,138.15,138.15,0.0,0.0,3
27.99600800,27996008,0.0,-0.02,0.0,0.45,138.13,138.13,0.0,0.0,3
28.09596400,28095964,0.0,-0.03,0.0,0.44,138.11,138.11,0.0,0.0,3
28.19595000,28195950,0.0,-0.03,0.0,0.44,138.1,138.1,0.0,0.0,3
28.29591500,28295915,0.0,-0.03,0.0,0.44,138.09,138.09,0.0,0.0,3
28.39614500,28396145,0.0,-0.03,0.0,0.44,138.08,138.08,0.0,0.0,3
28.49578300,28495783,0.0,-0.03,0.0,0.44,138.08,138.08,0.0,0.0,3
28.59590400,28595904,0.0,-0.04,0.0,0.43,138.08,138.08,0.0,0.0,3
28.69584100,28695841,0.0,-0.04,0.0,0.43,138.08,138.08,0.0,0.0,3
28.79588500,28795885,0.0,-0.04,0.0,0.43,138.08,138.08,0.0,0.0,3
28.89603500,28896035,0.0,-0.04,0.0,0.43,138.07,138.07,0.0,0.0,3
28.99596500,28995965,0.0,-0.04,0.0,0.43,138.06,138.06,0.0,0.0,3
29.09613100,29096131,0.0,-0.03,0.0,0.43,138.06,138.06,0.0,0.0,3
29.19598600,29195986,0.0,-0.04,0.0,0.43,138.05,138.05,0.0,0.0,3
29.29587800,29295878,0.0,-0.04,0.0,0.42,138.05,138.05,0.0,0.0,3
29.39590100,29395901,0.0,-0.04,0.0,0.43,138.04,138.04,0.0,0.0,3
29.49580600,29495806,0.0,-0.05,0.0,0.43,138.02,138.02,0.0,0.01,3
29.59584000,29595840,0.0,-0.05,0.0,0.43,138.01,138.01,0.0,0.01,3
29.69586500,29695865,0.0,-0.05,0.0,0.43,137.98,137.98,0.0,0.01,3
29.79621700,29796217,0.0,-0.05,0.0,0.43,137.95000000000002,137.95000000000002,0.0,0.01,3
29.89614100,29896141,0.0,-0.06,0.0,0.43,137.93,137.93,0.0,0.01,3
29.99608400,29996084,0.0,-0.06,0.0,0.43,137.9,137.9,0.0,0.0,3
30.09606200,30096062,0.0,-0.05,0.0,0.44,137.89000000000001,137.89000000000001,0.0,0.0,3
30.19608500,30196085,0.0,-0.05,0.0,0.44,137.87,137.87,0.0,0.0,3
30.29602200,30296022,0.0,-0.06,0.0,0.44,137.86,137.86,0.0,0.0,3
30.39606300,30396063,0.0,-0.06,0.0,0.44,137.84,137.84,0.0,0.0,3
30.49637500,30496375,0.0,-0.05,0.0,0.44,137.83,137.83,0.0,0.0,3
30.59604000,30596040,0.0,-0.06,0.0,0.44,137.82,137.82,0.0,0.0,3
30.69618500,30696185,0.0,-0.05,0.0,0.44,137.81,137.81,0.0,0.0,3
30.79611500,30796115,0.0,-0.05,0.0,0.44,137.79,137.79,0.0,0.0,3
30.89608100,30896081,0.0,-0.05,0.0,0.44,137.78,137.78,0.0,0.0,3
30.99608400,30996084,0.0,-0.05,0.0,0.45,137.77,137.77,0.0,0.0,3
31.09606000,31096060,0.0,-0.05,0.0,0.44,137.75,137.75,0.0,0.0,3
31.19602900,31196029,0.0,-0.05,0.0,0.45,137.74,137.74,0.0,0.0,3
31.29636000,31296360,0.0,-0.06,0.0,0.45,137.73,137.73,0.0,0.0,3
31.39604000,31396040,0.0,-0.06,0.0,0.44,137.72,137.72,0.0,0.0,3
31.49588800,31495888,0.0,-0.06,0.0,0.45,137.71,137.71,0.0,0.0,3
31.59598500,31595985,0.0,-0.05,0.0,0.45,137.70000000000002,137.70000000000002,0.0,0.0,3
31.69596900,31695969,0.0,-0.05,0.0,0.45,137.68,137.68,0.0,0.0,3
31.79592700,31795927,0.0,-0.05,0.0,0.45,137.68,137.68,0.0,0.0,3
31.89594400,31895944,0.0,-0.05,0.0,0.44,137.67000000000002,137.67000000000002,0.0,0.0,3
31.99587100,31995871,0.0,-0.05,0.0,0.45,137.67000000000002,137.67000000000002,0.0,0.0,3
32.09590100,32095901,0.0,-0.05,0.0,0.45,137.66,137.66,0.0,0.0,3
32.19608200,32196082,0.0,-0.05,0.0,0.45,137.65,137.65,0.0,0.0,3
32.29610800,32296108,0.0,-0.04,0.0,0.45,137.63,137.63,0.0,0.0,3
32.39585800,32395858,0.0,-0.05,0.0,0.45,137.62,137.62,0.0,0.0,3
32.49596700,32495967,0.0,-0.04,0.0,0.45,137.61,137.61,0.0,0.0,3
32.59596600,32595966,0.0,-0.04,0.0,0.45,137.6,137.6,0.0,0.0,3
32.69591200,32695912,0.0,-0.05,0.0,0.45,137.59,137.59,0.0,0.0,3
32.79598000,32795980,0.0,-0.04,0.0,0.45,137.59,137.59,0.0,0.0,3
32.89590900,32895909,0.0,-0.04,0.0,0.45,137.58,137.58,0.0,0.0,3
32.99579900,32995799,0.0,-0.05,0.0,0.45,137.58,137.58,0.0,0.0,3
33.09608300,33096083,0.0,-0.05,0.0,0.45,137.57,137.57,0.0,0.0,3
33.19585700,33195857,0.0,-0.05,0.0,0.45,137.56,137.56,0.0,0.0,3
33.29585200,33295852,0.0,-0.05,0.0,0.45,137.55,137.55,0.0,0.0,3
33.39600300,33396003,0.0,-0.05,0.0,0.45,137.53,137.53,0.0,0.0,3
33.49596900,33495969,0.0,-0.05,0.0,0.45,137.53,137.53,0.0,0.0,3
33.59591500,33595915,0.0,-0.05,0.0,0.46,137.52,137.52,0.0,0.0,3
33.69591500,33695915,0.0,-0.04,0.0,0.45,137.52,137.52,0.0,0.0,3
33.79588500,33795885,0.0,-0.04,0.0,0.46,137.51,137.51,0.0,0.0,3
33.89589300,33895893,0.0,-0.04,0.0,0.46,137.52,137.52,0.0,0.0,3
33.99609900,33996099,0.0,-0.04,0.0,0.46,137.52,137.52,0.0,0.0,3
34.09580000,34095800,0.0,-0.03,0.0,0.46,137.52,137.52,0.0,0.0,3
34.19585000,34195850,0.0,-0.03,0.0,0.46,137.52,137.52,0.0,0.0,3
34.29597400,34295974,0.0,-0.03,0.0,0.46,137.52,137.52,0.0,0.0,3
34.39597100,34395971,0.0,-0.03,0.0,0.46,137.53,137.53,0.0,0.0,3
34.49593000,34495930,0.0,-0.03,0.0,0.46,137.53,137.53,0.0,0.0,3
34.59593900,34595939,0.0,-0.03,0.0,0.46,137.53,137.53,0.0,0.0,3
34.69587900,34695879,0.0,-0.03,0.0,0.46,137.52,137.52,0.0,0.0,3
34.79591000,34795910,0.0,-0.03,0.1,0.46,137.53,137.53,0.0,0.0,3
34.89618500,34896185,0.0,-0.04,2.79,0.46,137.53,137.53,0.0,0.0,3
34.99583500,34995835,0.0,-0.03,6.3100000000000005,0.47000000000000003,137.53,137.53,0.0,0.0,3
35.09584500,35095845,0.0,-0.03,6.99,0.47000000000000003,137.53,137.53,0.0,0.0,3
35.19597000,35195970,0.0,-0.03,4.3500000000000005,0.47000000000000003,137.53,137.53,0.0,0.0,3
35.29595300,35295953,0.0,-0.04,3.56,0.47000000000000003,137.54,137.54,0.0,0.0,3
35.39594900,35395949,0.0,-0.04,6.05,0.46,137.54,137.54,0.0,0.0,3
35.49592900,35495929,0.0,-0.04,7.38,0.46,137.54,137.54,0.0,0.0,3
35.59591000,35595910,0.0,-0.03,5.16,0.47000000000000003,137.53,137.53,0.0,0.0,3
35.69577500,35695775,0.0,-0.03,2.63,0.47000000000000003,137.53,137.53,0.0,0.0,3
35.79609400,35796094,0.0,-0.04,2.2,0.47000000000000003,137.52,137.52,0.0,0.0,3
35.89616300,35896163,0.0,-0.04,5.13,0.47000000000000003,137.51,137.51,0.0,0.0,3
35.99609100,35996091,0.0,-0.04,7.51,0.47000000000000003,137.5,137.5,0.0,0.0,3
36.09621300,36096213,0.0,-0.04,8.14,0.47000000000000003,137.49,137.49,0.0,0.0,3
36.19597800,36195978,0.0,-0.03,6.25,0.47000000000000003,137.48,137.48,0.0,0.0,3
36.29612200,36296122,0.0,-0.03,7.09,0.47000000000000003,137.48,137.48,0.0,0.0,3
36.39612600,36396126,0.0,-0.03,8.43,0.47000000000000003,137.47,137.47,0.0,0.0,3
36.49612900,36496129,0.0,-0.03,9.13,0.47000000000000003,137.46,137.46,0.0,0.0,3
36.59613200,36596132,0.0,-0.03,9.55,0.47000000000000003,137.46,137.46,0.0,0.0,3
36.69638100,36696381,0.0,-0.03,9.77,0.46,137.45000000000002,137.45000000000002,0.0,0.0,3
36.79604500,36796045,0.0,-0.03,8.47,0.46,137.44,137.44,0.0,0.0,3
36.89587500,36895875,0.0,-0.03,4.63,0.46,137.44,137.44,0.0,0.0,3
36.99600400,36996004,0.0,-0.03,2.36,0.46,137.43,137.43,0.0,0.0,3
37.09595100,37095951,0.0,-0.03,1.2,0.47000000000000003,137.44,137.44,0.0,0.0,3
37.19595200,37195952,0.0,-0.03,1.75,0.46,137.44,137.44,0.0,0.0,3
37.29590600,37295906,0.0,-0.03,5.26,0.47000000000000003,137.44,137.44,0.0,0.0,3
37.39590000,37395900,0.0,-0.03,7.19,0.47000000000000003,137.44,137.44,0.0,0.0,3
37.49577800,37495778,0.0,-0.03,5.84,0.47000000000000003,137.45000000000002,137.45000000000002,0.0,0.0,3
37.59589500,37595895,0.0,-0.03,6.01,0.46,137.44,137.44,0.0,0.0,3
37.69584900,37695849,0.0,-0.03,7.88,0.46,137.44,137.44,0.0,0.0,3
37.79587100,37795871,0.0,-0.03,7.23,0.46,137.44,137.44,0.0,0.0,3
37.89621400,37896214,0.0,-0.02,8.13,0.46,137.44,137.44,0.0,0.0,3
37.99597200,37995972,0.0,-0.02,9.040000000000001,0.46,137.44,137.44,0.0,0.0,3
38.09591900,38095919,0.0,-0.03,7.65,0.46,137.43,137.43,0.0,0.0,3
38.19594300,38195943,0.0,-0.02,5.82,0.46,137.42000000000002,137.42000000000002,0.0,0.0,3
38.29587500,38295875,0.0,-0.02,7.3,0.46,137.41,137.41,0.0,0.0,3
38.39578300,38395783,0.0,-0.02,7.49,0.45,137.4,137.4,0.0,0.0,3
38.49580200,38495802,0.0,-0.02,7.75,0.46,137.39000000000001,137.39000000000001,0.0,0.0,3
38.59582900,38595829,0.0,-0.02,8.85,0.46,137.39000000000001,137.39000000000001,0.0,0.0,3
38.69585800,38695858,0.0,-0.03,9.4,0.45,137.39000000000001,137.39000000000001,0.0,0.0,3
38.79619400,38796194,0.0,-0.02,8.27,0.45,137.38,137.38,0.0,0.0,3
38.89612700,38896127,0.0,-0.03,8.72,0.45,137.38,137.38,0.0,0.01,3
38.99608100,38996081,0.0,-0.03,9.35,0.45,137.36,137.36,0.0,0.0,3
39.09614700,39096147,0.0,-0.02,9.0,0.45,137.34,137.34,0.0,0.0,3
39.19630700,39196307,0.0,-0.02,6.7,0.45,137.33,137.33,0.0,0.0,3
39.29584500,39295845,0.0,-0.02,7.37,0.45,137.32,137.32,0.0,0.0,3
39.39579700,39395797,0.0,-0.02,8.63,0.45,137.31,137.31,0.0,0.0,3
39.49581100,39495811,0.0,-0.02,7.37,0.45,137.31,137.31,0.0,0.0,3
39.59586800,39595868,0.0,-0.02,6.01,0.45,137.3,137.3,0.0,0.0,3
39.69596200,39695962,0.0,-0.02,7.640000000000001,0.45,137.3,137.3,0.0,0.01,3
39.79595700,39795957,0.0,-0.02,8.67,0.45,137.3,137.3,0.0,0.0,3
39.89613500,39896135,0.0,-0.02,6.87,0.45,137.3,137.3,0.0,0.0,3
39.99593600,39995936,0.0,-0.02,6.16,0.45,137.29,137.29,0.0,0.0,3
40.09588700,40095887,0.0,-0.02,7.91,0.45,137.29,137.29,0.0,0.0,3
40.19578800,40195788,0.0,-0.02,8.84,0.45,137.28,137.28,0.0,0.0,3
40.29580100,40295801,0.0,-0.03,7.03,0.45,137.28,137.28,0.0,0.0,3
40.39586100,40395861,0.0,-0.03,6.0,0.45,137.28,137.28,0.0,0.0,3
40.49608400,40496084,0.0,-0.03,7.73,0.45,137.28,137.28,0.0,0.0,3
40.59620900,40596209,0.0,-0.03,8.24,0.45,137.28,137.28,0.0,0.0,3
40.69594700,40695947,0.0,-0.03,7.26,0.45,137.28,137.28,0.0,0.0,3
40.79612200,40796122,0.0,-0.02,8.5,0.45,137.27,137.27,0.0,0.0,3
40.89613500,40896135,0.0,-0.02,9.23,0.45,137.27,137.27,0.0,0.0,3
40.99610900,40996109,0.0,-0.03,8.48,0.45,137.26,137.26,0.0,0.0,3
41.09604800,41096048,0.0,-0.02,5.87,0.44,137.25,137.25,0.0,0.0,3
41.19616700,41196167,0.0,-0.02,6.54,0.44,137.24,137.24,0.0,0.0,3
41.29602900,41296029,0.0,-0.02,8.23,0.44,137.23,137.23,0.0,0.0,3
41.39608600,41396086,0.0,-0.02,7.63,0.44,137.23,137.23,0.0,0.0,3
41.49619300,41496193,0.0,-0.02,6.08,0.44,137.22,137.22,0.0,0.0,3
41.59614300,41596143,0.0,-0.02,7.6000000000000005,0.44,137.21,137.21,0.0,0.0,3
41.69630000,41696300,0.0,-0.02,8.77,0.44,137.20000000000002,137.20000000000002,0.0,0.0,3
41.79594100,41795941,0.0,-0.02,7.96,0.44,137.20000000000002,137.20000000000002,0.0,0.0,3
41.89590600,41895906,0.0,-0.02,6.0200000000000005,0.44,137.19,137.19,0.0,0.0,3
41.99592000,41995920,0.0,-0.02,7.36,0.44,137.19,137.19,0.0,0.0,3
42.09579300,42095793,0.0,-0.02,7.79,0.44,137.19,137.19,0.0,0.0,3
42.19584100,42195841,0.0,-0.03,5.32,0.44,137.19,137.19,0.0,0.0,3
42.29584700,42295847,0.0,-0.03,5.3500000000000005,0.44,137.18,137.18,0.0,0.0,3
42.39597200,42395972,0.0,-0.03,7.54,0.44,137.18,137.18,0.0,0.0,3
42.49593800,42495938,0.0,-0.03,8.36,0.44,137.17000000000002,137.17000000000002,0.0,0.0,3
42.59609400,42596094,0.0,-0.03,6.390000000000001,0.44,137.17000000000002,137.17000000000002,0.0,0.01,3
42.69590300,42695903,0.0,-0.03,6.72,0.44,137.16,137.16,0.0,0.0,3
42.79589600,42795896,0.0,-0.03,8.32,0.44,137.15,137.15,0.0,0.0,3
42.89584600,42895846,0.0,-0.03,7.86,0.44,137.14000000000001,137.14000000000001,0.0,0.0,3
42.99584800,42995848,0.0,-0.03,4.92,0.44,137.13,137.13,0.0,0.0,3
43.09584200,43095842,0.0,-0.03,4.93,0.44,137.12,137.12,0.0,0.01,3
43.19588200,43195882,0.0,-0.04,7.2700000000000005,0.44,137.11,137.11,0.0,0.01,3
43.29599300,43295993,0.0,-0.04,7.0600000000000005,0.44,137.1,137.1,0.0,0.01,3
43.39597700,43395977,0.0,-0.04,4.69,0.44,137.08,137.08,0.0,0.01,3
43.49590500,43495905,0.0,-0.04,5.47,0.44,137.07,137.07,0.0,0.01,3
43.59609700,43596097,0.0,-0.04,7.4,0.44,137.06,137.06,0.0,0.0,3
43.69607000,43696070,0.0,-0.04,5.95,0.44,137.05,137.05,0.0,0.0,3
43.79605900,43796059,0.0,-0.04,3.89,0.44,137.05,137.05,0.0,0.0,3
43.89605900,43896059,0.0,-0.03,5.45,0.44,137.05,137.05,0.0,0.0,3
43.99600800,43996008,0.0,-0.03,7.51,0.44,137.05,137.05,0.0,0.0,3
44.09602900,44096029,0.0,-0.03,6.79,0.44,137.05,137.05,0.0,0.0,3
44.19617400,44196174,0.0,-0.03,3.96,0.44,137.05,137.05,0.0,0.0,3
44.29609200,44296092,0.0,-0.03,4.33,0.44,137.05,137.05,0.0,0.0,3
44.39609100,44396091,0.0,-0.04,6.94,0.44,137.05,137.05,0.0,0.0,3
44.49608900,44496089,0.0,-0.04,6.79,0.44,137.04,137.04,0.0,0.0,3
44.59614300,44596143,0.0,-0.04,6.92,0.44,137.03,137.03,0.0,0.0,3
44.69579000,44695790,0.0,-0.04,8.42,0.44,137.03,137.03,0.0,0.0,3
44.79582500,44795825,0.0,-0.04,8.58,0.44,137.02,137.02,0.0,0.0,3
44.89586400,44895864,0.0,-0.04,5.75,0.44,137.02,137.02,0.0,0.0,3
44.99586400,44995864,0.0,-0.04,4.32,0.43,137.02,137.02,0.0,0.0,3
45.09596800,45095968,0.0,-0.04,6.3100000000000005,0.43,137.02,137.02,0.0,0.0,3
45.19595000,45195950,0.0,-0.04,7.44,0.43,137.01,137.01,0.0,0.0,3
45.29606500,45296065,0.0,-0.04,6.3100000000000005,0.43,137.02,137.02,0.0,0.0,3
45.39623500,45396235,0.0,-0.04,7.640000000000001,0.43,137.02,137.02,0.0,0.0,3
45.49609900,45496099,0.0,-0.04,8.790000000000001,0.43,137.02,137.02,0.0,0.0,3
45.59578600,45595786,0.0,-0.04,8.57,0.42,137.02,137.02,0.0,0.0,3
45.69581100,45695811,0.0,-0.04,5.95,0.42,137.02,137.02,0.0,0.0,3
45.79584600,45795846,0.0,-0.04,6.140000000000001,0.42,137.01,137.01,0.0,0.0,3
45.89589400,45895894,0.0,-0.04,8.01,0.42,137.01,137.01,0.0,0.0,3
45.99600300,45996003,0.0,-0.04,8.72,0.42,137.01,137.01,0.0,0.0,3
46.09594800,46095948,0.0,-0.04,7.24,0.42,137.01,137.01,0.0,0.0,3
46.19612600,46196126,0.0,-0.04,8.16,0.42,137.01,137.01,0.0,0.0,3
46.29612200,46296122,0.0,-0.04,8.950000000000001,0.43,137.0,137.0,0.0,0.0,3
46.39611700,46396117,0.0,-0.04,6.91,0.43,136.99,136.99,0.0,0.0,3
46.49579300,46495793,0.0,-0.04,3.9,0.43,136.99,136.99,0.0,0.0,3
46.59580200,46595802,0.0,-0.04,4.44,0.42,136.98,136.98,0.0,0.0,3
46.69582100,46695821,0.0,-0.04,7.07,0.42,136.97,136.97,0.0,0.0,3
46.79587300,46795873,0.0,-0.05,7.4,0.42,136.97,136.97,0.0,0.0,3
46.89623700,46896237,0.0,-0.05,4.53,0.42,136.97,136.97,0.0,0.0,3
46.99594800,46995948,0.0,-0.05,2.31,0.42,136.97,136.97,0.0,0.0,3
47.09605900,47096059,0.0,-0.05,1.18,0.42,136.97,136.97,0.0,0.01,3
47.19608000,47196080,0.0,-0.05,1.08,0.43,136.96,136.96,0.0,0.01,3
47.29609200,47296092,0.0,-0.05,0.7000000000000001,0.43,136.96,136.96,0.0,0.01,3
47.39604900,47396049,0.0,-0.05,0.35000000000000003,0.43,136.96,136.96,0.0,0.01,3
47.49609300,47496093,0.0,-0.06,0.18,0.43,136.95000000000002,136.95000000000002,0.0,0.01,3
47.59603200,47596032,0.0,-0.06,0.09,0.43,136.94,136.94,0.0,0.01,3
47.69599300,47695993,0.0,-0.06,0.04,0.44,136.94,136.94,0.0,0.01,3
47.79618500,47796185,0.0,-0.06,0.02,0.43,136.93,136.93,0.0,0.01,3
47.89610600,47896106,0.0,-0.07,0.01,0.43,136.93,136.93,0.0,0.0,3
47.99608100,47996081,0.0,-0.07,0.0,0.43,136.93,136.93,0.0,0.0,3
48.09630100,48096301,0.0,-0.07,0.0,0.43,136.93,136.93,0.0,0.0,3
48.19611300,48196113,0.0,-0.07,0.0,0.43,136.93,136.93,0.0,0.0,3
48.29605200,48296052,0.0,-0.08,0.0,0.43,136.92000000000002,136.92000000000002,0.0,0.0,3
48.39607500,48396075,0.0,-0.08,0.0,0.43,136.92000000000002,136.92000000000002,0.0,0.0,3
48.49604000,48496040,0.0,-0.07,0.0,0.42,136.92000000000002,136.92000000000002,0.0,0.0,3
48.59606400,48596064,0.0,-0.08,0.0,0.42,136.92000000000002,136.92000000000002,0.0,0.0,3
48.69619100,48696191,0.0,-0.08,0.0,0.42,136.92000000000002,136.92000000000002,0.0,0.0,3
48.79619900,48796199,0.0,-0.08,0.0,0.42,136.92000000000002,136.92000000000002,0.0,0.0,3
48.89614600,48896146,0.0,-0.08,0.0,0.42,136.92000000000002,136.92000000000002,0.0,0.0,3
48.99612600,48996126,0.0,-0.08,0.0,0.42,136.92000000000002,136.92000000000002,0.0,0.0,3
49.09613700,49096137,0.0,-0.08,0.0,0.42,136.92000000000002,136.92000000000002,0.0,0.0,3
49.19606700,49196067,0.0,-0.08,0.0,0.42,136.92000000000002,136.92000000000002,0.0,0.0,3
49.29604800,49296048,-0.17,-0.08,0.2,0.42,136.92000000000002,136.92000000000002,0.0,0.0,3
49.39614600,49396146,-1.3800000000000001,-0.08,1.59,0.42,136.91,136.91,0.0,0.0,3
49.49606000,49496060,-3.34,-0.08,4.59,0.42,136.88,136.91,0.0,0.0,3
49.59665100,49596651,-5.8,-0.08,5.12,0.42,136.85,136.9,0.0,0.0,3
49.69612400,49696124,-7.68,-0.08,3.94,0.42,136.82,136.89000000000001,0.0,0.0,3
49.79610100,49796101,-8.81,-0.08,2.11,0.42,136.79,136.89000000000001,0.0,0.0,3
49.89593600,49895936,-9.35,-0.08,0.61,0.41000000000000003,136.77,136.89000000000001,0.0,0.0,3
49.99590900,49995909,-9.46,-0.08,-1.07,0.41000000000000003,136.74,136.89000000000001,0.0,0.0,3
50.09578900,50095789,-9.51,-0.08,-1.98,0.41000000000000003,136.73,136.89000000000001,0.0,0.0,3
50.19582500,50195825,-9.27,-0.08,-0.72,0.4,136.70000000000002,136.89000000000001,0.0,0.01,3
50.29583600,50295836,-8.1,-0.09,2.94,0.41000000000000003,136.69,136.9,0.0,0.01,3
50.39585900,50395859,-7.8,-0.08,4.76,0.41000000000000003,136.67000000000002,136.91,0.0,0.01,3
50.49620700,50496207,-8.74,-0.08,3.65,0.4,136.69,136.91,0.0,0.01,3
50.59613900,50596139,-9.35,-0.09,1.8,0.41000000000000003,136.72,136.93,0.0,0.01,3
50.69609500,50696095,-9.67,-0.09,0.92,0.41000000000000003,136.75,136.93,0.0,0.0,3
50.79591900,50795919,-9.66,-0.09,0.49,0.41000000000000003,136.78,136.94,0.0,0.0,3
50.89590800,50895908,-8.5,-0.09,1.03,0.41000000000000003,136.81,136.95000000000002,0.0,0.0,3
50.99589400,50995894,-7.75,-0.09,1.72,0.41000000000000003,136.84,136.95000000000002,0.0,0.0,3
51.09579000,51095790,-8.19,-0.09,2.35,0.4,136.87,136.96,0.0,0.0,3
51.19583000,51195830,-7.41,-0.09,4.8100000000000005,0.4,136.89000000000001,136.96,0.0,0.0,3
51.29585000,51295850,-5.79,-0.09,6.95,0.4,136.92000000000002,136.97,0.0,0.0,3
51.39620900,51396209,-3.08,-0.09,8.44,0.4,136.94,136.97,0.0,0.0,3
51.49613600,51496136,-1.57,-0.09,9.200000000000001,0.4,136.96,136.97,0.0,0.0,3
51.59613200,51596132,-0.8,-0.09,7.7,0.4,136.98,136.96,0.0,0.0,3
51.69598800,51695988,-0.41000000000000003,-0.09,4.6000000000000005,0.4,136.97,136.96,0.0,0.0,3
51.79587600,51795876,-0.21,-0.09,2.44,0.4,136.95000000000002,136.95000000000002,0.0,0.0,3
51.89590400,51895904,-0.1,-0.09,1.33,0.41000000000000003,136.96,136.96,0.0,0.0,3
51.99606200,51996062,-0.05,-0.09,2.2800000000000002,0.41000000000000003,136.96,136.96,0.0,0.0,3
52.09610900,52096109,0.66,-0.09,4.39,0.41000000000000003,136.98,136.97,0.0,0.0,3
52.19586200,52195862,3.65,-0.09,5.42,0.41000000000000003,137.01,136.97,0.0,0.0,3
52.29598800,52295988,5.23,-0.09,6.34,0.41000000000000003,137.03,136.97,0.0,0.0,3
52.39596900,52395969,4.75,-0.09,7.71,0.41000000000000003,137.06,136.98,0.0,0.0,3
52.49593200,52495932,2.98,-0.09,8.790000000000001,0.41000000000000003,137.09,136.98,0.0,0.0,3
52.59595600,52595956,2.04,-0.09,9.35,0.41000000000000003,137.09,136.99,0.0,0.01,3
52.69586500,52695865,2.22,-0.09,9.450000000000001,0.41000000000000003,137.07,136.99,0.0,0.01,3
52.79606500,52796065,3.12,-0.09,9.17,0.41000000000000003,137.06,137.0,0.0,0.01,3
52.89613200,52896132,1.9100000000000001,-0.09,6.74,0.41000000000000003,137.03,137.0,0.0,0.0,3
52.99582200,52995822,0.97,-0.09,3.5,0.41000000000000003,137.01,137.0,0.0,0.0,3
53.09586100,53095861,0.49,-0.09,1.79,0.41000000000000003,137.0,137.0,0.0,0.0,3
53.19597900,53195979,0.25,-0.09,0.91,0.41000000000000003,137.01,137.01,0.0,0.0,3
53.29595900,53295959,0.12,-0.09,0.46,0.4,137.01,137.01,0.0,0.0,3
53.39594200,53395942,0.06,-0.09,0.23,0.41000000000000003,137.01,137.01,0.0,0.0,3
53.49591200,53495912,0.03,-0.09,0.14,0.41000000000000003,137.01,137.01,0.0,0.0,3
53.59586900,53595869,0.01,-0.09,1.03,0.41000000000000003,137.01,137.01,0.0,0.0,3
53.69579100,53695791,0.0,-0.09,1.81,0.41000000000000003,137.02,137.02,0.0,0.0,3
53.79611900,53796119,0.0,-0.09,1.16,0.41000000000000003,137.02,137.02,0.0,0.0,3
53.89583500,53895835,0.0,-0.08,0.5700000000000001,0.41000000000000003,137.02,137.02,0.0,0.0,3
53.99586400,53995864,0.0,-0.08,0.25,0.41000000000000003,137.03,137.03,0.0,0.0,3
54.09597200,54095972,0.0,-0.08,0.12,0.41000000000000003,137.03,137.03,0.0,0.01,3
54.19594500,54195945,0.0,-0.08,1.73,0.41000000000000003,137.03,137.03,0.0,0.01,3
54.29593200,54295932,0.0,-0.08,5.58,0.41000000000000003,137.02,137.02,0.0,0.0,3
54.39609200,54396092,0.0,-0.08,7.74,0.41000000000000003,137.02,137.02,0.0,0.0,3
54.49609900,54496099,0.0,-0.08,8.72,0.41000000000000003,137.01,137.01,0.0,0.0,3
54.59579000,54595790,0.0,-0.08,7.74,0.41000000000000003,137.01,137.01,0.0,0.0,3
54.69606300,54696063,0.0,-0.08,4.43,0.41000000000000003,137.01,137.01,0.0,0.0,3
54.79611300,54796113,0.0,-0.09,2.27,0.41000000000000003,137.01,137.01,0.0,0.0,3
54.89608400,54896084,0.0,-0.09,1.16,0.42,137.01,137.01,0.0,0.0,3
54.99619200,54996192,0.0,-0.08,0.59,0.42,137.0,137.0,0.0,0.0,3
55.09612400,55096124,0.0,-0.08,0.3,0.42,137.0,137.0,0.0,0.0,3
55.19610800,55196108,0.0,-0.08,0.15,0.42,137.01,137.01,0.0,0.0,3
55.29609600,55296096,0.0,-0.08,0.07,0.42,137.01,137.01,0.0,0.0,3
55.39632300,55396323,0.0,-0.08,0.27,0.42,137.01,137.01,0.0,0.0,3
55.49577700,55495777,0.15,-0.08,3.37,0.42,137.01,137.01,0.0,0.0,3
55.59582900,55595829,0.76,-0.08,6.5600000000000005,0.42,137.01,137.01,0.0,0.0,3
55.69583600,55695836,1.05,-0.08,8.2,0.42,137.02,137.02,0.0,0.0,3
55.79586100,55795861,1.18,-0.08,9.040000000000001,0.42,137.02,137.02,0.0,0.0,3
55.89600600,55896006,1.21,-0.08,9.47,0.42,137.02,137.02,0.0,0.01,3
55.99597300,55995973,0.91,-0.08,9.71,0.42,137.02,137.02,0.0,0.0,3
56.09591600,56095916,0.46,-0.07,9.58,0.42,137.01,137.01,0.0,0.0,3
56.19592000,56195920,0.23,-0.07,6.49,0.42,137.01,137.01,0.0,0.0,3
56.29609900,56296099,0.12,-0.06,3.41,0.42,137.0,137.0,0.0,0.0,3
56.39587200,56395872,0.06,-0.06,2.07,0.42,137.0,137.0,0.0,0.0,3
56.49579100,56495791,0.03,-0.06,1.1,0.42,137.0,137.0,0.0,0.0,3
56.59584900,56595849,0.01,-0.06,0.56,0.42,137.0,137.0,0.0,0.0,3
56.69583900,56695839,0.0,-0.06,0.28,0.43,137.0,137.0,0.0,0.0,3
56.79598000,56795980,0.0,-0.06,0.14,0.43,137.0,137.0,0.0,0.0,3
56.89596800,56895968,0.0,-0.06,0.07,0.43,136.99,136.99,0.0,0.0,3
56.99592100,56995921,0.0,-0.06,0.03,0.43,136.99,136.99,0.0,0.0,3
57.09590300,57095903,0.0,-0.06,0.01,0.43,136.98,136.98,0.0,0.0,3
57.19614500,57196145,0.0,-0.06,0.0,0.43,136.98,136.98,0.0,0.0,3
57.29577700,57295777,0.0,-0.06,0.0,0.43,136.97,136.97,0.0,0.0,3
57.39582200,57395822,0.0,-0.05,0.0,0.43,136.97,136.97,0.0,0.01,3
57.49581600,57495816,0.0,-0.05,0.0,0.42,136.97,136.97,0.0,0.01,3
57.59585400,57595854,0.0,-0.05,0.0,0.42,136.97,136.97,0.0,0.01,3
57.69598200,57695982,0.0,-0.04,0.0,0.43,136.98,136.98,0.0,0.01,3
57.79608300,57796083,0.0,-0.05,0.0,0.43,136.99,136.99,0.0,0.01,3
57.89606600,57896066,0.0,-0.05,0.0,0.42,137.0,137.0,0.0,0.0,3
57.99619900,57996199,0.0,-0.05,0.0,0.43,137.0,137.0,0.0,0.01,3
58.09627300,58096273,0.0,-0.04,0.0,0.43,137.0,137.0,0.0,0.0,3
58.19606300,58196063,0.0,-0.04,0.0,0.43,137.0,137.0,0.0,0.0,3
58.29608000,58296080,0.0,-0.03,0.0,0.43,136.99,136.99,0.0,0.0,3
58.39609900,58396099,0.0,-0.03,0.0,0.43,136.99,136.99,0.0,0.0,3
58.49605700,58496057,0.0,-0.03,0.0,0.43,136.99,136.99,0.0,0.0,3
58.59617900,58596179,0.0,-0.03,0.0,0.43,136.99,136.99,0.0,0.0,3
58.69611400,58696114,0.0,-0.03,0.0,0.42,136.99,136.99,0.0,0.0,3
58.79607800,58796078,0.0,-0.03,0.0,0.42,136.99,136.99,0.0,0.0,3
58.89611700,58896117,0.0,-0.03,0.0,0.42,136.99,136.99,0.0,0.0,3
58.99636600,58996366,0.0,-0.03,0.0,0.41000000000000003,136.99,136.99,0.0,0.0,3
59.09606200,59096062,0.0,-0.03,0.0,0.41000000000000003,136.99,136.99,0.0,0.0,3
59.19607800,59196078,0.0,-0.03,0.0,0.41000000000000003,136.99,136.99,0.0,0.0,3
59.29608600,59296086,0.0,-0.03,0.0,0.41000000000000003,136.99,136.99,0.0,0.0,3
59.39585000,59395850,0.0,-0.03,0.0,0.41000000000000003,136.99,136.99,0.0,0.0,3
59.49596600,59495966,0.0,-0.02,0.0,0.42,136.99,136.99,0.0,0.0,3
59.59594800,59595948,0.0,-0.02,0.0,0.42,136.99,136.99,0.0,0.0,3
59.69588500,59695885,0.0,-0.02,0.0,0.42,136.99,136.99,0.0,0.0,3
59.79590500,59795905,0.0,-0.02,-0.43,0.42,136.99,136.99,0.0,0.0,3
59.89643300,59896433,0.0,-0.02,-3.38,0.42,136.98,136.98,0.0,0.0,3
59.99608900,59996089,0.0,-0.02,-6.62,0.42,136.98,136.98,0.0,0.0,3
60.09613200,60096132,-0.49,-0.02,-7.8500000000000005,0.41000000000000003,136.98,136.98,0.0,0.0,3
60.19603600,60196036,-3.66,-0.02,-6.58,0.42,136.96,136.98,0.0,0.0,3
60.29584600,60295846,-6.57,-0.02,-4.76,0.41000000000000003,136.94,136.99,0.0,0.0,3
60.39598200,60395982,-8.23,-0.02,-2.44,0.41000000000000003,136.92000000000002,136.99,0.0,0.0,3
60.49593600,60495936,-7.890000000000001,-0.02,-1.24,0.41000000000000003,136.9,136.99,0.0,0.0,3
60.59590200,60595902,-5.48,-0.02,-0.63,0.41000000000000003,136.91,137.0,0.0,0.0,3
60.69589300,60695893,-3.83,-0.02,-0.32,0.41000000000000003,136.94,137.0,0.0,0.0,3
60.79612300,60796123,-2.79,-0.02,0.26,0.41000000000000003,136.96,137.0,0.0,0.0,3
60.89619700,60896197,-1.93,-0.02,1.31,0.42,136.99,137.01,0.0,0.0,3
60.99607700,60996077,-0.98,-0.02,2.5,0.42,137.01,137.01,0.0,0.0,3
61.09611100,61096111,-0.5,-0.02,3.13,0.42,137.02,137.02,0.0,0.0,3
61.19587500,61195875,-0.25,-0.02,1.87,0.42,137.02,137.02,0.0,0.0,3
61.29597100,61295971,-0.19,-0.03,0.9500000000000001,0.41000000000000003,137.02,137.02,0.0,0.0,3
61.39594500,61395945,-1.26,-0.03,0.8300000000000001,0.42,137.03,137.03,0.0,0.0,3
61.49607600,61496076,-3.0300000000000002,-0.03,1.7,0.42,137.04,137.03,0.0,0.0,3
61.59591800,61595918,-4.46,-0.03,2.96,0.42,137.06,137.03,0.0,0.0,3
61.69588900,61695889,-4.61,-0.03,4.59,0.42,137.05,137.03,0.0,0.0,3
61.79584200,61795842,-3.08,-0.04,6.47,0.42,137.03,137.03,0.0,0.0,3
61.89581100,61895811,-1.6600000000000001,-0.04,6.63,0.42,137.03,137.03,0.0,0.0,3
61.99581400,61995814,-0.84,-0.04,4.7,0.42,137.03,137.03,0.0,0.0,3
62.09585400,62095854,-1.1300000000000001,-0.04,3.25,0.43,137.03,137.03,0.0,0.0,3
62.19621200,62196212,-3.5300000000000002,-0.05,3.12,0.42,137.03,137.03,0.0,0.0,3
62.29595000,62295950,-5.44,-0.05,3.88,0.42,137.0,137.03,0.0,0.0,3
62.39607500,62396075,-4.68,-0.04,4.49,0.43,136.98,137.02,0.0,0.0,3
62.49609300,62496093,-2.48,-0.04,4.24,0.42,136.95000000000002,137.02,0.0,0.0,3
62.59638100,62596381,-1.26,-0.05,2.4,0.42,136.97,137.01,0.0,0.0,3
62.69603100,62696031,-0.67,-0.05,1.22,0.42,136.99,137.01,0.0,0.0,3
62.79605100,62796051,-1.37,-0.05,0.62,0.42,137.0,137.0,0.0,0.0,3
62.89602200,62896022,-3.2,-0.05,0.23,0.42,137.0,137.0,0.0,0.0,3
62.99603700,62996037,-4.22,-0.05,-0.56,0.42,137.0,137.0,0.0,0.0,3
63.09617600,63096176,-5.05,-0.06,-0.29,0.42,137.0,137.0,0.0,0.0,3
63.19609500,63196095,-5.79,-0.06,0.87,0.41000000000000003,136.98,137.0,0.0,0.0,3
63.29609400,63296094,-5.23,-0.06,4.5600000000000005,0.42,136.96,136.99,0.0,0.0,3
63.39593300,63395933,-3.83,-0.06,6.95,0.42,136.93,136.99,0.0,0.0,3
63.49586400,63495864,-1.98,-0.06,6.67,0.42,136.91,136.99,0.0,0.0,3
63.59586000,63595860,-1.03,-0.06,3.71,0.43,136.89000000000001,136.99,0.0,0.0,3
63.69579600,63695796,-1.47,-0.06,1.8900000000000001,0.43,136.89000000000001,137.0,0.0,0.0,3
63.79586300,63795863,-4.76,-0.06,0.96,0.43,136.91,137.0,0.0,0.0,3
63.89588100,63895881,-7.24,-0.05,0.49,0.42,136.93,137.0,0.0,0.0,3
63.99598300,63995983,-6.92,-0.05,0.25,0.42,136.96,137.0,0.0,0.0,3
64.09597700,64095977,-4.01,-0.06,0.12,0.43,136.98,137.0,0.0,0.0,3
64.19610800,64196108,-2.04,-0.05,0.06,0.43,137.0,137.0,0.0,0.0,3
64.29622300,64296223,-1.04,-0.06,1.62,0.43,137.0,137.0,0.0,0.0,3
64.39612400,64396124,-0.53,-0.06,3.62,0.42,137.0,137.0,0.0,0.0,3
64.49577300,64495773,-0.27,-0.06,2.62,0.42,137.0,137.0,0.0,0.0,3
64.59581300,64595813,-0.13,-0.06,1.33,0.43,137.0,137.0,0.0,0.0,3
64.69582200,64695822,-0.07,-0.06,0.68,0.43,137.0,137.0,0.0,0.0,3
64.79586900,64795869,-0.03,-0.06,0.8200000000000001,0.43,137.0,137.0,0.0,0.0,3
64.89602700,64896027,-0.01,-0.06,2.21,0.43,137.01,137.01,0.0,0.0,3
64.99595900,64995959,0.0,-0.06,2.52,0.43,137.0,137.0,0.0,0.0,3
65.09610400,65096104,0.0,-0.06,2.0300000000000002,0.42,137.01,137.01,0.0,0.0,3
65.19614100,65196141,0.0,-0.06,1.07,0.42,137.01,137.01,0.0,0.0,3
65.29639900,65296399,-0.14,-0.06,0.54,0.42,137.01,137.01,0.0,0.0,3
65.39591100,65395911,-1.36,-0.06,1.5,0.41000000000000003,137.0,137.0,0.0,0.01,3
65.49579300,65495793,-1.6400000000000001,-0.06,3.99,0.41000000000000003,136.99,137.01,0.0,0.0,3
65.59581900,65595819,-0.84,-0.06,6.8100000000000005,0.4,136.97,137.02,0.0,0.0,3
65.69587200,65695872,-0.43,-0.06,7.05,0.4,136.95000000000002,137.02,0.0,0.0,3
65.79600400,65796004,-0.01,-0.05,4.48,0.4,136.93,137.02,0.0,0.0,3
65.89597300,65895973,1.77,-0.06,2.98,0.4,136.94,137.02,0.0,0.0,3
65.99595900,65995959,3.84,-0.06,4.09,0.4,136.96,137.02,0.0,0.0,3
66.09593000,66095930,4.14,-0.06,6.57,0.4,136.98,137.02,0.0,0.0,3
66.19612200,66196122,2.66,-0.06,8.21,0.39,137.0,137.02,0.0,0.0,3
66.29576200,66295762,1.36,-0.05,9.08,0.4,137.02,137.02,0.0,0.0,3
66.39586700,66395867,0.6900000000000001,-0.05,9.52,0.39,137.02,137.02,0.0,0.0,3
66.49585600,66495856,0.35000000000000003,-0.05,9.120000000000001,0.39,136.99,137.01,0.0,0.0,3
66.59587700,66595877,0.18,-0.05,6.05,0.39,137.0,137.01,0.0,0.0,3
66.69596900,66695969,0.09,-0.05,3.09,0.39,137.0,137.01,0.0,0.0,3
66.79596400,66795964,0.04,-0.05,1.6600000000000001,0.39,136.99,137.0,0.0,0.0,3
66.89595400,66895954,0.02,-0.05,1.9000000000000001,0.39,136.99,137.0,0.0,0.0,3
66.99594100,66995941,0.01,-0.05,2.21,0.39,137.0,137.0,0.0,0.0,3
67.09610600,67096106,0.0,-0.04,1.4000000000000001,0.39,137.0,137.0,0.0,0.0,3
67.19578000,67195780,0.0,-0.04,0.71,0.39,137.0,137.0,0.0,0.0,3
67.29580300,67295803,0.0,-0.04,0.36,0.39,137.0,137.0,0.0,0.0,3
67.39581700,67395817,0.0,-0.04,-0.49,0.39,136.99,136.99,0.0,0.01,3
67.49586200,67495862,0.0,-0.04,-3.24,0.39,136.98,136.98,0.0,0.01,3
67.59598900,67595989,0.0,-0.04,-5.87,0.39,136.98,136.98,0.0,0.0,3
67.69593700,67695937,0.0,-0.04,-7.86,0.39,136.97,136.97,0.0,0.0,3
67.79594700,67795947,0.0,-0.04,-8.91,0.39,136.97,136.97,0.0,0.01,3
67.89614600,67896146,0.0,-0.04,-9.43,0.4,136.97,136.97,0.0,0.01,3
67.99613000,67996130,0.0,-0.04,-9.5,0.4,136.97,136.97,0.0,0.0,3
68.09579900,68095799,0.0,-0.04,-9.120000000000001,0.4,136.96,136.96,0.0,0.0,3
68.19579800,68195798,0.0,-0.04,-7.6000000000000005,0.4,136.96,136.96,0.0,0.0,3
68.29580000,68295800,0.0,-0.03,-6.4,0.4,136.96,136.96,0.0,0.0,3
68.39586200,68395862,0.0,-0.04,-5.54,0.4,136.96,136.96,0.0,0.0,3
68.49599900,68495999,0.0,-0.04,-4.98,0.4,136.96,136.96,0.0,0.0,3
68.59596600,68595966,0.0,-0.04,-4.62,0.4,136.95000000000002,136.95000000000002,0.0,0.0,3
68.69592000,68695920,0.0,-0.04,-4.45,0.41000000000000003,136.96,136.96,0.0,0.01,3
68.79610500,68796105,0.0,-0.04,-4.43,0.41000000000000003,136.96,136.96,0.0,0.0,3
68.89614200,68896142,0.0,-0.04,-4.28,0.41000000000000003,136.96,136.96,0.0,0.0,3
68.99578700,68995787,0.0,-0.04,-3.63,0.41000000000000003,136.96,136.96,0.0,0.0,3
69.09580200,69095802,0.0,-0.04,-2.08,0.41000000000000003,136.96,136.96,0.0,0.0,3
69.19585600,69195856,0.0,-0.04,-1.59,0.41000000000000003,136.97,136.97,0.0,0.0,3
69.29585900,69295859,0.0,-0.04,-2.7800000000000002,0.41000000000000003,136.97,136.97,0.0,0.0,3
69.39598600,69395986,0.0,-0.04,-2.88,0.41000000000000003,136.97,136.97,0.0,0.0,3
69.49597000,69495970,0.0,-0.04,-1.49,0.41000000000000003,136.97,136.97,0.0,0.0,3
69.59593200,69595932,0.0,-0.04,-0.76,0.41000000000000003,136.96,136.96,0.0,0.0,3
69.69591100,69695911,0.0,-0.04,-0.38,0.41000000000000003,136.96,136.96,0.0,0.0,3
69.79587300,69795873,0.0,-0.04,0.24,0.41000000000000003,136.96,136.96,0.0,0.0,3
69.89579400,69895794,0.0,-0.04,0.53,0.4,136.95000000000002,136.95000000000002,0.0,0.0,3
69.99610700,69996107,0.0,-0.04,0.27,0.41000000000000003,136.95000000000002,136.95000000000002,0.0,0.0,3
70.09619600,70096196,0.0,-0.04,0.13,0.4,136.95000000000002,136.95000000000002,0.0,0.0,3
70.19586100,70195861,0.0,-0.04,0.07,0.41000000000000003,136.95000000000002,136.95000000000002,0.0,0.0,3
70.29598500,70295985,0.0,-0.04,0.03,0.4,136.95000000000002,136.95000000000002,0.0,0.0,3
70.39596100,70395961,0.0,-0.04,0.01,0.4,136.94,136.94,0.0,0.0,3
70.49593200,70495932,0.0,-0.05,0.0,0.4,136.94,136.94,0.0,0.0,3
70.59598400,70595984,0.0,-0.05,0.97,0.4,136.93,136.93,0.0,0.0,3
70.69586100,70695861,0.0,-0.05,4.8100000000000005,0.39,136.94,136.94,0.0,0.0,3
70.79584400,70795844,0.0,-0.05,7.3500000000000005,0.39,136.93,136.93,0.0,0.0,3
70.89607900,70896079,0.0,-0.05,8.64,0.38,136.93,136.93,0.0,0.0,3
70.99616300,70996163,0.0,-0.05,9.3,0.38,136.93,136.93,0.0,0.0,3
71.09585000,71095850,0.0,-0.05,9.64,0.38,136.93,136.93,0.0,0.0,3
71.19597900,71195979,0.0,-0.05,9.81,0.38,136.93,136.93,0.0,0.0,3
71.29595900,71295959,0.0,-0.05,9.9,0.39,136.93,136.93,0.0,0.0,3
71.39592200,71395922,0.0,-0.05,9.950000000000001,0.39,136.94,136.94,0.0,0.0,3
71.49606800,71496068,0.0,-0.05,9.97,0.38,136.94,136.94,0.0,0.0,3
71.59609400,71596094,0.0,-0.05,9.74,0.38,136.94,136.94,0.0,0.0,3
71.69601300,71696013,0.0,-0.05,6.6000000000000005,0.38,136.94,136.94,0.0,0.0,3
71.79638200,71796382,0.0,-0.05,2.29,0.38,136.94,136.94,0.0,0.0,3
71.89584600,71895846,0.0,-0.05,1.03,0.39,136.95000000000002,136.95000000000002,0.0,0.0,3
71.99586500,71995865,0.0,-0.06,0.52,0.38,136.95000000000002,136.95000000000002,0.0,0.0,3
72.09596900,72095969,0.0,-0.06,0.26,0.38,136.94,136.94,0.0,0.0,3
72.19604400,72196044,0.0,-0.06,0.13,0.38,136.94,136.94,0.0,0.0,3
72.29592300,72295923,0.0,-0.06,0.07,0.39,136.94,136.94,0.0,0.0,3
72.39592700,72395927,0.0,-0.06,0.03,0.39,136.94,136.94,0.0,0.0,3
72.49586800,72495868,0.0,-0.06,0.05,0.38,136.94,136.94,0.0,0.0,3
72.59590000,72595900,0.0,-0.06,0.9500000000000001,0.38,136.94,136.94,0.0,0.0,3
72.69611600,72696116,0.0,-0.06,3.24,0.38,136.94,136.94,0.0,0.0,3
72.79582200,72795822,0.0,-0.06,6.53,0.38,136.94,136.94,0.0,0.0,3
72.89588400,72895884,0.0,-0.06,8.23,0.37,136.94,136.94,0.0,0.0,3
72.99598500,72995985,0.0,-0.06,9.09,0.37,136.94,136.94,0.0,0.0,3
73.09595100,73095951,0.0,-0.06,9.53,0.37,136.94,136.94,0.0,0.0,3
73.19593900,73195939,0.0,-0.06,9.76,0.37,136.95000000000002,136.95000000000002,0.0,0.0,3
73.29593600,73295936,0.0,-0.06,9.870000000000001,0.37,136.95000000000002,136.95000000000002,0.0,0.0,3
73.39589700,73395897,0.0,-0.06,9.93,0.37,136.95000000000002,136.95000000000002,0.0,0.0,3
73.49578900,73495789,0.0,-0.06,9.96,0.37,136.95000000000002,136.95000000000002,0.0,0.0,3
73.59607100,73596071,0.0,-0.06,9.98,0.37,136.95000000000002,136.95000000000002,0.0,0.0,3
73.69609400,73696094,0.0,-0.06,9.99,0.36,136.95000000000002,136.95000000000002,0.0,0.0,3
73.79606100,73796061,0.0,-0.07,9.99,0.36,136.95000000000002,136.95000000000002,0.0,0.0,3
73.89623100,73896231,0.0,-0.06,9.99,0.36,136.95000000000002,136.95000000000002,0.0,0.0,3
73.99596400,73995964,0.0,-0.06,9.99,0.36,136.95000000000002,136.95000000000002,0.0,0.0,3
74.09608900,74096089,0.0,-0.06,9.99,0.36,136.95000000000002,136.95000000000002,0.0,0.0,3
74.19612000,74196120,0.0,-0.07,9.99,0.36,136.95000000000002,136.95000000000002,0.0,0.0,3
74.29610300,74296103,0.0,-0.07,9.99,0.36,136.95000000000002,136.95000000000002,0.0,0.01,3
74.39612000,74396120,0.0,-0.07,9.99,0.35000000000000003,136.95000000000002,136.95000000000002,0.0,0.0,3
74.49640700,74496407,0.0,-0.07,9.99,0.35000000000000003,136.95000000000002,136.95000000000002,0.0,0.0,3
74.59609100,74596091,0.0,-0.07,9.99,0.35000000000000003,136.94,136.94,0.0,0.0,3
74.69605400,74696054,0.0,-0.07,9.99,0.35000000000000003,136.94,136.94,0.0,0.01,3
74.79621600,74796216,0.0,-0.06,9.99,0.35000000000000003,136.94,136.94,0.0,0.0,3
74.89596900,74895969,0.0,-0.06,9.99,0.36,136.93,136.93,0.0,0.0,3
74.99594200,74995942,0.0,-0.06,9.99,0.35000000000000003,136.93,136.93,0.0,0.0,3
75.09590200,75095902,0.0,-0.06,9.99,0.35000000000000003,136.93,136.93,0.0,0.0,3
75.19587900,75195879,0.0,-0.06,9.99,0.36,136.93,136.93,0.0,0.0,3
75.29579300,75295793,0.0,-0.06,9.99,0.36,136.94,136.94,0.0,0.0,3
75.39580400,75395804,0.0,-0.06,9.99,0.36,136.93,136.93,0.0,0.0,3
75.49586100,75495861,0.0,-0.06,9.91,0.36,136.93,136.93,0.0,0.0,3
75.59586500,75595865,0.0,-0.06,8.120000000000001,0.35000000000000003,136.93,136.93,0.0,0.0,3
75.69617300,75696173,0.0,-0.06,5.92,0.35000000000000003,136.93,136.93,0.0,0.0,3
75.79596200,75795962,0.0,-0.06,3.44,0.35000000000000003,136.94,136.94,0.0,0.0,3
75.89595800,75895958,0.0,-0.06,3.42,0.35000000000000003,136.94,136.94,0.0,0.0,3
75.99593000,75995930,0.0,-0.06,4.0,0.35000000000000003,136.93,136.93,0.0,0.0,3
76.09587200,76095872,0.0,-0.06,4.2700000000000005,0.35000000000000003,136.93,136.93,0.0,0.0,3
76.19578900,76195789,0.0,-0.05,4.4,0.35000000000000003,136.93,136.93,0.0,0.0,3
76.29579500,76295795,0.0,-0.05,4.49,0.35000000000000003,136.93,136.93,0.0,0.0,3
76.39585300,76395853,0.0,-0.05,4.54,0.35000000000000003,136.93,136.93,0.0,0.0,3
76.49583900,76495839,0.0,-0.05,4.5600000000000005,0.35000000000000003,136.93,136.93,0.0,0.0,3
76.59621500,76596215,0.0,-0.05,4.58,0.35000000000000003,136.93,136.93,0.0,0.01,3
76.69593700,76695937,0.0,-0.05,4.62,0.35000000000000003,136.93,136.93,0.0,0.01,3
76.79607800,76796078,0.0,-0.05,4.67,0.35000000000000003,136.94,136.94,0.0,0.0,3
76.89622600,76896226,0.0,-0.05,4.8100000000000005,0.35000000000000003,136.94,136.94,0.0,0.0,3
76.99608200,76996082,0.0,-0.05,5.54,0.35000000000000003,136.94,136.94,0.0,0.0,3
77.09604800,77096048,0.0,-0.05,6.51,0.35000000000000003,136.94,136.94,0.0,0.0,3
77.19605300,77196053,0.0,-0.05,7.5600000000000005,0.35000000000000003,136.94,136.94,0.0,0.0,3
77.29600700,77296007,0.0,-0.05,8.75,0.35000000000000003,136.94,136.94,0.0,0.0,3
77.39630400,77396304,0.0,-0.05,9.36,0.35000000000000003,136.94,136.94,0.0,0.0,3
77.49643600,77496436,0.0,-0.05,9.67,0.35000000000000003,136.94,136.94,0.0,0.0,3
77.59610600,77596106,0.0,-0.06,9.83,0.35000000000000003,136.94,136.94,0.0,0.0,3
77.69606400,77696064,0.0,-0.05,8.65,0.35000000000000003,136.94,136.94,0.0,0.0,3
77.79608300,77796083,0.0,-0.05,4.8,0.35000000000000003,136.94,136.94,0.0,0.0,3
77.89610000,77896100,0.0,-0.05,2.45,0.35000000000000003,136.94,136.94,0.0,0.0,3
77.99604600,77996046,0.0,-0.06,1.25,0.35000000000000003,136.94,136.94,0.0,0.0,3
78.09603200,78096032,0.0,-0.06,0.8200000000000001,0.35000000000000003,136.94,136.94,0.0,0.0,3
78.19610900,78196109,0.0,-0.06,3.34,0.35000000000000003,136.94,136.94,0.0,0.0,3
78.29607000,78296070,0.0,-0.06,6.6000000000000005,0.35000000000000003,136.94,136.94,0.0,0.0,3
78.39621700,78396217,0.0,-0.06,8.26,0.34,136.93,136.93,0.0,0.0,3
78.49597000,78495970,0.0,-0.06,7.71,0.34,136.92000000000002,136.92000000000002,0.0,0.0,3
78.59594600,78595946,0.0,-0.05,4.33,0.35000000000000003,136.92000000000002,136.92000000000002,0.0,0.0,3
78.69591500,78695915,0.0,-0.06,2.21,0.35000000000000003,136.92000000000002,136.92000000000002,0.0,0.0,3
78.79588500,78795885,0.0,-0.05,2.09,0.35000000000000003,136.92000000000002,136.92000000000002,0.0,0.0,3
78.89587100,78895871,0.0,-0.05,5.21,0.36,136.92000000000002,136.92000000000002,0.0,0.0,3
78.99586900,78995869,0.0,-0.05,6.91,0.36,136.92000000000002,136.92000000000002,0.0,0.0,3
79.09581800,79095818,0.0,-0.05,5.01,0.36,136.91,136.91,0.0,0.0,3
79.19586600,79195866,0.0,-0.05,2.56,0.36,136.91,136.91,0.0,0.01,3
79.29599100,79295991,0.0,-0.05,2.89,0.36,136.91,136.91,0.0,0.01,3
79.39595600,79395956,0.0,-0.05,5.83,0.36,136.9,136.9,0.0,0.0,3
79.49609100,79496091,0.0,-0.04,5.91,0.36,136.9,136.9,0.0,0.0,3
79.59591900,79595919,0.0,-0.05,3.29,0.36,136.89000000000001,136.89000000000001,0.0,0.0,3
79.69585600,79695856,0.0,-0.05,1.68,0.37,136.89000000000001,136.89000000000001,0.0,0.0,3
79.79589300,79795893,0.0,-0.05,0.85,0.37,136.89000000000001,136.89000000000001,0.0,0.01,3
79.89582100,79895821,0.0,-0.05,0.43,0.37,136.88,136.88,0.0,0.01,3
79.99583100,79995831,0.0,-0.05,0.22,0.37,136.88,136.88,0.0,0.0,3
80.09586600,80095866,0.0,-0.05,0.11,0.37,136.87,136.87,0.0,0.0,3
80.19598800,80195988,0.0,-0.05,0.05,0.37,136.87,136.87,0.0,0.0,3
80.29594700,80295947,0.0,-0.05,0.02,0.37,136.87,136.87,0.0,0.0,3
80.39592300,80395923,0.0,-0.05,0.01,0.37,136.87,136.87,0.0,0.0,3
80.49607600,80496076,0.0,-0.06,0.0,0.38,136.86,136.86,0.0,0.01,3
80.59610000,80596100,0.0,-0.06,0.0,0.38,136.86,136.86,0.0,0.0,3
80.69601900,80696019,0.0,-0.06,0.0,0.38,136.86,136.86,0.0,0.0,3
80.79629900,80796299,0.0,-0.06,0.0,0.37,136.86,136.86,0.0,0.0,3
80.89618300,80896183,0.0,-0.06,0.0,0.37,136.86,136.86,0.0,0.0,3
80.99588400,80995884,0.0,-0.07,0.0,0.37,136.85,136.85,0.0,0.0,3
81.09598700,81095987,0.0,-0.07,0.0,0.37,136.86,136.86,0.0,0.0,3
81.19596600,81195966,0.0,-0.07,0.0,0.37,136.86,136.86,0.0,0.0,3
81.29591300,81295913,0.0,-0.07,0.0,0.37,136.86,136.86,0.0,0.0,3
81.39591600,81395916,0.0,-0.08,0.0,0.37,136.86,136.86,0.0,0.0,3
81.49587400,81495874,0.0,-0.08,0.0,0.37,136.86,136.86,0.0,0.0,3
81.59578500,81595785,0.0,-0.08,0.0,0.37,136.87,136.87,0.0,0.0,3
81.69609500,81696095,0.0,-0.07,0.0,0.37,136.87,136.87,0.0,0.0,3
81.79603600,81796036,0.0,-0.07,0.0,0.37,136.87,136.87,0.0,0.0,3
81.89588200,81895882,0.0,-0.08,0.07,0.37,136.86,136.86,0.0,0.0,3
81.99599600,81995996,0.0,-0.08,0.45,0.37,136.86,136.86,0.0,0.0,3
82.09593600,82095936,0.0,-0.08,0.52,0.37,136.87,136.87,0.0,0.0,3
82.19593600,82195936,0.0,-0.09,0.29,0.37,136.87,136.87,0.0,0.0,3
82.29591200,82295912,0.0,-0.09,0.15,0.37,136.87,136.87,0.0,0.0,3
82.39586600,82395866,0.0,-0.09,0.07,0.37,136.87,136.87,0.0,0.0,3
82.49590000,82495900,0.0,-0.09,0.03,0.37,136.87,136.87,0.0,0.0,3
82.59605900,82596059,0.0,-0.09,0.02,0.36,136.87,136.87,0.0,0.0,3
82.69603200,82696032,0.0,-0.09,0.01,0.36,136.87,136.87,0.0,0.0,3
82.79591600,82795916,0.0,-0.09,0.0,0.36,136.88,136.88,0.0,0.0,3
82.89598500,82895985,0.0,-0.09,0.0,0.36,136.88,136.88,0.0,0.01,3
82.99597100,82995971,0.0,-0.09,0.0,0.36,136.88,136.88,0.0,0.0,3
83.09606700,83096067,0.0,-0.09,0.09,0.36,136.87,136.87,0.0,0.0,3
83.19612700,83196127,0.0,-0.09,0.13,0.36,136.87,136.87,0.0,0.0,3
83.29608100,83296081,0.0,-0.09,0.07,0.36,136.87,136.87,0.0,0.0,3
83.39601800,83396018,0.0,-0.09,0.14,0.36,136.87,136.87,0.0,0.0,3
83.49638900,83496389,0.0,-0.09,0.27,0.36,136.86,136.86,0.0,0.01,3
83.59615400,83596154,0.0,-0.09,0.32,0.36,136.86,136.86,0.0,0.01,3
83.69586800,83695868,0.0,-0.09,0.35000000000000003,0.35000000000000003,136.86,136.86,0.0,0.0,3
83.79598500,83795985,0.0,-0.09,0.33,0.35000000000000003,136.86,136.86,0.0,0.0,3
83.89597100,83895971,0.0,-0.09,0.28,0.35000000000000003,136.87,136.87,0.0,0.0,3
83.99592800,83995928,0.0,-0.09,0.25,0.35000000000000003,136.87,136.87,0.0,0.0,3
84.09591200,84095912,0.0,-0.09,0.24,0.35000000000000003,136.87,136.87,0.0,0.0,3
84.19587400,84195874,0.0,-0.09,0.27,0.35000000000000003,136.86,136.86,0.0,0.01,3
84.29577000,84295770,0.0,-0.1,0.31,0.35000000000000003,136.87,136.87,0.0,0.0,3
84.39580800,84395808,0.0,-0.09,0.34,0.35000000000000003,136.87,136.87,0.0,0.0,3
84.49583000,84495830,0.0,-0.09,0.36,0.35000000000000003,136.87,136.87,0.0,0.0,3
84.59588000,84595880,0.0,-0.1,0.34,0.35000000000000003,136.86,136.86,0.0,0.0,3
84.69621100,84696211,0.0,-0.09,0.29,0.35000000000000003,136.86,136.86,0.0,0.0,3
84.79596000,84795960,0.0,-0.09,0.18,0.36,136.86,136.86,0.0,0.0,3
84.89596700,84895967,0.0,-0.1,0.12,0.36,136.85,136.85,0.0,0.0,3
84.99593100,84995931,0.0,-0.09,0.07,0.36,136.85,136.85,0.0,0.0,3
85.09587600,85095876,0.0,-0.09,0.03,0.36,136.85,136.85,0.0,0.0,3
85.19590200,85195902,0.0,-0.09,0.01,0.36,136.84,136.84,0.0,0.0,3
85.29584100,85295841,0.0,-0.09,0.0,0.36,136.84,136.84,0.0,0.0,3
85.39584300,85395843,0.0,-0.09,0.0,0.36,136.84,136.84,0.0,0.0,3
85.49587100,85495871,0.0,-0.09,0.0,0.36,136.83,136.83,0.0,0.0,3
85.59598400,85595984,0.0,-0.08,0.0,0.37,136.83,136.83,0.0,0.0,3
85.69608600,85696086,0.0,-0.08,0.0,0.36,136.83,136.83,0.0,0.0,3
85.79606800,85796068,0.0,-0.08,0.0,0.37,136.83,136.83,0.0,0.0,3
85.89609500,85896095,0.0,-0.08,0.0,0.37,136.83,136.83,0.0,0.0,3
85.99636200,85996362,0.0,-0.08,0.0,0.38,136.83,136.83,0.0,0.0,3
86.09577000,86095770,0.0,-0.08,0.0,0.38,136.83,136.83,0.0,0.0,3
86.19582900,86195829,0.0,-0.08,0.0,0.38,136.82,136.82,0.0,0.0,3
86.29584100,86295841,0.0,-0.08,0.0,0.38,136.82,136.82,0.0,0.0,3
86.39586500,86395865,0.0,-0.08,0.0,0.38,136.82,136.82,0.0,0.0,3
86.49598400,86495984,0.0,-0.08,0.0,0.38,136.82,136.82,0.0,0.0,3
86.59595200,86595952,0.0,-0.08,0.0,0.38,136.82,136.82,0.0,0.0,3
86.69590700,86695907,0.0,-0.08,0.0,0.38,136.82,136.82,0.0,0.0,3
86.79610600,86796106,0.0,-0.08,0.0,0.38,136.81,136.81,0.0,0.0,3
86.89614000,86896140,0.0,-0.08,0.0,0.38,136.81,136.81,0.0,0.0,3
86.99585500,86995855,0.0,-0.08,0.0,0.38,136.81,136.81,0.0,0.0,3
87.09579600,87095796,0.0,-0.07,0.0,0.38,136.81,136.81,0.0,0.0,3
87.19582500,87195825,0.0,-0.08,0.0,0.38,136.81,136.81,0.0,0.0,3
87.29585700,87295857,0.0,-0.08,0.0,0.39,136.8,136.8,0.0,0.0,3
87.39602200,87396022,0.0,-0.07,0.0,0.39,136.8,136.8,0.0,0.0,3
87.49596600,87495966,0.0,-0.08,0.0,0.39,136.8,136.8,0.0,0.0,3
87.59593100,87595931,0.0,-0.07,0.0,0.39,136.8,136.8,0.0,0.0,3
87.69610700,87696107,0.0,-0.07,0.0,0.39,136.79,136.79,0.0,0.0,3
87.79614500,87796145,0.0,-0.06,0.0,0.4,136.79,136.79,0.0,0.0,3
87.89586500,87895865,0.0,-0.06,0.0,0.4,136.79,136.79,0.0,0.0,3
87.99579700,87995797,0.0,-0.06,0.0,0.4,136.79,136.79,0.0,0.0,3
88.09595500,88095955,0.0,-0.06,0.0,0.4,136.79,136.79,0.0,0.0,3
88.19587100,88195871,0.0,-0.06,0.0,0.41000000000000003,136.79,136.79,0.0,0.0,3
88.29596800,88295968,0.0,-0.07,0.0,0.41000000000000003,136.79,136.79,0.0,0.0,3
88.39595700,88395957,0.0,-0.06,0.0,0.41000000000000003,136.79,136.79,0.0,0.0,3
88.49592200,88495922,0.0,-0.06,0.0,0.42,136.78,136.78,0.0,0.0,3
88.59593000,88595930,0.0,-0.06,0.0,0.42,136.78,136.78,0.0,0.0,3
88.69586700,88695867,0.0,-0.06,0.0,0.42,136.78,136.78,0.0,0.0,3
88.79579300,88795793,0.0,-0.06,0.0,0.42,136.79,136.77,0.0,0.0,3
88.89611200,88896112,-0.49,-0.06,0.0,0.42,136.8,136.77,0.0,0.0,3
88.99614200,88996142,-3.77,-0.06,0.0,0.43,136.82,136.77,0.0,0.0,3
89.09586400,89095864,-6.82,-0.06,0.0,0.43,136.84,136.76,0.0,0.0,3
89.19599300,89195993,-8.370000000000001,-0.06,0.0,0.43,136.86,136.76,0.0,0.0,3
89.29593800,89295938,-9.17,-0.05,0.0,0.43,136.89000000000001,136.77,0.0,0.0,3
89.39593000,89395930,-9.57,-0.05,0.0,0.43,136.91,136.76,0.0,0.0,3
89.49596900,89495969,-9.78,-0.05,0.0,0.44,136.93,136.76,0.0,0.0,3
89.59589300,89595893,-9.88,-0.05,0.0,0.44,136.95000000000002,136.76,0.0,0.0,3
89.69587000,89695870,-9.94,-0.05,0.0,0.44,136.97,136.76,0.0,0.0,3
89.79606400,89796064,-9.97,-0.05,0.0,0.44,136.99,136.76,0.0,0.0,3
89.89616600,89896166,-9.98,-0.05,0.0,0.44,137.02,136.76,0.0,0.01,3
89.99587800,89995878,-9.99,-0.05,0.0,0.44,137.04,136.76,0.0,0.01,3
90.09598400,90095984,-9.99,-0.05,0.0,0.44,137.06,136.76,0.0,0.0,3
90.19597500,90195975,-9.99,-0.05,0.0,0.44,137.09,136.77,0.0,0.0,3
90.29594200,90295942,-9.99,-0.05,0.0,0.44,137.11,136.77,0.0,0.0,3
90.39592700,90395927,-9.99,-0.05,0.0,0.44,137.13,136.76,0.0,0.0,3
90.49590600,90495906,-9.99,-0.05,0.0,0.44,137.15,136.76,0.0,0.0,3
90.59579000,90595790,-9.99,-0.05,0.0,0.44,137.17000000000002,136.76,0.0,0.0,3
90.69607900,90696079,-9.99,-0.05,0.0,0.44,137.19,136.76,0.0,0.0,3
90.79584900,90795849,-9.99,-0.05,0.0,0.44,137.21,136.76,0.0,0.0,3
90.89588400,90895884,-9.99,-0.05,0.0,0.44,137.23,136.75,0.0,0.0,3
90.99598600,90995986,-9.99,-0.05,0.0,0.44,137.25,136.75,0.0,0.0,3
91.09596400,91095964,-9.99,-0.05,0.0,0.44,137.25,136.74,0.0,0.0,3
91.19594000,91195940,-9.99,-0.05,0.0,0.44,137.25,136.74,0.0,0.0,3
91.29591600,91295916,-9.99,-0.05,0.0,0.43,137.25,136.74,0.0,0.0,3
91.39588900,91395889,-9.99,-0.05,0.0,0.43,137.25,136.74,0.0,0.0,3
91.49588500,91495885,-9.99,-0.05,0.0,0.43,137.25,136.74,0.0,0.0,3
91.59625300,91596253,-9.99,-0.05,0.0,0.43,137.24,136.74,0.0,0.0,3
91.69580200,91695802,-9.99,-0.05,0.0,0.43,137.24,136.73,0.0,0.0,3
91.79586300,91795863,-9.99,-0.05,0.0,0.43,137.24,136.73,0.0,0.0,3
91.89599900,91895999,-9.99,-0.05,0.0,0.43,137.24,136.73,0.0,0.0,3
91.99598500,91995985,-9.99,-0.05,0.0,0.44,137.24,136.73,0.0,0.0,3
92.09593400,92095934,-9.99,-0.05,0.0,0.44,137.24,136.73,0.0,0.0,3
92.19593900,92195939,-9.99,-0.06,0.0,0.44,137.24,136.73,0.0,0.0,3
92.29590900,92295909,-9.99,-0.05,0.0,0.43,137.24,136.73,0.0,0.0,3
92.39604300,92396043,-9.91,-0.05,0.0,0.44,137.23,136.73,0.0,0.0,3
92.49630200,92496302,-7.6000000000000005,-0.05,0.0,0.44,137.21,136.73,0.0,0.0,3
92.59616900,92596169,-3.95,-0.05,-0.01,0.44,137.19,136.73,0.0,0.0,3
92.69607100,92696071,-2.0100000000000002,-0.05,-0.01,0.44,137.17000000000002,136.73,0.0,0.0,3
92.79623100,92796231,-1.03,-0.05,0.0,0.44,137.14000000000001,136.73,0.0,0.0,3
