timestamp,TimeUS,C,Q1,Q2,Q3,Q4
9.99534700,9995347,2,1.0,0.0,0.0,0.0
10.09528500,10095285,2,1.0,0.0,0.0,0.0
10.19528900,10195289,2,1.0,0.0,0.0,0.0
10.29527700,10295277,2,1.0,0.0,0.0,0.0
10.39528600,10395286,2,1.0,0.0,0.0,0.0
10.49528100,10495281,2,1.0,0.0,0.0,0.0
10.59531500,10595315,2,1.0,0.0,0.0,0.0
10.69533000,10695330,2,1.0,0.0,0.0,0.0
10.79528600,10795286,2,1.0,0.0,0.0,0.0
10.89535500,10895355,2,1.0,0.0,0.0,0.0
10.99528900,10995289,2,0.999992311000824,-0.00046335067600011826,0.003894846187904477,-3.828950866591185e-05
11.09528300,11095283,2,0.999992311000824,-0.0004610345931723714,0.003887573257088661,2.8704836950055324e-05
11.19527700,11195277,2,0.9999918937683105,-0.0004947169218212366,0.004001088906079531,-1.1981189345533494e-05
11.29527300,11295273,2,0.9999927282333374,-0.0004393553244881332,0.0037871759850531816,-3.288209700258449e-05
11.39528700,11395287,2,0.9999923706054688,-0.00047315334086306393,0.003876220900565386,1.0740104698925279e-05
11.49529100,11495291,2,0.9999924898147583,-0.0004610069445334375,0.003839668817818165,7.767253555357456e-05
11.59531400,11595314,2,0.9999920129776001,-0.00045279401820153,0.003975593484938145,4.71252242277842e-05
11.69527800,11695278,2,0.9999920129776001,-0.0004894637386314571,0.003973666112869978,6.947375368326902e-06
11.79536400,11795364,2,0.9999921321868896,-0.0004930604482069612,0.0039389957673847675,3.031455162272323e-05
11.89527600,11895276,2,0.999992311000824,-0.00048073960351757705,0.003892983077093959,-3.1213672627927735e-05
11.99528400,11995284,2,0.999992311000824,-0.0005728381802327931,0.003883666591718793,1.5920637451927178e-05
12.09528100,12095281,2,0.9999921917915344,-0.0006445443723350763,0.0038935928605496883,2.45358060055878e-05
12.19527100,12195271,2,0.9999925494194031,-0.0006718463846482337,0.003799720201641321,7.669818842259701e-06
12.29528300,12295283,2,0.999992311000824,-0.0007344450568780303,0.003845579456537962,-9.373633474751841e-06
12.39531100,12395311,2,0.9999910593032837,-0.0008664478664286435,0.004133856389671564,-5.659868838847615e-05
12.49531600,12495316,2,0.3676537573337555,-0.0034756027162075043,0.00039837093208916485,0.9299561977386475
12.59528500,12595285,2,0.37423083186149597,-0.004149478394538164,0.0003524948260746896,0.9273262619972229
12.69531900,12695319,2,0.39077359437942505,-0.0039824554696679115,0.00025009308592416346,0.9204781651496887
12.79527700,12795277,2,0.4128081798553467,-0.0039011631160974503,0.0002505204756744206,0.9108095765113831
12.89527500,12895275,2,0.43545645475387573,-0.003961812239140272,0.0002701435296330601,0.9002010226249695
12.99527700,12995277,2,0.4554676115512848,-0.0037615809123963118,0.00019737830734811723,0.8902443647384644
13.09528300,13095283,2,0.4691246449947357,-0.003782104467973113,0.0001931991137098521,0.8831238150596619
13.19527600,13195276,2,0.4745575487613678,-0.0036323550157248974,0.00017456128261983395,0.8802169561386108
13.29528800,13295288,2,0.47297799587249756,-0.003617707407101989,0.0001891592692118138,0.8810667991638184
13.39531700,13395317,2,0.46663305163383484,-0.003657762659713626,0.00021205341909080744,0.8844434022903442
13.49529200,13495292,2,0.4579211175441742,-0.003632614854723215,0.00029109016759321094,0.8889853358268738
13.59534900,13595349,2,0.4485466480255127,-0.0036544399335980415,0.00029366923263296485,0.8937519192695618
13.69527500,13695275,2,0.43966972827911377,-0.0036148177459836006,0.0003500093298498541,0.8981521725654602
13.79527600,13795276,2,0.43182694911956787,-0.003554555354639888,0.0003420079592615366,0.901949405670166
13.89527600,13895276,2,0.42528387904167175,-0.003569392254576087,0.00038474422763101757,0.905052900314331
13.99527300,13995273,2,0.4199954569339752,-0.0035406965762376785,0.0004491822328418493,0.9075191617012024
14.09528000,14095280,2,0.41562408208847046,-0.0034805682953447104,0.0005530633497983217,0.9095296859741211
14.19529200,14195292,2,0.41200560331344604,-0.0034435258712619543,0.000632896670140326,0.9111745953559875
14.29532200,14295322,2,0.4088655710220337,-0.003409095574170351,0.0006633727462030947,0.9125880002975464
14.39527800,14395278,2,0.40602049231529236,-0.0034378012642264366,0.0006999570759944618,0.9138572216033936
14.49532500,14495325,2,0.4032994210720062,-0.003437541425228119,0.0007275731768459082,0.9150612950325012
14.59527900,14595279,2,0.40077945590019226,-0.0034030505921691656,0.0007664483855478466,0.9161679148674011
14.69527300,14695273,2,0.3983222544193268,-0.0033716701436787844,0.000797639659140259,0.9172390103340149
14.79527600,14795276,2,0.3959445059299469,-0.003374655731022358,0.0008384800748899579,0.9182678461074829
14.89528200,14895282,2,0.39364928007125854,-0.0034088038373738527,0.0008588072378188372,0.9192540049552917
14.99527300,14995273,2,0.39151835441589355,-0.0033696831669658422,0.0009054223191924393,0.9201636910438538
15.09529600,15095296,2,0.3896137773990631,-0.0034217422362416983,0.000917479395866394,0.9209715127944946
15.19532700,15195327,2,0.3877848982810974,-0.0033905955497175455,0.0009152961429208517,0.9217432141304016
15.29528300,15295283,2,0.3860393762588501,-0.0034839208237826824,0.0009200365748256445,0.922475278377533
15.39534200,15395342,2,0.3842657804489136,-0.0035365342628210783,0.0009249461581930518,0.9232152700424194
15.49528200,15495282,2,0.3826110064983368,-0.003634590655565262,0.0009103945922106504,0.9239019155502319
15.59528300,15595283,2,0.3810424506664276,-0.0036903463769704103,0.0009484098409302533,0.9245496988296509
15.69527600,15695276,2,0.3795427978038788,-0.0037255343049764633,0.0009952683467417955,0.925166130065918
15.79528000,15795280,2,0.37802520394325256,-0.0037692252080887556,0.000989216729067266,0.925787091255188
15.89528200,15895282,2,0.37647727131843567,-0.0038034566678106785,0.0010173178743571043,0.9264174699783325
15.99529100,15995291,2,0.37502771615982056,-0.0037908286321908236,0.001012150663882494,0.9270052909851074
16.09532000,16095320,2,0.3736199736595154,-0.0037923213094472885,0.0010449100518599153,0.9275735020637512
16.19526500,16195265,2,0.3723263740539551,-0.0038323106709867716,0.0010489292908459902,0.9280933737754822
16.29534300,16295343,2,0.3711642622947693,-0.0038887416012585163,0.0010007362579926848,0.9285585284233093
16.39527800,16395278,2,0.3700506389141083,-0.003881819313392043,0.0009820822160691023,0.9290029406547546
16.49527300,16495273,2,0.36901500821113586,-0.0039160470478236675,0.0009079059818759561,0.9294147491455078
16.59527300,16595273,2,0.36798980832099915,-0.003989826422184706,0.0009509901865385473,0.9298207759857178
16.69527500,16695275,2,0.36693987250328064,-0.004028284922242165,0.0009258629288524389,0.9302355051040649
16.79528400,16795284,2,0.3658357262611389,-0.004024595022201538,0.0009097851580008864,0.9306703209877014
16.89530500,16895305,2,0.3647501468658447,-0.003977933898568153,0.0008877280633896589,0.9310964941978455
16.99531300,16995313,2,0.36368098855018616,-0.0039869872853159904,0.0008719592005945742,0.9315146207809448
17.09526900,17095269,2,0.36261454224586487,-0.003925597760826349,0.000853041943628341,0.9319305419921875
17.19534800,17195348,2,0.361600399017334,-0.003945691045373678,0.0008321969653479755,0.9323244690895081
17.29527600,17295276,2,0.3606411814689636,-0.003947989083826542,0.0008297357126139104,0.9326959252357483
17.39527500,17395275,2,0.3597312867641449,-0.0038865171372890472,0.0008060220861807466,0.9330475330352783
17.49528100,17495281,2,0.3588820993900299,-0.0038859848864376545,0.0007923766388557851,0.9333744645118713
17.59527300,17595273,2,0.3580978214740753,-0.0038487352430820465,0.0007627199520356953,0.9336758255958557
17.69527600,17695276,2,0.3573406934738159,-0.0038528137374669313,0.000753185071516782,0.9339658617973328
17.79529100,17795291,2,0.3566230833530426,-0.003843239974230528,0.0007282636361196637,0.9342401623725891
17.89532900,17895329,2,0.35593628883361816,-0.0038648031186312437,0.00067122932523489,0.9345020055770874
17.99527100,17995271,2,0.35530415177345276,-0.0037860863376408815,0.0006157762836664915,0.9347428679466248
18.09534100,18095341,2,0.3547786474227905,-0.003756110090762377,0.0006164256483316422,0.9349426031112671
18.19528900,18195289,2,0.3544144332408905,-0.0037875398993492126,0.0006151816342025995,0.9350805878639221
18.29527400,18295274,2,0.3541455566883087,-0.003782114014029503,0.0005885203718207777,0.9351824522018433
18.39527500,18395275,2,0.3539023995399475,-0.003789326176047325,0.0005869016167707741,0.9352744817733765
18.49527900,18495279,2,0.3536298871040344,-0.0038048119749873877,0.0005388340796343982,0.9353775382041931
18.59527300,18595273,2,0.35337045788764954,-0.0038190893828868866,0.00047761810128577054,0.9354755282402039
18.69529800,18695298,2,0.353143572807312,-0.003828283166512847,0.0005027235019952059,0.9355611801147461
18.79531800,18795318,2,0.3529168665409088,-0.003758686361834407,0.0004040269705001265,0.9356470704078674
18.89527100,18895271,2,0.3527071475982666,-0.0038169848266988993,0.00037953932769596577,0.9357258677482605
18.99534100,18995341,2,0.3525492548942566,-0.003851068438962102,0.00039692746941000223,0.9357852339744568
19.09527800,19095278,2,0.35244593024253845,-0.003813817398622632,0.0004336920101195574,0.9358243346214294
19.19527900,19195279,2,0.3523022532463074,-0.0037291389890015125,0.00042455780203454196,0.9358787536621094
19.29527300,19295273,2,0.3521662950515747,-0.0037016519345343113,0.00042975685209967196,0.9359300136566162
19.39527600,19395276,2,0.35201317071914673,-0.0037001657765358686,0.00047756635467521846,0.9359875917434692
19.49528200,19495282,2,0.35189300775527954,-0.0036842315457761288,0.0005065100267529488,0.9360328316688538
19.59528800,19595288,2,0.35171759128570557,-0.0037126888055354357,0.0004903898807242513,0.9360986948013306
19.69531600,19695316,2,0.35155048966407776,-0.003683655057102442,0.0004710195935331285,0.9361615777015686
19.79527100,19795271,2,0.3513948917388916,-0.003670825157314539,0.0005115094245411456,0.9362199902534485
19.89536200,19895362,2,0.3512450158596039,-0.003622977063059807,0.0005256985314190388,0.9362764358520508
19.99527600,19995276,2,0.3509540259838104,-0.0036411297041922808,0.000534272228833288,0.936385452747345
20.09527800,20095278,2,0.350686252117157,-0.00357960001565516,0.000561815220862627,0.936486005783081
20.19527200,20195272,2,0.3504696786403656,-0.0035858142655342817,0.0005618532304652035,0.9365670680999756
20.29527400,20295274,2,0.3502427339553833,-0.0035769010428339243,0.0005681444308720529,0.9366519451141357
20.39527500,20395275,2,0.3500731289386749,-0.003543528728187084,0.0006219845963642001,0.9367154836654663
20.49529300,20495293,2,0.34995928406715393,-0.0035037670750170946,0.0006337239174172282,0.9367581605911255
20.59531600,20595316,2,0.3498668372631073,-0.0035076297353953123,0.0006678538047708571,0.9367926120758057
20.69527100,20695271,2,0.3497678339481354,-0.00353549444116652,0.0006898068822920322,0.9368295073509216
20.79533700,20795337,2,0.3496646583080292,-0.003519040532410145,0.0006906883209012449,0.9368680715560913
20.89528600,20895286,2,0.34960681200027466,-0.0034624673426151276,0.0006710493471473455,0.9368898868560791
20.99527300,20995273,2,0.34958896040916443,-0.003518611192703247,0.0006509005324915051,0.9368963241577148
21.09527500,21095275,2,0.34959182143211365,-0.0035227276384830475,0.0006298982189036906,0.9368952512741089
21.19528300,21195283,2,0.34969907999038696,-0.003508195048198104,0.0006150554982014,0.9368553161621094
21.29527300,21295273,2,0.34972330927848816,-0.003537385957315564,0.0006035760743543506,0.936846137046814
21.39530400,21395304,2,0.34972894191741943,-0.0034822223242372274,0.0006351480260491371,0.9368442296981812
21.49532400,21495324,2,0.3496798276901245,-0.003496677614748478,0.0006341939442791045,0.9368625283241272
21.59526800,21595268,2,0.3496547341346741,-0.003526692744344473,0.0006459860596805811,0.9368717670440674
21.69533800,21695338,2,0.3496128022670746,-0.003500527236610651,0.0006460851291194558,0.9368875026702881
21.79528000,21795280,2,0.3496236205101013,-0.0035564296413213015,0.0006612804718315601,0.936883270740509
21.89527200,21895272,2,0.3496750593185425,-0.0035536675713956356,0.0006311176693998277,0.9368640780448914
21.99527300,21995273,2,0.3497210741043091,-0.003620380535721779,0.0006139677134342492,0.9368466734886169
22.09527900,22095279,2,0.3496982455253601,-0.0035847253166139126,0.0005784195964224637,0.9368553757667542
22.19528100,22195281,2,0.34964877367019653,-0.0035826596431434155,0.0005916383233852684,0.9368737936019897
22.29528300,22295283,2,0.3496299982070923,-0.0036148049402981997,0.0005625543999485672,0.9368807077407837
22.39532000,22395320,2,0.34957361221313477,-0.00360550032928586,0.0005256415461190045,0.9369018077850342
22.49528900,22495289,2,0.34960439801216125,-0.00363815575838089,0.0005301185301505029,0.936890184879303
22.59531900,22595319,2,0.3497407138347626,-0.0036576411221176386,0.0005049154278822243,0.9368392825126648
22.69527600,22695276,2,0.3498189151287079,-0.003704869421198964,0.000507534306962043,0.9368098974227905
22.79527800,22795278,2,0.3498668074607849,-0.0037174434401094913,0.0004979933146387339,0.9367919564247131
22.89527700,22895277,2,0.3499475121498108,-0.003756578080356121,0.0005182761233299971,0.9367616176605225
22.99527400,22995274,2,0.3500174283981323,-0.0037232537288218737,0.0005232024122960865,0.9367356300354004
23.09527800,23095278,2,0.3502075672149658,-0.0036590087693184614,0.0005230382084846497,0.9366648197174072
23.19530400,23195304,2,0.35034850239753723,-0.0036152058746665716,0.00044955150224268436,0.9366123080253601
23.29531400,23295314,2,0.3505287170410156,-0.0036148244980722666,0.00038408866384997964,0.9365448951721191
23.39527000,23395270,2,0.35057732462882996,-0.003609210252761841,0.00040678330697119236,0.9365267157554626
23.49535300,23495353,2,0.35066166520118713,-0.003586612641811371,0.0003552875423338264,0.936495304107666
23.59527400,23595274,2,0.35077741742134094,-0.0035665554460138083,0.0003426112234592438,0.9364520311355591
23.69527400,23695274,2,0.3508814871311188,-0.0036374437622725964,0.00032838270999491215,0.9364127516746521
23.79528600,23795286,2,0.3509768843650818,-0.003682417329400778,0.0003336255031172186,0.9363768100738525
23.89527400,23895274,2,0.3510602116584778,-0.003693121485412121,0.00027897534891963005,0.9363455772399902
23.99528600,23995286,2,0.3512127995491028,-0.0036816883366554976,0.00023712657275609672,0.9362884163856506
24.09528800,24095288,2,0.35131168365478516,-0.0036814792547374964,0.00022607466962654144,0.9362512826919556
24.19531900,24195319,2,0.35148999094963074,-0.003655799198895693,0.000244738272158429,0.9361844658851624
24.29527700,24295277,2,0.35168665647506714,-0.0036177393049001694,0.000232759935897775,0.9361107349395752
24.39535100,24395351,2,0.35183605551719666,-0.0035681172739714384,0.00020942957780789584,0.9360548257827759
24.49528000,24495280,2,0.35197848081588745,-0.003553493181243539,0.00018170615658164024,0.9360013604164124
24.59527300,24595273,2,0.352093905210495,-0.003522010985761881,0.00014241741155274212,0.9359580278396606
24.69528300,24695283,2,0.3522147238254547,-0.0035553050693124533,0.00013340967416297644,0.9359124898910522
24.79527500,24795275,2,0.35233744978904724,-0.003552546724677086,9.576683805789798e-05,0.9358662962913513
24.89527600,24895276,2,0.3525162637233734,-0.0035317479632794857,7.901146454969421e-05,0.9357990026473999
24.99528300,24995283,2,0.3527540862560272,-0.0035256780683994293,0.00011938524403376505,0.9357094168663025
25.09531600,25095316,2,0.35300174355506897,-0.003523871535435319,0.00017294223653152585,0.9356160163879395
25.19528200,25195282,2,0.353214830160141,-0.0035673286765813828,0.0001388297969242558,0.9355354309082031
25.29535800,25295358,2,0.35337457060813904,-0.0035261267330497503,0.0001298687420785427,0.9354752898216248
25.39528000,25395280,2,0.3535435199737549,-0.003519647056236863,9.761605178937316e-05,0.9354114532470703
25.49528800,25495288,2,0.35365793108940125,-0.003552989335730672,6.022373054292984e-05,0.9353680610656738
25.59528800,25595288,2,0.35378608107566833,-0.0035491606686264277,2.0071081962669268e-05,0.9353196620941162
25.69528900,25695289,2,0.35385459661483765,-0.0035856824833899736,-1.8889135390054435e-05,0.9352935552597046
25.79528200,25795282,2,0.3539491891860962,-0.0035236559342592955,5.019080049351032e-07,0.9352580308914185
25.89530300,25895303,2,0.35400140285491943,-0.003513686591759324,3.949500296585029e-06,0.9352383017539978
25.99531500,25995315,2,0.35403093695640564,-0.0034963837824761868,2.123536069120746e-05,0.9352271556854248
26.09529000,26095290,2,0.3539890646934509,-0.0034932245034724474,8.62341039464809e-05,0.9352430105209351
26.19535900,26195359,2,0.35398992896080017,-0.003475687699392438,3.907553036697209e-05,0.935242772102356
26.29527600,26295276,2,0.35401928424835205,-0.003478375496342778,1.3927417967352085e-05,0.935231626033783
26.39527600,26395276,2,0.3541051745414734,-0.003463406814262271,5.074048385722563e-05,0.9351992011070251
26.49529000,26495290,2,0.35412973165512085,-0.0034172136802226305,2.0672398022725247e-05,0.9351900815963745
26.59528700,26595287,2,0.35423386096954346,-0.003405512310564518,3.159522748319432e-06,0.935150682926178
26.69527600,26695276,2,0.3543470501899719,-0.0034034601412713528,1.3038370525464416e-05,0.9351077675819397
26.79529000,26795290,2,0.35451194643974304,-0.0033899431582540274,4.206824814900756e-05,0.9350453615188599
26.89534000,26895340,2,0.35474637150764465,-0.0033754906617105007,4.938264100928791e-05,0.9349564909934998
26.99528400,26995284,2,0.35494914650917053,-0.003394277300685644,6.988311361055821e-05,0.9348794221878052
27.09534600,27095346,2,0.3551044762134552,-0.003425869857892394,0.0001142451583291404,0.9348203539848328
27.19528300,27195283,2,0.35524433851242065,-0.0034012440592050552,0.00012502187746576965,0.9347673058509827
27.29527400,27295274,2,0.3553743064403534,-0.0034287560265511274,0.00011104701115982607,0.9347177743911743
27.39528400,27395284,2,0.35549646615982056,-0.0034475133288651705,9.279330697609112e-05,0.9346712827682495
27.49529500,27495295,2,0.35560142993927,-0.0034741568379104137,0.00011306093074381351,0.9346312284469604
27.59527500,27595275,2,0.3557276427745819,-0.0034739060793071985,0.00012113809498259798,0.9345831871032715
27.69529600,27695296,2,0.35582107305526733,-0.0034690131433308125,0.00011159490532008931,0.9345476627349854
27.79532600,27795326,2,0.35595089197158813,-0.003461534855887294,0.00010231629858026281,0.9344982504844666
27.89527900,27895279,2,0.35613077878952026,-0.0034674168564379215,0.00010104622197104618,0.9344297051429749
27.99535700,27995357,2,0.35626283288002014,-0.003473442979156971,4.61752169940155e-05,0.9343793392181396
28.09527900,28095279,2,0.3564305901527405,-0.003473803400993347,7.882151294325013e-06,0.9343153238296509
28.19527600,28195276,2,0.35656237602233887,-0.0034517962485551834,1.136310129368212e-05,0.93426513671875
28.29527400,28295274,2,0.3566087782382965,-0.0034593699965626,3.111817568424158e-05,0.9342473745346069
28.39527700,28395277,2,0.35671356320381165,-0.0034091435372829437,8.598799468018115e-06,0.934207558631897
28.49528100,28495281,2,0.35675492882728577,-0.0033987327478826046,-1.577054354129359e-05,0.9341918230056763
28.59531200,28595312,2,0.35671481490135193,-0.0034177277702838182,-4.440291377250105e-05,0.9342070817947388
28.69532500,28695325,2,0.3567541241645813,-0.0034190628211945295,-9.022023004945368e-05,0.9341920614242554
28.79528200,28795282,2,0.35678768157958984,-0.0034623099491000175,-7.889300468377769e-05,0.9341790676116943
28.89534400,28895344,2,0.3568327724933624,-0.0035186479799449444,-6.37747798464261e-05,0.9341616630554199
28.99527400,28995274,2,0.3568781912326813,-0.0034495904110372066,-1.2830257219320629e-05,0.9341445565223694
29.09527800,29095278,2,0.35690221190452576,-0.0034505785442888737,8.671587238495704e-06,0.934135377407074
29.19528900,29195289,2,0.35688894987106323,-0.0034403782337903976,2.9155438824091107e-05,0.9341405034065247
29.29527400,29295274,2,0.35693809390068054,-0.0034341332502663136,7.387556252069771e-05,0.9341217279434204
29.39528000,29395280,2,0.35697728395462036,-0.003417850937694311,9.617931209504604e-05,0.9341068267822266
29.49528900,29495289,2,0.3571661114692688,-0.0034163417294621468,0.00015822902787476778,0.9340346455574036
29.59531500,29595315,2,0.35731956362724304,-0.0033885594457387924,0.00014466412540059537,0.9339760541915894
29.69531100,29695311,2,0.3575544059276581,-0.0034055013675242662,0.00017963105347007513,0.9338860511779785
29.79534200,29795342,2,0.3577573597431183,-0.003381530288606882,0.00011646986240521073,0.933808445930481
29.89527900,29895279,2,0.35793831944465637,-0.0033984279725700617,0.00010634309001034126,0.9337390661239624
29.99527200,29995272,2,0.3581490218639374,-0.0034354417584836483,7.535157055826858e-05,0.9336581230163574
30.09527500,30095275,2,0.35824915766716003,-0.0033953143283724785,7.715180981904268e-05,0.9336198568344116
30.19527400,30195274,2,0.3584074079990387,-0.0034300177358090878,5.600121949100867e-05,0.933559000492096
30.29526400,30295264,2,0.35854458808898926,-0.003464511828497052,3.4196129945485154e-06,0.933506190776825
30.39530000,30395300,2,0.35866305232048035,-0.0034884195774793625,4.87055913254153e-05,0.9334605932235718
30.49530600,30495306,2,0.3587157726287842,-0.0034349721390753984,6.85615959810093e-05,0.9334405064582825
30.59525500,30595255,2,0.3587974011898041,-0.0034866835922002792,9.167432290269062e-05,0.9334089159965515
30.69533400,30695334,2,0.35891544818878174,-0.0034766974858939648,0.00014763027138542384,0.9333636164665222
30.79526800,30795268,2,0.35901591181755066,-0.0034922233317047358,0.00016802316531538963,0.9333248734474182
30.89527800,30895278,2,0.35912927985191345,-0.003471232485026121,0.0001693874946795404,0.9332813620567322
30.99527500,30995275,2,0.3592146039009094,-0.003500772640109062,0.00012388965114951134,0.9332484006881714
31.09527500,31095275,2,0.35927534103393555,-0.0034869385417550802,0.00012613179569598287,0.9332250952720642
31.19527700,31195277,2,0.3593701720237732,-0.0035206216853111982,8.968761540018022e-05,0.9331884384155273
31.29527500,31295275,2,0.3594457507133484,-0.0035175157245248556,0.00010516889597056434,0.933159351348877
31.39530700,31395307,2,0.3595377206802368,-0.00350929400883615,0.00012961293396074325,0.9331239461898804
31.49526300,31495263,2,0.35966044664382935,-0.0034453801345080137,0.00011964179429924116,0.9330768585205078
31.59532400,31595324,2,0.3597750961780548,-0.0035375484731048346,0.0001278875133721158,0.9330323338508606
31.69526500,31695265,2,0.35987284779548645,-0.0035143957938998938,0.0001427175011485815,0.9329947233200073
31.79526600,31795266,2,0.35995590686798096,-0.0034899869933724403,0.00011891534813912585,0.9329627752304077
31.89526300,31895263,2,0.3599659204483032,-0.0034659625962376595,0.00014277672744356096,0.9329590201377869
31.99526200,31995262,2,0.36001741886138916,-0.003506886074319482,0.0001398693275405094,0.9329389929771423
32.09527800,32095278,2,0.36007964611053467,-0.003477495862171054,0.00014833384193480015,0.9329150915145874
32.19528400,32195284,2,0.3601718246936798,-0.0035342311020940542,0.00021442488650791347,0.9328792691230774
32.29531200,32295312,2,0.36022311449050903,-0.003550821216776967,0.00019964044622611254,0.9328594207763672
32.39525900,32395259,2,0.36026230454444885,-0.0035165713634341955,0.00020685934578068554,0.9328444004058838
32.49531000,32495310,2,0.3603322505950928,-0.003517315723001957,0.00021821781410835683,0.9328173995018005
32.59526400,32595264,2,0.3604048788547516,-0.0035037111956626177,0.0002441063115838915,0.9327893853187561
32.69526200,32695262,2,0.36047497391700745,-0.00350585812702775,0.0003061373718082905,0.9327622652053833
32.79527300,32795273,2,0.3605327308177948,-0.0034597557969391346,0.0002749449049588293,0.9327400922775269
32.89526500,32895265,2,0.36057233810424805,-0.003428810043260455,0.0002682577760424465,0.9327248930931091
32.99526200,32995262,2,0.3605918884277344,-0.003444516099989414,0.00026758547755889595,0.9327173233032227
33.09529000,33095290,2,0.36064594984054565,-0.003404691582545638,0.0002626937348395586,0.932696521282196
33.19530900,33195309,2,0.3606843948364258,-0.003350634826347232,0.0002341834333492443,0.9326818585395813
33.29525800,33295258,2,0.3608081340789795,-0.0033564947079867125,0.00021926693443674594,0.9326339960098267
33.39533200,33395332,2,0.3608831763267517,-0.0033489654306322336,0.00019008891831617802,0.9326050281524658
33.49527200,33495272,2,0.36101478338241577,-0.003336873836815357,0.0002448887098580599,0.9325540661811829
33.59526500,33595265,2,0.3610711693763733,-0.0033133220858871937,0.00026037433417513967,0.9325323104858398
33.69527100,33695271,2,0.3610798120498657,-0.003310710657387972,0.0002505843003746122,0.9325290322303772
33.79526900,33795269,2,0.3611186444759369,-0.0032958965748548508,0.00024689355632290244,0.9325140118598938
33.89526300,33895263,2,0.36117449402809143,-0.003288795705884695,0.00025709278997965157,0.9324924349784851
33.99527400,33995274,2,0.3611772358417511,-0.0032059659715741873,0.0002458931412547827,0.932491660118103
34.09530600,34095306,2,0.36116817593574524,-0.003180256811901927,0.0002915949444286525,0.9324952363967896
34.19525600,34195256,2,0.3611854314804077,-0.003141640219837427,0.00032167290919460356,0.9324886798858643
34.29531100,34295311,2,0.3611184060573578,-0.0031090558040887117,0.00029031411395408213,0.9325147271156311
34.39527300,34395273,2,0.3611067831516266,-0.0030921678990125656,0.0002946349559351802,0.9325193166732788
34.49527200,34495272,2,0.361080139875412,-0.0031072020065039396,0.00030905797029845417,0.9325295686721802
34.59527000,34595270,2,0.3611110746860504,-0.0031935086008161306,0.00030819271341897547,0.9325172901153564
34.69526300,34695263,2,0.3611130714416504,-0.0031393421813845634,0.0002951912465505302,0.9325166940689087
34.79526500,34795265,2,0.3611519932746887,-0.0031203252729028463,0.00029405654640868306,0.9325016736984253
34.89528300,34895283,2,0.36113670468330383,-0.00313893286511302,0.0003347440797369927,0.9325075149536133
34.99530200,34995302,2,0.3611814081668854,-0.003076805267482996,0.0002831527090165764,0.9324904680252075
35.09525900,35095259,2,0.36118221282958984,-0.003077639266848564,0.00025170535081997514,0.9324901700019836
35.19533100,35195331,2,0.3611879050731659,-0.0030574824195355177,0.0002367831184528768,0.9324880242347717
35.29526200,35295262,2,0.36114630103111267,-0.0030403127893805504,0.0002612254465930164,0.9325041770935059
35.39526400,35395264,2,0.3611240088939667,-0.0030000510159879923,0.00029606549651362,0.9325129389762878
35.49526900,35495269,2,0.3611660301685333,-0.003009062260389328,0.0002968166663777083,0.9324966073036194
35.59526600,35595266,2,0.3611951768398285,-0.0030004882719367743,0.00023172136570792645,0.9324854016304016
35.69526200,35695262,2,0.36125752329826355,-0.0029762296471744776,0.00027745417901314795,0.9324613213539124
35.79529700,35795297,2,0.3613486886024475,-0.0029313366394490004,0.00026030783192254603,0.9324260950088501
35.89530800,35895308,2,0.36147448420524597,-0.002932608360424638,0.00024287898850161582,0.9323773384094238
35.99525600,35995256,2,0.36155346035957336,-0.00292362947948277,0.0002672681584954262,0.932346761226654
36.09533900,36095339,2,0.36163046956062317,-0.0029331818222999573,0.00026479506050236523,0.9323168396949768
36.19526800,36195268,2,0.3616752028465271,-0.002901484491303563,0.0002949136833194643,0.9322996139526367
36.29527100,36295271,2,0.36177805066108704,-0.0029093215707689524,0.0002778500784188509,0.9322596788406372
36.39527400,36395274,2,0.3618416488170624,-0.0029014882165938616,0.0002705942024476826,0.9322350025177002
36.49526900,36495269,2,0.3618820607662201,-0.002880634041503072,0.0002133302332367748,0.932219386100769
36.59526200,36595262,2,0.3619078993797302,-0.002868863521143794,0.00014801259385421872,0.9322094321250916
36.69528100,36695281,2,0.3619460165500641,-0.0029058451764285564,0.00010109623690368608,0.9321945309638977
36.79530600,36795306,2,0.3619672656059265,-0.0028671070467680693,3.0418686947086826e-05,0.9321864247322083
36.89526400,36895264,2,0.3619830310344696,-0.002864980837330222,-1.2702665117103606e-05,0.9321802854537964
36.99533600,36995336,2,0.36198699474334717,-0.0029116214718669653,-2.212712206528522e-05,0.9321786165237427
37.09526600,37095266,2,0.3619605600833893,-0.0028819518629461527,-1.4823251149209682e-05,0.9321889281272888
37.19528200,37195282,2,0.3619648218154907,-0.0029107420705258846,-9.8878335847985e-06,0.9321871995925903
37.29527100,37295271,2,0.3618958592414856,-0.0029294041451066732,-7.983629075170029e-06,0.9322139024734497
37.39527500,37395275,2,0.3618607223033905,-0.0029467486310750246,-1.8977914805873297e-05,0.9322274923324585
37.49527400,37495274,2,0.3618713617324829,-0.0029058584477752447,-5.769421932200203e-06,0.9322234988212585
37.59530700,37595307,2,0.3619244396686554,-0.0028836531564593315,1.6966838302323595e-05,0.9322029948234558
37.69530300,37695303,2,0.3619275391101837,-0.0028986565303057432,-9.112230145547073e-06,0.9322017431259155
37.79527000,37795270,2,0.3619753122329712,-0.002897225320339203,5.06652668263996e-06,0.9321831464767456
37.89534400,37895344,2,0.3620329201221466,-0.002920906525105238,2.7660023988573812e-05,0.9321607351303101
37.99526400,37995264,2,0.3620762228965759,-0.0029437437187880278,1.1350015483913012e-05,0.9321438670158386
38.09526300,38095263,2,0.36212506890296936,-0.0029340682085603476,1.7637368728173897e-05,0.9321249127388
38.19527100,38195271,2,0.3621937930583954,-0.0029940956737846136,-1.794421041267924e-05,0.9320980310440063
38.29527600,38295276,2,0.36224398016929626,-0.0029694943223148584,2.782368210318964e-05,0.9320785999298096
38.39526800,38395268,2,0.36234036087989807,-0.0029684093315154314,1.3811261851515155e-05,0.9320411086082458
38.49528100,38495281,2,0.36244064569473267,-0.0029767171945422888,2.4073398890323006e-05,0.9320021271705627
38.59530900,38595309,2,0.3624388873577118,-0.003050647908821702,6.818694964749739e-05,0.9320025444030762
38.69527200,38695272,2,0.36250898241996765,-0.0030548125505447388,5.204826084082015e-05,0.931975245475769
38.79534700,38795347,2,0.3624778985977173,-0.0031279665417969227,7.091505540302023e-05,0.9319871068000793
38.89527300,38895273,2,0.3625319302082062,-0.0031791161745786667,7.773187826387584e-05,0.9319659471511841
38.99527200,38995272,2,0.36260393261909485,-0.0032130463514477015,5.4642681789118797e-05,0.9319378137588501
39.09529100,39095291,2,0.3626824617385864,-0.0032579253893345594,7.546939741587266e-05,0.931907057762146
39.19527800,39195278,2,0.3627774715423584,-0.003306143218651414,8.265073847724125e-05,0.9318699240684509
39.29526300,39295263,2,0.36284127831459045,-0.0033219747710973024,8.053639612626284e-05,0.9318450093269348
39.39527400,39395274,2,0.3629146218299866,-0.0032977815717458725,9.392190986545756e-05,0.931816577911377
39.49531000,39495310,2,0.3630232512950897,-0.0033215354196727276,6.004314491292462e-05,0.9317741394042969
39.59527100,39595271,2,0.36306890845298767,-0.003308679908514023,5.834738112753257e-05,0.9317564368247986
39.69532900,39695329,2,0.3630772531032562,-0.0032835593447089195,8.897349471226335e-05,0.9317532777786255
39.79527700,39795277,2,0.36312729120254517,-0.003260173834860325,0.00013429185491986573,0.9317338466644287
39.89526800,39895268,2,0.3631848096847534,-0.0032287512440234423,0.0001404653739882633,0.9317114949226379
39.99526300,39995263,2,0.3632459342479706,-0.003296186914667487,0.00015428730694111437,0.9316874742507935
40.09527100,40095271,2,0.3632977306842804,-0.003318843198940158,0.00016940497152972966,0.931667149066925
40.19526500,40195265,2,0.36332666873931885,-0.003389658872038126,0.00017551862401887774,0.9316556453704834
40.29528600,40295286,2,0.3633864223957062,-0.0034082939382642508,0.0001181506086140871,0.9316322803497314
40.39530600,40395306,2,0.36341047286987305,-0.0034224530681967735,0.0001145169953815639,0.9316228628158569
40.49528100,40495281,2,0.36342722177505493,-0.0034838065039366484,3.119655229966156e-05,0.9316160678863525
40.59533800,40595338,2,0.36348018050193787,-0.003500628052279353,5.1248338422738016e-05,0.9315953254699707
40.69526400,40695264,2,0.3635074198246002,-0.003503452753648162,2.3002834495855495e-05,0.9315847158432007
40.79526400,40795264,2,0.3635694682598114,-0.0034915106371045113,-7.688176992814988e-06,0.9315605759620667
40.89527400,40895274,2,0.363651305437088,-0.0034892517141997814,-6.009534899931168e-06,0.931528627872467
40.99527200,40995272,2,0.36365416646003723,-0.003506385488435626,-1.2103815834052511e-06,0.9315274357795715
41.09527400,41095274,2,0.3637421727180481,-0.0034792404621839523,3.143962021567859e-05,0.9314931631088257
41.19527800,41195278,2,0.363832026720047,-0.0035124884452670813,8.164915357156133e-07,0.9314579367637634
41.29530400,41295304,2,0.363883912563324,-0.0034998166374862194,2.870611751859542e-05,0.9314377307891846
41.39527300,41395273,2,0.3639536201953888,-0.003500818507745862,-1.9097869881079532e-06,0.9314104914665222
41.49535300,41495353,2,0.3640527129173279,-0.00352826458401978,-4.086166882188991e-05,0.9313716292381287
41.59527300,41595273,2,0.3640916347503662,-0.003529394045472145,-5.287288149702363e-05,0.9313564300537109
41.69527100,41695271,2,0.3641597628593445,-0.0035172775387763977,-6.218728958629072e-05,0.9313298463821411
41.79526900,41795269,2,0.3641667068004608,-0.0035709694493561983,-5.317209070199169e-05,0.9313269257545471
41.89526300,41895263,2,0.36417633295059204,-0.0035585956647992134,-3.466534326435067e-05,0.931323230266571
41.99526700,41995267,2,0.3641829192638397,-0.0035583472345024347,5.9820577007485554e-05,0.9313206672668457
42.09528300,42095283,2,0.364161878824234,-0.003538562450557947,5.9953395975753665e-05,0.9313289523124695
42.19530600,42195306,2,0.3642154335975647,-0.003523616585880518,5.1961953431600705e-05,0.9313080310821533
42.29525500,42295255,2,0.3642442524433136,-0.003513919422402978,8.909640746423975e-05,0.9312968254089355
42.39533600,42395336,2,0.3642820119857788,-0.00351356016471982,5.645246710628271e-05,0.9312820434570312
42.49528100,42495281,2,0.3642910420894623,-0.0035054590553045273,2.5773662855499424e-05,0.9312785863876343
42.59527400,42595274,2,0.364336758852005,-0.003478437662124634,3.988238677266054e-05,0.9312607645988464
42.69526200,42695262,2,0.36437350511550903,-0.0034806837793439627,1.3197294720157515e-05,0.9312463998794556
42.79526500,42795265,2,0.36439594626426697,-0.00348989968188107,-4.5800705265719444e-05,0.9312375783920288
42.89526500,42895265,2,0.3644962012767792,-0.0034723179414868355,-1.3045412742940243e-05,0.9311984181404114
42.99528600,42995286,2,0.3645400106906891,-0.003477910766378045,-3.770667899516411e-05,0.9311812520027161
43.09531100,43095311,2,0.3646087348461151,-0.0034876978024840355,-2.9022736271144822e-05,0.9311543107032776
43.19526400,43195264,2,0.36464861035346985,-0.0034815652761608362,-1.5477977285627276e-05,0.9311386942863464
43.29532500,43295325,2,0.3647271692752838,-0.003470919094979763,-8.149496352416463e-06,0.9311079382896423
43.39527200,43395272,2,0.3648409843444824,-0.0034917599987238646,2.2873451598570682e-05,0.9310632944107056
43.49526800,43495268,2,0.364984393119812,-0.0034950904082506895,2.6091369363712147e-05,0.9310070872306824
43.59526300,43595263,2,0.3650738596916199,-0.003486021887511015,-2.343773985558073e-06,0.9309720396995544
43.69526200,43695262,2,0.36515554785728455,-0.003407689044252038,2.006539398280438e-05,0.9309402704238892
43.79527500,43795275,2,0.36513274908065796,-0.003427662653848529,1.0258989277645014e-05,0.9309491515159607
43.89528200,43895282,2,0.3651290833950043,-0.0033954870887100697,1.6718213373678736e-05,0.9309507012367249
43.99531100,43995311,2,0.3651473820209503,-0.003420586232095957,1.8904591343016364e-05,0.9309434294700623
44.09525700,44095257,2,0.36513790488243103,-0.0033811619505286217,4.5886627049185336e-05,0.9309473037719727
44.19533000,44195330,2,0.3651454746723175,-0.0034121903590857983,8.710091060493141e-05,0.9309442043304443
44.29526300,44295263,2,0.36517569422721863,-0.003455383237451315,6.958294397918507e-05,0.9309322237968445
44.39527200,44395272,2,0.3652282953262329,-0.0034353218507021666,0.00012171031266916543,0.930911660194397
44.49527400,44495274,2,0.3652764558792114,-0.003420713823288679,0.0001488770794821903,0.9308927655220032
44.59527600,44595276,2,0.36532506346702576,-0.0034515345469117165,0.00013628457963932306,0.9308735728263855
44.69528000,44695280,2,0.3653404116630554,-0.0034863410983234644,9.473349928157404e-05,0.9308674335479736
44.79528500,44795285,2,0.36541345715522766,-0.003490760689601302,8.597752457717434e-05,0.9308387637138367
44.89531000,44895310,2,0.3654426336288452,-0.0035305919591337442,5.041569966124371e-05,0.9308271408081055
44.99526000,44995260,2,0.36543354392051697,-0.0035825769882649183,1.98705711227376e-05,0.9308305382728577
45.09533100,45095331,2,0.3654175400733948,-0.003516928292810917,-2.9730434107477777e-05,0.930837094783783
45.19526700,45195267,2,0.3653942346572876,-0.003478404600173235,-4.359331069281325e-05,0.9308463335037231
45.29526900,45295269,2,0.36541712284088135,-0.0035020210780203342,-4.121622259845026e-05,0.9308372735977173
45.39528600,45395286,2,0.36542651057243347,-0.0034978461917489767,-6.064819899620488e-05,0.930833637714386
45.49527600,45495276,2,0.36547014117240906,-0.0034617995843291283,-0.00015972710389178246,0.9308165907859802
45.59526300,45595263,2,0.3655071258544922,-0.003477293299511075,-0.0001783666230039671,0.930802047252655
45.69527800,45695278,2,0.36556246876716614,-0.0034248228184878826,-0.00017503563140053302,0.9307804703712463
45.79530700,45795307,2,0.3656017482280731,-0.0034306326415389776,-0.0001789080852176994,0.9307650327682495
45.89525500,45895255,2,0.3655940592288971,-0.0033957362174987793,-0.00020012707682326436,0.9307681918144226
45.99531000,45995310,2,0.3656156659126282,-0.0033415830694139004,-0.00017011805903166533,0.9307599067687988
46.09526800,46095268,2,0.36565789580345154,-0.003323089797049761,-0.00010217347153229639,0.930743396282196
46.19526900,46195269,2,0.3656749725341797,-0.0032695364207029343,-0.00011966883175773546,0.9307368397712708
46.29527300,46295273,2,0.3656839430332184,-0.0032696740236133337,-0.00011405609984649345,0.930733323097229
46.39527300,46395273,2,0.36573663353919983,-0.0032671985682100058,-7.411540718749166e-05,0.9307126402854919
46.49526600,46495266,2,0.3658381402492523,-0.0032832736615091562,-6.659339851466939e-05,0.9306727051734924
46.59527800,46595278,2,0.3659014105796814,-0.003290975233539939,-0.00012242005323059857,0.9306477904319763
46.69530400,46695304,2,0.36588674783706665,-0.0032697641290724277,-0.00014107073366176337,0.9306536316871643
46.79525900,46795259,2,0.3659191131591797,-0.0032961515244096518,-0.00018748982984106988,0.9306408166885376
46.89534900,46895349,2,0.36596477031707764,-0.003264164086431265,-0.00018177500169258565,0.9306229948997498
46.99527100,46995271,2,0.36600467562675476,-0.003264773404225707,-0.00017312179261352867,0.930607259273529
47.09526300,47095263,2,0.36604148149490356,-0.003269679145887494,-0.0001825460058171302,0.9305927753448486
47.19527800,47195278,2,0.36603161692619324,-0.003283403581008315,-0.00023963760759215802,0.9305965900421143
47.29527400,47295274,2,0.3660549819469452,-0.0032227844931185246,-0.00022715277737006545,0.9305875897407532
47.39526700,47395267,2,0.36609548330307007,-0.0031977922189980745,-0.00025244345306418836,0.9305717945098877
47.49528900,47495289,2,0.3661693036556244,-0.0032074868213385344,-0.0002717080060392618,0.9305426478385925
47.59530700,47595307,2,0.36621713638305664,-0.0031669405288994312,-0.00023106092703528702,0.9305239915847778
47.69525800,47695258,2,0.36626946926116943,-0.003156728111207485,-0.00024594838032498956,0.9305034279823303
47.79531400,47795314,2,0.36631301045417786,-0.003139134729281068,-0.0001896153116831556,0.9304863810539246
47.89526800,47895268,2,0.3663238286972046,-0.0031592724844813347,-0.0001609162864042446,0.930482029914856
47.99526100,47995261,2,0.3663289546966553,-0.003148882882669568,-0.00014227067003957927,0.9304800629615784
48.09526400,48095264,2,0.3663148581981659,-0.0031989016570150852,-0.00013086844410281628,0.9304854273796082
48.19526300,48195263,2,0.3662915825843811,-0.0032273081596940756,-0.00013184950512368232,0.930494487285614
48.29527000,48295270,2,0.36630645394325256,-0.00319544761441648,-0.00012566061923280358,0.9304887652397156
48.39527400,48395274,2,0.3663196861743927,-0.003124177921563387,-0.00012586776574607939,0.9304838180541992
48.49530700,48495307,2,0.3663592040538788,-0.0031484784558415413,-0.00012888693891000003,0.9304681420326233
48.59525700,48595257,2,0.36633992195129395,-0.0031499823089689016,-0.0001367218210361898,0.9304757714271545
48.69532600,48695326,2,0.3664271831512451,-0.00316866347566247,-0.00010698115511331707,0.9304413199424744
48.79526700,48795267,2,0.36634621024131775,-0.0031429550144821405,-8.107737812679261e-05,0.9304733276367188
48.89527700,48895277,2,0.3663214147090912,-0.0031844775658100843,-0.00013321280130185187,0.9304829239845276
48.99527300,48995273,2,0.36635076999664307,-0.003192255739122629,-0.00013613504415843636,0.9304713606834412
49.09528000,49095280,2,0.36631253361701965,-0.003227735636755824,-0.00013676172238774598,0.930486261844635
49.19527400,49195274,2,0.3662623167037964,-0.0031942040659487247,-0.00011057105439249426,0.93050616979599
49.29527300,49295273,2,0.3662511706352234,-0.0032313091214746237,-9.786905866349116e-05,0.930510401725769
49.39530500,49395305,2,0.36627843976020813,-0.0032129790633916855,-0.00010927939729299396,0.9304997324943542
49.49527000,49495270,2,0.36632493138313293,-0.003209753893315792,-9.186371607938781e-05,0.9304814338684082
49.59534000,49595340,2,0.3663816452026367,-0.0032011992298066616,-0.0001441190834157169,0.9304591417312622
49.69526200,49695262,2,0.3664889931678772,-0.0032498412765562534,-0.000190001490409486,0.9304167032241821
49.79527500,49795275,2,0.3665321171283722,-0.003289276733994484,-0.00023866523406468332,0.9303995370864868
49.89526800,49895268,2,0.36649733781814575,-0.0033060626592487097,-0.00020442160894162953,0.9304131865501404
49.99526100,49995261,2,0.3664524555206299,-0.0033684861846268177,-0.00024335281341336668,0.9304306507110596
50.09526900,50095269,2,0.3664116859436035,-0.0033758971840143204,-0.0002791021834127605,0.9304466843605042
50.19528800,50195288,2,0.366385817527771,-0.0034513443242758512,-0.00025735798408277333,0.9304565787315369
50.29531600,50295316,2,0.36630409955978394,-0.003462261753156781,-0.0002091368951369077,0.9304887056350708
50.39525700,50395257,2,0.3662044107913971,-0.0035286475904285908,-0.00021752106840722263,0.9305277466773987
50.49533900,50495339,2,0.36615830659866333,-0.0035786100197583437,-0.00024516700068488717,0.9305456876754761
50.59526800,50595268,2,0.3660356104373932,-0.0035959258675575256,-0.00025378281134180725,0.9305938482284546
50.69527500,50695275,2,0.36599001288414,-0.0035886410623788834,-0.00027863794821314514,0.9306118488311768
50.79526400,50795264,2,0.36592021584510803,-0.0035906783305108547,-0.00028739526169374585,0.9306392669677734
50.89526500,50895265,2,0.36587491631507874,-0.003594439709559083,-0.0002657528093550354,0.9306570887565613
50.99526200,50995262,2,0.3658469617366791,-0.0035435915924608707,-0.00031758836121298373,0.9306682348251343
51.09527500,51095275,2,0.36578935384750366,-0.0035596329253166914,-0.00032410406856797636,0.9306908249855042
51.19531400,51195314,2,0.3657512366771698,-0.003538434160873294,-0.00040540617192164063,0.9307058453559875
51.29526000,51295260,2,0.3657805323600769,-0.0036023478023707867,-0.00032394856680184603,0.9306941032409668
51.39534400,51395344,2,0.36573708057403564,-0.0036306441761553288,-0.0003278082876931876,0.9307110905647278
51.49529000,51495290,2,0.3657667636871338,-0.003568904474377632,-0.00031505691003985703,0.9306996464729309
51.59527000,51595270,2,0.3658038079738617,-0.0035833094734698534,-0.00029423279920592904,0.9306850433349609
51.69526100,51695261,2,0.36577972769737244,-0.00364775606431067,-0.00029996136436238885,0.9306942820549011
51.79527600,51795276,2,0.3657892644405365,-0.0037005464546382427,-0.0002918804530054331,0.9306902885437012
51.89526200,51895262,2,0.3658479154109955,-0.0037161896470934153,-0.00028906523948535323,0.9306671619415283
51.99527100,51995271,2,0.3658630847930908,-0.0037461677566170692,-0.0003490251547191292,0.9306610822677612
52.09531000,52095310,2,0.3658231794834137,-0.003741035470739007,-0.0003298091469332576,0.9306768178939819
52.19527700,52195277,2,0.3657991588115692,-0.0037591501604765654,-0.0003385228628758341,0.9306861758232117
52.29535300,52295353,2,0.3657923936843872,-0.0037854055408388376,-0.00033891372731886804,0.9306886792182922
52.39526600,52395266,2,0.3657766580581665,-0.003823624923825264,-0.00038184475852176547,0.9306946992874146
52.49526200,52495262,2,0.3657524585723877,-0.00386629905551672,-0.00043993565486744046,0.9307040572166443
52.59526500,52595265,2,0.365734338760376,-0.003837583353742957,-0.0004871109558735043,0.9307112693786621
52.69526300,52695263,2,0.36572200059890747,-0.0038204623851925135,-0.0005001815152354538,0.9307161569595337
52.79526600,52795266,2,0.36569684743881226,-0.0038171252235770226,-0.0005612864042632282,0.9307259917259216
52.89529800,52895298,2,0.36568570137023926,-0.003785555250942707,-0.0005927492748014629,0.9307305216789246
52.99530200,52995302,2,0.36565905809402466,-0.0037819661665707827,-0.0006040445878170431,0.930741012096405
53.09527200,53095272,2,0.36562982201576233,-0.003789355047047138,-0.0006363779539242387,0.9307523965835571
53.19534000,53195340,2,0.36564186215400696,-0.0038289371877908707,-0.0005966823664493859,0.9307475686073303
53.29526900,53295269,2,0.3656060993671417,-0.0038531760219484568,-0.0006127753295004368,0.9307615160942078
53.39526300,53395263,2,0.3655860424041748,-0.0038620412815362215,-0.0005974092637188733,0.9307693243026733
53.49526900,53495269,2,0.36559733748435974,-0.0038106937427073717,-0.0005930757033638656,0.9307650923728943
53.59526100,53595261,2,0.36554664373397827,-0.0038182709831744432,-0.0005818350473418832,0.9307850003242493
53.69526200,53695262,2,0.3655492961406708,-0.003799792379140854,-0.0006177390459924936,0.9307839870452881
53.79527700,53795277,2,0.3654996156692505,-0.003779530758038163,-0.0006265717674978077,0.9308035969734192
53.89530900,53895309,2,0.3655194342136383,-0.00376512436196208,-0.0006002353620715439,0.9307959079742432
53.99527200,53995272,2,0.3655383884906769,-0.003750678151845932,-0.0006084422348067164,0.930788516998291
54.09533500,54095335,2,0.3655323386192322,-0.0037654999177902937,-0.000568580930121243,0.9307908415794373
54.19526400,54195264,2,0.3655543327331543,-0.0037796045653522015,-0.0005521880812011659,0.9307821393013
54.29526100,54295261,2,0.3656023442745209,-0.003810922149568796,-0.0005507898167707026,0.9307631850242615
54.39527100,54395271,2,0.365660160779953,-0.003847183659672737,-0.0005086138844490051,0.9307403564453125
54.49527200,54495272,2,0.36567673087120056,-0.0038453289307653904,-0.0004986920394003391,0.930733859539032
54.59526800,54595268,2,0.3656511604785919,-0.0038940764497965574,-0.0004802289477083832,0.9307436943054199
54.69527300,54695273,2,0.3656202256679535,-0.003928344696760178,-0.000461634190287441,0.9307557344436646
54.79530400,54795304,2,0.3656177818775177,-0.003931818529963493,-0.000434658897574991,0.930756688117981
54.89527000,54895270,2,0.3656442165374756,-0.003973012790083885,-0.0004706190957222134,0.9307460784912109
54.99533900,54995339,2,0.36562928557395935,-0.00400196947157383,-0.0004504381213337183,0.9307518601417542
55.09528300,55095283,2,0.36567166447639465,-0.003991551231592894,-0.00043056049617007375,0.9307352304458618
55.19527400,55195274,2,0.36566272377967834,-0.00405628327280283,-0.0003977769229095429,0.9307385087013245
55.29526900,55295269,2,0.3656536638736725,-0.004081332590430975,-0.00038528337609022856,0.9307419657707214
55.39527500,55395275,2,0.365704745054245,-0.004070186987519264,-0.0004196976369712502,0.9307219386100769
55.49526700,55495267,2,0.3656826317310333,-0.004034280311316252,-0.0004202176642138511,0.9307307600975037
55.59529000,55595290,2,0.36572587490081787,-0.004033858422189951,-0.0003977179294452071,0.9307137727737427
55.69530200,55695302,2,0.3657067120075226,-0.004042062908411026,-0.0003495974815450609,0.9307212829589844
55.79526100,55795261,2,0.36570778489112854,-0.004058850463479757,-0.00029687696951441467,0.9307208061218262
55.89533000,55895330,2,0.36570072174072266,-0.004086099565029144,-0.00030291485018096864,0.9307234883308411
55.99527900,55995279,2,0.365682452917099,-0.00407044030725956,-0.00029633365920744836,0.9307307004928589
56.09527500,56095275,2,0.36565324664115906,-0.004065559711307287,-0.0002764560340438038,0.9307422041893005
56.19527500,56195275,2,0.365707129240036,-0.004120508674532175,-0.0002539361594244838,0.9307208061218262
56.29527600,56295276,2,0.3657383620738983,-0.004141000099480152,-0.00020681165915448219,0.9307084679603577
56.39526400,56395264,2,0.36573266983032227,-0.004149260930716991,-0.000187091703992337,0.9307106733322144
56.49527500,56495275,2,0.36574679613113403,-0.0041628871113061905,-0.00019219366367906332,0.9307050704956055
56.59531500,56595315,2,0.36576390266418457,-0.004197093658149242,-0.00021789991296827793,0.9306981563568115
56.69525600,56695256,2,0.3657606840133667,-0.004200927913188934,-0.00016996361955534667,0.9306994676589966
56.79533300,56795333,2,0.3658134639263153,-0.0041610971093177795,-0.0002095353411277756,0.9306788444519043
56.89527000,56895270,2,0.3658190071582794,-0.004112992901355028,-0.00015176522720139474,0.9306768774986267
56.99526100,56995261,2,0.3658149838447571,-0.004092475865036249,-0.00011105865269200876,0.9306786060333252
57.09527200,57095272,2,0.3658784031867981,-0.004044421948492527,-0.00010907153773587197,0.9306538701057434
57.19526800,57195268,2,0.3659314513206482,-0.0040235067717731,-6.179387855809182e-05,0.9306331276893616
57.29526100,57295261,2,0.36596789956092834,-0.004004731774330139,-2.2678459572489373e-05,0.9306188821792603
57.39527500,57395275,2,0.3659997582435608,-0.0039732009172439575,2.8410218874341808e-05,0.930606484413147
57.49530900,57495309,2,0.3659887909889221,-0.003978018648922443,7.552418537670746e-05,0.9306107759475708
57.59526100,57595261,2,0.36597898602485657,-0.003960858099162579,0.00014238018775358796,0.9306146502494812
57.69532800,57695328,2,0.36591657996177673,-0.003923970740288496,0.00013231491902843118,0.930639386177063
57.79526800,57795268,2,0.3658582866191864,-0.003935534507036209,0.00019150046864524484,0.930662214756012
57.89525900,57895259,2,0.3657698631286621,-0.003921604249626398,0.00022025880753062665,0.9306970238685608
57.99526700,57995267,2,0.3657720386981964,-0.003957014065235853,0.00020423480600584298,0.9306960105895996
58.09526400,58095264,2,0.3658250570297241,-0.0039365049451589584,0.00019929555128328502,0.9306752681732178
58.19526400,58195264,2,0.3658674359321594,-0.003927021287381649,0.00019876816077157855,0.9306586980819702
58.29529500,58295295,2,0.3658846914768219,-0.003914150409400463,0.00022127534612081945,0.9306519031524658
58.39530600,58395306,2,0.3658949136734009,-0.003863612189888954,0.0002887164009734988,0.9306480884552002
58.49525700,58495257,2,0.3658977746963501,-0.0038979726377874613,0.00032405430101789534,0.9306468367576599
58.59533300,58595333,2,0.365958571434021,-0.0038640061393380165,0.00033947729389183223,0.9306230545043945
58.69527000,58695270,2,0.3659762740135193,-0.00381148187443614,0.00035360659239813685,0.9306163191795349
58.79527100,58795271,2,0.3659818768501282,-0.003833615221083164,0.00039220592589117587,0.9306139945983887
58.89528100,58895281,2,0.365992933511734,-0.003855242393910885,0.00040256042848341167,0.9306095838546753
58.99527200,58995272,2,0.365985244512558,-0.0038647016044706106,0.00040572197758592665,0.9306125640869141
59.09527200,59095272,2,0.36599814891815186,-0.0037910749670118093,0.00040701855323277414,0.930607795715332
59.19528400,59195284,2,0.3660518229007721,-0.0038376112934201956,0.00039222033228725195,0.9305864572525024
59.29530100,59295301,2,0.36600640416145325,-0.0038706690538674593,0.000323615618981421,0.9306042194366455
59.39525600,59395256,2,0.3660171627998352,-0.0039056178648024797,0.00035453515010885894,0.9305998086929321
59.49530900,59495309,2,0.36600401997566223,-0.003928208723664284,0.00039758026832714677,0.930604875087738
59.59526800,59595268,2,0.36604994535446167,-0.003919895738363266,0.0004036018217448145,0.9305868744850159
59.69527000,59695270,2,0.3660449981689453,-0.0039024194702506065,0.0003928431251551956,0.9305889010429382
59.79527700,59795277,2,0.3660935163497925,-0.003831644542515278,0.00038940180093050003,0.930570125579834
59.89527300,59895273,2,0.3660774230957031,-0.003869855310767889,0.0003757149970624596,0.9305762648582458
59.99527100,59995271,2,0.36607280373573303,-0.003889113897457719,0.00033785481355153024,0.9305780529975891
60.09527700,60095277,2,0.36600929498672485,-0.003942220471799374,0.0003310612519271672,0.9306027889251709
60.19531000,60195310,2,0.3660176396369934,-0.003938413690775633,0.0003725105198100209,0.9305995106697083
60.29525500,60295255,2,0.3659985363483429,-0.003903542645275593,0.00035770569229498506,0.9306071996688843
60.39532800,60395328,2,0.36597004532814026,-0.003928392194211483,0.00033116372651420534,0.9306182861328125
60.49527300,60495273,2,0.36597874760627747,-0.0039194487035274506,0.00028176268097013235,0.9306148886680603
60.59527200,60595272,2,0.3659496307373047,-0.00387778552249074,0.00023662038438487798,0.9306265711784363
60.69527500,60695275,2,0.3659467399120331,-0.0038443864323198795,0.00022222867119126022,0.9306278228759766
60.79527400,60795274,2,0.3659685254096985,-0.0038119913078844547,0.0002497789391782135,0.9306193590164185
60.89528000,60895280,2,0.365963876247406,-0.0038565488066524267,0.0002380699443165213,0.9306210279464722
60.99529800,60995298,2,0.3659243881702423,-0.0038430788554251194,0.0001990796736208722,0.9306366443634033
61.09530500,61095305,2,0.36595770716667175,-0.003800037782639265,0.00023429864086210728,0.9306237101554871
61.19526300,61195263,2,0.3659021258354187,-0.003883715718984604,0.0002560413850005716,0.930645227432251
61.29530300,61295303,2,0.365892618894577,-0.003950933925807476,0.0002624054322950542,0.9306486248970032
61.39526500,61395265,2,0.365882009267807,-0.003898070426657796,0.00022887522936798632,0.9306530356407166
61.49528000,61495280,2,0.36582741141319275,-0.0038553522899746895,0.0002139692660421133,0.93067467212677
61.59526100,61595261,2,0.3658084273338318,-0.0038806681986898184,0.00019610568415373564,0.9306820631027222
61.69526300,61695263,2,0.36574098467826843,-0.0038578398525714874,0.00019398271979298443,0.930708646774292
61.79527200,61795272,2,0.36569979786872864,-0.003866076236590743,0.00018887835904024541,0.9307247996330261
61.89527600,61895276,2,0.3656153082847595,-0.003876517293974757,0.0002153821988031268,0.9307579398155212
61.99530500,61995305,2,0.36564552783966064,-0.003892921842634678,0.00022592722962144762,0.9307460188865662
62.09526100,62095261,2,0.3656962513923645,-0.003907406236976385,0.00023533686180599034,0.9307260513305664
62.19532600,62195326,2,0.36573469638824463,-0.003912609536200762,0.00019546221301425248,0.9307109117507935
62.29526400,62295264,2,0.365749716758728,-0.003925912547856569,0.00017729327373672277,0.9307049512863159
62.39526100,62395261,2,0.3657616674900055,-0.0038894270546734333,0.00020070130995009094,0.930700421333313
62.49526400,62495264,2,0.3657984137535095,-0.0038665456231683493,0.00024314597249031067,0.9306860566139221
62.59526700,62595267,2,0.3658433258533478,-0.003869329346343875,0.0002637291036080569,0.9306683540344238
62.69526200,62695262,2,0.3658844828605652,-0.003825839376077056,0.000256400991929695,0.930652379989624
62.79528000,62795280,2,0.3658943176269531,-0.0037607611157000065,0.00028947339160367846,0.9306487441062927
62.89530700,62895307,2,0.36589860916137695,-0.00375314150005579,0.00033185631036758423,0.930647075176239
62.99525600,62995256,2,0.3658949136734009,-0.003782193874940276,0.00035815415321849287,0.9306484460830688
63.09532500,63095325,2,0.36594435572624207,-0.0037960470654070377,0.00031760448473505676,0.9306289553642273
63.19526800,63195268,2,0.3659434914588928,-0.003770714160054922,0.00037817019619978964,0.9306293725967407
63.29526900,63295269,2,0.3659348785877228,-0.003825217252597213,0.00036152699613012373,0.9306325316429138
63.39526800,63395268,2,0.36592233180999756,-0.003848097752779722,0.0003503201878629625,0.9306373596191406
63.49526700,63495267,2,0.365918904542923,-0.0038974035996943712,0.00033336522756144404,0.9306384921073914
63.59526200,63595262,2,0.36591050028800964,-0.003918549977242947,0.00030836096266284585,0.930641770362854
63.69529200,63695292,2,0.3659135401248932,-0.003913238178938627,0.0002782933006528765,0.9306405782699585
63.79531300,63795313,2,0.36591652035713196,-0.003911338746547699,0.00028365952312014997,0.930639386177063
63.89525400,63895254,2,0.36588943004608154,-0.0038899416103959084,0.0003025282931048423,0.9306501746177673
63.99534500,63995345,2,0.36588218808174133,-0.003874792018905282,0.0002529988996684551,0.9306530952453613
64.09528300,64095283,2,0.3658876419067383,-0.0038430215790867805,0.00015406287275254726,0.930651068687439
64.19527200,64195272,2,0.3659001886844635,-0.003774340497329831,0.0001132005054387264,0.9306464195251465
64.29527600,64295276,2,0.3658910095691681,-0.0037428224459290504,0.00015655477182008326,0.9306501746177673
64.39527500,64395275,2,0.3658989369869232,-0.003722455585375428,0.00013000301260035485,0.9306471347808838
64.49526500,64495265,2,0.3658921718597412,-0.003751423442736268,0.0001350046950392425,0.9306496977806091
64.59527600,64595276,2,0.3659052550792694,-0.003753208788111806,8.46303446451202e-05,0.9306445121765137
64.69531000,64695310,2,0.3659219741821289,-0.003727267263457179,0.00010010906407842413,0.9306380748748779
64.79526600,64795266,2,0.3658912181854248,-0.003691979218274355,0.000155730260303244,0.9306502938270569
64.89534700,64895347,2,0.3658602237701416,-0.0036927727051079273,0.00012810945918317884,0.9306624531745911
64.99526200,64995262,2,0.3658671975135803,-0.003704148344695568,0.00015193404396995902,0.9306597113609314
65.09526700,65095267,2,0.3658120632171631,-0.0037195482291281223,9.45157662499696e-05,0.9306812882423401
65.19527700,65195277,2,0.3658457398414612,-0.0037139104679226875,5.911337575525977e-05,0.9306681156158447
65.29526200,65295262,2,0.36583662033081055,-0.0037596903275698423,2.8204873160575517e-05,0.9306715130805969
65.39526800,65395268,2,0.3658682703971863,-0.0037430550437420607,2.4637522074044682e-05,0.9306591153144836
65.49528500,65495285,2,0.36582088470458984,-0.003760797902941704,-1.1053211892431136e-05,0.9306776523590088
65.59531300,65595313,2,0.36578288674354553,-0.003739551641047001,-2.39544333453523e-05,0.9306926727294922
65.69527300,65695273,2,0.36577802896499634,-0.003658946370705962,-3.10877658193931e-05,0.9306949377059937
65.79534500,65795345,2,0.36571642756462097,-0.0036912858486175537,-6.0263781051617116e-05,0.9307190179824829
65.89526700,65895267,2,0.3657365143299103,-0.0036629566457122564,-7.935638132039458e-05,0.9307112097740173
65.99526400,65995264,2,0.3657408654689789,-0.003615543246269226,-0.00011198115680599585,0.930709719657898
66.09526600,66095266,2,0.3657313883304596,-0.0036263151559978724,-0.00017910165479406714,0.9307133555412292
66.19527100,66195271,2,0.3657282590866089,-0.0036377899814397097,-0.00021552045654971153,0.9307145476341248
66.29526200,66295262,2,0.3657284677028656,-0.0036257640458643436,-0.00025794943212531507,0.93071448802948
66.39528600,66395286,2,0.36577385663986206,-0.003644043579697609,-0.0002568449708633125,0.9306966066360474
66.49530600,66495306,2,0.3658258020877838,-0.003699003253132105,-0.00024255304015241563,0.9306759834289551
66.59527300,66595273,2,0.3658705949783325,-0.0037051639519631863,-0.0002948125475086272,0.9306583404541016
66.69533500,66695335,2,0.36588481068611145,-0.0037280102260410786,-0.00028792329248972237,0.9306526184082031
66.79527600,66795276,2,0.3659346401691437,-0.0037745495792478323,-0.0003923155600205064,0.9306328296661377
