timestamp,TimeUS,C,Roll,Pitch,Yaw,VN,VE,VD,dPD,PN,PE,PD,GX,GY,GZ,OH
9.99534700,9995347,2,0.0,0.0,0.0,0.0,0.0,0.0,0.0,0.0,0.0,0.0,0.0,0.0,0.0,0.0
10.09528500,10095285,2,0.0,0.0,0.0,0.0,0.0,0.0,0.0,0.0,0.0,0.0,0.0,0.0,0.0,0.0
10.19528900,10195289,2,0.0,0.0,0.0,0.0,0.0,0.0,0.0,0.0,0.0,0.0,0.0,0.0,0.0,0.0
10.29527700,10295277,2,0.0,0.0,0.0,0.0,0.0,0.0,0.0,0.0,0.0,0.0,0.0,0.0,0.0,0.0
10.39528600,10395286,2,0.0,0.0,0.0,0.0,0.0,0.0,0.0,0.0,0.0,0.0,0.0,0.0,0.0,0.0
10.49528100,10495281,2,0.0,0.0,0.0,0.0,0.0,0.0,0.0,0.0,0.0,0.0,0.0,0.0,0.0,0.0
10.59531500,10595315,2,0.0,0.0,0.0,0.0,0.0,0.0,0.0,0.0,0.0,0.0,0.0,0.0,0.0,0.0
10.69533000,10695330,2,0.0,0.0,0.0,0.0,0.0,0.0,0.0,0.0,0.0,0.0,0.0,0.0,0.0,0.0
10.79528600,10795286,2,0.0,0.0,0.0,0.0,0.0,0.0,0.0,0.0,0.0,0.0,0.0,0.0,0.0,0.0
10.89535500,10895355,2,0.0,0.0,0.0,0.0,0.0,0.0,0.0,0.0,0.0,0.0,0.0,0.0,0.0,0.0
10.99528900,10995289,2,-0.05,0.44,359.99,-0.0026732711121439934,-0.0008337137987837195,0.015966111794114113,0.004859692882746458,0.0,0.0,0.0006131136906333268,0.0,0.0,0.0,0.0
11.09528300,11095283,2,-0.05,0.44,0.0,-0.0036316444166004658,0.0008543357835151255,0.05764132738113403,0.03339671343564987,0.0,0.0,0.004630338866263628,0.0,0.0,0.0,0.0
11.19527700,11195277,2,-0.05,0.45,359.99,-0.004401909653097391,-0.0010155015625059605,0.10364591330289841,-0.21571269631385803,0.0,0.0,-0.021685922518372536,0.0,0.0,0.0,0.0
11.29527300,11295273,2,-0.05,0.43,359.99,0.003394259372726083,0.0038362189661711454,0.13600434362888336,-0.27572548389434814,0.0,0.0,-0.04139116406440735,0.0,0.0,0.0,0.0
11.39528700,11395287,2,-0.05,0.44,0.0,-0.0034739177208393812,0.001990320859476924,0.15772201120853424,-0.22179366648197174,0.0,0.0,-0.05912505462765694,0.0,0.0,0.0,0.0
11.49529100,11495291,2,-0.05,0.43,0.0,-0.004140482749789953,0.0031920738983899355,0.1718764454126358,-0.19657747447490692,0.0,0.0,-0.0776592567563057,0.0,0.0,0.0,0.0
11.59531400,11595314,2,-0.05,0.45,0.0,-0.003927317913621664,0.00418815528973937,0.17952392995357513,-0.1884571760892868,0.0,0.0,-0.09555819630622864,0.0,0.0,0.0,0.0
11.69527800,11695278,2,-0.05,0.45,0.0,-0.004251933190971613,0.005063412245362997,0.18404711782932281,-0.13850301504135132,0.0,0.0,-0.10880039632320404,0.0,0.0,0.0,0.0
11.79536400,11795364,2,-0.05,0.45,0.0,-0.0062500727362930775,0.003834508592262864,0.18599119782447815,-0.05930988863110542,0.0,0.0,-0.11431445926427841,0.0,0.0,0.0,0.0
11.89527600,11895276,2,-0.05,0.44,359.99,-0.0040784054435789585,0.006005897652357817,0.18542663753032684,0.03222862631082535,0.0,0.0,-0.11236416548490524,0.0,0.0,0.0,0.0
11.99528400,11995284,2,-0.06,0.44,0.0,-0.0035694013349711895,0.006158744916319847,0.1850757598876953,0.09431886672973633,0.0,0.0,-0.10602957755327225,0.0,0.0,0.0,0.0
12.09528100,12095281,2,-0.07,0.44,0.0,-0.006490928120911121,0.00542659405618906,0.18347220122814178,0.09940401464700699,0.0,0.0,-0.09984956681728363,0.0,0.0,0.0,0.0
12.19527100,12195271,2,-0.07,0.43,0.0,-0.0042848424054682255,0.00476209819316864,0.18075068295001984,0.08571576327085495,0.0,0.0,-0.09302245825529099,0.0,0.0,0.0,0.0
12.29528300,12295283,2,-0.08,0.44,359.99,-0.011679627932608128,0.0023579339031130075,0.17766353487968445,0.08789114654064178,0.0,0.0,-0.08513544499874115,0.0,0.0,0.0,0.0
12.39531100,12395311,2,-0.09,0.47000000000000003,359.99,0.006897132843732834,0.0032327622175216675,0.17381566762924194,0.07140412926673889,0.0,0.0,-0.07935620099306107,0.0,0.0,0.0,0.0
12.49531600,12495316,2,-0.1,0.38,136.85,0.06628520041704178,-0.0044575827196240425,0.16912353038787842,0.038825467228889465,0.0,0.0,-0.07637770473957062,0.0,0.0,0.0,0.0
12.59528500,12595285,2,-0.14,0.45,136.04,0.0455065593123436,0.006093504838645458,0.16221706569194794,0.006491013802587986,0.0,0.0,-0.07519961893558502,0.0,0.0,0.0,0.0
12.69531900,12695319,2,-0.15,0.43,133.99,0.056169893592596054,-0.004725888837128878,0.1576688289642334,-0.006277407519519329,0.0,0.0,-0.07459799200296402,0.0,0.0,0.02,0.0
12.79527700,12795277,2,-0.15,0.41000000000000003,131.23,0.021300092339515686,0.00643786508589983,0.15134462714195251,-0.0009559388272464275,0.0,0.0,-0.07327726483345032,0.0,0.0,0.03,0.0
12.89527500,12895275,2,-0.16,0.42,128.37,0.02752518467605114,0.0017221265006810427,0.1441667228937149,-0.022582195699214935,0.0,0.0,-0.07604672014713287,0.0,0.0,0.05,0.0
12.99527700,12995277,2,-0.17,0.39,125.8,0.02059183083474636,0.005378183908760548,0.13692086935043335,-0.03660350292921066,0.0,0.0,-0.07808903604745865,0.0,0.0,0.07,0.0
13.09528300,13095283,2,-0.18,0.39,124.04,0.013631727546453476,0.009108454920351505,0.12970572710037231,-0.04340125620365143,0.0,0.0,-0.08200039714574814,0.0,0.0,0.03,0.0
13.19527600,13195276,2,-0.17,0.37,123.33,0.01865309663116932,0.0063052913174033165,0.11927343904972076,-0.09725441038608551,0.0,0.0,-0.09183213114738464,0.0,0.0,0.0,0.0
13.29528800,13295288,2,-0.17,0.37,123.54,0.010583982802927494,0.012463974766433239,0.11017302423715591,-0.11922887712717056,0.0,0.0,-0.10115400701761246,0.0,0.0,-0.04,0.0
13.39531700,13395317,2,-0.17,0.38,124.36,0.012735145166516304,0.011250951327383518,0.10093923658132553,-0.1058792918920517,0.0,0.0,-0.11015155911445618,0.0,0.0,-0.08,0.0
13.49529200,13495292,2,-0.16,0.38,125.49000000000001,0.012154114432632923,0.011390470899641514,0.09085927158594131,-0.12551113963127136,0.0,0.0,-0.12275822460651398,0.0,0.0,-0.12,0.0
13.59534900,13595349,2,-0.15,0.38,126.69,0.007601957302540541,0.013570060022175312,0.08252279460430145,-0.128601536154747,0.0,0.0,-0.13388904929161072,0.0,0.0,-0.16,0.0
13.69527500,13695275,2,-0.14,0.38,127.83,0.010297482833266258,0.01117017026990652,0.0765373483300209,-0.06625127792358398,0.0,0.0,-0.138482928276062,0.0,0.0,-0.2,0.0
13.79527600,13795276,2,-0.14,0.38,128.83,0.007437426596879959,0.011623227037489414,0.07053025811910629,-0.03456388786435127,0.0,0.0,-0.1437113732099533,0.0,0.0,-0.24,0.0
13.89527600,13895276,2,-0.13,0.38,129.66,0.005619492847472429,0.011654329486191273,0.06209084391593933,-0.08714018017053604,0.0,0.0,-0.15474601089954376,0.0,0.0,-0.27,0.0
13.99527300,13995273,2,-0.12,0.38,130.33,0.007251103408634663,0.009910269640386105,0.0553056001663208,-0.09969625622034073,0.0,0.0,-0.16298642754554749,0.0,0.0,-0.31,0.0
14.09528000,14095280,2,-0.1,0.38,130.88,0.004056605510413647,0.009869405068457127,0.04786432534456253,-0.09420384466648102,0.0,0.0,-0.17246374487876892,0.0,0.0,-0.35000000000000003,0.0
14.19529200,14195292,2,-0.09,0.38,131.33,0.0033097697887569666,0.009035804308950901,0.039233241230249405,-0.11133018136024475,0.0,0.0,-0.18331925570964813,0.0,0.0,-0.39,0.0
14.29532200,14295322,2,-0.09,0.38,131.73,0.002522137714549899,0.0073448363691568375,0.03305526450276375,-0.10363949090242386,0.0,0.0,-0.1927364319562912,-0.01,0.0,-0.42,0.0
14.39527800,14395278,2,-0.08,0.39,132.08,-0.0008110717171803117,0.006593473255634308,0.025798242539167404,-0.09153863042593002,0.0,0.0,-0.20164386928081512,-0.01,0.0,-0.46,0.0
14.49532500,14495325,2,-0.08,0.39,132.43,-0.001637469045817852,0.00519068818539381,0.018509238958358765,-0.08973122388124466,0.0,0.0,-0.21069912612438202,-0.01,0.0,-0.5,0.0
14.59527900,14595279,2,-0.07,0.39,132.74,-0.0025956968311220407,0.004429722670465708,0.013279974460601807,-0.06738372892141342,0.0,0.0,-0.2167913168668747,-0.01,0.0,-0.53,0.0
14.69527300,14695273,2,-0.07,0.39,133.05,-0.005186208989471197,0.004123050719499588,0.006197410169988871,-0.07500845193862915,0.0,0.0,-0.22634626924991608,-0.01,0.0,-0.5700000000000001,0.0
14.79527600,14795276,2,-0.06,0.39,133.34,-0.004951174836605787,0.0037630831357091665,-0.0004401142941787839,-0.1008981317281723,0.0,0.0,-0.23618406057357788,-0.01,0.0,-0.6,0.0
14.89528200,14895282,2,-0.06,0.39,133.63,-0.0062338304705917835,0.0032950162421911955,-0.004747477825731039,-0.07961148768663406,0.0,0.0,-0.24292005598545074,-0.01,0.0,-0.63,0.0
14.99527300,14995273,2,-0.05,0.39,133.9,-0.007376569788902998,0.0031240954995155334,-0.011669399216771126,-0.10192618519067764,0.0,0.0,-0.25390154123306274,-0.01,0.0,-0.66,0.0
15.09529600,15095296,2,-0.05,0.4,134.13,-0.006405940279364586,0.0014998356346040964,-0.019374482333660126,-0.1478308141231537,0.0,0.0,-0.26798170804977417,-0.01,0.0,-0.67,0.0
15.19532700,15195327,2,-0.05,0.39,134.36,-0.006819759961217642,0.00045750115532428026,-0.027505068108439445,-0.1565030962228775,0.0,0.0,-0.28230181336402893,-0.01,0.0,-0.7000000000000001,0.0
15.29528300,15295283,2,-0.05,0.4,134.58,-0.008081374689936638,-2.4786075300653465e-05,-0.036101438105106354,-0.15896625816822052,0.0,0.0,-0.2971075177192688,-0.01,0.0,-0.73,0.0
15.39534200,15395342,2,-0.05,0.41000000000000003,134.8,-0.007180523127317429,-0.001411793869920075,-0.043524712324142456,-0.15121082961559296,0.0,0.0,-0.3113853335380554,-0.01,0.0,-0.76,0.0
15.49528200,15495282,2,-0.06,0.42,135.0,-0.006985112093389034,-0.002444250974804163,-0.047884996980428696,-0.12939174473285675,0.0,0.0,-0.3241059482097626,-0.01,0.0,-0.78,0.0
15.59528300,15595283,2,-0.06,0.43,135.2,-0.007282913662493229,-0.0029953732155263424,-0.05127258226275444,-0.11231939494609833,0.0,0.0,-0.3356848955154419,-0.01,0.0,-0.8,0.0
15.69527600,15695276,2,-0.05,0.43,135.38,-0.006090132985264063,-0.004258912056684494,-0.05565839260816574,-0.09949629008769989,0.0,0.0,-0.3459509015083313,-0.01,0.0,-0.8200000000000001,0.0
15.79528000,15795280,2,-0.05,0.44,135.57,-0.0054528117179870605,-0.005179842002689838,-0.0593065582215786,-0.08722571283578873,0.0,0.0,-0.355276495218277,-0.01,0.0,-0.84,0.0
15.89528200,15895282,2,-0.05,0.44,135.76,-0.0046916743740439415,-0.006506831385195255,-0.06387675553560257,-0.09566354751586914,0.0,0.0,-0.3658294379711151,0.0,0.0,-0.87,0.0
15.99529100,15995291,2,-0.05,0.44,135.94,-0.002664361149072647,-0.007949938997626305,-0.0661834105849266,-0.08549915999174118,0.0,0.0,-0.3739578127861023,0.0,0.0,-0.88,0.0
16.09532000,16095320,2,-0.05,0.44,136.12,-0.001941100461408496,-0.009104049764573574,-0.06948971003293991,-0.07630231231451035,0.0,0.0,-0.38253268599510193,0.0,0.0,-0.89,0.0
16.19526500,16195265,2,-0.05,0.45,136.28,-0.001406296738423407,-0.009573275223374367,-0.07155148684978485,-0.0621587410569191,0.0,0.0,-0.38831403851509094,0.0,0.0,-0.89,0.0
16.29534300,16295343,2,-0.05,0.45,136.42000000000002,-0.00048391480231657624,-0.010007764212787151,-0.07254739105701447,-0.03008713759481907,0.0,0.0,-0.39191552996635437,0.0,0.0,-0.9,0.0
16.39527800,16395278,2,-0.06,0.45,136.56,-0.00048211487592197955,-0.010403422638773918,-0.07145895808935165,-0.011245567351579666,0.0,0.0,-0.393899530172348,0.0,0.0,-0.91,0.0
16.49527300,16495273,2,-0.06,0.45,136.68,-7.81032067607157e-05,-0.010999124497175217,-0.07172397524118423,-0.017980197444558144,0.0,0.0,-0.39772915840148926,0.0,0.0,-0.91,0.0
16.59527300,16595273,2,-0.06,0.46,136.81,0.0010003341594710946,-0.011150509119033813,-0.07520373910665512,-0.0625491738319397,0.0,0.0,-0.4048170745372772,0.0,0.0,-0.92,0.0
16.69527500,16695275,2,-0.07,0.46,136.94,0.002447835635393858,-0.010991022922098637,-0.07816705852746964,-0.09248813986778259,0.0,0.0,-0.41354748606681824,0.0,0.0,-0.9400000000000001,0.0
16.79528400,16795284,2,-0.07,0.46,137.08,0.002792484825477004,-0.010534260421991348,-0.07933416962623596,-0.07774561643600464,0.0,0.0,-0.4195822775363922,0.0,0.0,-0.9400000000000001,0.0
16.89530500,16895305,2,-0.07,0.46,137.21,0.00310840317979455,-0.009998421184718609,-0.08108464628458023,-0.06341476738452911,0.0,0.0,-0.4260038733482361,0.0,0.0,-0.9500000000000001,0.0
16.99531300,16995313,2,-0.07,0.46,137.34,0.0034543510992079973,-0.009791086427867413,-0.083193339407444,-0.07169916480779648,0.0,0.0,-0.4333684742450714,0.0,0.0,-0.96,0.0
17.09526900,17095269,2,-0.07,0.45,137.47,0.0030013700015842915,-0.009881749749183655,-0.08510911464691162,-0.08085621148347855,0.0,0.0,-0.44142305850982666,0.0,0.0,-0.97,0.0
17.19534800,17195348,2,-0.07,0.45,137.6,0.003831204492598772,-0.009188927710056305,-0.08778080344200134,-0.08067508786916733,0.0,0.0,-0.4489690363407135,0.0,0.0,-0.97,0.0
17.29527600,17295276,2,-0.07,0.45,137.72,0.0039015423972159624,-0.007692741230130196,-0.08925123512744904,-0.06303412467241287,0.0,0.0,-0.45474573969841003,0.0,0.0,-0.96,0.0
17.39527500,17395275,2,-0.07,0.44,137.83,0.0032748193480074406,-0.006852488964796066,-0.0900963842868805,-0.04569225758314133,0.0,0.0,-0.4596432149410248,0.0,0.0,-0.97,0.0
17.49528100,17495281,2,-0.07,0.44,137.93,0.003235764103010297,-0.005984172690659761,-0.0880560427904129,-0.02446172386407852,0.0,0.0,-0.4623439610004425,0.0,0.0,-0.97,0.0
17.59527300,17595273,2,-0.07,0.44,138.03,0.004183194134384394,-0.005998894572257996,-0.08792484551668167,-0.016208423301577568,0.0,0.0,-0.46513280272483826,0.0,0.0,-0.97,0.0
17.69527600,17695276,2,-0.07,0.44,138.12,0.004232409410178661,-0.0043701971881091595,-0.08758053183555603,-0.021707767620682716,0.0,0.0,-0.46809276938438416,0.0,0.0,-0.96,0.0
17.79529100,17795291,2,-0.07,0.44,138.21,0.0035359130706638098,-0.0032472340390086174,-0.08659839630126953,-0.016953065991401672,0.0,0.0,-0.46996018290519714,0.0,0.0,-0.96,0.0
17.89532900,17895329,2,-0.08,0.44,138.29,0.003682123264297843,-0.0020472698379307985,-0.08467347919940948,0.002654384123161435,0.0,0.0,-0.46968841552734375,0.0,0.0,-0.96,0.0
17.99527100,17995271,2,-0.08,0.43,138.37,0.003496568650007248,-0.0020509224850684404,-0.08201427012681961,0.015774909406900406,0.0,0.0,-0.46901994943618774,0.0,0.0,-0.9500000000000001,0.0
18.09534100,18095341,2,-0.08,0.42,138.43,0.003819818375632167,-0.0009485686896368861,-0.08024635910987854,0.00886645819991827,0.0,0.0,-0.4691234230995178,0.0,0.0,-0.93,0.0
18.19528900,18195289,2,-0.08,0.43,138.48,0.0038664115127176046,0.00016633198538329452,-0.07785957306623459,0.005558954086154699,0.0,0.0,-0.46875548362731934,0.0,0.0,-0.92,0.0
18.29527400,18295274,2,-0.09,0.42,138.51,0.004618310369551182,0.0012741511454805732,-0.0760674998164177,0.021766098216176033,0.0,0.0,-0.46628475189208984,0.0,0.0,-0.9,0.0
18.39527500,18395275,2,-0.09,0.42,138.54,0.004899395164102316,0.0018612031126394868,-0.0739186555147171,0.030169008299708366,0.0,0.0,-0.4641311466693878,0.0,0.0,-0.89,0.0
18.49527900,18495279,2,-0.09,0.42,138.58,0.005549873225390911,0.00220453180372715,-0.07198751717805862,0.013258786872029305,0.0,0.0,-0.4637924134731293,0.0,0.0,-0.88,0.0
18.59527300,18595273,2,-0.1,0.42,138.61,0.005193231627345085,0.0028901374898850918,-0.06903186440467834,0.014662017114460468,0.0,0.0,-0.46134114265441895,0.0,0.0,-0.87,0.0
18.69529800,18695298,2,-0.1,0.43,138.63,0.0059832059778273106,0.002819737186655402,-0.06559814512729645,0.04420362412929535,0.0,0.0,-0.45668572187423706,0.0,0.0,-0.86,0.0
18.79531800,18795318,2,-0.1,0.41000000000000003,138.66,0.005938251968473196,0.0030195408035069704,-0.06270454823970795,0.053003452718257904,0.0,0.0,-0.4524960219860077,0.0,0.0,-0.85,0.0
18.89527100,18895271,2,-0.11,0.42,138.69,0.006308753974735737,0.0038273539394140244,-0.05890274420380592,0.05874161049723625,0.0,0.0,-0.4468356668949127,0.0,0.0,-0.84,0.0
18.99534100,18995341,2,-0.11,0.42,138.71,0.006768044549971819,0.004147788044065237,-0.05433393269777298,0.06968145072460175,0.0,0.0,-0.44049927592277527,0.0,0.0,-0.8200000000000001,0.0
19.09527800,19095278,2,-0.1,0.42,138.72,0.006814048625528812,0.0054248315282166,-0.050687629729509354,0.06778521090745926,0.0,0.0,-0.43564173579216003,0.0,0.0,-0.81,0.0
19.19527900,19195279,2,-0.1,0.41000000000000003,138.74,0.006900171283632517,0.006453104317188263,-0.04762319475412369,0.046647775918245316,0.0,0.0,-0.4317857623100281,0.0,0.0,-0.8,0.0
19.29527300,19295273,2,-0.1,0.41000000000000003,138.75,0.00764485215768218,0.006135714706033468,-0.04483812302350998,0.014144144020974636,0.0,0.0,-0.4302591383457184,0.0,0.0,-0.79,0.0
19.39527600,19395276,2,-0.09,0.41000000000000003,138.77,0.00666023651137948,0.006830805912613869,-0.04375447705388069,-0.0022116887848824263,0.0,0.0,-0.4295153319835663,0.0,0.01,-0.78,0.0
19.49528200,19495282,2,-0.09,0.41000000000000003,138.79,0.006472758483141661,0.007241767831146717,-0.04362861439585686,-0.016960864886641502,0.0,0.0,-0.43055638670921326,0.0,0.01,-0.77,0.0
19.59528800,19595288,2,-0.09,0.41000000000000003,138.81,0.005529698450118303,0.008340766653418541,-0.04314255714416504,-0.018768493086099625,0.0,0.0,-0.4312741458415985,0.0,0.01,-0.76,0.0
19.69531600,19695316,2,-0.09,0.41000000000000003,138.83,0.005702340044081211,0.008440444245934486,-0.04303393140435219,-0.0040895212441682816,0.0,0.0,-0.43101245164871216,0.0,0.01,-0.75,0.0
19.79527100,19795271,2,-0.09,0.41000000000000003,138.85,0.005797390826046467,0.00857869815081358,-0.04125117138028145,0.009163020178675652,0.0,0.0,-0.4300943613052368,0.0,0.01,-0.74,0.0
19.89536200,19895362,2,-0.08,0.4,138.87,0.005078235175460577,0.007450353354215622,-0.03959258273243904,0.012153484858572483,0.0,0.0,-0.42928585410118103,0.0,0.01,-0.73,0.0
19.99527600,19995276,2,-0.08,0.41000000000000003,138.9,0.004834265448153019,0.007266804575920105,-0.03591329976916313,0.031172510236501694,0.0,0.0,-0.42600494623184204,0.0,0.01,-0.73,0.0
20.09527800,20095278,2,-0.08,0.4,138.94,0.00455809012055397,0.006688535679131746,-0.03228927403688431,0.06948288530111313,0.0,0.0,-0.41950398683547974,0.0,0.01,-0.72,0.0
20.19527200,20195272,2,-0.08,0.4,138.96,0.0038594198413193226,0.006393092684447765,-0.028605999425053596,0.0646476075053215,0.0,0.0,-0.41505011916160583,0.0,0.01,-0.72,0.0
20.29527400,20295274,2,-0.08,0.4,138.99,0.0025799742434173822,0.005946817807853222,-0.026650816202163696,0.034189797937870026,0.0,0.0,-0.41215184330940247,0.0,0.01,-0.7000000000000001,0.0
20.39527500,20395275,2,-0.07,0.4,139.01,0.0016627215081825852,0.005440837237983942,-0.024346131831407547,0.0232821237295866,0.0,0.0,-0.4095945954322815,0.0,0.01,-0.6900000000000001,0.0
20.49529300,20495293,2,-0.07,0.4,139.02,0.0021022551227360964,0.004534891806542873,-0.023465847596526146,0.009146014228463173,0.0,0.0,-0.40847048163414,0.0,0.01,-0.68,0.0
20.59531600,20595316,2,-0.06,0.4,139.04,0.0007432044367305934,0.0030765803530812263,-0.019491059705615044,0.04965464398264885,0.0,0.0,-0.4018804132938385,0.0,0.01,-0.68,0.0
20.69527100,20695271,2,-0.06,0.4,139.05,0.000476899032946676,0.001745171844959259,-0.015054435469210148,0.09167705476284027,0.0,0.0,-0.3937811255455017,0.0,0.01,-0.66,0.0
20.79533700,20795337,2,-0.06,0.4,139.06,0.0005783686647191644,0.0015753884799778461,-0.011005434207618237,0.08212074637413025,0.0,0.0,-0.38715142011642456,0.0,0.01,-0.66,0.0
20.89528600,20895286,2,-0.06,0.39,139.07,0.0005024723359383643,0.0018281304510310292,-0.0072281076572835445,0.07967735826969147,0.0,0.0,-0.3795495331287384,0.0,0.01,-0.65,0.0
20.99527300,20995273,2,-0.07,0.4,139.07,2.0483987100305967e-05,0.0016400375170633197,-0.004452366381883621,0.06736767292022705,0.0,0.0,-0.37374642491340637,0.0,0.01,-0.63,0.0
21.09527500,21095275,2,-0.07,0.4,139.07,-0.00011783733498305082,0.0006132700946182013,-0.0027060178108513355,0.05212656408548355,0.0,0.0,-0.36815503239631653,0.0,0.01,-0.62,0.0
21.19528300,21195283,2,-0.07,0.4,139.06,-0.0005586589686572552,0.0003442993329372257,0.0007091193692758679,0.06533709913492203,0.0,0.0,-0.36119621992111206,0.0,0.01,-0.61,0.0
21.29527300,21295273,2,-0.07,0.4,139.05,-0.0002445554709993303,-0.0003269970475230366,0.0041450634598731995,0.07574742287397385,0.0,0.0,-0.3538607060909271,-0.01,0.01,-0.61,0.0
21.39530400,21395304,2,-0.07,0.39,139.05,0.00022965831158217043,-0.000797558925114572,0.007513110991567373,0.08367481827735901,0.0,0.0,-0.3456806540489197,-0.01,0.01,-0.6,0.0
21.49532400,21495324,2,-0.07,0.4,139.06,-0.0003929448139388114,-0.00016271117783617228,0.010094750672578812,0.086980901658535,0.0,0.0,-0.3369905948638916,-0.01,0.01,-0.59,0.0
21.59526800,21595268,2,-0.07,0.4,139.06,-0.0009979179594665766,-0.0007910103304311633,0.012545239180326462,0.08264782279729843,0.0,0.0,-0.32937192916870117,-0.01,0.01,-0.58,0.0
21.69533800,21695338,2,-0.07,0.4,139.07,-0.0005855794297531247,-0.0010761123849079013,0.015549630858004093,0.08554991334676743,0.0,0.0,-0.3203548491001129,-0.01,0.01,-0.5700000000000001,0.0
21.79528000,21795280,2,-0.07,0.4,139.07,-0.0006317293155007064,-0.001499583711847663,0.01863904669880867,0.07570158690214157,0.0,0.0,-0.3140767216682434,-0.01,0.01,-0.56,0.0
21.89527200,21895272,2,-0.07,0.4,139.06,-0.00014307738456409425,-0.002102544531226158,0.021477969363331795,0.06872100383043289,0.0,0.0,-0.3063077926635742,-0.01,0.01,-0.55,0.0
21.99527300,21995273,2,-0.07,0.41000000000000003,139.05,0.000391631037928164,-0.0027992285322397947,0.02420983277261257,0.07181994616985321,0.0,0.0,-0.29938653111457825,-0.01,0.01,-0.55,0.0
22.09527900,22095279,2,-0.08,0.4,139.06,0.0005371104925870895,-0.0036336889024823904,0.027703454717993736,0.0735003724694252,0.0,0.0,-0.29178041219711304,-0.01,0.01,-0.55,0.0
22.19528100,22195281,2,-0.08,0.4,139.06,0.0002890485629905015,-0.0036724640522152185,0.028175419196486473,0.04196978732943535,0.0,0.0,-0.28869590163230896,-0.01,0.01,-0.54,0.0
22.29528300,22295283,2,-0.08,0.41000000000000003,139.07,0.0006445409380830824,-0.004140265751630068,0.026570621877908707,-0.01861022412776947,0.0,0.0,-0.2902475893497467,-0.01,0.01,-0.53,0.0
22.39532000,22395320,2,-0.08,0.4,139.07,0.0008552145445719361,-0.003922651056200266,0.025019224733114243,-0.07236707955598831,0.0,0.0,-0.2962568700313568,-0.01,0.01,-0.52,0.0
22.49528900,22495289,2,-0.08,0.41000000000000003,139.07,0.0008916237857192755,-0.004633517935872078,0.024162529036402702,-0.07732958346605301,0.0,0.0,-0.30078691244125366,-0.01,0.01,-0.51,0.0
22.59531900,22595319,2,-0.09,0.41000000000000003,139.05,0.0010253896471112967,-0.005449861753731966,0.02232051081955433,-0.06966689974069595,0.0,0.0,-0.3066179156303406,-0.01,0.01,-0.5,0.0
22.69527600,22695276,2,-0.09,0.41000000000000003,139.04,0.0018851949134841561,-0.00564607186242938,0.019683072343468666,-0.08132524788379669,0.0,0.0,-0.31394582986831665,-0.01,0.01,-0.5,0.0
22.79527800,22795278,2,-0.09,0.41000000000000003,139.04,0.0031006806530058384,-0.005486436653882265,0.017568238079547882,-0.08649732917547226,0.0,0.0,-0.3216708302497864,-0.01,0.01,-0.49,0.0
22.89527700,22895277,2,-0.09,0.42,139.03,0.003245451720431447,-0.004786949139088392,0.015040429309010506,-0.06917612999677658,0.0,0.0,-0.3272671103477478,-0.01,0.01,-0.48,0.0
22.99527400,22995274,2,-0.09,0.42,139.02,0.0036241880152374506,-0.004843069706112146,0.01441323570907116,-0.042451515793800354,0.0,0.0,-0.33133310079574585,-0.01,0.01,-0.47000000000000003,0.0
23.09527800,23095278,2,-0.09,0.41000000000000003,138.99,0.0040405793115496635,-0.004815675783902407,0.013961403630673885,-0.021680228412151337,0.0,0.0,-0.3338032066822052,-0.01,0.01,-0.46,0.0
23.19530400,23195304,2,-0.09,0.4,138.98,0.0044382172636687756,-0.0049228607676923275,0.014107814989984035,-0.019496817141771317,0.0,0.0,-0.33688923716545105,-0.01,0.01,-0.46,0.0
23.29531400,23295314,2,-0.1,0.4,138.96,0.004506752826273441,-0.00570868793874979,0.014872875064611435,-0.008716427721083164,0.0,0.0,-0.33771535754203796,-0.01,0.01,-0.45,0.0
23.39527000,23395270,2,-0.1,0.4,138.95000000000002,0.004788342863321304,-0.0066853840835392475,0.014657504856586456,-0.016228076070547104,0.0,0.0,-0.3407478630542755,-0.01,0.01,-0.44,0.0
23.49535300,23495353,2,-0.1,0.39,138.94,0.004950446542352438,-0.007112227380275726,0.014110114425420761,-0.040485966950654984,0.0,0.0,-0.34489941596984863,-0.01,0.01,-0.43,0.0
23.59527400,23595274,2,-0.1,0.39,138.92000000000002,0.004768322221934795,-0.007309920620173216,0.01406926941126585,-0.03165644779801369,0.0,0.0,-0.34706345200538635,-0.01,0.01,-0.43,0.0
23.69527400,23695274,2,-0.11,0.4,138.91,0.005124818067997694,-0.00661239679902792,0.01472683995962143,-0.013406106270849705,0.0,0.0,-0.34849125146865845,-0.01,0.01,-0.42,0.0
23.79528600,23795286,2,-0.11,0.4,138.9,0.004606613423675299,-0.005673934705555439,0.013515040278434753,-0.0236973874270916,0.0,0.0,-0.3516932427883148,-0.01,0.01,-0.41000000000000003,0.0
23.89527400,23895274,2,-0.11,0.4,138.89000000000001,0.004462234675884247,-0.004888157360255718,0.011909871362149715,-0.04813219606876373,0.0,0.0,-0.35669752955436707,-0.01,0.01,-0.4,0.0
23.99528600,23995286,2,-0.12,0.4,138.87,0.005327912978827953,-0.004962642211467028,0.011748677119612694,-0.05009840801358223,0.0,0.0,-0.36069920659065247,-0.01,0.01,-0.4,0.0
24.09528800,24095288,2,-0.12,0.4,138.86,0.006141988094896078,-0.0038584826979786158,0.010912492871284485,-0.05148797482252121,0.0,0.0,-0.3659130334854126,-0.01,0.01,-0.39,0.0
24.19531900,24195319,2,-0.12,0.4,138.84,0.006096473429352045,-0.003734070807695389,0.010330461896955967,-0.04474503546953201,0.0,0.0,-0.3694416284561157,-0.01,0.01,-0.38,0.0
24.29527700,24295277,2,-0.12,0.39,138.81,0.006601876579225063,-0.0031749061308801174,0.009787566028535366,-0.024761507287621498,0.0,0.0,-0.37173542380332947,-0.01,0.01,-0.38,0.0
24.39535100,24395351,2,-0.12,0.39,138.79,0.006401784252375364,-0.0027253662701696157,0.010701833292841911,0.004320649430155754,0.0,0.0,-0.37102752923965454,-0.01,0.01,-0.37,0.0
24.49528000,24495280,2,-0.12,0.38,138.78,0.005876477342098951,-0.0020651158411055803,0.011232628487050533,0.029351314529776573,0.0,0.0,-0.36899781227111816,-0.01,0.01,-0.37,0.0
24.59527300,24595273,2,-0.12,0.38,138.76,0.005393694154918194,-0.001902661519125104,0.012908422388136387,0.04691585153341293,0.0,0.0,-0.36537885665893555,-0.01,0.01,-0.36,0.0
24.69528300,24695283,2,-0.12,0.38,138.75,0.00622512074187398,-0.001608688267879188,0.014846808277070522,0.04923814907670021,0.0,0.0,-0.36191174387931824,-0.01,0.01,-0.35000000000000003,0.0
24.79527500,24795275,2,-0.13,0.38,138.73,0.006359982769936323,-0.0008458695956505835,0.015542526729404926,0.04816175997257233,0.0,0.0,-0.35751232504844666,-0.01,0.01,-0.34,0.0
24.89527600,24895276,2,-0.13,0.38,138.71,0.006084083579480648,-0.0003932648687623441,0.016196489334106445,0.03331426531076431,0.0,0.0,-0.3551556468009949,-0.01,0.01,-0.34,0.0
24.99528300,24995283,2,-0.12,0.38,138.68,0.007006536703556776,-0.0006214980385266244,0.01729823462665081,0.009639034979045391,0.0,0.0,-0.35403215885162354,-0.01,0.01,-0.33,0.0
25.09531600,25095316,2,-0.12,0.38,138.65,0.0072261192835867405,8.295916632050648e-05,0.01831759698688984,0.0009739008964970708,0.0,0.0,-0.353497177362442,-0.01,0.01,-0.32,0.0
25.19528200,25195282,2,-0.12,0.38,138.63,0.006566604599356651,0.001515726326033473,0.0194091759622097,0.02135372720658779,0.0,0.0,-0.3502410650253296,-0.01,0.01,-0.32,0.0
25.29535800,25295358,2,-0.12,0.38,138.61,0.005873498041182756,0.002744136843830347,0.02091715857386589,0.057827387005090714,0.0,0.0,-0.34447139501571655,-0.01,0.01,-0.31,0.0
25.39528000,25395280,2,-0.13,0.38,138.59,0.005698097869753838,0.004177602007985115,0.021911248564720154,0.06426882743835449,0.0,0.0,-0.33928367495536804,-0.01,0.01,-0.31,0.0
25.49528800,25495288,2,-0.13,0.38,138.57,0.005468454211950302,0.004943218547850847,0.02294008433818817,0.05928285792469978,0.0,0.0,-0.33385542035102844,-0.01,0.01,-0.3,0.0
25.59528800,25595288,2,-0.14,0.38,138.56,0.005762395448982716,0.005108760669827461,0.02485528588294983,0.06101660802960396,0.0,0.0,-0.32821977138519287,-0.01,0.01,-0.3,0.0
25.69528900,25695289,2,-0.14,0.38,138.55,0.006077182479202747,0.005555823910981417,0.026485241949558258,0.05468156561255455,0.0,0.0,-0.32314106822013855,-0.01,0.01,-0.29,0.0
25.79528200,25795282,2,-0.14,0.37,138.54,0.006042585242539644,0.00792219303548336,0.025785334408283234,0.022772502154111862,0.0,0.0,-0.3214631676673889,-0.01,0.01,-0.29,0.0
25.89530300,25895303,2,-0.14,0.37,138.53,0.005924911703914404,0.009254073724150658,0.02443898655474186,-0.019077947363257408,0.0,0.0,-0.32278206944465637,-0.01,0.01,-0.29,0.0
25.99531500,25995315,2,-0.13,0.37,138.53,0.006228258367627859,0.01008529867976904,0.024517565965652466,-0.02346874214708805,0.0,0.0,-0.3232671916484833,-0.01,0.01,-0.29,0.0
26.09529000,26095290,2,-0.13,0.37,138.53,0.005518034100532532,0.012050674296915531,0.02401140332221985,-0.006485152989625931,0.0,0.0,-0.3229876458644867,-0.01,0.01,-0.28,0.0
26.19535900,26195359,2,-0.13,0.37,138.53,0.005258400458842516,0.01246840413659811,0.023230338469147682,-0.016810880973935127,0.0,0.0,-0.3249969482421875,-0.01,0.01,-0.28,0.0
26.29527600,26295276,2,-0.13,0.37,138.53,0.006188082508742809,0.01368273701518774,0.022725243121385574,-0.030560271814465523,0.0,0.0,-0.32729604840278625,-0.01,0.01,-0.27,0.0
26.39527600,26395276,2,-0.13,0.37,138.52,0.006498032249510288,0.014123694971203804,0.022466234862804413,-0.048073768615722656,0.0,0.0,-0.3322376608848572,-0.01,0.01,-0.27,0.0
26.49529000,26495290,2,-0.13,0.36,138.51,0.005684075877070427,0.014871461316943169,0.021120289340615273,-0.06743181496858597,0.0,0.0,-0.33768534660339355,-0.01,0.01,-0.27,0.0
26.59528700,26595287,2,-0.13,0.36,138.5,0.00485274801030755,0.015230289660394192,0.020508594810962677,-0.0447230339050293,0.0,0.0,-0.34070059657096863,-0.01,0.01,-0.26,0.0
26.69527600,26695276,2,-0.13,0.36,138.49,0.005004838574677706,0.015721505507826805,0.019575687125325203,-0.022428981959819794,0.0,0.0,-0.34296607971191406,-0.01,0.01,-0.26,0.0
26.79529000,26795290,2,-0.13,0.36,138.47,0.003951734397560358,0.016508758068084717,0.018966568633913994,-0.018384696915745735,0.0,0.0,-0.34522274136543274,-0.01,0.01,-0.25,0.0
26.89534000,26895340,2,-0.13,0.36,138.44,0.004042825661599636,0.016888320446014404,0.018476031720638275,-0.02201075479388237,0.0,0.0,-0.34787628054618835,-0.01,0.01,-0.24,0.0
26.99528400,26995284,2,-0.13,0.36,138.41,0.003538430668413639,0.016546480357646942,0.018799401819705963,-0.012335145846009254,0.0,0.0,-0.34871768951416016,-0.01,0.01,-0.24,0.0
27.09534600,27095346,2,-0.12,0.37,138.39000000000001,0.00416842196136713,0.0170730110257864,0.019612176343798637,0.012868228368461132,0.0,0.0,-0.3476719260215759,-0.01,0.01,-0.24,0.0
27.19528300,27195283,2,-0.12,0.36,138.38,0.0031214032787829638,0.016043903306126595,0.020088249817490578,0.021037954837083817,0.0,0.0,-0.3464750349521637,-0.01,0.01,-0.23,0.0
27.29527400,27295274,2,-0.12,0.37,138.36,0.0038582435809075832,0.017292307689785957,0.02109440043568611,0.027441784739494324,0.0,0.0,-0.3439525067806244,-0.01,0.01,-0.23,0.0
27.39528400,27395284,2,-0.13,0.37,138.35,0.003177737118676305,0.017392022535204887,0.022819433361291885,0.05049990490078926,0.0,0.0,-0.3392508327960968,-0.01,0.01,-0.23,0.0
27.49529500,27495295,2,-0.12,0.37,138.33,0.003022701246663928,0.016648011282086372,0.02388269081711769,0.06561020016670227,0.0,0.0,-0.3335396647453308,-0.01,0.01,-0.22,0.0
27.59527500,27595275,2,-0.12,0.37,138.32,0.0023002035450190306,0.016754651442170143,0.025702720507979393,0.08124904334545135,0.0,0.0,-0.32604512572288513,-0.01,0.01,-0.22,0.0
27.69529600,27695296,2,-0.12,0.37,138.31,0.002152712782844901,0.017333194613456726,0.027854815125465393,0.07531698048114777,0.0,0.0,-0.3200521767139435,-0.01,0.01,-0.21,0.0
27.79532600,27795326,2,-0.13,0.37,138.29,0.0031747056636959314,0.018270382657647133,0.029344920068979263,0.06959626823663712,0.0,0.0,-0.31318771839141846,-0.01,0.01,-0.21,0.0
27.89527900,27895279,2,-0.13,0.37,138.27,0.0030283425003290176,0.018168175593018532,0.02994127757847309,0.060452431440353394,0.0,0.0,-0.3077887296676636,-0.01,0.01,-0.21,0.0
27.99535700,27995357,2,-0.13,0.37,138.25,0.0032554299104958773,0.01871924102306366,0.03067907691001892,0.03910462558269501,0.0,0.0,-0.30397143959999084,-0.01,0.01,-0.2,0.0
28.09527900,28095279,2,-0.14,0.37,138.23,0.002963491715490818,0.018841540440917015,0.0312882661819458,0.028429286554455757,0.0,0.0,-0.3005446791648865,-0.01,0.01,-0.2,0.0
28.19527600,28195276,2,-0.13,0.37,138.22,0.00302966870367527,0.0187555942684412,0.03192675858736038,0.03444719687104225,0.0,0.0,-0.29630300402641296,-0.01,0.01,-0.2,0.0
28.29527400,28295274,2,-0.13,0.37,138.21,0.0028498077299445868,0.01842222362756729,0.03266248479485512,0.021157903596758842,0.0,0.0,-0.29471126198768616,-0.01,0.01,-0.2,0.0
28.39527700,28395277,2,-0.13,0.36,138.20000000000002,0.002507850993424654,0.017819728702306747,0.032278236001729965,-0.020984381437301636,0.0,0.0,-0.2968759536743164,-0.01,0.01,-0.19,0.0
28.49528100,28495281,2,-0.14,0.36,138.19,0.002422625431790948,0.01841047778725624,0.031278591603040695,-0.050841446965932846,0.0,0.0,-0.3005899488925934,-0.01,0.01,-0.19,0.0
28.59531200,28595312,2,-0.14,0.36,138.20000000000002,0.0029674426186829805,0.017974063754081726,0.03084859997034073,-0.038640908896923065,0.0,0.0,-0.30234023928642273,-0.01,0.01,-0.19,0.0
28.69532500,28695325,2,-0.14,0.36,138.19,0.0029311850666999817,0.01833556964993477,0.031137237325310707,-0.028776848688721657,0.0,0.0,-0.30507197976112366,-0.01,0.01,-0.19,0.0
28.79528200,28795282,2,-0.15,0.36,138.19,0.002755729714408517,0.017795301973819733,0.030755752697587013,-0.03442530706524849,0.0,0.0,-0.30821260809898376,-0.01,0.01,-0.18,0.0
28.89534400,28895344,2,-0.15,0.37,138.18,0.002977089025080204,0.01789718307554722,0.031108789145946503,-0.023812316358089447,0.0,0.0,-0.3099166452884674,-0.01,0.01,-0.18,0.0
28.99527400,28995274,2,-0.14,0.36,138.18,0.003615938127040863,0.016934553161263466,0.030972126871347427,-0.0053343274630606174,0.0,0.0,-0.3102916479110718,-0.01,0.01,-0.18,0.0
29.09527800,29095278,2,-0.14,0.36,138.17000000000002,0.002862416673451662,0.016366584226489067,0.03122706711292267,-0.0013950974680483341,0.0,0.0,-0.31109631061553955,-0.01,0.01,-0.18,0.0
29.19528900,29195289,2,-0.13,0.36,138.18,0.0032544410787522793,0.01574665680527687,0.030996475368738174,-0.00027131440583616495,0.0,0.0,-0.31117013096809387,-0.01,0.01,-0.18,0.0
29.29527400,29295274,2,-0.13,0.37,138.17000000000002,0.0035514591727405787,0.014239037409424782,0.03144156560301781,-0.0027647046372294426,0.0,0.0,-0.3119427561759949,-0.01,0.01,-0.18,0.0
29.39528000,29395280,2,-0.12,0.36,138.16,0.003555182134732604,0.013927631080150604,0.03296864032745361,0.008329560048878193,0.0,0.0,-0.3106261193752289,-0.01,0.01,-0.17,0.0
29.49528900,29495289,2,-0.12,0.37,138.14000000000001,0.004149132873862982,0.013235892169177532,0.0330841951072216,0.009069530293345451,0.0,0.0,-0.3104512691497803,-0.01,0.01,-0.17,0.0
29.59531500,29595315,2,-0.12,0.36,138.12,0.00404402194544673,0.012031449005007744,0.03349420055747032,0.0001822247140808031,0.0,0.0,-0.3105178475379944,-0.01,0.01,-0.16,0.0
29.69531100,29695311,2,-0.12,0.37,138.09,0.004118381533771753,0.01059533841907978,0.03460735082626343,0.0141877057030797,0.0,0.0,-0.3085305392742157,-0.01,0.01,-0.16,0.0
29.79534200,29795342,2,-0.12,0.36,138.07,0.003467754926532507,0.010506297461688519,0.03552044928073883,0.01869417168200016,0.0,0.0,-0.30734896659851074,-0.01,0.01,-0.16,0.0
29.89527900,29895279,2,-0.12,0.36,138.05,0.0030826469883322716,0.009753136895596981,0.036889225244522095,0.010985314846038818,0.0,0.0,-0.30657318234443665,-0.01,0.01,-0.15,0.0
29.99527200,29995272,2,-0.13,0.37,138.02,0.0033334484323859215,0.009275130927562714,0.03772840276360512,0.004972647409886122,0.0,0.0,-0.3060915768146515,-0.01,0.01,-0.15,0.0
30.09527500,30095275,2,-0.13,0.36,138.01,0.0029666938353329897,0.009251788258552551,0.03692992031574249,5.4197225836105645e-05,0.0,0.0,-0.3058679401874542,-0.01,0.01,-0.15,0.0
30.19527400,30195274,2,-0.13,0.36,137.99,0.0036245842929929495,0.008500690571963787,0.03810717165470123,0.016431743279099464,0.0,0.0,-0.3034602999687195,-0.01,0.01,-0.15,0.0
30.29526400,30295264,2,-0.14,0.37,137.97,0.003993089776486158,0.007625126279890537,0.03896867111325264,0.01886666566133499,0.0,0.0,-0.3025140166282654,-0.01,0.01,-0.14,0.0
30.39530000,30395300,2,-0.13,0.37,137.96,0.004011460114270449,0.006900278385728598,0.03960856795310974,0.013921983540058136,0.0,0.0,-0.3009450435638428,-0.01,0.01,-0.14,0.0
30.49530600,30495306,2,-0.13,0.37,137.95000000000002,0.003857353702187538,0.0060122194699943066,0.041350655257701874,0.020747698843479156,0.0,0.0,-0.2989810109138489,-0.01,0.01,-0.14,0.0
30.59525500,30595255,2,-0.13,0.37,137.94,0.0037065420765429735,0.006214510183781385,0.04176248982548714,0.012595433741807938,0.0,0.0,-0.2982141375541687,-0.01,0.01,-0.14,0.0
30.69533400,30695334,2,-0.12,0.37,137.93,0.003475937293842435,0.006170244887471199,0.04193951562047005,0.008783028461039066,0.0,0.0,-0.29686248302459717,-0.01,0.01,-0.14,0.0
30.79526800,30795268,2,-0.12,0.38,137.91,0.0036052167415618896,0.007137377746403217,0.04215007647871971,-0.013110469095408916,0.0,0.0,-0.2990976870059967,-0.01,0.01,-0.13,0.0
30.89527800,30895278,2,-0.12,0.37,137.9,0.0040956721641123295,0.006179387215524912,0.0423181988298893,-0.030866576358675957,0.0,0.0,-0.30101191997528076,-0.01,0.01,-0.13,0.0
30.99527500,30995275,2,-0.13,0.37,137.89000000000001,0.004226956982165575,0.0060158176347613335,0.04168625548481941,-0.01608581282198429,0.0,0.0,-0.30144909024238586,-0.01,0.01,-0.13,0.0
31.09527500,31095275,2,-0.13,0.37,137.88,0.004482877440750599,0.005447058938443661,0.041064903140068054,-0.002948393113911152,0.0,0.0,-0.3016051948070526,-0.01,0.01,-0.13,0.0
31.19527700,31195277,2,-0.13,0.38,137.87,0.00423330906778574,0.004921602550894022,0.04002421349287033,-0.00141082052141428,0.0,0.0,-0.3018839657306671,-0.01,0.01,-0.13,0.0
31.29527500,31295275,2,-0.13,0.38,137.86,0.0045833406038582325,0.0050021507777273655,0.04005390405654907,-0.0098262969404459,0.0,0.0,-0.3032541573047638,-0.01,0.01,-0.12,0.0
31.39530700,31395307,2,-0.13,0.38,137.85,0.005680675618350506,0.005511172581464052,0.040642958134412766,-0.01090951170772314,0.0,0.0,-0.3035505414009094,-0.01,0.01,-0.12,0.0
31.49526300,31495263,2,-0.12,0.37,137.84,0.004980545956641436,0.004469987470656633,0.040450409054756165,-0.004825647454708815,0.0,0.0,-0.3038312792778015,-0.01,0.01,-0.12,0.0
31.59532400,31595324,2,-0.13,0.38,137.82,0.005610195454210043,0.004699710290879011,0.041809193789958954,0.009335674345493317,0.0,0.0,-0.3028116822242737,-0.01,0.01,-0.12,0.0
31.69526500,31695265,2,-0.12,0.38,137.81,0.005751130171120167,0.004224078264087439,0.04245414584875107,0.007935415022075176,0.0,0.0,-0.30269935727119446,-0.01,0.01,-0.12,0.0
31.79526600,31795266,2,-0.13,0.37,137.8,0.006170135922729969,0.0035429606214165688,0.0420614555478096,-0.0206062700599432,0.0,0.0,-0.3051404356956482,-0.01,0.01,-0.12,0.0
31.89526300,31895263,2,-0.12,0.37,137.8,0.006546483840793371,0.0030721186194568872,0.04081398993730545,-0.043784789741039276,0.0,0.0,-0.30897223949432373,-0.01,0.01,-0.12,0.0
31.99526200,31995262,2,-0.12,0.38,137.79,0.007055278401821852,0.0028096127789467573,0.04096604883670807,-0.03823961690068245,0.0,0.0,-0.3115183115005493,-0.01,0.01,-0.11,0.0
32.09527800,32095278,2,-0.12,0.37,137.78,0.00760840717703104,0.0019833752885460854,0.0411001518368721,-0.02268647961318493,0.0,0.0,-0.31339767575263977,-0.01,0.01,-0.11,0.0
32.19528400,32195284,2,-0.12,0.38,137.77,0.007866797968745232,0.0006076530553400517,0.04181492701172829,-0.005339357070624828,0.0,0.0,-0.3136442303657532,-0.01,0.01,-0.11,0.0
32.29531200,32295312,2,-0.12,0.38,137.77,0.00840279832482338,0.0005254157003946602,0.04361438378691673,0.018285294994711876,0.0,0.0,-0.31215614080429077,-0.01,0.01,-0.11,0.0
32.39525900,32395259,2,-0.12,0.38,137.76,0.008167495019733906,0.00035600809496827424,0.04442025348544121,0.029235633090138435,0.0,0.0,-0.3100079596042633,-0.01,0.01,-0.11,0.0
32.49531000,32495310,2,-0.12,0.38,137.75,0.008414543233811855,0.00022672978229820728,0.04424973577260971,0.018766939640045166,0.0,0.0,-0.30905866622924805,-0.01,0.01,-0.11,0.0
32.59526400,32595264,2,-0.11,0.38,137.74,0.007822535932064056,-2.791129554680083e-05,0.04361625760793686,0.016344666481018066,0.0,0.0,-0.307115375995636,-0.01,0.01,-0.1,0.0
32.69526200,32695262,2,-0.11,0.38,137.74,0.007540986407548189,-0.00021558905427809805,0.044636502861976624,0.018451767042279243,0.0,0.0,-0.3057229816913605,-0.01,0.01,-0.1,0.0
32.79527300,32795273,2,-0.11,0.38,137.73,0.0070941555313766,-0.00082476029638201,0.045649103820323944,-0.004533308558166027,0.0,0.0,-0.30655765533447266,-0.01,0.01,-0.1,0.0
32.89526500,32895265,2,-0.11,0.37,137.72,0.006084876600652933,-0.00045060168486088514,0.04544100537896156,-0.023583099246025085,0.0,0.0,-0.308232843875885,-0.01,0.01,-0.1,0.0
32.99526200,32995262,2,-0.11,0.37,137.72,0.005920702591538429,-0.001228949287906289,0.045244257897138596,-0.010425194166600704,0.0,0.0,-0.3080301582813263,-0.01,0.01,-0.1,0.0
33.09529000,33095290,2,-0.11,0.37,137.71,0.006033362355083227,-0.0019048533868044615,0.04613140970468521,0.029031522572040558,0.0,0.0,-0.30460503697395325,-0.01,0.01,-0.1,0.0
33.19530900,33195309,2,-0.11,0.36,137.71,0.005236456636339426,-0.0017754201544448733,0.04648897424340248,0.05128324031829834,0.0,0.0,-0.30053701996803284,-0.01,0.01,-0.1,0.0
33.29525800,33295258,2,-0.11,0.36,137.69,0.0045450832694768906,-0.0019149589352309704,0.04752696678042412,0.0626370757818222,0.0,0.0,-0.29485899209976196,-0.01,0.01,-0.09,0.0
33.39533200,33395332,2,-0.11,0.36,137.69,0.004468735307455063,-0.001506903674453497,0.04874376580119133,0.0685649886727333,0.0,0.0,-0.28913867473602295,-0.01,0.01,-0.09,0.0
33.49527200,33495272,2,-0.11,0.36,137.67000000000002,0.004735605325549841,-0.00084958306979388,0.050175588577985764,0.04951339215040207,0.0,0.0,-0.2851369380950928,-0.01,0.01,-0.09,0.0
33.59526500,33595265,2,-0.1,0.36,137.66,0.004887056536972523,-0.0005398850771598518,0.051481425762176514,0.04488268494606018,0.0,0.0,-0.28023532032966614,-0.01,0.01,-0.09,0.0
33.69527100,33695271,2,-0.11,0.36,137.66,0.004651745781302452,-0.0010337879648432136,0.05301646888256073,0.04643157124519348,0.0,0.0,-0.27582213282585144,-0.01,0.01,-0.09,0.0
33.79526900,33795269,2,-0.11,0.36,137.66,0.00415567122399807,-0.001778795151039958,0.05413338914513588,0.03812422603368759,0.0,0.0,-0.2718943655490875,-0.01,0.01,-0.09,0.0
33.89526300,33895263,2,-0.1,0.36,137.65,0.004097986500710249,-0.002584297675639391,0.05578183755278587,0.026360923424363136,0.0,0.0,-0.2693225145339966,-0.01,0.01,-0.09,0.0
33.99527400,33995274,2,-0.1,0.35000000000000003,137.65,0.004129493609070778,-0.0032961403485387564,0.05656183138489723,0.018920395523309708,0.0,0.0,-0.26674699783325195,-0.01,0.01,-0.09,0.0
34.09530600,34095306,2,-0.1,0.35000000000000003,137.65,0.003153497353196144,-0.003632660023868084,0.05810209736227989,0.018457699567079544,0.0,0.0,-0.26471802592277527,-0.01,0.01,-0.09,0.0
34.19525600,34195256,2,-0.09,0.34,137.65,0.0028519383631646633,-0.004784815479069948,0.05951528996229172,0.02012304961681366,0.0,0.0,-0.262191504240036,-0.01,0.01,-0.09,0.0
34.29531100,34295311,2,-0.09,0.34,137.66,0.0015127515653148293,-0.005158012732863426,0.05991292744874954,0.014784853905439377,0.0,0.0,-0.2607654333114624,-0.01,0.01,-0.09,0.0
34.39527300,34395273,2,-0.09,0.34,137.66,0.0011233603581786156,-0.005318467505276203,0.06015434116125107,0.01103163231164217,0.0,0.0,-0.2590106725692749,-0.01,0.01,-0.09,0.0
34.49527200,34495272,2,-0.09,0.34,137.66,0.0010005125077441335,-0.006248745135962963,0.062065258622169495,0.019777512177824974,0.0,0.0,-0.2568899393081665,-0.01,0.01,-0.09,0.0
34.59527000,34595270,2,-0.09,0.35000000000000003,137.66,0.0005024855490773916,-0.006933785509318113,0.0626056045293808,0.023059027269482613,0.0,0.0,-0.2544318437576294,-0.01,0.01,-0.09,0.0
34.69526300,34695263,2,-0.09,0.34,137.66,-0.0010684538865461946,-0.008015063591301441,0.0639132484793663,0.019474605098366737,0.0,0.0,-0.25281932950019836,-0.01,0.01,-0.08,0.0
34.79526500,34795265,2,-0.09,0.34,137.65,-0.0021500317379832268,-0.0075398217886686325,0.06462759524583817,0.02174936607480049,0.0,0.0,-0.2501780390739441,-0.01,0.01,-0.08,0.0
34.89528300,34895283,2,-0.09,0.34,137.65,-0.002611116971820593,-0.007169641088694334,0.06620790809392929,0.03227801248431206,0.0,0.0,-0.24706515669822693,-0.01,0.01,-0.08,0.0
34.99530200,34995302,2,-0.09,0.34,137.65,-0.0029676344711333513,-0.007303573656827211,0.06691502034664154,0.03200264647603035,0.0,0.0,-0.24412187933921814,-0.01,0.01,-0.08,0.0
35.09525900,35095259,2,-0.1,0.33,137.65,-0.0028790426440536976,-0.0066497731022536755,0.06733383983373642,0.034593261778354645,0.0,0.0,-0.24061588943004608,-0.01,0.01,-0.08,0.0
35.19533100,35195331,2,-0.1,0.33,137.65,-0.0037189358845353127,-0.006562959402799606,0.06806452572345734,0.03401189669966698,0.0,0.0,-0.23748676478862762,-0.01,0.01,-0.08,0.0
35.29526200,35295262,2,-0.09,0.33,137.65,-0.00391001021489501,-0.008134362287819386,0.06898964196443558,0.015161406248807907,0.0,0.0,-0.23632830381393433,-0.01,0.01,-0.08,0.0
35.39526400,35395264,2,-0.09,0.33,137.66,-0.004600426182150841,-0.008311103098094463,0.06947983801364899,-0.003690458368510008,0.0,0.0,-0.23612700402736664,-0.01,0.01,-0.08,0.0
35.49526900,35495269,2,-0.09,0.33,137.65,-0.005206952802836895,-0.00816765334457159,0.07002406567335129,-0.0014296462759375572,0.0,0.0,-0.23534514009952545,-0.01,0.01,-0.08,0.0
35.59526600,35595266,2,-0.09,0.33,137.65,-0.005558079108595848,-0.008379241451621056,0.07012727856636047,0.014545312151312828,0.0,0.0,-0.23324187099933624,-0.01,0.01,-0.08,0.0
35.69526200,35695262,2,-0.09,0.32,137.64000000000001,-0.005307071376591921,-0.007283009588718414,0.06975918263196945,0.02973305806517601,0.0,0.0,-0.23023945093154907,-0.01,0.01,-0.08,0.0
35.79529700,35795297,2,-0.09,0.32,137.63,-0.005379321984946728,-0.005991872400045395,0.07075398415327072,0.04855753853917122,0.0,0.0,-0.22549663484096527,-0.01,0.01,-0.08,0.0
35.89530800,35895308,2,-0.09,0.32,137.61,-0.005185809452086687,-0.0050951833836734295,0.07180698961019516,0.05626834183931351,0.0,0.0,-0.22090886533260345,-0.01,0.01,-0.08,0.0
35.99525600,35995256,2,-0.09,0.32,137.6,-0.005924099124968052,-0.004171330947428942,0.07293614000082016,0.06006613001227379,0.0,0.0,-0.21509651839733124,-0.01,0.01,-0.07,0.0
36.09533900,36095339,2,-0.09,0.32,137.59,-0.006379485130310059,-0.004098562523722649,0.07431960850954056,0.05646312236785889,0.0,0.0,-0.21036884188652039,-0.01,0.01,-0.07,0.0
36.19526800,36195268,2,-0.08,0.32,137.59,-0.006820861715823412,-0.003919416572898626,0.0742538794875145,0.03611453250050545,0.0,0.0,-0.20681536197662354,-0.01,0.01,-0.07,0.0
36.29527100,36295271,2,-0.09,0.32,137.58,-0.007018499542027712,-0.002697769785299897,0.07452794164419174,0.026549067348241806,0.0,0.0,-0.20378297567367554,-0.01,0.01,-0.07,0.0
36.39527400,36395274,2,-0.09,0.32,137.57,-0.007690612226724625,-0.0019347276538610458,0.07567983865737915,0.032244935631752014,0.0,0.0,-0.19988243281841278,-0.01,0.01,-0.07,0.0
36.49526900,36495269,2,-0.09,0.31,137.56,-0.008181517943739891,-0.0019879566971212626,0.07719307392835617,0.0489816851913929,0.0,0.0,-0.19474685192108154,-0.01,0.01,-0.07,0.0
36.59526200,36595262,2,-0.1,0.31,137.56,-0.009180535562336445,-0.0014145018067210913,0.07814127206802368,0.06005159765481949,0.0,0.0,-0.1889675110578537,-0.01,0.01,-0.07,0.0
36.69528100,36695281,2,-0.1,0.31,137.55,-0.010020800866186619,-0.0011904820566996932,0.07894512265920639,0.06440398097038269,0.0,0.0,-0.1828707903623581,-0.01,0.01,-0.07,0.0
36.79530600,36795306,2,-0.11,0.3,137.55,-0.01062070019543171,-0.0004905902897007763,0.07908781617879868,0.05417685955762863,0.0,0.0,-0.17809930443763733,-0.01,0.01,-0.07,0.0
36.89526400,36895264,2,-0.12,0.3,137.55,-0.010369437746703625,8.29739001346752e-05,0.07983586192131042,0.03098868392407894,0.0,0.0,-0.17517392337322235,-0.01,0.01,-0.07,0.0
36.99533600,36995336,2,-0.12,0.31,137.55,-0.010404529049992561,0.0019449185347184539,0.07924263179302216,0.013590996153652668,0.0,0.0,-0.17307636141777039,-0.01,0.01,-0.07,0.0
37.09526600,37095266,2,-0.12,0.3,137.55,-0.010181513614952564,0.002346731722354889,0.07933738082647324,-0.009097348898649216,0.0,0.0,-0.17363272607326508,-0.01,0.01,-0.07,0.0
37.19528200,37195282,2,-0.12,0.31,137.55,-0.010886932723224163,0.0035065028350800276,0.07706869393587112,-0.0477299839258194,0.0,0.0,-0.17749740183353424,-0.01,0.01,-0.07,0.0
37.29527100,37295271,2,-0.12,0.31,137.56,-0.010608474723994732,0.005316795781254768,0.07491949945688248,-0.059153009206056595,0.0,0.0,-0.18133659660816193,-0.01,0.01,-0.07,0.0
37.39527500,37395275,2,-0.12,0.31,137.57,-0.011443870142102242,0.006802473682910204,0.07488742470741272,-0.04801404848694801,0.0,0.0,-0.18496298789978027,-0.01,0.01,-0.07,0.0
37.49527400,37495274,2,-0.12,0.31,137.56,-0.011868389323353767,0.007882344536483288,0.07252289354801178,-0.06284400075674057,0.0,0.0,-0.19096840918064117,-0.01,0.01,-0.07,0.0
37.59530700,37595307,2,-0.11,0.3,137.56,-0.011478142812848091,0.008082649670541286,0.07054784148931503,-0.07251368463039398,0.0,0.0,-0.19706830382347107,-0.01,0.01,-0.07,0.0
37.69530300,37695303,2,-0.12,0.3,137.56,-0.011630223132669926,0.00867058802396059,0.06973622739315033,-0.04579668492078781,0.0,0.0,-0.2008310854434967,-0.01,0.01,-0.06,0.0
37.79527000,37795270,2,-0.11,0.3,137.55,-0.0119114238768816,0.008709504269063473,0.07004985958337784,-0.017408033832907677,0.0,0.0,-0.20256292819976807,-0.01,0.01,-0.06,0.0
37.89534400,37895344,2,-0.11,0.31,137.54,-0.012474256567656994,0.008699758909642696,0.06975767016410828,-0.01147207710891962,0.0,0.0,-0.20468346774578094,-0.01,0.01,-0.06,0.0
37.99526400,37995264,2,-0.12,0.31,137.54,-0.013446511700749397,0.008455445058643818,0.07002350687980652,-0.00995211023837328,0.0,0.0,-0.2057308703660965,-0.01,0.01,-0.06,0.0
38.09526300,38095263,2,-0.11,0.31,137.53,-0.012152055278420448,0.008956662379205227,0.06995730847120285,0.016204360872507095,0.0,0.0,-0.20389054715633392,-0.01,0.01,-0.06,0.0
38.19527100,38195271,2,-0.12,0.31,137.52,-0.012583021074533463,0.009625215083360672,0.07062436640262604,0.020401831716299057,0.0,0.0,-0.2033526748418808,-0.01,0.01,-0.06,0.0
38.29527600,38295276,2,-0.12,0.31,137.52,-0.012336894869804382,0.009797727689146996,0.06971987336874008,0.016338039189577103,0.0,0.0,-0.20149102807044983,-0.01,0.01,-0.06,0.0
38.39526800,38395268,2,-0.12,0.31,137.51,-0.01240311935544014,0.010422608815133572,0.06974569708108902,0.03255797550082207,0.0,0.0,-0.19855022430419922,-0.01,0.01,-0.06,0.0
38.49528100,38495281,2,-0.12,0.31,137.49,-0.011852515861392021,0.011048358865082264,0.06863385438919067,0.04365512356162071,0.0,0.0,-0.19429436326026917,-0.01,0.01,-0.06,0.0
38.59530900,38595309,2,-0.11,0.32,137.49,-0.012037571519613266,0.011817787773907185,0.06781022995710373,0.05149967223405838,0.0,0.0,-0.18997572362422943,-0.01,0.01,-0.06,0.0
38.69527200,38695272,2,-0.12,0.32,137.49,-0.011960032396018505,0.011886131949722767,0.06765938550233841,0.05362660810351372,0.0,0.0,-0.18486693501472473,-0.01,0.01,-0.06,0.0
38.79534700,38795347,2,-0.12,0.33,137.49,-0.011874545365571976,0.012627476826310158,0.06758967787027359,0.05193307250738144,0.0,0.0,-0.1806550920009613,-0.01,0.01,-0.06,0.0
38.89527300,38895273,2,-0.12,0.34,137.48,-0.011810876429080963,0.013161375187337399,0.06836748123168945,0.03857287019491196,0.0,0.0,-0.17693081498146057,-0.01,0.01,-0.05,0.0
38.99527200,38995272,2,-0.12,0.34,137.47,-0.010352999903261662,0.012470184825360775,0.06755268573760986,0.031166138127446175,0.0,0.0,-0.17370811104774475,-0.01,0.01,-0.05,0.0
39.09529100,39095291,2,-0.12,0.35000000000000003,137.46,-0.010413585230708122,0.012521685101091862,0.06721688061952591,0.02879011444747448,0.0,0.0,-0.1704377681016922,-0.01,0.01,-0.05,0.0
39.19527800,39195278,2,-0.12,0.35000000000000003,137.45000000000002,-0.010112176649272442,0.012955586425960064,0.06731099635362625,0.015211561694741249,0.0,0.0,-0.16934074461460114,-0.01,0.01,-0.05,0.0
39.29526300,39295263,2,-0.12,0.35000000000000003,137.44,-0.00932092871516943,0.013086650520563126,0.065827377140522,-0.01558455266058445,0.0,0.0,-0.16997134685516357,-0.01,0.0,-0.05,0.0
39.39527400,39395274,2,-0.12,0.35000000000000003,137.44,-0.008691513910889626,0.012787507846951485,0.06431897729635239,-0.0310046523809433,0.0,0.0,-0.1717836707830429,-0.01,0.0,-0.05,0.0
39.49531000,39495310,2,-0.13,0.35000000000000003,137.42000000000002,-0.008024084381759167,0.013432498089969158,0.063669852912426,-0.011136953718960285,0.0,0.0,-0.17156945168972015,-0.01,0.0,-0.05,0.0
39.59527100,39595271,2,-0.13,0.35000000000000003,137.42000000000002,-0.007343210279941559,0.013906719163060188,0.06429484486579895,0.012953894212841988,0.0,0.0,-0.1701970100402832,-0.01,0.0,-0.05,0.0
39.69532900,39695329,2,-0.12,0.35000000000000003,137.42000000000002,-0.006953875999897718,0.014255578629672527,0.06430497020483017,0.011104767210781574,0.0,0.0,-0.16969437897205353,-0.01,0.0,-0.05,0.0
39.79527700,39795277,2,-0.12,0.35000000000000003,137.41,-0.005916048306971788,0.014057820662856102,0.062710240483284,-0.012537396512925625,0.0,0.0,-0.1712123453617096,-0.01,0.0,-0.05,0.0
39.89526800,39895268,2,-0.11,0.35000000000000003,137.4,-0.004790326114743948,0.014605197124183178,0.06046954542398453,-0.026203962042927742,0.0,0.0,-0.17303800582885742,-0.01,0.0,-0.05,0.0
39.99526300,39995263,2,-0.12,0.35000000000000003,137.4,-0.0042371079325675964,0.015088158659636974,0.05915908142924309,-0.027551904320716858,0.0,0.0,-0.17525537312030792,-0.01,0.0,-0.05,0.0
40.09527100,40095271,2,-0.12,0.36,137.39000000000001,-0.0030147654470056295,0.014964448288083076,0.057306159287691116,-0.02209457755088806,0.0,0.0,-0.1767856627702713,-0.01,0.0,-0.05,0.0
40.19526500,40195265,2,-0.12,0.36,137.39000000000001,-0.0036312383599579334,0.01496467087417841,0.05550927668809891,-0.013096380978822708,0.0,0.0,-0.17793482542037964,-0.01,0.0,-0.05,0.0
40.29528600,40295286,2,-0.12,0.36,137.38,-0.0028287183959037066,0.015583505854010582,0.05461006611585617,-0.0010032998397946358,0.0,0.0,-0.17794305086135864,-0.01,0.0,-0.05,0.0
40.39530600,40395306,2,-0.13,0.37,137.37,-0.0020788065157830715,0.016059134155511856,0.05411049723625183,0.0010082251392304897,0.0,0.0,-0.17845205962657928,-0.01,0.0,-0.05,0.0
40.49528100,40495281,2,-0.14,0.37,137.37,-0.001685958355665207,0.015967518091201782,0.052354395389556885,-0.033741097897291183,0.0,0.0,-0.18276290595531464,-0.01,0.0,-0.05,0.0
40.59533800,40595338,2,-0.14,0.37,137.37,-0.0006970497779548168,0.016375388950109482,0.0504055917263031,-0.06948723644018173,0.0,0.0,-0.18873290717601776,-0.01,0.0,-0.04,0.0
40.69526400,40695264,2,-0.14,0.37,137.36,-2.798919376800768e-05,0.016173996031284332,0.048275940120220184,-0.06673134118318558,0.0,0.0,-0.19372816383838654,-0.01,0.0,-0.04,0.0
40.79526400,40795264,2,-0.14,0.37,137.36,0.0014112385688349605,0.015451695770025253,0.04669046774506569,-0.05407662317156792,0.0,0.0,-0.19842392206192017,-0.01,0.0,-0.04,0.0
40.89527400,40895274,2,-0.14,0.37,137.35,0.0023380049970000982,0.01464361883699894,0.04441362991929054,-0.028640160337090492,0.0,0.0,-0.20042535662651062,-0.01,0.0,-0.04,0.0
40.99527200,40995272,2,-0.14,0.37,137.34,0.0031263642013072968,0.014994995668530464,0.0438639260828495,-0.009070059284567833,0.0,0.0,-0.20214661955833435,-0.01,0.0,-0.04,0.0
41.09527400,41095274,2,-0.14,0.37,137.33,0.0039047503378242254,0.01421993039548397,0.043031271547079086,-0.03455638885498047,0.0,0.0,-0.20667751133441925,-0.01,0.0,-0.04,0.0
41.19527800,41195278,2,-0.14,0.37,137.32,0.0049101607874035835,0.013399661518633366,0.04134734719991684,-0.05200499668717384,0.0,0.0,-0.2112158238887787,-0.01,0.0,-0.04,0.0
41.29530400,41295304,2,-0.14,0.37,137.32,0.005283832084387541,0.013935892842710018,0.039496295154094696,-0.05278743430972099,0.0,0.0,-0.2164369523525238,-0.01,0.0,-0.04,0.0
41.39527300,41395273,2,-0.14,0.37,137.31,0.005688791628926992,0.015062342397868633,0.03741365671157837,-0.06319569051265717,0.0,0.0,-0.22221790254116058,-0.01,0.0,-0.04,0.0
41.49535300,41495353,2,-0.15,0.37,137.3,0.00588051974773407,0.015557091683149338,0.0347568653523922,-0.07694459706544876,0.0,0.0,-0.22967763245105743,-0.01,0.0,-0.04,0.0
41.59527300,41595273,2,-0.15,0.37,137.29,0.006610328797250986,0.014562208205461502,0.03306165710091591,-0.08008485287427902,0.0,0.0,-0.23655414581298828,-0.01,0.0,-0.04,0.0
41.69527100,41695271,2,-0.15,0.37,137.28,0.006920170038938522,0.013434226624667645,0.03135913982987404,-0.06893910467624664,0.0,0.0,-0.24299995601177216,-0.01,0.0,-0.04,0.0
41.79526900,41795269,2,-0.15,0.37,137.28,0.007655531633645296,0.013108874671161175,0.029532985761761665,-0.045768771320581436,0.0,0.0,-0.24667298793792725,-0.01,0.0,-0.04,0.0
41.89526300,41895263,2,-0.15,0.37,137.28,0.008320807479321957,0.01202786061912775,0.028808925300836563,-0.010841610841453075,0.0,0.0,-0.24817141890525818,-0.01,0.0,-0.04,0.0
41.99526700,41995267,2,-0.14,0.38,137.28,0.009646592661738396,0.011390970088541508,0.028979117050766945,0.0132066048681736,0.0,0.0,-0.2475934475660324,-0.01,0.0,-0.04,0.0
42.09528300,42095283,2,-0.14,0.38,137.28,0.009636949747800827,0.010671037249267101,0.029189223423600197,0.029666438698768616,0.0,0.0,-0.24585692584514618,-0.01,0.0,-0.04,0.0
42.19530600,42195306,2,-0.14,0.37,137.28,0.010432385839521885,0.009856164455413818,0.030175190418958664,0.04088594391942024,0.0,0.0,-0.242647185921669,-0.01,0.0,-0.04,0.0
42.29525500,42295255,2,-0.13,0.37,137.27,0.010108319111168385,0.009533810429275036,0.031122980639338493,0.05241375043988228,0.0,0.0,-0.23835285007953644,-0.01,0.0,-0.04,0.0
42.39533600,42395336,2,-0.14,0.37,137.27,0.010852145962417126,0.00887374673038721,0.03210555762052536,0.0495547279715538,0.0,0.0,-0.23452593386173248,-0.01,0.0,-0.04,0.0
42.49528100,42495281,2,-0.14,0.37,137.27,0.01084455568343401,0.007973519153892994,0.03272291645407677,0.030381392687559128,0.0,0.0,-0.23224148154258728,-0.01,0.0,-0.04,0.0
42.59527400,42595274,2,-0.14,0.37,137.26,0.011075329035520554,0.007072147913277149,0.03270768001675606,0.003206143155694008,0.0,0.0,-0.23202525079250336,-0.01,0.0,-0.04,0.0
42.69526200,42695262,2,-0.14,0.37,137.26,0.010872287675738335,0.006307472940534353,0.0322541706264019,-0.009660230949521065,0.0,0.0,-0.2319907397031784,-0.02,0.0,-0.03,0.0
42.79526500,42795265,2,-0.15,0.37,137.25,0.011466720141470432,0.0060272510163486,0.03271838277578354,0.011879398487508297,0.0,0.0,-0.22956542670726776,-0.02,0.0,-0.03,0.0
42.89526500,42895265,2,-0.14,0.36,137.24,0.011778908781707287,0.005039341747760773,0.032945770770311356,0.02288028970360756,0.0,0.0,-0.22783616185188293,-0.02,0.0,-0.03,0.0
42.99528600,42995286,2,-0.14,0.36,137.24,0.011882674880325794,0.004037624690681696,0.03364168852567673,0.003958666697144508,0.0,0.0,-0.2279086410999298,-0.02,0.0,-0.03,0.0
43.09531100,43095311,2,-0.14,0.37,137.23,0.01203345600515604,0.003148923860862851,0.032744456082582474,-0.014372051693499088,0.0,0.0,-0.22908440232276917,-0.02,0.0,-0.03,0.0
43.19526400,43195264,2,-0.14,0.37,137.22,0.011823451146483421,0.0025165006518363953,0.032406967133283615,-0.029776902869343758,0.0,0.0,-0.23192015290260315,-0.02,0.0,-0.03,0.0
43.29532500,43295325,2,-0.14,0.36,137.21,0.011478535830974579,0.0013269170885905623,0.031415749341249466,-0.029778268188238144,0.0,0.0,-0.23341695964336395,-0.02,0.0,-0.03,0.0
43.39527200,43395272,2,-0.14,0.37,137.20000000000002,0.010828745551407337,0.0012262901291251183,0.03129167854785919,-0.005086011718958616,0.0,0.0,-0.23336361348628998,-0.02,0.0,-0.03,0.0
43.49526800,43495268,2,-0.14,0.37,137.18,0.010444805026054382,9.176332241622731e-06,0.03179597482085228,0.012371235527098179,0.0,0.0,-0.23221395909786224,-0.02,0.0,-0.03,0.0
43.59526300,43595263,2,-0.14,0.37,137.17000000000002,0.010748891159892082,-0.0004936879267916083,0.03362688049674034,0.022041145712137222,0.0,0.0,-0.2306744009256363,-0.02,0.0,-0.03,0.0
43.69526200,43695262,2,-0.14,0.36,137.16,0.010539088398218155,-0.0011841458035632968,0.03445024415850639,0.01475434098392725,0.0,0.0,-0.23000994324684143,-0.02,0.0,-0.03,0.0
43.79527500,43795275,2,-0.14,0.36,137.16,0.011156810447573662,-0.0014946340816095471,0.03572927042841911,0.012142871506512165,0.0,0.0,-0.22870492935180664,-0.02,0.0,-0.03,0.0
43.89528200,43895282,2,-0.14,0.36,137.16,0.011635040864348412,-0.0018871321808546782,0.03734154626727104,0.0255196001380682,0.0,0.0,-0.22592775523662567,-0.02,0.0,-0.03,0.0
43.99531100,43995311,2,-0.14,0.36,137.16,0.010835892520844936,-0.0033652347046881914,0.03789813071489334,0.018905512988567352,0.0,0.0,-0.22500960528850555,-0.02,0.0,-0.03,0.0
44.09525700,44095257,2,-0.13,0.36,137.16,0.011390633881092072,-0.0038048725109547377,0.03810475766658783,-0.0083244564011693,0.0,0.0,-0.2261725515127182,-0.02,0.0,-0.03,0.0
44.19533000,44195330,2,-0.13,0.36,137.16,0.010744084604084492,-0.002955957781523466,0.037571534514427185,-0.011081387288868427,0.0,0.0,-0.22601403295993805,-0.02,0.0,-0.03,0.0
44.29526300,44295263,2,-0.13,0.37,137.16,0.011153710074722767,-0.0036858059465885162,0.03717707097530365,0.0021799071691930294,0.0,0.0,-0.22537459433078766,-0.02,0.0,-0.03,0.0
44.39527200,44395272,2,-0.13,0.37,137.15,0.011201903223991394,-0.003450987860560417,0.03712005913257599,0.001755915698595345,0.0,0.0,-0.2250995635986328,-0.02,0.0,-0.03,0.0
