timestamp,TimeUS,DesRoll,Roll,DesPitch,Pitch,DesYaw,Yaw,ErrRP,ErrYaw,AEKF
245.96082100,245960821,0.0,-0.19,0.0,1.68,159.21,159.21,0.0,0.0,3
246.06085300,246060853,0.0,-0.19,0.0,1.68,159.21,159.21,0.0,0.0,3
246.16117200,246161172,0.0,-0.19,0.0,1.68,159.21,159.21,0.0,0.0,3
246.26103700,246261037,0.0,-0.19,0.0,1.68,159.22,159.22,0.0,0.0,3
246.36070700,246360707,0.0,-0.19,0.0,1.68,159.22,159.22,0.0,0.01,3
246.46062900,246460629,0.0,-0.19,0.0,1.68,159.22,159.22,0.0,0.01,3
246.56062400,246560624,0.0,-0.19,0.0,1.68,159.22,159.22,0.0,0.01,3
246.66079900,246660799,0.0,-0.19,0.0,1.68,159.22,159.22,0.0,0.0,3
246.76093200,246760932,0.0,-0.19,0.0,1.68,159.22,159.22,0.0,0.0,3
246.86082200,246860822,0.0,-0.18,0.0,1.69,159.23,159.23,0.0,0.0,3
246.96083900,246960839,0.0,-0.18,0.0,1.69,159.23,159.23,0.0,0.01,3
247.06090400,247060904,0.0,-0.18,0.0,1.69,159.24,159.24,0.0,0.01,3
247.16086700,247160867,0.0,-0.18,0.0,1.68,159.24,159.24,0.0,0.01,3
247.26101400,247261014,0.0,-0.18,0.0,1.68,159.25,159.25,0.0,0.0,3
247.36071500,247360715,0.0,-0.18,0.0,1.68,159.26,159.26,0.0,0.0,3
247.46064400,247460644,0.0,-0.18,0.0,1.68,159.26,159.26,0.0,0.0,3
247.56069400,247560694,0.0,-0.18,0.0,1.68,159.26,159.26,0.0,0.01,3
247.66083900,247660839,0.0,-0.18,0.0,1.68,159.27,159.27,0.0,0.01,3
247.76081900,247760819,0.0,-0.18,0.0,1.68,159.27,159.27,0.0,0.01,3
247.86084900,247860849,0.0,-0.18,0.0,1.68,159.27,159.27,0.0,0.01,3
247.96090000,247960900,0.0,-0.18,0.0,1.68,159.27,159.27,0.0,0.01,3
248.06103400,248061034,0.0,-0.18,0.0,1.68,159.28,159.28,0.0,0.01,3
248.16123500,248161235,0.0,-0.19,0.0,1.68,159.28,159.28,0.0,0.01,3
248.26094900,248260949,0.0,-0.19,0.0,1.68,159.28,159.28,0.0,0.01,3
248.36095500,248360955,0.0,-0.19,0.0,1.68,159.28,159.28,0.0,0.01,3
248.46089900,248460899,0.0,-0.19,0.0,1.68,159.28,159.28,0.0,0.01,3
248.56094000,248560940,0.0,-0.19,0.0,1.68,159.28,159.28,0.0,0.0,3
248.66113500,248661135,0.0,-0.19,0.0,1.68,159.29,159.29,0.0,0.0,3
248.76100100,248761001,0.0,-0.19,0.0,1.67,159.29,159.29,0.0,0.0,3
248.86111800,248861118,0.0,-0.2,0.0,1.67,159.29,159.29,0.0,0.0,3
248.96074600,248960746,0.0,-0.19,0.0,1.67,159.29,159.29,0.0,0.01,3
249.06067900,249060679,0.0,-0.19,0.0,1.6600000000000001,159.28,159.28,0.0,0.01,3
249.16062300,249160623,0.0,-0.2,0.0,1.67,159.28,159.28,0.0,0.01,3
249.26067800,249260678,0.0,-0.2,0.0,1.67,159.28,159.28,0.0,0.01,3
249.36071100,249360711,0.0,-0.2,0.0,1.67,159.28,159.28,0.0,0.01,3
249.46094000,249460940,0.0,-0.2,0.0,1.67,159.28,159.28,0.0,0.01,3
249.56103800,249561038,0.0,-0.2,0.0,1.67,159.28,159.28,0.0,0.01,3
249.66110800,249661108,0.0,-0.2,0.0,1.6600000000000001,159.28,159.28,0.0,0.01,3
249.76109400,249761094,0.0,-0.2,0.0,1.6600000000000001,159.28,159.28,0.0,0.01,3
249.86078100,249860781,0.0,-0.2,0.0,1.6600000000000001,159.29,159.29,0.0,0.0,3
249.96067500,249960675,0.0,-0.2,0.0,1.6600000000000001,159.29,159.29,0.0,0.01,3
250.06064200,250060642,0.0,-0.2,0.0,1.6600000000000001,159.29,159.29,0.0,0.01,3
250.16095500,250160955,0.0,-0.2,0.0,1.6600000000000001,159.3,159.3,0.0,0.01,3
250.26071400,250260714,0.0,-0.2,0.0,1.6600000000000001,159.3,159.3,0.0,0.01,3
250.36071600,250360716,0.0,-0.2,0.0,1.67,159.3,159.3,0.0,0.01,3
250.46081600,250460816,0.0,-0.19,0.0,1.67,159.3,159.3,0.0,0.01,3
250.56085300,250560853,0.0,-0.19,0.0,1.67,159.31,159.31,0.0,0.02,3
250.66103100,250661031,0.0,-0.2,0.0,1.6600000000000001,159.31,159.31,0.0,0.02,3
250.76074600,250760746,0.0,-0.19,0.0,1.6600000000000001,159.3,159.3,0.0,0.01,3
250.86069200,250860692,0.0,-0.19,0.0,1.6600000000000001,159.3,159.3,0.0,0.02,3
250.96061700,250960617,0.0,-0.19,0.0,1.6600000000000001,159.29,159.29,0.0,0.01,3
251.06102300,251061023,0.0,-0.19,0.0,1.6600000000000001,159.29,159.29,0.0,0.01,3
251.16100400,251161004,0.0,-0.19,0.0,1.6500000000000001,159.29,159.29,0.0,0.01,3
251.26092000,251260920,0.0,-0.19,0.0,1.6500000000000001,159.28,159.28,0.0,0.01,3
251.36101700,251361017,0.0,-0.19,0.0,1.6500000000000001,159.28,159.28,0.0,0.01,3
251.46100400,251461004,0.0,-0.19,0.0,1.6500000000000001,159.28,159.28,0.0,0.01,3
251.56110800,251561108,0.0,-0.19,0.0,1.6500000000000001,159.28,159.28,0.0,0.01,3
251.66097900,251660979,0.0,-0.19,0.0,1.6500000000000001,159.28,159.28,0.0,0.01,3
251.76069100,251760691,0.0,-0.19,0.0,1.6400000000000001,159.28,159.28,0.0,0.01,3
251.86075700,251860757,0.0,-0.19,0.0,1.6400000000000001,159.29,159.29,0.0,0.01,3
251.96062200,251960622,0.0,-0.19,0.0,1.6400000000000001,159.28,159.28,0.0,0.01,3
252.06068400,252060684,0.0,-0.19,0.0,1.6400000000000001,159.28,159.28,0.0,0.01,3
252.16098200,252160982,0.0,-0.18,0.0,1.6400000000000001,159.28,159.28,0.0,0.01,3
252.26105800,252261058,0.0,-0.18,0.0,1.6400000000000001,159.27,159.27,0.0,0.01,3
252.36086900,252360869,0.0,-0.18,0.0,1.6400000000000001,159.27,159.27,0.0,0.01,3
252.46091900,252460919,0.0,-0.18,0.0,1.6400000000000001,159.27,159.27,0.0,0.01,3
252.56075000,252560750,0.0,-0.18,0.0,1.6400000000000001,159.27,159.27,0.0,0.01,3
252.66098400,252660984,0.0,-0.17,0.0,1.6300000000000001,159.26,159.26,0.0,0.01,3
252.76062500,252760625,0.0,-0.17,0.0,1.6300000000000001,159.27,159.27,0.0,0.01,3
252.86098700,252860987,0.0,-0.17,0.0,1.6300000000000001,159.26,159.26,0.0,0.01,3
252.96069400,252960694,0.0,-0.17,0.0,1.6300000000000001,159.26,159.26,0.0,0.0,3
253.06072900,253060729,0.0,-0.17,0.0,1.6300000000000001,159.26,159.26,0.0,0.01,3
253.16094000,253160940,0.0,-0.18,0.0,1.6300000000000001,159.26,159.26,0.0,0.01,3
253.26086600,253260866,0.0,-0.18,0.0,1.6300000000000001,159.26,159.26,0.0,0.01,3
253.36094600,253360946,0.0,-0.18,0.0,1.6300000000000001,159.25,159.25,0.0,0.01,3
253.46074300,253460743,0.0,-0.18,0.0,1.6300000000000001,159.25,159.25,0.0,0.01,3
253.56099600,253560996,0.0,-0.18,0.0,1.62,159.25,159.25,0.0,0.01,3
253.66081600,253660816,0.0,-0.18,0.0,1.62,159.25,159.25,0.0,0.01,3
253.76063600,253760636,0.0,-0.17,0.0,1.62,159.25,159.25,0.0,0.01,3
253.86075400,253860754,0.0,-0.17,0.0,1.62,159.25,159.25,0.0,0.01,3
253.96077800,253960778,0.0,-0.17,0.0,1.62,159.25,159.25,0.0,0.01,3
254.06083200,254060832,0.0,-0.17,0.0,1.61,159.25,159.25,0.0,0.01,3
254.16115900,254161159,0.0,-0.17,0.0,1.62,159.24,159.24,0.0,0.01,3
254.26110300,254261103,0.0,-0.17,0.0,1.62,159.24,159.24,0.0,0.01,3
254.36077400,254360774,0.0,-0.17,0.0,1.62,159.24,159.24,0.0,0.01,3
254.46094100,254460941,0.0,-0.17,0.0,1.62,159.23,159.23,0.0,0.01,3
254.56093600,254560936,0.0,-0.17,0.0,1.62,159.23,159.23,0.0,0.01,3
254.66093100,254660931,0.0,-0.17,0.0,1.62,159.23,159.23,0.0,0.01,3
254.76089200,254760892,0.0,-0.16,0.0,1.62,159.22,159.22,0.0,0.01,3
254.86121300,254861213,0.0,-0.16,0.0,1.61,159.22,159.22,0.0,0.01,3
254.96104500,254961045,0.0,-0.16,0.0,1.61,159.22,159.22,0.0,0.02,3
255.06085600,255060856,0.0,-0.16,0.0,1.62,159.22,159.22,0.0,0.01,3
255.16114700,255161147,0.0,-0.16,0.0,1.62,159.21,159.21,0.0,0.01,3
255.26076000,255260760,0.0,-0.16,0.0,1.61,159.21,159.21,0.0,0.01,3
255.36068800,255360688,0.0,-0.16,0.0,1.61,159.21,159.21,0.0,0.01,3
255.46065000,255460650,0.0,-0.16,0.0,1.61,159.20000000000002,159.20000000000002,0.0,0.01,3
255.56063000,255560630,0.0,-0.16,0.0,1.61,159.20000000000002,159.20000000000002,0.0,0.01,3
255.66073300,255660733,0.0,-0.16,0.0,1.61,159.20000000000002,159.20000000000002,0.0,0.01,3
255.76093700,255760937,0.0,-0.15,0.0,1.61,159.20000000000002,159.20000000000002,0.0,0.01,3
255.86082000,255860820,0.0,-0.15,0.0,1.61,159.20000000000002,159.20000000000002,0.0,0.01,3
255.96084000,255960840,0.0,-0.15,0.0,1.61,159.19,159.19,0.0,0.01,3
256.06092600,256060926,0.0,-0.16,0.0,1.61,159.19,159.19,0.0,0.01,3
256.16093800,256160938,0.0,-0.16,0.0,1.6,159.18,159.18,0.0,0.01,3
256.26068300,256260683,0.0,-0.15,0.0,1.61,159.18,159.18,0.0,0.01,3
256.36070700,256360707,0.0,-0.15,0.0,1.6,159.18,159.18,0.0,0.01,3
256.46095700,256460957,0.0,-0.15,0.0,1.6,159.18,159.18,0.0,0.01,3
256.56101300,256561013,0.0,-0.15,0.0,1.6,159.18,159.18,0.0,0.01,3
256.66099800,256660998,0.0,-0.15,0.0,1.6,159.18,159.18,0.0,0.01,3
256.76102900,256761029,0.0,-0.15,0.0,1.6,159.18,159.18,0.0,0.01,3
256.86101500,256861015,0.0,-0.14,0.0,1.6,159.17000000000002,159.17000000000002,0.0,0.01,3
256.96108000,256961080,0.0,-0.14,0.0,1.6,159.18,159.18,0.0,0.0,3
257.06120300,257061203,0.0,-0.14,0.0,1.6,159.18,159.18,0.0,0.01,3
257.16124900,257161249,0.0,-0.14,0.0,1.6,159.18,159.18,0.0,0.01,3
257.26063800,257260638,0.0,-0.14,0.0,1.6,159.18,159.18,0.0,0.01,3
257.36069300,257360693,0.0,-0.13,0.0,1.6,159.18,159.18,0.0,0.01,3
257.46069500,257460695,0.0,-0.13,0.0,1.6,159.18,159.18,0.0,0.01,3
257.56068600,257560686,0.0,-0.13,0.0,1.6,159.18,159.18,0.0,0.01,3
257.66092300,257660923,0.0,-0.12,0.0,1.6,159.18,159.18,0.0,0.01,3
257.76083400,257760834,0.0,-0.12,0.0,1.6,159.17000000000002,159.17000000000002,0.0,0.01,3
257.86091200,257860912,0.0,-0.12,0.0,1.6,159.17000000000002,159.17000000000002,0.0,0.01,3
257.96102300,257961023,0.0,-0.11,0.0,1.6,159.17000000000002,159.17000000000002,0.0,0.01,3
258.06096600,258060966,0.0,-0.11,0.0,1.6,159.16,159.16,0.0,0.01,3
258.16079800,258160798,0.0,-0.12,0.0,1.6,159.16,159.16,0.0,0.01,3
258.26066700,258260667,0.0,-0.11,0.0,1.6,159.16,159.16,0.0,0.01,3
258.36072200,258360722,0.0,-0.11,0.0,1.6,159.15,159.15,0.0,0.0,3
258.46071700,258460717,0.0,-0.11,0.0,1.6,159.15,159.15,0.0,0.01,3
258.56081900,258560819,0.0,-0.11,0.0,1.6,159.14000000000001,159.14000000000001,0.0,0.01,3
258.66097100,258660971,0.0,-0.11,0.0,1.6,159.14000000000001,159.14000000000001,0.0,0.01,3
258.76108400,258761084,0.0,-0.11,0.0,1.6,159.14000000000001,159.14000000000001,0.0,0.01,3
258.86075500,258860755,0.0,-0.11,0.0,1.6,159.14000000000001,159.14000000000001,0.0,0.0,3
258.96065200,258960652,0.0,-0.12,0.0,1.6,159.13,159.13,0.0,0.0,3
259.06063700,259060637,0.0,-0.12,0.0,1.6,159.13,159.13,0.0,0.01,3
259.16075800,259160758,0.0,-0.12,0.0,1.6,159.12,159.12,0.0,0.0,3
259.26070300,259260703,0.0,-0.11,0.0,1.6,159.12,159.12,0.0,0.0,3
259.36071700,259360717,0.0,-0.11,0.0,1.6,159.12,159.12,0.0,0.0,3
259.46081300,259460813,0.0,-0.11,0.0,1.6,159.13,159.13,0.0,0.0,3
259.56100700,259561007,0.0,-0.12,0.0,1.6,159.12,159.12,0.0,0.0,3
259.66116200,259661162,0.0,-0.12,0.0,1.6,159.12,159.12,0.0,0.0,3
259.76099100,259760991,0.0,-0.11,0.0,1.6,159.12,159.12,0.0,0.0,3
259.86098100,259860981,0.0,-0.11,0.0,1.6,159.12,159.12,0.0,0.01,3
259.96096000,259960960,0.0,-0.11,0.0,1.6,159.12,159.12,0.0,0.01,3
260.06099000,260060990,0.0,-0.11,0.0,1.61,159.11,159.11,0.0,0.01,3
260.16101200,260161012,0.0,-0.1,0.0,1.61,159.11,159.11,0.0,0.01,3
260.26113000,260261130,0.0,-0.1,0.0,1.61,159.11,159.11,0.0,0.01,3
260.36106700,260361067,0.0,-0.1,0.0,1.61,159.11,159.11,0.0,0.01,3
260.46103000,260461030,0.0,-0.1,0.0,1.61,159.11,159.11,0.0,0.0,3
260.56108700,260561087,0.0,-0.1,0.0,1.62,159.11,159.11,0.0,0.0,3
260.66129900,260661299,0.0,-0.1,0.0,1.62,159.1,159.1,0.0,0.01,3
260.76097800,260760978,0.0,-0.1,0.0,1.62,159.1,159.1,0.0,0.03,3
260.86070700,260860707,0.0,-0.1,0.0,1.62,159.1,159.1,0.0,0.07,3
260.96062400,260960624,0.0,-0.1,0.0,1.62,159.08,159.08,0.0,0.13,3
261.06080700,261060807,0.0,-0.1,0.0,1.61,159.04,159.04,0.0,0.2,3
261.16069000,261160690,0.0,-0.1,0.0,1.61,158.98,158.98,0.0,0.25,3
261.26081400,261260814,0.0,-0.11,0.0,1.62,158.91,158.91,0.0,0.29,3
261.36087500,261360875,0.0,-0.11,0.0,1.62,158.81,158.81,0.0,0.33,3
261.46090600,261460906,0.0,-0.11,0.0,1.61,158.70000000000002,158.70000000000002,0.0,0.38,3
261.56077600,261560776,0.0,-0.11,0.0,1.61,158.58,158.58,0.0,0.42,3
261.66127300,261661273,0.0,-0.11,0.0,1.61,158.47,158.47,0.0,0.45,3
261.76097100,261760971,0.0,-0.1,0.0,1.59,158.36,158.36,0.0,0.47000000000000003,3
261.86100500,261861005,0.0,-0.1,0.0,1.58,158.23,158.23,0.0,0.5,3
261.96069800,261960698,0.0,-0.1,0.0,1.58,158.12,158.12,0.0,0.52,3
262.06071200,262060712,0.0,-0.12,0.0,1.6,158.0,158.0,0.0,0.54,3
262.16090000,262160900,0.0,-0.12,0.0,1.61,157.88,157.88,0.0,0.55,3
262.26088500,262260885,0.0,-0.12,0.0,1.62,157.76,157.76,0.0,0.56,3
262.36097200,262360972,0.0,-0.13,0.0,1.61,157.65,157.65,0.0,0.58,3
262.46077600,262460776,0.0,-0.13,0.0,1.62,157.53,157.53,0.0,0.5700000000000001,3
262.56098600,262560986,0.0,-0.13,0.0,1.62,157.42000000000002,157.42000000000002,0.0,0.47000000000000003,3
262.66101000,262661010,0.0,-0.14,0.0,1.61,157.32,157.32,0.0,0.41000000000000003,3
262.76094300,262760943,0.0,-0.14,0.0,1.61,157.24,157.24,0.0,0.36,3
262.86069900,262860699,0.0,-0.15,0.0,1.61,157.19,157.19,0.0,0.31,3
262.96068800,262960688,0.0,-0.15,0.0,1.61,157.18,157.18,0.0,0.26,3
263.06082300,263060823,0.0,-0.15,0.0,1.61,157.17000000000002,157.17000000000002,0.0,0.22,3
263.16109600,263161096,0.0,-0.15,0.0,1.61,157.18,157.18,0.0,0.2,3
263.26094400,263260944,0.0,-0.15,0.0,1.61,157.18,157.18,0.0,0.17,3
263.36076900,263360769,0.0,-0.15,0.0,1.61,157.19,157.19,0.0,0.15,3
263.46068300,263460683,0.0,-0.15,0.0,1.61,157.19,157.19,0.0,0.14,3
263.56062300,263560623,0.0,-0.16,0.0,1.61,157.19,157.19,0.0,0.12,3
263.66104000,263661040,0.0,-0.16,0.0,1.61,157.19,157.19,0.0,0.11,3
263.76069400,263760694,0.0,-0.16,0.0,1.61,157.19,157.19,0.0,0.11,3
263.86071400,263860714,0.0,-0.16,0.0,1.61,157.19,157.19,0.0,0.1,3
263.96083800,263960838,0.0,-0.16,0.0,1.61,157.19,157.19,0.0,0.09,3
264.06086900,264060869,0.0,-0.16,0.0,1.61,157.19,157.19,0.0,0.09,3
264.16102200,264161022,0.0,-0.17,0.0,1.61,157.20000000000002,157.20000000000002,0.0,0.09,3
264.26076500,264260765,0.0,-0.17,0.0,1.61,157.20000000000002,157.20000000000002,0.0,0.08,3
264.36070200,264360702,0.0,-0.17,0.0,1.61,157.20000000000002,157.20000000000002,0.0,0.08,3
264.46074200,264460742,0.0,-0.16,0.0,1.61,157.20000000000002,157.20000000000002,0.0,0.08,3
264.56088100,264560881,0.0,-0.16,0.0,1.61,157.20000000000002,157.20000000000002,0.0,0.07,3
264.66103200,264661032,0.0,-0.16,0.0,1.61,157.20000000000002,157.20000000000002,0.0,0.07,3
264.76089000,264760890,0.0,-0.16,0.0,1.6,157.20000000000002,157.20000000000002,0.0,0.07,3
264.86098800,264860988,0.0,-0.16,0.0,1.6,157.20000000000002,157.20000000000002,0.0,0.07,3
264.96098200,264960982,0.0,-0.16,0.0,1.6,157.20000000000002,157.20000000000002,0.0,0.07,3
265.06111500,265061115,0.0,-0.16,0.0,1.6,157.20000000000002,157.20000000000002,0.0,0.07,3
265.16092000,265160920,0.0,-0.16,0.0,1.6,157.20000000000002,157.20000000000002,0.0,0.06,3
265.26069400,265260694,0.0,-0.16,0.0,1.6,157.20000000000002,157.20000000000002,0.0,0.07,3
265.36071200,265360712,0.0,-0.16,0.0,1.6,157.20000000000002,157.20000000000002,0.0,0.07,3
265.46069300,265460693,0.0,-0.16,0.0,1.6,157.20000000000002,157.20000000000002,0.0,0.06,3
265.56069300,265560693,0.0,-0.16,0.0,1.6,157.20000000000002,157.20000000000002,0.0,0.06,3
265.66076400,265660764,0.0,-0.16,0.0,1.6,157.20000000000002,157.20000000000002,0.0,0.06,3
265.76082800,265760828,0.0,-0.16,0.0,1.6,157.20000000000002,157.20000000000002,0.0,0.06,3
265.86087700,265860877,0.0,-0.17,0.0,1.6,157.20000000000002,157.20000000000002,0.0,0.06,3
265.96108700,265961087,0.0,-0.17,0.0,1.59,157.20000000000002,157.20000000000002,0.0,0.06,3
266.06074500,266060745,0.0,-0.17,0.0,1.6,157.20000000000002,157.20000000000002,0.0,0.06,3
266.16097500,266160975,0.0,-0.17,0.0,1.6,157.20000000000002,157.20000000000002,0.0,0.06,3
266.26070700,266260707,0.0,-0.17,0.0,1.6,157.20000000000002,157.20000000000002,0.0,0.06,3
266.36068500,266360685,0.0,-0.17,0.0,1.6,157.20000000000002,157.20000000000002,0.0,0.06,3
266.46069200,266460692,0.0,-0.16,0.0,1.6,157.21,157.21,0.0,0.06,3
335.36101700,335361017,0.0,-0.16,0.0,1.6400000000000001,158.81,158.81,0.0,0.01,3
335.46094200,335460942,0.0,-0.16,0.0,1.6400000000000001,158.81,158.81,0.0,0.01,3
335.56088000,335560880,0.0,-0.15,0.0,1.6400000000000001,158.81,158.81,0.0,0.01,3
335.66099100,335660991,0.0,-0.15,0.0,1.6400000000000001,158.81,158.81,0.0,0.01,3
335.76087600,335760876,0.0,-0.15,0.0,1.6400000000000001,158.81,158.81,0.0,0.01,3
335.86135600,335861356,0.0,-0.15,0.0,1.6400000000000001,158.81,158.81,0.0,0.01,3
335.96096800,335960968,0.0,-0.15,0.0,1.6400000000000001,158.81,158.81,0.0,0.01,3
336.06102500,336061025,0.0,-0.15,0.0,1.6400000000000001,158.81,158.81,0.0,0.01,3
336.16108300,336161083,0.0,-0.15,0.0,1.6400000000000001,158.82,158.82,0.0,0.01,3
336.26101900,336261019,0.0,-0.15,0.0,1.6400000000000001,158.82,158.82,0.0,0.01,3
336.36095400,336360954,0.0,-0.15,0.0,1.6400000000000001,158.82,158.82,0.0,0.01,3
336.46094900,336460949,0.0,-0.15,0.0,1.6400000000000001,158.82,158.82,0.0,0.01,3
336.56088100,336560881,0.0,-0.15,0.0,1.6400000000000001,158.82,158.82,0.0,0.01,3
336.66103100,336661031,0.0,-0.15,0.0,1.6400000000000001,158.82,158.82,0.0,0.01,3
336.76091100,336760911,0.0,-0.15,0.0,1.6400000000000001,158.82,158.82,0.0,0.01,3
336.86097700,336860977,0.0,-0.15,0.0,1.6300000000000001,158.82,158.82,0.0,0.01,3
336.96099100,336960991,0.0,-0.15,0.0,1.6300000000000001,158.82,158.82,0.0,0.01,3
337.06105900,337061059,0.0,-0.14,0.0,1.6300000000000001,158.82,158.82,0.0,0.0,3
337.16109600,337161096,0.0,-0.14,0.0,1.6300000000000001,158.82,158.82,0.0,0.0,3
337.26098500,337260985,0.0,-0.14,0.0,1.6300000000000001,158.83,158.83,0.0,0.01,3
337.36099900,337360999,0.0,-0.14,0.0,1.6300000000000001,158.83,158.83,0.0,0.0,3
337.46062900,337460629,0.0,-0.14,0.0,1.6300000000000001,158.83,158.83,0.0,0.0,3
337.56069700,337560697,0.0,-0.14,0.0,1.6300000000000001,158.83,158.83,0.0,0.0,3
337.66076600,337660766,0.0,-0.14,0.0,1.6400000000000001,158.83,158.83,0.0,0.01,3
337.76082100,337760821,0.0,-0.14,0.0,1.6400000000000001,158.83,158.83,0.0,0.01,3
337.86105200,337861052,0.0,-0.14,0.0,1.6400000000000001,158.83,158.83,0.0,0.01,3
337.96094100,337960941,0.0,-0.14,0.0,1.6400000000000001,158.82,158.82,0.0,0.0,3
338.06075400,338060754,0.0,-0.14,0.0,1.6400000000000001,158.82,158.82,0.0,0.01,3
338.16125900,338161259,0.0,-0.09,0.0,1.62,158.84,158.84,0.0,0.01,3
338.26097700,338260977,0.0,-0.14,0.0,1.6400000000000001,158.86,158.86,0.0,0.01,3
338.36098300,338360983,0.0,-0.16,0.0,1.62,158.85,158.85,0.0,0.01,3
338.46102300,338461023,0.0,-0.13,0.0,1.6300000000000001,158.85,158.85,0.0,0.01,3
338.56093400,338560934,0.0,-0.13,0.0,1.6300000000000001,158.86,158.86,0.0,0.01,3
338.66112800,338661128,0.0,-0.15,0.0,1.6300000000000001,158.86,158.86,0.0,0.01,3
338.76101500,338761015,0.0,-0.12,0.0,1.6300000000000001,158.86,158.86,0.0,0.01,3
338.86128500,338861285,0.0,-0.11,0.0,1.6400000000000001,158.87,158.87,0.0,0.01,3
338.96073100,338960731,0.0,-0.11,0.0,1.6400000000000001,158.87,158.87,0.0,0.01,3
339.06068700,339060687,0.0,-0.12,0.0,1.6400000000000001,158.88,158.88,0.0,0.01,3
339.16062500,339160625,0.0,-0.13,0.0,1.6400000000000001,158.88,158.88,0.0,0.01,3
339.26064400,339260644,0.0,-0.13,0.0,1.6400000000000001,158.89000000000001,158.89000000000001,0.0,0.01,3
339.36071800,339360718,0.0,-0.12,0.0,1.6400000000000001,158.89000000000001,158.89000000000001,0.0,0.01,3
339.46096500,339460965,0.0,-0.11,0.0,1.6500000000000001,158.89000000000001,158.89000000000001,0.0,0.01,3
339.56103200,339561032,0.0,-0.11,0.0,1.6500000000000001,158.89000000000001,158.89000000000001,0.0,0.01,3
339.66090600,339660906,0.0,-0.12,0.0,1.6500000000000001,158.88,158.88,0.0,0.01,3
339.76090900,339760909,0.0,-0.11,0.0,1.6500000000000001,158.89000000000001,158.89000000000001,0.0,0.01,3
339.86074600,339860746,0.0,-0.1,0.0,1.6500000000000001,158.89000000000001,158.89000000000001,0.0,0.01,3
339.96068100,339960681,0.0,-0.11,0.0,1.6500000000000001,158.89000000000001,158.89000000000001,0.0,0.02,3
340.06074700,340060747,0.0,-0.1,0.0,1.6500000000000001,158.89000000000001,158.89000000000001,0.0,0.01,3
340.16069700,340160697,0.0,-0.1,0.0,1.6500000000000001,158.89000000000001,158.89000000000001,0.0,0.01,3
340.26069200,340260692,0.0,-0.1,0.0,1.6500000000000001,158.9,158.9,0.0,0.01,3
340.36071300,340360713,0.0,-0.1,0.0,1.6500000000000001,158.9,158.9,0.0,0.01,3
340.46082300,340460823,0.0,-0.1,0.0,1.6500000000000001,158.9,158.9,0.0,0.01,3
340.56083100,340560831,0.0,-0.09,0.0,1.6500000000000001,158.9,158.9,0.0,0.01,3
340.66102200,340661022,0.0,-0.09,0.0,1.6500000000000001,158.9,158.9,0.0,0.01,3
340.76075000,340760750,0.0,-0.09,0.0,1.6600000000000001,158.9,158.9,0.0,0.01,3
340.86099100,340860991,0.0,-0.09,0.0,1.6600000000000001,158.9,158.9,0.0,0.0,3
340.96096000,340960960,0.0,-0.09,0.0,1.6600000000000001,158.89000000000001,158.89000000000001,0.0,0.0,3
341.06066100,341060661,0.0,-0.09,0.0,1.67,158.89000000000001,158.89000000000001,0.0,0.01,3
341.16072800,341160728,0.0,-0.1,0.0,1.67,158.89000000000001,158.89000000000001,0.0,0.0,3
341.26071100,341260711,0.0,-0.09,0.0,1.67,158.89000000000001,158.89000000000001,0.0,0.01,3
341.36083900,341360839,0.0,-0.09,0.0,1.67,158.9,158.9,0.0,0.01,3
341.46103400,341461034,0.0,-0.09,0.0,1.68,158.9,158.9,0.0,0.01,3
341.56107800,341561078,0.0,-0.09,0.0,1.68,158.9,158.9,0.0,0.01,3
341.66112300,341661123,0.0,-0.09,0.0,1.68,158.89000000000001,158.89000000000001,0.0,0.01,3
341.76092000,341760920,0.0,-0.09,0.0,1.68,158.89000000000001,158.89000000000001,0.0,0.01,3
341.86095200,341860952,0.0,-0.1,0.0,1.68,158.89000000000001,158.89000000000001,0.0,0.01,3
341.96086200,341960862,0.0,-0.1,0.0,1.68,158.89000000000001,158.89000000000001,0.0,0.01,3
342.06089600,342060896,0.0,-0.1,0.0,1.68,158.89000000000001,158.89000000000001,0.0,0.01,3
342.16102700,342161027,0.0,-0.1,0.0,1.68,158.89000000000001,158.89000000000001,0.0,0.01,3
342.26097400,342260974,0.0,-0.1,0.0,1.68,158.89000000000001,158.89000000000001,0.0,0.01,3
342.36101300,342361013,0.0,-0.1,0.0,1.68,158.89000000000001,158.89000000000001,0.0,0.01,3
342.46110900,342461109,0.0,-0.1,0.0,1.68,158.89000000000001,158.89000000000001,0.0,0.0,3
342.56074600,342560746,0.0,-0.11,0.0,1.68,158.89000000000001,158.89000000000001,0.0,0.01,3
342.66087100,342660871,0.0,-0.1,0.0,1.69,158.89000000000001,158.89000000000001,0.0,0.0,3
342.76095300,342760953,0.0,-0.09,0.0,1.68,158.89000000000001,158.89000000000001,0.0,0.0,3
342.86098500,342860985,0.0,-0.09,0.0,1.68,158.89000000000001,158.89000000000001,0.0,0.0,3
342.96067200,342960672,0.0,-0.1,0.0,1.67,158.89000000000001,158.89000000000001,0.0,0.0,3
343.06069300,343060693,0.0,-0.11,0.0,1.68,158.89000000000001,158.89000000000001,0.0,0.0,3
343.16089400,343160894,0.0,-0.1,0.0,1.68,158.89000000000001,158.89000000000001,0.0,0.01,3
343.26086400,343260864,0.0,-0.1,0.0,1.67,158.88,158.88,0.0,0.01,3
343.36095900,343360959,0.0,-0.1,0.0,1.67,158.89000000000001,158.89000000000001,0.0,0.01,3
343.46075900,343460759,0.0,-0.1,0.0,1.68,158.89000000000001,158.89000000000001,0.0,0.01,3
343.56068300,343560683,0.0,-0.1,0.0,1.68,158.89000000000001,158.89000000000001,0.0,0.01,3
343.66077900,343660779,0.0,-0.1,0.0,1.68,158.89000000000001,158.89000000000001,0.0,0.01,3
343.76120100,343761201,0.0,-0.1,0.0,1.68,158.89000000000001,158.89000000000001,0.0,0.01,3
343.86067200,343860672,0.0,-0.11,0.0,1.67,158.89000000000001,158.89000000000001,0.0,0.01,3
343.96068500,343960685,0.0,-0.11,0.0,1.67,158.89000000000001,158.89000000000001,0.0,0.01,3
344.06083600,344060836,0.0,-0.11,0.0,1.67,158.9,158.9,0.0,0.01,3
344.16085100,344160851,0.0,-0.1,0.0,1.67,158.9,158.9,0.0,0.01,3
344.26095400,344260954,0.0,-0.11,0.0,1.67,158.9,158.9,0.0,0.01,3
344.36078800,344360788,0.0,-0.12,0.0,1.67,158.9,158.9,0.0,0.01,3
344.46069400,344460694,0.0,-0.12,0.0,1.67,158.91,158.91,0.0,0.01,3
344.56061600,344560616,0.0,-0.12,0.0,1.67,158.92000000000002,158.92000000000002,0.0,0.01,3
344.66070800,344660708,0.0,-0.14,0.0,1.6600000000000001,158.91,158.91,0.0,0.01,3
344.76068900,344760689,0.0,-0.12,0.0,1.6600000000000001,158.92000000000002,158.92000000000002,0.0,0.01,3
344.86094200,344860942,0.0,-0.11,0.0,1.6600000000000001,158.91,158.91,0.0,0.01,3
344.96081100,344960811,0.0,-0.13,0.0,1.6600000000000001,158.91,158.91,0.0,0.01,3
345.06086700,345060867,0.0,-0.12,0.0,1.6600000000000001,158.92000000000002,158.92000000000002,0.0,0.01,3
345.16102200,345161022,0.0,-0.11,0.0,1.67,158.92000000000002,158.92000000000002,0.0,0.0,3
345.26075700,345260757,0.0,-0.12,0.0,1.67,158.91,158.91,0.0,0.0,3
345.36071300,345360713,0.0,-0.13,0.0,1.6600000000000001,158.92000000000002,158.92000000000002,0.0,0.0,3
345.46068200,345460682,0.0,-0.14,0.0,1.6600000000000001,158.92000000000002,158.92000000000002,0.0,0.0,3
345.56062100,345560621,0.0,-0.14,0.0,1.6600000000000001,158.92000000000002,158.92000000000002,0.0,0.0,3
345.66073100,345660731,0.0,-0.15,0.0,1.6600000000000001,158.92000000000002,158.92000000000002,0.0,0.0,3
345.76096100,345760961,0.0,-0.15,0.0,1.6600000000000001,158.92000000000002,158.92000000000002,0.0,0.01,3
345.86104300,345861043,0.0,-0.15,0.0,1.6600000000000001,158.91,158.91,0.0,0.01,3
345.96086800,345960868,0.0,-0.16,0.0,1.6600000000000001,158.92000000000002,158.92000000000002,0.0,0.01,3
346.06095000,346060950,0.0,-0.16,0.0,1.6600000000000001,158.92000000000002,158.92000000000002,0.0,0.01,3
346.16094800,346160948,0.0,-0.16,0.0,1.6600000000000001,158.92000000000002,158.92000000000002,0.0,0.0,3
346.26068200,346260682,0.0,-0.16,0.0,1.6600000000000001,158.92000000000002,158.92000000000002,0.0,0.0,3
346.36075600,346360756,0.0,-0.16,0.0,1.6600000000000001,158.92000000000002,158.92000000000002,0.0,0.0,3
346.46067500,346460675,0.0,-0.16,0.0,1.6600000000000001,158.92000000000002,158.92000000000002,0.0,0.01,3
346.56067800,346560678,0.0,-0.16,0.0,1.6600000000000001,158.91,158.91,0.0,0.01,3
346.66099900,346660999,0.0,-0.17,0.0,1.67,158.91,158.91,0.0,0.01,3
346.76104600,346761046,0.0,-0.16,0.0,1.68,158.91,158.91,0.0,0.01,3
346.86087100,346860871,0.0,-0.17,0.0,1.67,158.9,158.9,0.0,0.01,3
346.96089500,346960895,0.0,-0.17,0.0,1.67,158.9,158.9,0.0,0.01,3
347.06076100,347060761,0.0,-0.16,0.0,1.67,158.9,158.9,0.0,0.01,3
347.16075900,347160759,0.0,-0.17,0.0,1.67,158.9,158.9,0.0,0.01,3
347.26067800,347260678,0.0,-0.18,0.0,1.67,158.9,158.9,0.0,0.01,3
347.36067200,347360672,0.0,-0.17,0.0,1.67,158.9,158.9,0.0,0.0,3
347.46070200,347460702,0.0,-0.17,0.0,1.67,158.9,158.9,0.0,0.01,3
347.56070200,347560702,0.0,-0.17,0.0,1.67,158.89000000000001,158.89000000000001,0.0,0.01,3
347.66085000,347660850,0.0,-0.17,0.0,1.67,158.89000000000001,158.89000000000001,0.0,0.01,3
347.76086300,347760863,0.0,-0.17,0.0,1.67,158.89000000000001,158.89000000000001,0.0,0.0,3
347.86091300,347860913,0.0,-0.18,0.0,1.67,158.89000000000001,158.89000000000001,0.0,0.0,3
347.96074700,347960747,0.0,-0.18,0.0,1.67,158.89000000000001,158.89000000000001,0.0,0.0,3
348.06098400,348060984,0.0,-0.17,0.0,1.67,158.9,158.9,0.0,0.0,3
348.16080000,348160800,0.0,-0.17,0.0,1.67,158.89000000000001,158.89000000000001,0.0,0.0,3
348.26063400,348260634,0.0,-0.18,0.0,1.6600000000000001,158.89000000000001,158.89000000000001,0.0,0.0,3
348.36071000,348360710,0.0,-0.18,0.0,1.6600000000000001,158.89000000000001,158.89000000000001,0.0,0.0,3
348.46081700,348460817,0.0,-0.17,0.0,1.6600000000000001,158.89000000000001,158.89000000000001,0.0,0.0,3
348.56080200,348560802,0.0,-0.18,0.0,1.6600000000000001,158.89000000000001,158.89000000000001,0.0,0.0,3
348.66090400,348660904,0.0,-0.17,0.0,1.67,158.89000000000001,158.89000000000001,0.0,0.0,3
348.76092700,348760927,0.0,-0.17,0.0,1.6600000000000001,158.89000000000001,158.89000000000001,0.0,0.0,3
348.86102400,348861024,0.0,-0.17,0.0,1.6600000000000001,158.89000000000001,158.89000000000001,0.0,0.0,3
348.96097500,348960975,0.0,-0.17,0.0,1.67,158.9,158.9,0.0,0.0,3
349.06063000,349060630,0.0,-0.18,0.0,1.67,158.9,158.9,0.0,0.0,3
349.16070000,349160700,0.0,-0.17,0.0,1.67,158.9,158.9,0.0,0.01,3
349.26069300,349260693,0.0,-0.17,0.0,1.67,158.9,158.9,0.0,0.01,3
349.36073100,349360731,0.0,-0.17,0.0,1.6600000000000001,158.91,158.91,0.0,0.0,3
349.46082200,349460822,0.0,-0.16,0.0,1.6500000000000001,158.92000000000002,158.92000000000002,0.0,0.0,3
349.56084200,349560842,0.0,-0.16,0.0,1.6500000000000001,158.92000000000002,158.92000000000002,0.0,0.0,3
349.66119700,349661197,0.0,-0.16,0.0,1.6500000000000001,158.92000000000002,158.92000000000002,0.0,0.0,3
349.76075300,349760753,0.0,-0.16,0.0,1.6500000000000001,158.93,158.93,0.0,0.0,3
349.86098700,349860987,0.0,-0.16,0.0,1.6500000000000001,158.92000000000002,158.92000000000002,0.0,0.0,3
349.96095800,349960958,0.0,-0.16,0.0,1.6500000000000001,158.93,158.93,0.0,0.0,3
350.06095600,350060956,0.0,-0.16,0.0,1.6500000000000001,158.93,158.93,0.0,0.01,3
350.16103900,350161039,0.0,-0.16,0.0,1.6500000000000001,158.93,158.93,0.0,0.01,3
350.26121800,350261218,0.0,-0.16,0.0,1.6400000000000001,158.93,158.93,0.0,0.01,3
350.36083200,350360832,0.0,-0.16,0.0,1.6500000000000001,158.93,158.93,0.0,0.01,3
350.46085100,350460851,0.0,-0.16,0.0,1.6400000000000001,158.93,158.93,0.0,0.01,3
350.56090700,350560907,0.0,-0.16,0.0,1.6400000000000001,158.93,158.93,0.0,0.01,3
350.66105000,350661050,0.0,-0.16,0.0,1.6400000000000001,158.93,158.93,0.0,0.0,3
350.76067700,350760677,0.0,-0.15,0.0,1.6400000000000001,158.92000000000002,158.92000000000002,0.0,0.0,3
350.86064600,350860646,0.0,-0.15,0.0,1.6400000000000001,158.92000000000002,158.92000000000002,0.0,0.01,3
350.96063700,350960637,0.0,-0.16,0.0,1.6300000000000001,158.92000000000002,158.92000000000002,0.0,0.0,3
351.06069400,351060694,0.0,-0.14,0.0,1.6300000000000001,158.92000000000002,158.92000000000002,0.0,0.0,3
351.16072100,351160721,0.0,-0.14,0.0,1.6300000000000001,158.93,158.93,0.0,0.0,3
351.26082700,351260827,0.0,-0.15,0.0,1.6300000000000001,158.93,158.93,0.0,0.01,3
351.36086600,351360866,0.0,-0.14,0.0,1.62,158.93,158.93,0.0,0.01,3
351.46091200,351460912,0.0,-0.14,0.0,1.6300000000000001,158.94,158.94,0.0,0.01,3
351.56072800,351560728,0.0,-0.14,0.0,1.6300000000000001,158.94,158.94,0.0,0.01,3
351.66125900,351661259,0.0,-0.14,0.0,1.6300000000000001,158.94,158.94,0.0,0.01,3
351.76062700,351760627,0.0,-0.14,0.0,1.6400000000000001,158.95000000000002,158.95000000000002,0.0,0.01,3
351.86066900,351860669,0.0,-0.15,0.0,1.6400000000000001,158.95000000000002,158.95000000000002,0.0,0.01,3
351.96067100,351960671,0.0,-0.15,0.0,1.6400000000000001,158.95000000000002,158.95000000000002,0.0,0.01,3
352.06069200,352060692,0.0,-0.14,0.0,1.6400000000000001,158.95000000000002,158.95000000000002,0.0,0.01,3
352.16090900,352160909,0.0,-0.14,0.0,1.6300000000000001,158.95000000000002,158.95000000000002,0.0,0.01,3
352.26084500,352260845,0.0,-0.15,0.0,1.6400000000000001,158.95000000000002,158.95000000000002,0.0,0.0,3
352.36093500,352360935,0.0,-0.15,0.0,1.6300000000000001,158.96,158.96,0.0,0.0,3
352.46093700,352460937,0.0,-0.15,0.0,1.6300000000000001,158.96,158.96,0.0,0.0,3
352.56067500,352560675,0.0,-0.15,0.0,1.6300000000000001,158.96,158.96,0.0,0.0,3
352.66075300,352660753,0.0,-0.15,0.0,1.62,158.96,158.96,0.0,0.0,3
352.76062500,352760625,0.0,-0.14,0.0,1.6300000000000001,158.96,158.96,0.0,0.01,3
352.86069000,352860690,0.0,-0.14,0.0,1.6400000000000001,158.96,158.96,0.0,0.01,3
352.96069300,352960693,0.0,-0.14,0.0,1.6300000000000001,158.96,158.96,0.0,0.01,3
353.06082100,353060821,0.0,-0.14,0.0,1.6300000000000001,158.96,158.96,0.0,0.01,3
353.16083100,353160831,0.0,-0.14,0.0,1.6300000000000001,158.96,158.96,0.0,0.01,3
353.26105600,353261056,0.0,-0.15,0.0,1.6300000000000001,158.96,158.96,0.0,0.02,3
353.36101700,353361017,0.0,-0.15,0.0,1.6300000000000001,158.96,158.96,0.0,0.02,3
353.46096700,353460967,0.0,-0.14,0.0,1.6300000000000001,158.96,158.96,0.0,0.02,3
353.56087700,353560877,0.0,-0.15,0.0,1.62,158.95000000000002,158.95000000000002,0.0,0.01,3
353.66103200,353661032,0.0,-0.15,0.0,1.62,158.95000000000002,158.95000000000002,0.0,0.01,3
353.76068800,353760688,0.0,-0.14,0.0,1.62,158.94,158.94,0.0,0.01,3
353.86071200,353860712,0.0,-0.14,0.0,1.62,158.93,158.93,0.0,0.01,3
353.96081800,353960818,0.0,-0.14,0.0,1.62,158.93,158.93,0.0,0.01,3
354.06086400,354060864,0.0,-0.14,0.0,1.61,158.93,158.93,0.0,0.01,3
354.16101900,354161019,0.0,-0.14,0.0,1.61,158.94,158.94,0.0,0.01,3
354.26076100,354260761,0.0,-0.15,0.0,1.62,158.93,158.93,0.0,0.01,3
354.36069000,354360690,0.0,-0.15,0.0,1.61,158.93,158.93,0.0,0.01,3
354.46065000,354460650,0.0,-0.14,0.0,1.61,158.93,158.93,0.0,0.0,3
354.56061600,354560616,0.0,-0.14,0.0,1.61,158.93,158.93,0.0,0.01,3
354.66073300,354660733,0.0,-0.14,0.0,1.6,158.93,158.93,0.0,0.0,3
354.76080100,354760801,0.0,-0.14,0.0,1.6,158.93,158.93,0.0,0.0,3
354.86081500,354860815,0.0,-0.14,0.0,1.6,158.93,158.93,0.0,0.01,3
354.96101400,354961014,0.0,-0.14,0.0,1.6,158.93,158.93,0.0,0.0,3
355.06091500,355060915,0.0,-0.14,0.0,1.6,158.93,158.93,0.0,0.01,3
355.16095900,355160959,0.0,-0.15,0.0,1.6,158.93,158.93,0.0,0.01,3
355.26066900,355260669,0.0,-0.14,0.0,1.6,158.93,158.93,0.0,0.01,3
355.36070700,355360707,0.0,-0.15,0.0,1.6,158.93,158.93,0.0,0.01,3
355.46096800,355460968,0.0,-0.14,0.0,1.6,158.93,158.93,0.0,0.01,3
355.56068200,355560682,0.0,-0.14,0.0,1.61,158.93,158.93,0.0,0.0,3
355.66076200,355660762,0.0,-0.15,0.0,1.6,158.93,158.93,0.0,0.0,3
355.76083100,355760831,0.0,-0.14,0.0,1.6,158.93,158.93,0.0,0.0,3
355.86086500,355860865,0.0,-0.14,0.0,1.6,158.93,158.93,0.0,0.01,3
355.96092500,355960925,0.0,-0.14,0.0,1.61,158.93,158.93,0.0,0.0,3
356.06078300,356060783,0.0,-0.14,0.0,1.61,158.93,158.93,0.0,0.01,3
356.16102800,356161028,0.0,-0.14,0.0,1.61,158.93,158.93,0.0,0.0,3
356.26087400,356260874,0.0,-0.14,0.0,1.6,158.94,158.94,0.0,0.0,3
356.36064100,356360641,0.0,-0.14,0.0,1.59,158.95000000000002,158.95000000000002,0.0,0.0,3
356.46068800,356460688,0.0,-0.14,0.0,1.6,158.95000000000002,158.95000000000002,0.0,0.01,3
356.56067900,356560679,0.0,-0.14,0.0,1.6,158.95000000000002,158.95000000000002,0.0,0.01,3
