timestamp,TimeUS,C,Q1,Q2,Q3,Q4
245.96018600,245960186,2,0.17549309134483337,-0.015049041248857975,0.001024684403091669,0.9843651056289673
246.06014400,246060144,2,0.17545059323310852,-0.014956660568714142,0.0010267788311466575,0.9843741059303284
246.16011300,246160113,2,0.17544560134410858,-0.014981593005359173,0.0009913714602589607,0.9843746423721313
246.26011600,246260116,2,0.17546042799949646,-0.014952156692743301,0.0009479259606450796,0.9843724966049194
246.36010900,246360109,2,0.1754864901304245,-0.014975158497691154,0.0009857898112386465,0.9843674302101135
246.46010800,246460108,2,0.175496906042099,-0.014984742738306522,0.0009728514705784619,0.9843654632568359
246.56011500,246560115,2,0.17549282312393188,-0.015008888207376003,0.0009963178308680654,0.9843657612800598
246.66016600,246660166,2,0.1754724532365799,-0.015046259388327599,0.0010070333955809474,0.9843688607215881
246.76012000,246760120,2,0.17547225952148438,-0.015103399753570557,0.001050522900186479,0.9843679666519165
246.86020200,246860202,2,0.17548631131649017,-0.015129740349948406,0.0010288087651133537,0.9843650460243225
246.96014000,246960140,2,0.1754627227783203,-0.015171248465776443,0.0010795003036037087,0.9843685626983643
247.06011500,247060115,2,0.17544502019882202,-0.015181288123130798,0.0010931275319308043,0.984371542930603
247.16011300,247160113,2,0.17541393637657166,-0.015172736719250679,0.0011027255095541477,0.9843772053718567
247.26011300,247260113,2,0.17533612251281738,-0.015213332138955593,0.0010972573654726148,0.9843904972076416
247.36010900,247360109,2,0.17527152597904205,-0.015198100358247757,0.0010586652206256986,0.9844022393226624
247.46011900,247460119,2,0.1752319037914276,-0.015200082212686539,0.0010827035875990987,0.9844092726707458
247.56015600,247560156,2,0.1752258986234665,-0.015202793292701244,0.0010649138130247593,0.984410285949707
247.66012300,247660123,2,0.1752229481935501,-0.015202845446765423,0.0010263742879033089,0.9844108819961548
247.76018000,247760180,2,0.17525912821292877,-0.015177249908447266,0.0010520615614950657,0.9844048023223877
247.86014300,247860143,2,0.17522989213466644,-0.015197562985122204,0.0010540628572925925,0.9844096899032593
247.96011200,247960112,2,0.1752338409423828,-0.015233661979436874,0.0010729043278843164,0.9844083786010742
248.06010900,248060109,2,0.17520885169506073,-0.015283736400306225,0.0010904354276135564,0.9844120740890503
248.16011000,248160110,2,0.17524568736553192,-0.015242066234350204,0.001094128703698516,0.9844061136245728
248.26012700,248260127,2,0.17523862421512604,-0.015221741050481796,0.0010897073661908507,0.9844077229499817
248.36010900,248360109,2,0.17529410123825073,-0.015207387506961823,0.0010872985003516078,0.9843980669975281
248.46015100,248460151,2,0.17530877888202667,-0.01518323365598917,0.001094958046451211,0.9843958020210266
248.56012900,248560129,2,0.17530091106891632,-0.01520847249776125,0.0011143184965476394,0.9843968152999878
248.66018500,248660185,2,0.17528972029685974,-0.015216987580060959,0.0011215147096663713,0.9843986630439758
248.76014000,248760140,2,0.17534849047660828,-0.015224340371787548,0.0010976801859214902,0.9843881130218506
248.86011200,248860112,2,0.1753549873828888,-0.01521794218569994,0.0010827434016391635,0.9843870401382446
248.96010800,248960108,2,0.17538395524024963,-0.015208183787763119,0.0011203058529645205,0.9843819737434387
249.06011300,249060113,2,0.1753995418548584,-0.015275809913873672,0.0011311157140880823,0.9843781590461731
249.16011100,249160111,2,0.17537373304367065,-0.01526330504566431,0.0011162717128172517,0.9843829870223999
249.26011300,249260113,2,0.17539919912815094,-0.015286712907254696,0.0011092268396168947,0.9843780994415283
249.36015500,249360155,2,0.1753837615251541,-0.015343625098466873,0.001069243298843503,0.9843800067901611
249.46011300,249460113,2,0.17536906898021698,-0.015334967523813248,0.001066203461959958,0.9843827486038208
249.56019800,249560198,2,0.17529787123203278,-0.015346608124673367,0.00103271147236228,0.9843952655792236
249.66014100,249660141,2,0.17528733611106873,-0.015407848171889782,0.000989056657999754,0.98439621925354
249.76013900,249760139,2,0.17524664103984833,-0.015417283400893211,0.0009666089899837971,0.9844033718109131
249.86011600,249860116,2,0.17521882057189941,-0.015420900657773018,0.0009798940736800432,0.9844082593917847
249.96012000,249960120,2,0.1752011626958847,-0.015456460416316986,0.0009941024472936988,0.98441082239151
250.06011000,250060110,2,0.17513859272003174,-0.015467029064893723,0.0009612280409783125,0.9844218492507935
250.16011200,250160112,2,0.175079807639122,-0.01550318580120802,0.0009216065518558025,0.9844317436218262
250.26017000,250260170,2,0.1750849485397339,-0.015527303330600262,0.0008562664734199643,0.9844304919242859
250.36012100,250360121,2,0.17511427402496338,-0.0155109204351902,0.00082560651935637,0.9844256043434143
250.46017900,250460179,2,0.17511342465877533,-0.015518593601882458,0.0007803574553690851,0.9844256639480591
250.56014300,250560143,2,0.17517900466918945,-0.015570631250739098,0.0007634880021214485,0.9844131469726562
250.66011100,250660111,2,0.1751701384782791,-0.015557119622826576,0.0007307392079383135,0.9844149947166443
250.76010700,250760107,2,0.17513352632522583,-0.015562242828309536,0.0006807114114053547,0.98442143201828
250.86011200,250860112,2,0.17514526844024658,-0.015582053922116756,0.0006272452301345766,0.9844191074371338
250.96010700,250960107,2,0.17514772713184357,-0.01560004148632288,0.0006432425579987466,0.9844183325767517
251.06013300,251060133,2,0.17518484592437744,-0.015555364079773426,0.0006351906340569258,0.9844124913215637
251.16015700,251160157,2,0.1752055585384369,-0.015541589818894863,0.0005868846783414483,0.9844090342521667
251.26012300,251260123,2,0.1751866191625595,-0.015567468479275703,0.0005585749167948961,0.9844120144844055
251.36018500,251360185,2,0.17524348199367523,-0.015563190914690495,0.000559976848307997,0.9844019412994385
251.46014600,251460146,2,0.17527833580970764,-0.015543798916041851,0.0004992811009287834,0.9843961000442505
251.56015000,251560150,2,0.17528001964092255,-0.015542572364211082,0.0004555645282380283,0.9843958020210266
251.66011400,251660114,2,0.17524980008602142,-0.015522760339081287,0.00042620618478395045,0.984401524066925
251.76012100,251760121,2,0.17524611949920654,-0.015561619773507118,0.00041509451693855226,0.9844015836715698
251.86011100,251860111,2,0.17523843050003052,-0.015577639453113079,0.0003443426394369453,0.9844027161598206
251.96012400,251960124,2,0.17521293461322784,-0.01556171290576458,0.0003072771360166371,0.9844075441360474
252.06015800,252060158,2,0.17523060739040375,-0.015621623955667019,0.00030120962765067816,0.9844034314155579
252.16012900,252160129,2,0.17522847652435303,-0.015620327554643154,0.0002466904988978058,0.9844038486480713
252.26018800,252260188,2,0.17523397505283356,-0.015589527785778046,0.00023626702022738755,0.9844033718109131
252.36013300,252360133,2,0.17527441680431366,-0.015643438324332237,0.00021554277918767184,0.9843953251838684
252.46010800,252460108,2,0.17532508075237274,-0.015606475062668324,0.00024160336761269718,0.9843868613243103
252.56012700,252560127,2,0.17529571056365967,-0.01563122496008873,0.00019889368559233844,0.9843916893005371
252.66011700,252660117,2,0.17526552081108093,-0.01559484750032425,0.000166618890943937,0.9843976497650146
252.76011400,252760114,2,0.17526644468307495,-0.015551679767668247,0.00016120455984491855,0.9843981862068176
252.86012600,252860126,2,0.17534177005290985,-0.01549387164413929,0.0001800706668291241,0.9843856692314148
252.96015600,252960156,2,0.17535454034805298,-0.015401044860482216,0.00013931210560258478,0.9843848943710327
253.06013000,253060130,2,0.17531011998653412,-0.015408098697662354,0.00011245339555898681,0.9843927025794983
253.16020100,253160201,2,0.17529627680778503,-0.015393784269690514,7.523070962633938e-05,0.9843953847885132
253.26013900,253260139,2,0.1752721667289734,-0.015416738577187061,3.431293225730769e-05,0.9843993186950684
253.36010800,253360108,2,0.17532627284526825,-0.015451687388122082,1.651014099479653e-05,0.9843891263008118
253.46010700,253460107,2,0.17530758678913116,-0.015496463514864445,-1.6324580428772606e-05,0.9843917489051819
253.56012200,253560122,2,0.17532487213611603,-0.015504211187362671,-3.894017936545424e-05,0.984388530254364
253.66012000,253660120,2,0.17534513771533966,-0.015501230023801327,-8.932175842346624e-05,0.9843849539756775
253.76012500,253760125,2,0.17530235648155212,-0.015439491719007492,-7.822609768481925e-05,0.9843935966491699
253.86016000,253860160,2,0.17530407011508942,-0.015420433133840561,-0.00011498574167490005,0.9843935370445251
253.96014000,253960140,2,0.17531919479370117,-0.015396159142255783,-7.78868343331851e-05,0.9843912720680237
254.06018300,254060183,2,0.17536702752113342,-0.015382095240056515,-8.990251080831513e-05,0.9843829274177551
254.16014300,254160143,2,0.1754068285226822,-0.015358470380306244,-8.25000970507972e-05,0.9843762516975403
254.26011400,254260114,2,0.17541055381298065,-0.015330147929489613,-8.593763777753338e-05,0.9843760132789612
254.36010900,254360109,2,0.1754821240901947,-0.015318025834858418,-0.0001358835434075445,0.9843634366989136
254.46010800,254460108,2,0.1755075603723526,-0.015298759564757347,-0.0001358300360152498,0.9843592047691345
254.56011500,254560115,2,0.17554564774036407,-0.015273848548531532,-9.925822087097913e-05,0.9843527674674988
254.66011000,254660110,2,0.17556187510490417,-0.015256619080901146,-0.00010634205682436004,0.9843501448631287
254.76015700,254760157,2,0.17560763657093048,-0.015257845632731915,-0.00012754910858348012,0.9843419790267944
254.86012800,254860128,2,0.17557436227798462,-0.01527085155248642,-0.00012518900621216744,0.9843477010726929
254.96018100,254960181,2,0.1755511611700058,-0.015273370780050755,-0.00017497854423709214,0.9843518137931824
255.06014400,255060144,2,0.17555132508277893,-0.015211128629744053,-0.00020764798682648689,0.984352707862854
255.16011100,255160111,2,0.17557908594608307,-0.015230655670166016,-0.0002117266703862697,0.9843474626541138
255.26011500,255260115,2,0.17561712861061096,-0.015247301198542118,-0.00012267212150618434,0.9843404293060303
255.36012200,255360122,2,0.17563916742801666,-0.015252442099153996,-9.332865010946989e-05,0.9843364357948303
255.46011500,255460115,2,0.17563191056251526,-0.015203151851892471,-0.00012095324927940965,0.9843385219573975
255.56011200,255560112,2,0.1755819022655487,-0.015189285390079021,-9.764917922439054e-05,0.9843476414680481
255.66015700,255660157,2,0.17560027539730072,-0.015160203911364079,-8.002356480574235e-05,0.9843447804450989
255.76012500,255760125,2,0.17558158934116364,-0.015157198533415794,-7.51755214878358e-05,0.9843481779098511
255.86018500,255860185,2,0.17559105157852173,-0.015167470090091228,-3.59632249455899e-05,0.984346330165863
255.96014700,255960147,2,0.17558974027633667,-0.015144292265176773,-3.1183877581497654e-05,0.9843469262123108
256.06011300,256060113,2,0.1756119728088379,-0.015163158997893333,1.577397961227689e-05,0.9843426942825317
256.16011200,256160112,2,0.17569710314273834,-0.01515299640595913,2.0513525669230148e-05,0.9843276739120483
256.26011500,256260115,2,0.1756802201271057,-0.015171105042099953,8.983219231595285e-06,0.9843303561210632
256.36011200,256360112,2,0.1757059246301651,-0.015174636617302895,4.488995546125807e-05,0.9843257069587708
256.46010800,256460108,2,0.1757293939590454,-0.01513009425252676,2.7427235181676224e-05,0.9843222498893738
256.56015700,256560157,2,0.17577414214611053,-0.015133907087147236,-8.284036425720842e-07,0.9843142032623291
256.66011800,256660118,2,0.1757957637310028,-0.015156179666519165,-6.366740126395598e-05,0.98430997133255
256.76019200,256760192,2,0.17575234174728394,-0.015176361426711082,-3.2809359254315495e-05,0.984317421913147
256.86013700,256860137,2,0.17572666704654694,-0.015161411836743355,-1.8914868633146398e-05,0.9843222498893738
256.96013200,256960132,2,0.17576627433300018,-0.015198303386569023,5.596892606263282e-06,0.9843146204948425
257.06011200,257060112,2,0.17572301626205444,-0.015164218842983246,-2.316058635187801e-05,0.9843228459358215
257.16012100,257160121,2,0.1757548749446869,-0.01518542692065239,-6.28631960353232e-06,0.9843168258666992
257.26011200,257260112,2,0.17574632167816162,-0.015193178318440914,4.646960587706417e-05,0.9843182563781738
257.36010900,257360109,2,0.1756168007850647,-0.015159309841692448,0.00010698832193156704,0.9843418598175049
257.46015700,257460157,2,0.17555591464042664,-0.015157487243413925,7.923172961454839e-05,0.9843527674674988
257.56012300,257560123,2,0.17553368210792542,-0.015156424604356289,6.833857332821935e-05,0.9843567609786987
257.66019900,257660199,2,0.17549623548984528,-0.01513155922293663,5.210780000197701e-05,0.9843637943267822
257.76013400,257760134,2,0.1754969358444214,-0.015087123960256577,6.415190000552684e-06,0.98436439037323
257.86011300,257860113,2,0.17550015449523926,-0.015067584812641144,9.711718121252488e-06,0.9843640923500061
257.96013700,257960137,2,0.1755213886499405,-0.015081597492098808,2.756023604888469e-05,0.9843600988388062
258.06011200,258060112,2,0.1755266785621643,-0.015123429708182812,4.795929999090731e-05,0.9843584895133972
258.16011200,258160112,2,0.17561796307563782,-0.015108027495443821,4.938015990774147e-05,0.9843424558639526
258.26012600,258260126,2,0.17564643919467926,-0.0151088060811162,9.508797666057944e-05,0.9843373894691467
258.36015300,258360153,2,0.17570269107818604,-0.01514409389346838,7.320685836020857e-05,0.9843267798423767
258.46011900,258460119,2,0.17574815452098846,-0.015163698233664036,2.1397332602646202e-05,0.9843183755874634
258.56018400,258560184,2,0.17574293911457062,-0.015113964676856995,2.4651522835483775e-05,0.9843200445175171
258.66014600,258660146,2,0.1757313311100006,-0.015113378874957561,0.00011082441778853536,0.9843221306800842
258.76010900,258760109,2,0.17575107514858246,-0.015121440403163433,0.00013207198935560882,0.9843184947967529
258.86011000,258860110,2,0.17576363682746887,-0.015062980353832245,0.0001760455488692969,0.9843171238899231
258.96010900,258960109,2,0.17577756941318512,-0.015016010031104088,0.00022909622930455953,0.9843153357505798
259.06010800,259060108,2,0.1757948249578476,-0.015003598295152187,0.00025142417871393263,0.9843124747276306
259.16011300,259160113,2,0.17578518390655518,-0.015005216002464294,0.0002947305329144001,0.9843141436576843
259.26015700,259260157,2,0.17581069469451904,-0.014992200769484043,0.0002702967613004148,0.9843097925186157
259.36012200,259360122,2,0.17577630281448364,-0.015000385232269764,0.00027361541287973523,0.984315812587738
259.46017900,259460179,2,0.17578381299972534,-0.014956324361264706,0.00026545519358478487,0.9843151569366455
259.56013600,259560136,2,0.17578943073749542,-0.014924420975148678,0.00026855996111407876,0.9843146204948425
259.66011200,259660112,2,0.17588596045970917,-0.014943201094865799,0.0002545640163589269,0.9842970967292786
259.76010800,259760108,2,0.17589223384857178,-0.014918936416506767,0.00025806063786149025,0.9842963218688965
259.86011600,259860116,2,0.17585362493991852,-0.014845022931694984,0.0002707209496293217,0.9843043684959412
259.96011500,259960115,2,0.17585699260234833,-0.014858177863061428,0.0003214077732991427,0.9843035340309143
260.06011900,260060119,2,0.17588630318641663,-0.01484543364495039,0.0003279564552940428,0.9842984676361084
260.16015800,260160158,2,0.1758062243461609,-0.014869042672216892,0.00032707222271710634,0.9843124151229858
260.26012600,260260126,2,0.17585036158561707,-0.014867904596030712,0.000371109985280782,0.9843045473098755
260.36018200,260360182,2,0.17585255205631256,-0.014893707819283009,0.0003870599321089685,0.9843037724494934
260.46013800,260460138,2,0.1758638620376587,-0.014889038167893887,0.0003679176152218133,0.9843018054962158
260.56013200,260560132,2,0.17589499056339264,-0.014911546371877193,0.00033791083842515945,0.9842959046363831
260.66011900,260660119,2,0.17592889070510864,-0.014994227327406406,0.00040951030678115785,0.9842885732650757
260.76011900,260760119,2,0.17594461143016815,-0.015028687193989754,0.00044954472105018795,0.9842852354049683
260.86011100,260860111,2,0.17600053548812866,-0.015015881508588791,0.0004742269229609519,0.9842754006385803
260.96010700,260960107,2,0.17623595893383026,-0.01499044056981802,0.0004748835926875472,0.9842336773872375
261.06015500,261060155,2,0.1765657663345337,-0.014999610371887684,0.0004714087408501655,0.9841744303703308
261.16012400,261160124,2,0.17706282436847687,-0.014981970191001892,0.0004797461733687669,0.9840853810310364
261.26018100,261260181,2,0.17770494520664215,-0.014939427375793457,0.0004859621112700552,0.9839702844619751
261.36014300,261360143,2,0.17850418388843536,-0.014875968918204308,0.0005527848843485117,0.9838265180587769
261.46012700,261460127,2,0.17939287424087524,-0.01487188134342432,0.0005992838414385915,0.9836649298667908
261.56012400,261560124,2,0.1803443282842636,-0.014845133759081364,0.0006783927674405277,0.9834913015365601
261.66012100,261660121,2,0.18133780360221863,-0.014827929437160492,0.0007533582975156605,0.9833087921142578
261.76010900,261760109,2,0.1822969615459442,-0.014687594957649708,0.0008805745164863765,0.9831334352493286
261.86011400,261860114,2,0.18329651653766632,-0.014579672366380692,0.0009172176942229271,0.9829491376876831
261.96015800,261960158,2,0.18431483209133148,-0.014596597291529179,0.0008956926758401096,0.9827584624290466
262.06011900,262060119,2,0.18535864353179932,-0.014799739234149456,0.0008296497981064022,0.9825591444969177
262.16018600,262160186,2,0.1863911747932434,-0.014894245192408562,0.0008458103984594345,0.9823623299598694
262.26014200,262260142,2,0.18737444281578064,-0.014903045259416103,0.0008261377224698663,0.9821751713752747
262.36013000,262360130,2,0.188365176320076,-0.014916733838617802,0.0008193230023607612,0.9819854497909546
262.46012500,262460125,2,0.18935726583003998,-0.01486682053655386,0.0008611443336121738,0.9817953109741211
262.56012400,262560124,2,0.1903441846370697,-0.014828361570835114,0.0008724816143512726,0.981605052947998
262.66011100,262660111,2,0.1911587119102478,-0.014696531929075718,0.0009042065939866006,0.9814487099647522
262.76011200,262760112,2,0.19181089103221893,-0.014667305164039135,0.000922993931453675,0.9813218712806702
262.86016400,262860164,2,0.19221231341362,-0.014664794318377972,0.000929473724681884,0.981243371963501
262.96012100,262960121,2,0.19238899648189545,-0.014715517871081829,0.0009494273108430207,0.9812079668045044
263.06018300,263060183,2,0.19235117733478546,-0.014782620593905449,0.0009606935200281441,0.9812143445014954
263.16013800,263160138,2,0.19230684638023376,-0.014787402004003525,0.000947699008975178,0.9812229871749878
263.26011100,263260111,2,0.19222593307495117,-0.014777302742004395,0.0009398092515766621,0.9812389612197876
263.36011300,263360113,2,0.1921788901090622,-0.014864503405988216,0.0009698411449790001,0.981246829032898
263.46010900,263460109,2,0.19215725362300873,-0.01483390387147665,0.0009517041617073119,0.98125159740448
263.56011200,263560112,2,0.1921023577451706,-0.014780194498598576,0.0009728908189572394,0.9812631011009216
263.66013700,263660137,2,0.19206462800502777,-0.014820082113146782,0.0010249210754409432,0.9812698364257812
263.76016200,263760162,2,0.19203229248523712,-0.014883489347994328,0.0010071517899632454,0.981275200843811
263.86011300,263860113,2,0.19202695786952972,-0.014906533062458038,0.0009917033603414893,0.9812759160995483
263.96018900,263960189,2,0.19199426472187042,-0.014931092038750648,0.0010072753066197038,0.9812819361686707
264.06014000,264060140,2,0.19200584292411804,-0.014960899017751217,0.000986878527328372,0.9812792539596558
264.16010900,264160109,2,0.19201403856277466,-0.014988995157182217,0.0009878596756607294,0.9812772274017334
264.26011600,264260116,2,0.1920144408941269,-0.014966636896133423,0.001024472527205944,0.9812774062156677
264.36010900,264360109,2,0.1920299232006073,-0.014924892224371433,0.001041608746163547,0.9812750220298767
264.46010700,264460107,2,0.19207477569580078,-0.014910243451595306,0.0010337005369365215,0.9812664985656738
264.56011600,264560116,2,0.19203878939151764,-0.014889915473759174,0.0010158473160117865,0.9812738299369812
264.66015600,264660156,2,0.19206978380680084,-0.014893865212798119,0.0009873873787000775,0.9812677502632141
264.76012900,264760129,2,0.19207751750946045,-0.014967665076255798,0.0009784643771126866,0.981265127658844
264.86018400,264860184,2,0.19210702180862427,-0.014958133921027184,0.0009954996639862657,0.9812594652175903
264.96014200,264960142,2,0.19211150705814362,-0.014890920370817184,0.001019657589495182,0.9812595844268799
265.06016000,265060160,2,0.19211450219154358,-0.014949780888855457,0.0010401022154837847,0.9812580943107605
265.16010900,265160109,2,0.1921444982290268,-0.01496281661093235,0.0010245607700198889,0.9812520146369934
265.26012100,265260121,2,0.19212926924228668,-0.014966011047363281,0.0010221728589385748,0.9812549948692322
265.36011600,265360116,2,0.1920960396528244,-0.014958808198571205,0.0010405624052509665,0.9812615513801575
265.46013300,265460133,2,0.19212627410888672,-0.014989600516855717,0.0010228791506960988,0.9812551736831665
265.56015600,265560156,2,0.19213195145130157,-0.015070166438817978,0.0010354967089369893,0.9812528491020203
265.66014100,265660141,2,0.19214192032814026,-0.015085812658071518,0.0010324325412511826,0.9812506437301636
265.76018700,265760187,2,0.19212444126605988,-0.015018713660538197,0.0010318212443962693,0.9812551140785217
265.86013900,265860139,2,0.1921159327030182,-0.015036423690617085,0.00103155302349478,0.9812564849853516
265.96015700,265960157,2,0.19213426113128662,-0.015037467703223228,0.0009872085647657514,0.981252908706665
266.06010900,266060109,2,0.19211219251155853,-0.015026910230517387,0.001019056304357946,0.9812573790550232
266.16012600,266160126,2,0.19212983548641205,-0.015037266537547112,0.0010110409930348396,0.9812538027763367
266.26011600,266260116,2,0.19210286438465118,-0.015058986842632294,0.0009880363941192627,0.981258749961853
266.36010900,266360109,2,0.19207382202148438,-0.015080279670655727,0.0010044662049040198,0.9812641143798828
266.46015300,266460153,2,0.19199347496032715,-0.015143055468797684,0.001014798879623413,0.9812788367271423
335.36011500,335360115,2,0.1825140118598938,-0.014554253779351711,5.3913183364784345e-05,0.9830955266952515
335.46010800,335460108,2,0.18245571851730347,-0.014559571631252766,8.87028145371005e-05,0.983106255531311
335.56011000,335560110,2,0.18246035277843475,-0.014585273340344429,0.00010621652472764254,0.9831050038337708
335.66013500,335660135,2,0.18250426650047302,-0.014558646827936172,9.021750884130597e-05,0.98309725522995
335.76015000,335760150,2,0.18254072964191437,-0.014576748013496399,0.00014799443306401372,0.9830902218818665
335.86014100,335860141,2,0.18255546689033508,-0.014551449567079544,0.00014582085714209825,0.9830878376960754
335.96018200,335960182,2,0.18260689079761505,-0.014519209042191505,0.00011583495506783947,0.9830787777900696
336.06013900,336060139,2,0.18259510397911072,-0.014532567001879215,9.728784789331257e-05,0.9830808043479919
336.16010900,336160109,2,0.18256628513336182,-0.014553465880453587,8.231557148974389e-05,0.9830858111381531
336.26011100,336260111,2,0.18256866931915283,-0.014508151449263096,3.84279883292038e-05,0.9830860495567322
336.36011100,336360111,2,0.18258501589298248,-0.014507235959172249,8.78627997735748e-06,0.9830830097198486
336.46011700,336460117,2,0.18257275223731995,-0.01451710145920515,2.709579530346673e-05,0.9830851554870605
336.56011000,336560110,2,0.18255579471588135,-0.014477667398750782,-9.844433179750922e-07,0.9830889105796814
336.66017400,336660174,2,0.1825520545244217,-0.014463958330452442,8.63509649207117e-06,0.983089804649353
336.76013000,336760130,2,0.18259789049625397,-0.014434549026191235,3.3327607525279745e-05,0.9830816984176636
336.86017900,336860179,2,0.18260926008224487,-0.014401265420019627,3.86655556212645e-05,0.9830800890922546
336.96014200,336960142,2,0.18259373307228088,-0.014384225942194462,-1.386420791504861e-07,0.9830832481384277
337.06011100,337060111,2,0.1825946569442749,-0.014316340908408165,-7.001129688433139e-06,0.9830840229988098
337.16010800,337160108,2,0.18262434005737305,-0.01435214001685381,-3.66830647635652e-07,0.9830780029296875
337.26011200,337260112,2,0.18264040350914001,-0.014337592758238316,3.615432797232643e-05,0.9830752611160278
337.36012500,337360125,2,0.18263189494609833,-0.014384996145963669,5.2198374760337174e-05,0.9830760955810547
337.46010800,337460108,2,0.1826286017894745,-0.014320353977382183,1.1978979273408186e-05,0.9830777049064636
337.56016100,337560161,2,0.1826842725276947,-0.014367608353495598,7.71989653003402e-05,0.9830666184425354
337.66013300,337660133,2,0.18260237574577332,-0.014379387721419334,0.00010352590470574796,0.9830816984176636
337.76018300,337760183,2,0.18261897563934326,-0.014357716776430607,6.600308552151546e-05,0.9830788969993591
337.86013900,337860139,2,0.1826043277978897,-0.01440381444990635,0.00011317923053866252,0.9830809831619263
337.96011000,337960110,2,0.18252001702785492,-0.014509821310639381,0.00010071221186080948,0.9830950498580933
338.06010900,338060109,2,0.18252123892307281,-0.014543927274644375,8.447215805063024e-05,0.983094334602356
338.16011900,338160119,2,0.1824076920747757,-0.014313474297523499,0.00044626049930229783,0.9831187129020691
338.26011200,338260112,2,0.18221627175807953,-0.014546831138432026,4.5535551180364564e-05,0.983150839805603
338.36012300,338360123,2,0.18226918578147888,-0.014463580213487148,-0.0001325939520029351,0.9831422567367554
338.46015700,338460157,2,0.182262122631073,-0.014518843963742256,0.00024096823472063988,0.9831427335739136
338.56013100,338560131,2,0.18227297067642212,-0.01451302319765091,0.00018659232591744512,0.9831408262252808
338.66018700,338660187,2,0.1822246015071869,-0.01452501118183136,-2.9882166927563958e-05,0.9831496477127075
338.76013700,338760137,2,0.18218709528446198,-0.014503792859613895,0.0002531013451516628,0.9831568598747253
338.86011300,338860113,2,0.18217989802360535,-0.014541315846145153,0.00035783404018729925,0.9831576347351074
338.96011400,338960114,2,0.18209266662597656,-0.014551615342497826,0.000295281526632607,0.983173668384552
339.06011400,339060114,2,0.1821095496416092,-0.014539353549480438,0.00017923154518939555,0.983170747756958
339.16010800,339160108,2,0.18210187554359436,-0.014487076550722122,6.374086660798639e-05,0.9831729531288147
339.26011200,339260112,2,0.1821109652519226,-0.01449921727180481,7.391222607111558e-05,0.9831710457801819
339.36015800,339360158,2,0.1820399910211563,-0.014453854411840439,0.00013458283501677215,0.9831848740577698
339.46011800,339460118,2,0.18199238181114197,-0.01445034146308899,0.00014848333375994116,0.9831937551498413
339.56017800,339560178,2,0.1819661259651184,-0.014461921527981758,0.00010272494546370581,0.9831984639167786
339.66014300,339660143,2,0.18193724751472473,-0.014444601722061634,4.0976752643473446e-05,0.9832040667533875
339.76010800,339760108,2,0.18188504874706268,-0.014409508556127548,0.00010432703857077286,0.9832141995429993
339.86012200,339860122,2,0.18188682198524475,-0.014396983198821545,8.360396168427542e-05,0.9832140803337097
339.96012500,339960125,2,0.1818307787179947,-0.014382694847881794,-4.478981736610876e-06,0.983224630355835
340.06010900,340060109,2,0.18181981146335602,-0.014374032616615295,2.081534375975025e-06,0.9832267761230469
340.16011900,340160119,2,0.18175002932548523,-0.014388310723006725,5.214597695157863e-05,0.983239471912384
340.26015900,340260159,2,0.1816895455121994,-0.014414308592677116,2.485548066033516e-05,0.9832503199577332
340.36012200,340360122,2,0.18168099224567413,-0.014406247064471245,3.5734956327360123e-05,0.9832519888877869
340.46018900,340460189,2,0.18164685368537903,-0.014427906833589077,1.2234297173563391e-05,0.9832580089569092
340.56014400,340560144,2,0.18165023624897003,-0.014390631578862667,3.5426670365268365e-05,0.9832578897476196
340.66011100,340660111,2,0.18166030943393707,-0.014341953210532665,-3.320495306979865e-05,0.9832567572593689
340.76011200,340760112,2,0.18167267739772797,-0.014341054484248161,-7.54196080379188e-05,0.9832544922828674
340.86010700,340860107,2,0.18163445591926575,-0.014368382282555103,-1.110644643631531e-05,0.9832611680030823
340.96011100,340960111,2,0.18165883421897888,-0.014342227950692177,-5.153050005901605e-05,0.983256995677948
341.06011200,341060112,2,0.18164591491222382,-0.014325368218123913,-5.2942370530217886e-05,0.9832596778869629
341.16015200,341160152,2,0.18164752423763275,-0.014348302036523819,-8.970193448476493e-05,0.9832590222358704
341.26012100,341260121,2,0.18161487579345703,-0.014320599846541882,-6.730757013428956e-05,0.9832654595375061
341.36018600,341360186,2,0.18160805106163025,-0.014295477420091629,-8.609844371676445e-05,0.983267068862915
341.46013500,341460135,2,0.1815427839756012,-0.014293884858489037,-0.0001595538342371583,0.9832791686058044
341.56010800,341560108,2,0.18157166242599487,-0.014342267997562885,-0.00012710620649158955,0.9832730889320374
341.66011600,341660116,2,0.18158647418022156,-0.014374211430549622,-4.561118839774281e-05,0.9832699298858643
341.76011500,341760115,2,0.18159668147563934,-0.014421002939343452,-8.558689296478406e-05,0.9832673668861389
341.86011200,341860112,2,0.1816093921661377,-0.014513428322970867,-0.00010943252709694207,0.9832636117935181
341.96011100,341960111,2,0.18159957230091095,-0.014524820260703564,-3.287273648311384e-05,0.9832652807235718
342.06016300,342060163,2,0.1815938502550125,-0.014534137211740017,-6.510272214654833e-05,0.9832661747932434
342.16011900,342160119,2,0.1815503090620041,-0.014583077281713486,-6.989262328715995e-05,0.9832735061645508
342.26018400,342260184,2,0.18152786791324615,-0.014553147368133068,-9.075421985471621e-05,0.9832780957221985
342.36013700,342360137,2,0.18145540356636047,-0.014522116631269455,-6.755027425242588e-05,0.9832919239997864
342.46011300,342460113,2,0.1813868284225464,-0.01452971063554287,-0.00011867966532008722,0.983304500579834
342.56010900,342560109,2,0.1813836544752121,-0.014576953835785389,-0.00023439970391336828,0.9833043217658997
342.66011300,342660113,2,0.18136581778526306,-0.01462184265255928,-0.000152087930473499,0.9833070039749146
342.76011200,342760112,2,0.1813158392906189,-0.014554471708834171,-0.00011370084394002333,0.9833171963691711
342.86012600,342860126,2,0.1813134104013443,-0.014606054872274399,3.860141077893786e-06,0.9833168983459473
342.96015500,342960155,2,0.18127548694610596,-0.014583741314709187,-0.00013977900380268693,0.9833242297172546
343.06012500,343060125,2,0.1812780797481537,-0.014616206288337708,-0.00015758481458760798,0.9833232164382935
343.16019900,343160199,2,0.1812901645898819,-0.014611084014177322,-0.0001805751962820068,0.9833210706710815
343.26013900,343260139,2,0.1813059151172638,-0.014664617367088795,-0.00023023599351290613,0.9833173751831055
343.36012600,343360126,2,0.1813451200723648,-0.014655305072665215,-0.00021909462520852685,0.9833102822303772
343.46011500,343460115,2,0.18133479356765747,-0.014732087962329388,-0.00019297850667499006,0.9833110570907593
343.56010700,343560107,2,0.1813206821680069,-0.014724555425345898,-0.00017260001914110035,0.9833137392997742
343.66011600,343660116,2,0.18124233186244965,-0.014769871719181538,-0.00015603186329826713,0.9833275079727173
343.76010800,343760108,2,0.18121114373207092,-0.014720183797180653,-8.607776544522494e-05,0.9833340644836426
343.86015300,343860153,2,0.18117445707321167,-0.01474085170775652,-0.00015152104606386274,0.9833405017852783
343.96012200,343960122,2,0.18112704157829285,-0.014771548099815845,-0.0002014828787650913,0.9833487272262573
344.06018200,344060182,2,0.18109504878520966,-0.014676437713205814,-0.00018574109708424658,0.9833560585975647
344.16015300,344160153,2,0.18102620542049408,-0.014614812098443508,-0.00011305476073175669,0.9833696484565735
344.26011300,344260113,2,0.18102402985095978,-0.014685538597404957,-0.00016333784151356667,0.983368992805481
344.36011200,344360112,2,0.18100705742835999,-0.014657747931778431,-0.00021411027410067618,0.9833725094795227
344.46011300,344460113,2,0.18098872900009155,-0.014631019905209541,-0.00026641497970558703,0.9833763241767883
344.56010800,344560108,2,0.18099761009216309,-0.01465003564953804,-0.0002139927528332919,0.9833744168281555
344.66012400,344660124,2,0.18103674054145813,-0.014623412862420082,-0.00044120821985416114,0.9833675026893616
344.76016900,344760169,2,0.1810085028409958,-0.014611471444368362,-0.00023401346697937697,0.9833729863166809
344.86011800,344860118,2,0.18102163076400757,-0.014571945182979107,-0.00020438272622413933,0.9833711385726929
344.96018100,344960181,2,0.1810293346643448,-0.014584040269255638,-0.00037527503445744514,0.9833694696426392
345.06014700,345060147,2,0.18097037076950073,-0.014568308368325233,-0.0002562252338975668,0.9833806157112122
345.16011000,345160110,2,0.18100519478321075,-0.014562699012458324,-0.00018649199046194553,0.983374297618866
345.26011100,345260111,2,0.18098032474517822,-0.014570816420018673,-0.00028117437614127994,0.9833787083625793
345.36011500,345360115,2,0.18100060522556305,-0.014482186175882816,-0.0002768810954876244,0.9833763241767883
345.46010800,345460108,2,0.18102015554904938,-0.014536412432789803,-0.00019674158829730004,0.983371913433075
345.56010800,345560108,2,0.18102529644966125,-0.014543808065354824,-0.0002581159060355276,0.983370840549469
345.66015900,345660159,2,0.18102310597896576,-0.014511287212371826,-0.00026237202109768987,0.9833717346191406
345.76012700,345760127,2,0.18103866279125214,-0.014545110054314137,-0.00020905587007291615,0.9833683967590332
345.86020600,345860206,2,0.18106329441070557,-0.01456635631620884,-0.00016833482368383557,0.9833635687828064
345.96014600,345960146,2,0.1810675412416458,-0.014607017859816551,-0.00023007586423773319,0.9833621382713318
346.06010800,346060108,2,0.18113352358341217,-0.01461020577698946,-0.0002263224741909653,0.9833499789237976
346.16010900,346160109,2,0.1811363399028778,-0.01459172647446394,-0.00020417945052031428,0.9833497405052185
346.26011100,346260111,2,0.18116295337677002,-0.014572899788618088,-0.00017291314725298434,0.983345091342926
346.36011500,346360115,2,0.1811596006155014,-0.014575667679309845,-0.00016165025590453297,0.9833456873893738
346.46011000,346460110,2,0.18115393817424774,-0.014521514065563679,-0.00019943884399253875,0.9833475351333618
346.56015100,346560151,2,0.1811157613992691,-0.0145272770896554,-0.00026947917649522424,0.9833544492721558
346.66012900,346660129,2,0.1811216026544571,-0.01449632365256548,-0.0002848315634764731,0.9833537936210632
346.76018800,346760188,2,0.18111224472522736,-0.014493308030068874,-0.00019039529433939606,0.9833556413650513
346.86013500,346860135,2,0.18115566670894623,-0.014500104822218418,-0.0002644079504534602,0.983347475528717
346.96012800,346960128,2,0.1811545342206955,-0.014522484503686428,-0.0002510967315174639,0.9833473563194275
347.06011200,347060112,2,0.1811583936214447,-0.014472625218331814,-0.00016602429968770593,0.9833474159240723
347.16010900,347160109,2,0.18113254010677338,-0.014520653523504734,-0.00020958091772627085,0.983351469039917
347.26011200,347260112,2,0.1811135709285736,-0.014575430192053318,-0.00028787803603336215,0.9833541512489319
347.36011400,347360114,2,0.1811010241508484,-0.014599699527025223,-0.00025573474704287946,0.9833561182022095
347.46015300,347460153,2,0.18103064596652985,-0.014545029029250145,-0.0002231076650787145,0.9833698868751526
347.56013200,347560132,2,0.18105436861515045,-0.014582899399101734,-0.0002326893445570022,0.9833649396896362
347.66019100,347660191,2,0.18108542263507843,-0.014555426314473152,-0.00016336438420694321,0.9833596348762512
347.76013600,347760136,2,0.18109823763370514,-0.014558411203324795,-0.00010501578071853146,0.9833572506904602
347.86010700,347860107,2,0.1810600310564041,-0.014510507695376873,-0.00013035404845140874,0.983364999294281
347.96011500,347960115,2,0.18106848001480103,-0.014489639550447464,-0.00016124967078212649,0.9833637475967407
348.06011800,348060118,2,0.1810675859451294,-0.014443260617554188,-0.00014739808102604002,0.9833645820617676
348.16010900,348160109,2,0.1810697466135025,-0.014461330138146877,-0.00015366684237960726,0.983363926410675
348.26011000,348260110,2,0.181080624461174,-0.014449418522417545,-0.00019352369417902082,0.983362078666687
348.36015500,348360155,2,0.18104302883148193,-0.014428566209971905,-0.0001446251553716138,0.9833692908287048
348.46012900,348460129,2,0.1810222715139389,-0.014462641440331936,-0.00015199441986624151,0.9833726286888123
348.56018100,348560181,2,0.1810487061738968,-0.014454662799835205,-0.00016120821237564087,0.9833678603172302
348.66014600,348660146,2,0.18102897703647614,-0.014521128498017788,-0.00010031642887042835,0.9833705425262451
348.76012900,348760129,2,0.1810034215450287,-0.01440852414816618,-4.4176660594530404e-05,0.9833769202232361
348.86010800,348860108,2,0.18098084628582,-0.01434349361807108,1.7411048247595318e-05,0.9833820462226868
348.96011500,348960115,2,0.18094070255756378,-0.014389175921678543,2.5225994249922223e-05,0.9833887219429016
349.06012900,349060129,2,0.18096934258937836,-0.0143385985866189,-2.2114565581432544e-05,0.9833841919898987
349.16013500,349160135,2,0.18094542622566223,-0.014378898777067661,7.537078545283293e-06,0.9833880066871643
349.26015100,349260151,2,0.1809718757867813,-0.014361739158630371,4.7748078941367567e-05,0.9833834171295166
349.36013200,349360132,2,0.18094445765018463,-0.014294820837676525,-2.8132195438956842e-05,0.9833894371986389
349.46018300,349460183,2,0.1809319704771042,-0.01427498459815979,2.4023356672842056e-05,0.9833920001983643
349.56014200,349560142,2,0.18090158700942993,-0.014256710186600685,-1.3006231711187866e-05,0.9833978414535522
349.66011200,349660112,2,0.18088549375534058,-0.01423712819814682,-1.4656845451099798e-05,0.9834011197090149
349.76010900,349760109,2,0.1808812916278839,-0.014263102784752846,-5.459268868435174e-05,0.9834014773368835
349.86011000,349860110,2,0.18088963627815247,-0.01431613601744175,-3.83941842301283e-05,0.9833992123603821
349.96011200,349960112,2,0.1809435933828354,-0.014290133491158485,5.5771915867808275e-06,0.983389675617218
350.06010800,350060108,2,0.1809321790933609,-0.014256015419960022,-1.4731388546351809e-05,0.9833922386169434
350.16015600,350160156,2,0.18096019327640533,-0.014190226793289185,4.279615677660331e-05,0.9833880662918091
350.26012200,350260122,2,0.18090039491653442,-0.014194619841873646,4.665316009777598e-05,0.983398973941803
350.36019100,350360191,2,0.18092398345470428,-0.014218458905816078,3.296032809885219e-05,0.9833943247795105
350.46014000,350460140,2,0.1809033304452896,-0.014197621494531631,4.328266732045449e-05,0.9833983778953552
350.56013000,350560130,2,0.18090488016605377,-0.014220667071640491,5.3768064390169457e-05,0.9833977818489075
350.66011200,350660112,2,0.18086585402488708,-0.014219067059457302,9.359339856018778e-06,0.9834049940109253
350.76012200,350760122,2,0.18086600303649902,-0.01422179862856865,1.054378685694246e-06,0.9834049344062805
350.86011600,350860116,2,0.1808559149503708,-0.014268348924815655,-2.3130744466470787e-06,0.983406126499176
350.96012900,350960129,2,0.18085326254367828,-0.014199321158230305,-5.316636816132814e-05,0.9834075570106506
351.06015800,351060158,2,0.18083494901657104,-0.014125381596386433,0.00014791544526815414,0.9834120273590088
351.16012900,351160129,2,0.18081320822238922,-0.014077321626245975,0.00014820774958934635,0.9834166765213013
351.26018000,351260180,2,0.1808599829673767,-0.014085699804127216,0.0001347802026430145,0.9834079742431641
351.36014100,351360141,2,0.18082907795906067,-0.013994538225233555,0.00018589165119919926,0.9834149479866028
351.46013000,351460130,2,0.18075190484523773,-0.014002721756696701,0.00020749458053614944,0.9834290146827698
351.56011900,351560119,2,0.18067777156829834,-0.01397536788135767,0.00024343698169104755,0.983443021774292
351.66011800,351660118,2,0.1806245744228363,-0.014008787460625172,0.0002129959175363183,0.983452320098877
351.76011000,351760110,2,0.18060636520385742,-0.014006496407091618,0.00024556569405831397,0.9834557175636292
351.86010800,351860108,2,0.1806049346923828,-0.013955284841358662,0.00023435136245097965,0.9834566712379456
351.96015500,351960155,2,0.1806175857782364,-0.014047853648662567,0.0003062690666411072,0.9834530353546143
352.06012300,352060123,2,0.1805882602930069,-0.014009930193424225,0.0003165913512930274,0.983458936214447
352.16019000,352160190,2,0.18057338893413544,-0.01399553194642067,0.0003338239330332726,0.983461856842041
352.26013900,352260139,2,0.18056455254554749,-0.01403432060033083,0.00020353999570943415,0.9834629893302917
352.36011200,352360112,2,0.18055522441864014,-0.014027158729732037,0.0001993508922168985,0.983464777469635
352.46020100,352460201,2,0.1804874837398529,-0.014030348509550095,0.0003260065568611026,0.9834771752357483
352.56010900,352560109,2,0.18047674000263214,-0.014030076563358307,0.00027151580434292555,0.9834791421890259
352.66011000,352660110,2,0.1804075688123703,-0.014056263491511345,0.0002358159690629691,0.9834914803504944
352.76012300,352760123,2,0.18043002486228943,-0.014058789238333702,0.0003023124882020056,0.9834873080253601
352.86016100,352860161,2,0.18042464554309845,-0.014061999507248402,0.00031607109121978283,0.9834882616996765
352.96012100,352960121,2,0.18035128712654114,-0.014035692438483238,0.0002751109132077545,0.9835020899772644
353.06019600,353060196,2,0.18030238151550293,-0.014066917821764946,0.0001899831841001287,0.9835106134414673
353.16014000,353160140,2,0.18026572465896606,-0.013991090469062328,0.00014546238526236266,0.9835184216499329
353.26010800,353260108,2,0.1802341192960739,-0.014013666659593582,0.00022345248726196587,0.9835239052772522
353.36012600,353360126,2,0.18027471005916595,-0.014010956510901451,0.00018845242448151112,0.9835165143013
353.46012200,353460122,2,0.18034972250461578,-0.014055009931325912,0.0001832448033383116,0.9835020899772644
353.56010800,353560108,2,0.18038716912269592,-0.014058136381208897,0.00015436008106917143,0.9834951758384705
353.66011300,353660113,2,0.1804451048374176,-0.014113393612205982,0.00017594096425455064,0.9834837913513184
353.76017000,353760170,2,0.18051178753376007,-0.014095309190452099,0.00021156342700123787,0.9834718108177185
353.86011800,353860118,2,0.18051722645759583,-0.014070648699998856,0.00018374170758761466,0.983471155166626
353.96018200,353960182,2,0.18053403496742249,-0.014062583446502686,0.00011505676957312971,0.9834681749343872
354.06013700,354060137,2,0.1805202215909958,-0.014093749225139618,0.00014640357403550297,0.9834702610969543
354.16011000,354160110,2,0.18050821125507355,-0.014057614840567112,0.00012861064169555902,0.983473002910614
354.26010900,354260109,2,0.18051743507385254,-0.014045448042452335,9.828932888922282e-06,0.9834715127944946
354.36011100,354360111,2,0.18050625920295715,-0.014046834781765938,7.581878435303224e-06,0.983473539352417
354.46011600,354460116,2,0.18052084743976593,-0.013996041379868984,6.430374924093485e-06,0.9834715723991394
354.56011900,354560119,2,0.18054454028606415,-0.014015118591487408,-4.88782143293065e-06,0.9834669828414917
354.66016300,354660163,2,0.1805560439825058,-0.013864940963685513,-3.356839079060592e-05,0.9834669828414917
354.76012200,354760122,2,0.18055549263954163,-0.013809187337756157,-7.807421206962317e-05,0.9834678769111633
354.86018000,354860180,2,0.18054166436195374,-0.013806289993226528,-7.380282477242872e-05,0.9834704399108887
354.96013700,354960137,2,0.18054085969924927,-0.0138382064178586,-7.017445750534534e-05,0.9834701418876648
355.06012700,355060127,2,0.18053650856018066,-0.013867110945284367,-8.165121835190803e-05,0.9834704995155334
355.16011200,355160112,2,0.18046478927135468,-0.013862536288797855,-5.269635948934592e-05,0.9834837317466736
355.26010700,355260107,2,0.18043740093708038,-0.013843626715242863,-4.269388227839954e-05,0.9834890365600586
355.36012000,355360120,2,0.18041248619556427,-0.013860246166586876,-2.066626439045649e-05,0.9834933876991272
355.46011500,355460115,2,0.18037627637386322,-0.01385965570807457,3.765767905861139e-05,0.9835000038146973
355.56015100,355560151,2,0.18044163286685944,-0.013909419998526573,1.8821107005351223e-05,0.9834873676300049
355.66012300,355660123,2,0.1804509460926056,-0.013883713632822037,-7.500201172661036e-05,0.983485996723175
355.76018900,355760189,2,0.1804310828447342,-0.01389143243432045,-4.127787542529404e-05,0.9834895133972168
355.86014100,355860141,2,0.18044234812259674,-0.013873226009309292,-6.645482062594965e-05,0.9834877252578735
355.96011100,355960111,2,0.18044237792491913,-0.013933251611888409,-6.609950651181862e-05,0.9834868907928467
356.06011900,356060119,2,0.18039295077323914,-0.013945063576102257,-3.575871232897043e-05,0.9834957718849182
356.16010900,356160109,2,0.18032494187355042,-0.01397913508117199,-3.5014298191526905e-05,0.9835077524185181
356.26011000,356260110,2,0.18030813336372375,-0.013879742473363876,-8.780699135968462e-05,0.9835122227668762
356.36012000,356360120,2,0.18026170134544373,-0.013782677240669727,-0.00011389521387172863,0.9835221171379089
356.46015700,356460157,2,0.18028703331947327,-0.013833263888955116,-0.00011536274541867897,0.9835167527198792
356.56011800,356560118,2,0.1803155392408371,-0.013822339475154877,-0.00015844152949284762,0.9835116863250732
