timestamp,TimeUS,C,Roll,Pitch,Yaw,VN,VE,VD,dPD,PN,PE,PD,GX,GY,GZ,OH
245.96018600,245960186,2,-0.18,1.71,159.78,0.013678631745278835,-0.00840909406542778,-0.010472907684743404,0.005850259680300951,0.0,0.0,1.4244461059570312,-0.23,0.14,0.05,0.0
246.06014400,246060144,2,-0.18,1.7,159.78,0.013821858912706375,-0.008914032950997353,-0.009764975868165493,0.005532803479582071,0.0,0.0,1.4252833127975464,-0.23,0.14,0.05,0.0
246.16011300,246160113,2,-0.18,1.71,159.78,0.01350116916000843,-0.00921109039336443,-0.01088336668908596,0.0038132870104163885,0.0,0.0,1.425292730331421,-0.23,0.14,0.05,0.0
246.26011600,246260116,2,-0.19,1.7,159.78,0.01324622705578804,-0.009131706319749355,-0.010895303450524807,0.002213004045188427,0.0,0.0,1.4256782531738281,-0.23,0.14,0.05,0.0
246.36010900,246360109,2,-0.19,1.7,159.78,0.013627654872834682,-0.008617095649242401,-0.010872756130993366,-0.007637924514710903,0.0,0.0,1.4244153499603271,-0.23,0.14,0.05,0.0
246.46010800,246460108,2,-0.19,1.71,159.77,0.013666893355548382,-0.009335556998848915,-0.010686921887099743,-0.011469080112874508,0.0,0.0,1.423825979232788,-0.23,0.14,0.05,0.0
246.56011500,246560115,2,-0.18,1.71,159.78,0.013874088414013386,-0.011076598428189754,-0.009316493757069111,0.012535207904875278,0.0,0.0,1.4256829023361206,-0.23,0.14,0.05,0.0
246.66016600,246660166,2,-0.18,1.71,159.78,0.013892403803765774,-0.01065834704786539,-0.007984868250787258,0.04471620172262192,0.0,0.0,1.430029034614563,-0.23,0.14,0.05,0.0
246.76012000,246760120,2,-0.18,1.72,159.78,0.014292280189692974,-0.010752210393548012,-0.0061589013785123825,0.06182511895895004,0.0,0.0,1.4350720643997192,-0.23,0.14,0.05,0.0
246.86020200,246860202,2,-0.18,1.72,159.78,0.014654606580734253,-0.010541330091655254,-0.006615419872105122,0.04344900697469711,0.0,0.0,1.4378796815872192,-0.23,0.14,0.05,0.0
246.96014000,246960140,2,-0.18,1.73,159.78,0.015532578341662884,-0.009198447689414024,-0.00572569016367197,0.026541590690612793,0.0,0.0,1.440475583076477,-0.23,0.14,0.05,0.0
247.06011500,247060115,2,-0.18,1.73,159.78,0.01526577863842249,-0.008799185045063496,-0.004942247644066811,0.013535892590880394,0.0,0.0,1.4416673183441162,-0.23,0.14,0.05,0.0
247.16011300,247160113,2,-0.18,1.73,159.78,0.015018511563539505,-0.007909288629889488,-0.005115313455462456,-0.006998288910835981,0.0,0.0,1.4411922693252563,-0.23,0.14,0.05,0.0
247.26011300,247260113,2,-0.18,1.73,159.79,0.015821682289242744,-0.0068605393171310425,-0.006583854090422392,-0.011497336439788342,0.0,0.0,1.4411449432373047,-0.23,0.14,0.05,0.0
247.36010900,247360109,2,-0.18,1.73,159.8,0.015537821687757969,-0.00552071537822485,-0.0075524491257965565,-9.42469559959136e-05,0.0,0.0,1.4418315887451172,-0.23,0.14,0.05,0.0
247.46011900,247460119,2,-0.18,1.73,159.81,0.016481678932905197,-0.004495720844715834,-0.007713318802416325,0.011794180609285831,0.0,0.0,1.4431161880493164,-0.23,0.14,0.05,0.0
247.56015600,247560156,2,-0.18,1.73,159.81,0.017312396317720413,-0.004720787517726421,-0.00649159075692296,0.016606971621513367,0.0,0.0,1.4443973302841187,-0.23,0.14,0.05,0.0
247.66012300,247660123,2,-0.18,1.73,159.81,0.017197778448462486,-0.0058016651310026646,-0.0055893054232001305,0.021799983456730843,0.0,0.0,1.4465084075927734,-0.23,0.14,0.05,0.0
247.76018000,247760180,2,-0.18,1.73,159.8,0.017072901129722595,-0.005611434578895569,-0.004966265056282282,0.03041648492217064,0.0,0.0,1.4493348598480225,-0.23,0.14,0.05,0.0
247.86014300,247860143,2,-0.18,1.73,159.81,0.017593326047062874,-0.005062983836978674,-0.004794276785105467,0.039681948721408844,0.0,0.0,1.4530924558639526,-0.23,0.14,0.05,0.0
247.96011200,247960112,2,-0.18,1.74,159.81,0.01831294409930706,-0.0045370422303676605,-0.004354432690888643,0.04588320478796959,0.0,0.0,1.4572092294692993,-0.23,0.14,0.05,0.0
248.06010900,248060109,2,-0.18,1.74,159.81,0.019044706597924232,-0.004582362715154886,-0.0036622206680476665,0.04967396333813667,0.0,0.0,1.4617676734924316,-0.23,0.14,0.05,0.0
248.16011000,248160110,2,-0.18,1.74,159.8,0.019824450835585594,-0.004585133865475655,-0.0032439292408525944,0.04249713942408562,0.0,0.0,1.4654755592346191,-0.23,0.14,0.05,0.0
248.26012700,248260127,2,-0.18,1.73,159.8,0.020273728296160698,-0.004785120487213135,-0.003600166877731681,0.027726104483008385,0.0,0.0,1.4679901599884033,-0.23,0.14,0.05,0.0
248.36010900,248360109,2,-0.18,1.73,159.8,0.019453562796115875,-0.004884711932390928,-0.0033668945543468,0.00723173888400197,0.0,0.0,1.46856689453125,-0.23,0.14,0.05,0.0
248.46015100,248460151,2,-0.18,1.73,159.8,0.019125837832689285,-0.0057589150965213776,-0.00454594474285841,-0.018287457525730133,0.0,0.0,1.4670500755310059,-0.23,0.14,0.05,0.0
248.56012900,248560129,2,-0.17,1.73,159.8,0.019796308130025864,-0.005831649526953697,-0.005774906370788813,-0.023193392902612686,0.0,0.0,1.4661614894866943,-0.23,0.14,0.05,0.0
248.66018500,248660185,2,-0.17,1.73,159.8,0.019874973222613335,-0.006838570348918438,-0.005231559742242098,-0.006668315269052982,0.0,0.0,1.466208577156067,-0.23,0.14,0.05,0.0
248.76014000,248760140,2,-0.18,1.73,159.79,0.020108668133616447,-0.007456259801983833,-0.004928620997816324,0.014605424366891384,0.0,0.0,1.4678927659988403,-0.23,0.14,0.05,0.0
248.86011200,248860112,2,-0.18,1.73,159.79,0.020773081108927727,-0.007908441126346588,-0.004502430092543364,0.027461722493171692,0.0,0.0,1.470091462135315,-0.23,0.14,0.05,0.0
248.96010800,248960108,2,-0.17,1.73,159.79,0.02137361466884613,-0.007886327803134918,-0.0047592418268322945,0.018587857484817505,0.0,0.0,1.4712249040603638,-0.23,0.14,0.05,0.0
249.06011300,249060113,2,-0.17,1.74,159.79,0.02182335965335369,-0.008340702392160892,-0.004819892812520266,0.009676141664385796,0.0,0.0,1.4721472263336182,-0.23,0.14,0.05,0.0
249.16011100,249160111,2,-0.18,1.74,159.79,0.022218097001314163,-0.00956596340984106,-0.004728818777948618,0.01425859984010458,0.0,0.0,1.4737451076507568,-0.23,0.14,0.05,0.0
249.26011300,249260113,2,-0.18,1.74,159.79,0.022668875753879547,-0.009917503222823143,-0.003274710150435567,0.031817544251680374,0.0,0.0,1.4769651889801025,-0.23,0.14,0.05,0.0
249.36015500,249360155,2,-0.18,1.75,159.79,0.02301783673465252,-0.009349699132144451,-0.0028369559440761805,0.0329672135412693,0.0,0.0,1.4795480966567993,-0.23,0.14,0.05,0.0
249.46011300,249460113,2,-0.18,1.75,159.79,0.022925276309251785,-0.009785517118871212,-0.0029400328639894724,0.020949341356754303,0.0,0.0,1.4814311265945435,-0.23,0.14,0.05,0.0
249.56019800,249560198,2,-0.19,1.75,159.8,0.023974906653165817,-0.010014130733907223,-0.002457673428580165,0.00913941953331232,0.0,0.0,1.482164740562439,-0.23,0.14,0.05,0.0
249.66014100,249660141,2,-0.19,1.75,159.8,0.025216497480869293,-0.011559994891285896,-0.0018112417310476303,0.0001731635711621493,0.0,0.0,1.4825177192687988,-0.23,0.14,0.05,0.0
249.76013900,249760139,2,-0.2,1.75,159.8,0.025796955451369286,-0.012127753347158432,-0.002493605250492692,-0.005542511586099863,0.0,0.0,1.4822152853012085,-0.23,0.14,0.05,0.0
249.86011600,249860116,2,-0.19,1.75,159.81,0.026628926396369934,-0.011686918325722218,-0.0012860973365604877,0.0024828484747558832,0.0,0.0,1.4831211566925049,-0.23,0.14,0.05,0.0
249.96012000,249960120,2,-0.19,1.76,159.81,0.027136003598570824,-0.012455353513360023,-0.0003643097879830748,0.02212759107351303,0.0,0.0,1.4854081869125366,-0.23,0.14,0.05,0.0
250.06011000,250060110,2,-0.2,1.76,159.82,0.027972279116511345,-0.012463865801692009,-0.00012914277613162994,0.027492251247167587,0.0,0.0,1.4876253604888916,-0.23,0.14,0.05,0.0
250.16011200,250160112,2,-0.2,1.76,159.82,0.027924010530114174,-0.01224040798842907,-0.0004569846496451646,-0.00048811640590429306,0.0,0.0,1.486603021621704,-0.23,0.14,0.05,0.0
250.26017000,250260170,2,-0.21,1.76,159.82,0.028596684336662292,-0.012076761573553085,7.173683843575418e-05,-0.023852648213505745,0.0,0.0,1.4849653244018555,-0.23,0.14,0.05,0.0
250.36012100,250360121,2,-0.21,1.76,159.82,0.029376009479165077,-0.011867686174809933,-0.0012939412845298648,-0.021906869485974312,0.0,0.0,1.4836195707321167,-0.23,0.14,0.05,0.0
250.46017900,250460179,2,-0.22,1.76,159.82,0.030168401077389717,-0.011693296954035759,-0.0018412336939945817,-0.026167070493102074,0.0,0.0,1.4812581539154053,-0.23,0.14,0.05,0.0
250.56014300,250560143,2,-0.22,1.77,159.81,0.03035055659711361,-0.0110697690397501,-0.002830324461683631,-0.028329700231552124,0.0,0.0,1.479016900062561,-0.23,0.14,0.05,0.0
250.66011100,250660111,2,-0.22,1.76,159.81,0.030817341059446335,-0.011696754954755306,-0.0027389999013394117,-0.020747486501932144,0.0,0.0,1.4771193265914917,-0.23,0.14,0.05,0.0
250.76010700,250760107,2,-0.23,1.76,159.82,0.03118263930082321,-0.010787231847643852,-0.0033388526644557714,-0.01793701946735382,0.0,0.0,1.4754059314727783,-0.23,0.14,0.05,0.0
250.86011200,250860112,2,-0.24,1.77,159.81,0.03214627131819725,-0.010337661020457745,-0.0046341014094650745,-0.0065737562254071236,0.0,0.0,1.4751522541046143,-0.23,0.14,0.05,0.0
250.96010700,250960107,2,-0.24,1.77,159.81,0.032850299030542374,-0.008782393299043179,-0.00524523202329874,0.008680435828864574,0.0,0.0,1.4756901264190674,-0.23,0.14,0.05,0.0
251.06013300,251060133,2,-0.24,1.76,159.81,0.03241630643606186,-0.007141848094761372,-0.0057107084430754185,-0.0006959001184441149,0.0,0.0,1.474658489227295,-0.23,0.14,0.05,0.0
251.16015700,251160157,2,-0.24,1.76,159.81,0.032193854451179504,-0.006329861469566822,-0.0064128609374165535,-0.015991367399692535,0.0,0.0,1.4729619026184082,-0.23,0.14,0.05,0.0
251.26012300,251260123,2,-0.24,1.76,159.81,0.03319103643298149,-0.005890647415071726,-0.008148875087499619,-0.03932102024555206,0.0,0.0,1.4686999320983887,-0.23,0.14,0.05,0.0
251.36018500,251360185,2,-0.24,1.76,159.8,0.0334719717502594,-0.004514666274189949,-0.009446819312870502,-0.04878677800297737,0.0,0.0,1.464976191520691,-0.23,0.14,0.05,0.0
251.46014600,251460146,2,-0.25,1.76,159.8,0.03417220711708069,-0.003380296751856804,-0.010148831643164158,-0.045819979161024094,0.0,0.0,1.4607325792312622,-0.23,0.14,0.05,0.0
251.56015000,251560150,2,-0.26,1.76,159.8,0.03541265055537224,-0.0024464314337819815,-0.011615579947829247,-0.050374586135149,0.0,0.0,1.4563943147659302,-0.23,0.14,0.05,0.0
251.66011400,251660114,2,-0.26,1.75,159.8,0.036476533859968185,-0.0024084891192615032,-0.012451092712581158,-0.058937929570674896,0.0,0.0,1.4507404565811157,-0.23,0.14,0.05,0.0
251.76012100,251760121,2,-0.26,1.76,159.8,0.03706595301628113,-0.0011591119691729546,-0.012941594235599041,-0.047463949769735336,0.0,0.0,1.4468318223953247,-0.23,0.14,0.05,0.0
251.86011100,251860111,2,-0.27,1.76,159.8,0.037468321621418,-2.974225935759023e-05,-0.01340037863701582,-0.027568794786930084,0.0,0.0,1.4439828395843506,-0.23,0.14,0.05,0.0
251.96012400,251960124,2,-0.27,1.76,159.81,0.03660653531551361,0.0013570323353633285,-0.01405731774866581,-0.00909894984215498,0.0,0.0,1.4429223537445068,-0.23,0.14,0.05,0.0
252.06015800,252060158,2,-0.27,1.76,159.8,0.035989318042993546,0.003139151493087411,-0.013325742445886135,0.011690150015056133,0.0,0.0,1.4433506727218628,-0.23,0.14,0.05,0.0
252.16012900,252160129,2,-0.28,1.76,159.8,0.036932218819856644,0.004100805148482323,-0.012716790661215782,0.0013296373654156923,0.0,0.0,1.4420899152755737,-0.23,0.14,0.05,0.0
252.26018800,252260188,2,-0.28,1.76,159.8,0.0383920855820179,0.005253326613456011,-0.012853276915848255,-0.020403575152158737,0.0,0.0,1.4397993087768555,-0.23,0.14,0.05,0.0
252.36013300,252360133,2,-0.29,1.76,159.8,0.03897218406200409,0.007173129823058844,-0.012954099103808403,-0.019625348970294,0.0,0.0,1.4383169412612915,-0.23,0.14,0.05,0.0
252.46010800,252460108,2,-0.28,1.76,159.79,0.0394558385014534,0.0077552348375320435,-0.013307078741490841,-0.016621137037873268,0.0,0.0,1.436686635017395,-0.23,0.14,0.05,0.0
252.56012700,252560127,2,-0.29,1.76,159.8,0.04078393429517746,0.009035756811499596,-0.013536892831325531,-0.020541083067655563,0.0,0.0,1.4346630573272705,-0.23,0.14,0.05,0.0
252.66011700,252660117,2,-0.29,1.76,159.8,0.041063304990530014,0.009914375841617584,-0.013607822358608246,-0.01068232860416174,0.0,0.0,1.433966875076294,-0.23,0.14,0.05,0.0
252.76011400,252760114,2,-0.29,1.75,159.8,0.0425591915845871,0.010541088879108429,-0.012399432249367237,0.015920212492346764,0.0,0.0,1.4355580806732178,-0.23,0.14,0.05,0.0
252.86012600,252860126,2,-0.29,1.75,159.79,0.042494822293519974,0.010572981089353561,-0.011015248484909534,0.027186913415789604,0.0,0.0,1.4372493028640747,-0.23,0.14,0.05,0.0
252.96015600,252960156,2,-0.29,1.74,159.79,0.04290664941072464,0.011260882951319218,-0.010248152539134026,0.012595507316291332,0.0,0.0,1.437564492225647,-0.23,0.14,0.05,0.0
253.06013000,253060130,2,-0.29,1.74,159.79,0.0439138226211071,0.011296648532152176,-0.010136430151760578,-0.00010544159158598632,0.0,0.0,1.4375592470169067,-0.23,0.14,0.05,0.0
253.16020100,253160201,2,-0.3,1.73,159.8,0.04387928545475006,0.012028985656797886,-0.00949394702911377,0.003238820470869541,0.0,0.0,1.4381866455078125,-0.23,0.14,0.05,0.0
253.26013900,253260139,2,-0.3,1.74,159.8,0.044205162674188614,0.013685949146747589,-0.00854208692908287,0.022216511890292168,0.0,0.0,1.4407095909118652,-0.23,0.14,0.05,0.0
253.36010800,253360108,2,-0.3,1.74,159.79,0.04476176202297211,0.013653581961989403,-0.007473314646631479,0.04097791761159897,0.0,0.0,1.4447031021118164,-0.23,0.14,0.05,0.0
253.46010700,253460107,2,-0.31,1.74,159.79,0.04430798813700676,0.014304297976195812,-0.0065108370035886765,0.044633544981479645,0.0,0.0,1.4481549263000488,-0.23,0.14,0.05,0.0
253.56012200,253560122,2,-0.31,1.74,159.79,0.04469393193721771,0.015944838523864746,-0.007062200922518969,0.016487352550029755,0.0,0.0,1.4485986232757568,-0.23,0.14,0.05,0.0
253.66012000,253660120,2,-0.32,1.74,159.79,0.04454881697893143,0.01703479513525963,-0.006905724294483662,-0.02166559547185898,0.0,0.0,1.4466105699539185,-0.23,0.14,0.05,0.0
253.76012500,253760125,2,-0.31,1.74,159.8,0.044535282999277115,0.01775171048939228,-0.006905078422278166,-0.028533559292554855,0.0,0.0,1.4451360702514648,-0.23,0.14,0.05,0.0
253.86016000,253860160,2,-0.32,1.73,159.79,0.045013003051280975,0.018476463854312897,-0.007629119325429201,-0.01684395782649517,0.0,0.0,1.4444174766540527,-0.23,0.14,0.05,0.0
253.96014000,253960140,2,-0.31,1.73,159.79,0.045527275651693344,0.018184900283813477,-0.007390657905489206,-0.01786727085709572,0.0,0.0,1.4424968957901,-0.23,0.14,0.05,0.0
254.06018300,254060183,2,-0.31,1.73,159.79,0.04599449783563614,0.018335776403546333,-0.007295670919120312,-0.05374356731772423,0.0,0.0,1.436462163925171,-0.23,0.14,0.05,0.0
254.16014300,254160143,2,-0.31,1.73,159.78,0.0461311936378479,0.019619977101683617,-0.00736275315284729,-0.0452335923910141,0.0,0.0,1.4343209266662598,-0.23,0.14,0.05,0.0
254.26011400,254260114,2,-0.31,1.72,159.78,0.04602230712771416,0.02011137641966343,-0.0064262691885232925,-0.010295658372342587,0.0,0.0,1.4334465265274048,-0.23,0.14,0.05,0.0
254.36010900,254360109,2,-0.32,1.72,159.77,0.045401815325021744,0.021286293864250183,-0.006306338589638472,0.014176466502249241,0.0,0.0,1.4347655773162842,-0.23,0.14,0.05,0.0
254.46010800,254460108,2,-0.32,1.72,159.77,0.04510985314846039,0.02264159731566906,-0.004622445907443762,0.03901251405477524,0.0,0.0,1.438025712966919,-0.23,0.14,0.05,0.0
254.56011500,254560115,2,-0.31,1.72,159.77,0.044110339134931564,0.023210639134049416,-0.0032483479008078575,0.03371754288673401,0.0,0.0,1.4396312236785889,-0.23,0.14,0.05,0.0
254.66011000,254660110,2,-0.31,1.71,159.77,0.04386277496814728,0.02362111769616604,-0.00294091016985476,0.009018638171255589,0.0,0.0,1.4398804903030396,-0.23,0.14,0.05,0.0
254.76015700,254760157,2,-0.32,1.71,159.76,0.043310441076755524,0.02492694742977619,-0.002052764408290386,-0.014674496836960316,0.0,0.0,1.4381605386734009,-0.23,0.15,0.05,0.0
254.86012800,254860128,2,-0.32,1.72,159.76,0.04262937605381012,0.025639552623033524,-0.0021878457628190517,-0.01698899455368519,0.0,0.0,1.4377416372299194,-0.23,0.15,0.05,0.0
254.96018100,254960181,2,-0.32,1.71,159.77,0.04201221838593483,0.027704207226634026,-0.0021627829410135746,-0.007236980367451906,0.0,0.0,1.437327265739441,-0.23,0.14,0.05,0.0
255.06014400,255060144,2,-0.32,1.71,159.77,0.041750792413949966,0.028417734429240227,-0.002138168551027775,-0.024666082113981247,0.0,0.0,1.434526801109314,-0.23,0.15,0.05,0.0
255.16011100,255160111,2,-0.33,1.71,159.76,0.0412946417927742,0.027946172282099724,-0.00203118403442204,-0.03968334197998047,0.0,0.0,1.4312312602996826,-0.23,0.15,0.05,0.0
255.26011500,255260115,2,-0.32,1.71,159.76,0.04109320044517517,0.02923714742064476,-0.0013732442166656256,-0.018455475568771362,0.0,0.0,1.43038809299469,-0.23,0.15,0.05,0.0
255.36012200,255360122,2,-0.31,1.71,159.76,0.04020516946911812,0.0299932062625885,-0.0019767237827181816,-0.0010441307676956058,0.0,0.0,1.430022120475769,-0.23,0.15,0.05,0.0
255.46011500,255460115,2,-0.31,1.71,159.76,0.03957062214612961,0.03049868904054165,-0.0025192603934556246,-0.008981967344880104,0.0,0.0,1.4285645484924316,-0.23,0.15,0.05,0.0
255.56011200,255560112,2,-0.31,1.71,159.76,0.038225170224905014,0.031567901372909546,-0.0035456488840281963,-0.012518906965851784,0.0,0.0,1.4274401664733887,-0.23,0.15,0.05,0.0
255.66015700,255660157,2,-0.31,1.7,159.76,0.038304105401039124,0.03153900057077408,-0.0034331888891756535,0.011384392157196999,0.0,0.0,1.4289510250091553,-0.23,0.15,0.05,0.0
255.76012500,255760125,2,-0.31,1.7,159.76,0.038201987743377686,0.031873300671577454,-0.0018811440095305443,0.03297470882534981,0.0,0.0,1.4315502643585205,-0.23,0.15,0.05,0.0
255.86018500,255860185,2,-0.3,1.71,159.76,0.03792795538902283,0.03157489746809006,-0.0005162912420928478,0.03895915672183037,0.0,0.0,1.4346390962600708,-0.23,0.15,0.05,0.0
255.96014700,255960147,2,-0.3,1.7,159.76,0.03761071339249611,0.030857525765895844,0.0016151533927768469,0.038992416113615036,0.0,0.0,1.437661051750183,-0.23,0.15,0.05,0.0
256.06011300,256060113,2,-0.3,1.71,159.76,0.03756897151470184,0.03129216283559799,0.0032069706358015537,0.03435980901122093,0.0,0.0,1.4406481981277466,-0.24,0.15,0.05,0.0
256.16011200,256160112,2,-0.3,1.7,159.75,0.03643202781677246,0.03181341290473938,0.0038765163626521826,0.024101361632347107,0.0,0.0,1.4426826238632202,-0.24,0.15,0.05,0.0
256.26011500,256260115,2,-0.3,1.71,159.75,0.035903654992580414,0.03110335022211075,0.003877561539411545,0.0142954271286726,0.0,0.0,1.4443540573120117,-0.24,0.15,0.05,0.0
256.36011200,256360112,2,-0.3,1.71,159.75,0.035767924040555954,0.030533690005540848,0.004544272553175688,-0.009671374224126339,0.0,0.0,1.4430598020553589,-0.24,0.15,0.05,0.0
256.46010800,256460108,2,-0.3,1.7,159.75,0.03520677611231804,0.03095458820462227,0.0034704492427408695,-0.045897915959358215,0.0,0.0,1.4392269849777222,-0.24,0.15,0.05,0.0
256.56015700,256560157,2,-0.3,1.7,159.74,0.03381740674376488,0.030537553131580353,0.003393655177205801,-0.051237791776657104,0.0,0.0,1.435676097869873,-0.24,0.15,0.05,0.0
256.66011800,256660118,2,-0.31,1.7,159.74,0.03288031369447708,0.03019285574555397,0.003019779222086072,-0.0388222374022007,0.0,0.0,1.4327242374420166,-0.24,0.15,0.05,0.0
256.76019200,256760192,2,-0.3,1.71,159.74,0.03224610164761543,0.030150191858410835,0.0016993290046229959,-0.044352300465106964,0.0,0.0,1.42826247215271,-0.24,0.15,0.05,0.0
256.86013700,256860137,2,-0.3,1.71,159.75,0.032298505306243896,0.0298056248575449,0.001392413629218936,-0.04068327695131302,0.0,0.0,1.425193428993225,-0.24,0.15,0.05,0.0
256.96013200,256960132,2,-0.3,1.71,159.74,0.03260347247123718,0.02927139401435852,0.0011586768086999655,-0.008605273440480232,0.0,0.0,1.424835443496704,-0.24,0.15,0.05,0.0
257.06011200,257060112,2,-0.3,1.71,159.75,0.03248829022049904,0.02807680331170559,0.0005677174776792526,0.001980166183784604,0.0,0.0,1.424027681350708,-0.24,0.15,0.05,0.0
257.16012100,257160121,2,-0.3,1.71,159.74,0.03226413577795029,0.02795296162366867,-0.00040213565807789564,-0.016185587272047997,0.0,0.0,1.4216539859771729,-0.24,0.15,0.05,0.0
257.26011200,257260112,2,-0.3,1.71,159.74,0.03136945888400078,0.027853012084960938,-0.0008041393011808395,-0.029045190662145615,0.0,0.0,1.4189047813415527,-0.24,0.15,0.05,0.0
257.36010900,257360109,2,-0.29,1.71,159.76,0.031217003241181374,0.026966355741024017,-0.0009008118649944663,-0.02825053781270981,0.0,0.0,1.416443943977356,-0.24,0.15,0.05,0.0
257.46015700,257460157,2,-0.29,1.71,159.77,0.03044806607067585,0.026816733181476593,-0.0008866834104992449,-0.024624433368444443,0.0,0.0,1.414128303527832,-0.24,0.15,0.05,0.0
257.56012300,257560123,2,-0.29,1.71,159.77,0.02971160225570202,0.026722146198153496,-0.001738014747388661,-0.022919556125998497,0.0,0.0,1.4119361639022827,-0.24,0.15,0.05,0.0
257.66019900,257660199,2,-0.29,1.7,159.77,0.030115369707345963,0.026385046541690826,-0.0014837170019745827,-0.008810923434793949,0.0,0.0,1.4114302396774292,-0.24,0.15,0.05,0.0
257.76013400,257760134,2,-0.3,1.7,159.77,0.02901817485690117,0.026696311309933662,-0.0025015452411025763,0.0033759053330868483,0.0,0.0,1.4113231897354126,-0.24,0.15,0.05,0.0
257.86011300,257860113,2,-0.3,1.7,159.77,0.028796721249818802,0.027037207037210464,-0.0028034427668899298,-0.009044698439538479,0.0,0.0,1.4095875024795532,-0.24,0.15,0.05,0.0
257.96013700,257960137,2,-0.3,1.7,159.77,0.028562325984239578,0.027794314548373222,-0.0041402471251785755,-0.02564369887113571,0.0,0.0,1.4071366786956787,-0.24,0.15,0.05,0.0
258.06011200,258060112,2,-0.29,1.7,159.77,0.02813646011054516,0.028240254148840904,-0.004723445512354374,-0.02858697436749935,0.0,0.0,1.4046608209609985,-0.24,0.15,0.05,0.0
258.16011200,258160112,2,-0.29,1.7,159.76,0.0284598246216774,0.028404243290424347,-0.005494860932230949,-0.031086141243577003,0.0,0.0,1.4017605781555176,-0.24,0.15,0.05,0.0
258.26012600,258260126,2,-0.29,1.7,159.76,0.028555503115057945,0.02931426465511322,-0.007156105246394873,-0.03777310252189636,0.0,0.0,1.3982443809509277,-0.24,0.15,0.05,0.0
258.36015300,258360153,2,-0.29,1.7,159.75,0.027315152809023857,0.03069070354104042,-0.007567597087472677,-0.029007310047745705,0.0,0.0,1.396088719367981,-0.24,0.15,0.05,0.0
258.46011900,258460119,2,-0.3,1.71,159.74,0.026881074532866478,0.03167960047721863,-0.0074700042605400085,-0.005619354546070099,0.0,0.0,1.3956438302993774,-0.24,0.15,0.05,0.0
258.56018400,258560184,2,-0.3,1.7,159.74,0.026825599372386932,0.032403044402599335,-0.008075199089944363,-0.002575860358774662,0.0,0.0,1.394489049911499,-0.24,0.15,0.05,0.0
258.66014600,258660146,2,-0.29,1.7,159.75,0.026082519441843033,0.032115042209625244,-0.009623340331017971,-0.04755767434835434,0.0,0.0,1.3880130052566528,-0.24,0.15,0.05,0.0
258.76010900,258760109,2,-0.28,1.7,159.74,0.02490166760981083,0.032873015850782394,-0.011333562433719635,-0.07541170716285706,0.0,0.0,1.382562279701233,-0.24,0.15,0.05,0.0
258.86011000,258860110,2,-0.28,1.7,159.74,0.02518930658698082,0.03310997039079666,-0.012116801925003529,-0.031144553795456886,0.0,0.0,1.3812116384506226,-0.24,0.15,0.05,0.0
258.96010900,258960109,2,-0.27,1.69,159.74,0.02465188317000866,0.0324321985244751,-0.012981485575437546,-0.0039342655800282955,0.0,0.0,1.3800698518753052,-0.24,0.15,0.05,0.0
259.06010800,259060108,2,-0.27,1.69,159.74,0.024297943338751793,0.032231662422418594,-0.01226565707474947,0.02572607807815075,0.0,0.0,1.3826632499694824,-0.24,0.15,0.05,0.0
259.16011300,259160113,2,-0.26,1.69,159.74,0.023900063708424568,0.03242103010416031,-0.01168142817914486,0.046927135437726974,0.0,0.0,1.3858076333999634,-0.24,0.15,0.05,0.0
259.26015700,259260157,2,-0.27,1.69,159.74,0.023574210703372955,0.03248176723718643,-0.011672443710267544,0.03818785399198532,0.0,0.0,1.3882392644882202,-0.24,0.15,0.05,0.0
259.36012200,259360122,2,-0.27,1.69,159.74,0.023348763585090637,0.030715351924300194,-0.009982024319469929,0.046954572200775146,0.0,0.0,1.3928619623184204,-0.24,0.15,0.05,0.0
259.46017900,259460179,2,-0.27,1.69,159.74,0.023387378081679344,0.03018655814230442,-0.008688608184456825,0.04431900754570961,0.0,0.0,1.3960283994674683,-0.24,0.15,0.06,0.0
259.56013600,259560136,2,-0.27,1.68,159.74,0.022205336019396782,0.030736582353711128,-0.009013763628900051,0.03134018927812576,0.0,0.0,1.3992459774017334,-0.24,0.15,0.05,0.0
259.66011200,259660112,2,-0.27,1.69,159.73,0.021004868671298027,0.03105960413813591,-0.008283251896500587,0.046204932034015656,0.0,0.0,1.4044026136398315,-0.24,0.15,0.05,0.0
259.76010800,259760108,2,-0.27,1.68,159.73,0.01984536275267601,0.03181999549269676,-0.00744730606675148,0.06753473728895187,0.0,0.0,1.4109609127044678,-0.24,0.15,0.05,0.0
259.86011600,259860116,2,-0.26,1.68,159.73,0.01862569898366928,0.032209064811468124,-0.0072053829208016396,0.06168581545352936,0.0,0.0,1.4153838157653809,-0.24,0.15,0.05,0.0
259.96011500,259960115,2,-0.26,1.68,159.73,0.018654948100447655,0.03137597069144249,-0.006930230185389519,0.041600242257118225,0.0,0.0,1.4191839694976807,-0.24,0.15,0.05,0.0
260.06011900,260060119,2,-0.26,1.68,159.73,0.017777465283870697,0.03107558935880661,-0.0069039189256727695,0.03276560455560684,0.0,0.0,1.422795295715332,-0.24,0.15,0.06,0.0
260.16015800,260160158,2,-0.26,1.68,159.74,0.01737312227487564,0.03108711913228035,-0.0072404369711875916,0.02191116474568844,0.0,0.0,1.4250800609588623,-0.24,0.15,0.06,0.0
260.26012600,260260126,2,-0.25,1.68,159.73,0.017358580604195595,0.02957913652062416,-0.007338626775890589,0.01698443666100502,0.0,0.0,1.4273862838745117,-0.24,0.15,0.06,0.0
260.36018200,260360182,2,-0.25,1.68,159.73,0.016601677983999252,0.02947043627500534,-0.007261046674102545,0.019688503816723824,0.0,0.0,1.4295724630355835,-0.24,0.15,0.06,0.0
260.46013800,260460138,2,-0.25,1.68,159.73,0.016022853553295135,0.029485778883099556,-0.007211644668132067,0.006318740081042051,0.0,0.0,1.4301005601882935,-0.24,0.15,0.06,0.0
260.56013200,260560132,2,-0.26,1.68,159.73,0.015134036540985107,0.029009610414505005,-0.007906162180006504,-0.014735814183950424,0.0,0.0,1.428959846496582,-0.24,0.15,0.06,0.0
260.66011900,260660119,2,-0.25,1.69,159.72,0.014388781040906906,0.02842971868813038,-0.007853171788156033,-0.03413256257772446,0.0,0.0,1.426052451133728,-0.24,0.15,0.06,0.0
260.76011900,260760119,2,-0.25,1.7,159.72,0.013894740492105484,0.027633655816316605,-0.009705389849841595,-0.04270276054739952,0.0,0.0,1.4229689836502075,-0.24,0.15,0.06,0.0
260.86011100,260860111,2,-0.24,1.7,159.72,0.013335680589079857,0.026887599378824234,-0.012702913954854012,-0.04743717238306999,0.0,0.0,1.4189239740371704,-0.24,0.15,0.06,0.0
260.96010700,260960107,2,-0.24,1.7,159.69,0.01284606009721756,0.026678232476115227,-0.014158215373754501,-0.05849743261933327,0.0,0.0,1.413665771484375,-0.24,0.15,0.06,0.0
261.06015500,261060155,2,-0.25,1.7,159.65,0.013042181730270386,0.026234596967697144,-0.014225196093320847,-0.055806271731853485,0.0,0.0,1.4089230298995972,-0.24,0.15,0.06,0.0
261.16012400,261160124,2,-0.24,1.69,159.59,0.012809132225811481,0.02601170539855957,-0.015377668663859367,-0.045861534774303436,0.0,0.0,1.4047363996505737,-0.24,0.15,0.06,0.0
261.26018100,261260181,2,-0.24,1.69,159.52,0.012642829678952694,0.02557419240474701,-0.01569572649896145,-0.03788016363978386,0.0,0.0,1.4010419845581055,-0.24,0.15,0.06,0.0
261.36014300,261360143,2,-0.24,1.68,159.42000000000002,0.01212730910629034,0.024227499961853027,-0.01722883991897106,-0.06403665989637375,0.0,0.0,1.3937700986862183,-0.24,0.15,0.06,0.0
261.46012700,261460127,2,-0.23,1.68,159.32,0.011369206011295319,0.024057913571596146,-0.018551889806985855,-0.0795554518699646,0.0,0.0,1.386892318725586,-0.24,0.15,0.07,0.0
261.56012400,261560124,2,-0.23,1.68,159.21,0.01023086067289114,0.02386516146361828,-0.019218450412154198,-0.03147619590163231,0.0,0.0,1.3853366374969482,-0.24,0.15,0.07,0.0
261.66012100,261660121,2,-0.22,1.68,159.09,0.010453400202095509,0.022879283875226974,-0.018416378647089005,0.02693088725209236,0.0,0.0,1.3873720169067383,-0.24,0.15,0.07,0.0
261.76010900,261760109,2,-0.2,1.67,158.98,0.010076053440570831,0.021858246996998787,-0.016129471361637115,0.03794226795434952,0.0,0.0,1.3888591527938843,-0.24,0.15,0.07,0.0
261.86011400,261860114,2,-0.2,1.6600000000000001,158.87,0.01054650079458952,0.021024897694587708,-0.01558627001941204,0.02558259479701519,0.0,0.0,1.3902595043182373,-0.24,0.15,0.08,0.0
261.96015800,261960158,2,-0.2,1.6600000000000001,158.75,0.010184690356254578,0.018929943442344666,-0.016299625858664513,0.010296197608113289,0.0,0.0,1.3903381824493408,-0.24,0.15,0.08,0.0
262.06011900,262060119,2,-0.22,1.68,158.63,0.010604536160826683,0.017835354432463646,-0.017698397859930992,-0.006310786120593548,0.0,0.0,1.3899242877960205,-0.24,0.15,0.08,0.0
262.16018600,262160186,2,-0.22,1.69,158.5,0.009548190049827099,0.01601281762123108,-0.01515539363026619,0.0030755263287574053,0.0,0.0,1.3906757831573486,-0.24,0.15,0.08,0.0
262.26014200,262260142,2,-0.22,1.69,158.39000000000001,0.009434865787625313,0.015345966443419456,-0.014814029447734356,0.011016562581062317,0.0,0.0,1.3915942907333374,-0.24,0.15,0.08,0.0
262.36013000,262360130,2,-0.22,1.69,158.27,0.008762615732848644,0.0151416240260005,-0.014304688200354576,0.023587219417095184,0.0,0.0,1.3941905498504639,-0.24,0.15,0.09,0.0
262.46012500,262460125,2,-0.22,1.69,158.16,0.00833724346011877,0.014149843715131283,-0.014690082520246506,0.02873923070728779,0.0,0.0,1.3962411880493164,-0.24,0.15,0.09,0.0
262.56012400,262560124,2,-0.22,1.68,158.04,0.00845005176961422,0.012723276391625404,-0.013964002020657063,0.02033252641558647,0.0,0.0,1.3980079889297485,-0.24,0.15,0.09,0.0
262.66011100,262660111,2,-0.22,1.67,157.95000000000002,0.007771201431751251,0.011956765316426754,-0.012831635773181915,0.006875092629343271,0.0,0.0,1.3981136083602905,-0.24,0.15,0.09,0.0
262.76011200,262760112,2,-0.21,1.6600000000000001,157.87,0.007011829409748316,0.010705236345529556,-0.012997538782656193,-0.016075512394309044,0.0,0.0,1.3967148065567017,-0.24,0.15,0.09,0.0
262.86016400,262860164,2,-0.21,1.6600000000000001,157.83,0.006476608570665121,0.009130369871854782,-0.013463328592479229,-0.014458552934229374,0.0,0.0,1.3964101076126099,-0.24,0.15,0.09,0.0
262.96012100,262960121,2,-0.21,1.67,157.8,0.006359240505844355,0.00780296279117465,-0.013691644184291363,-0.010291856713593006,0.0,0.0,1.3953603506088257,-0.24,0.15,0.09,0.0
263.06018300,263060183,2,-0.21,1.68,157.81,0.0055751740001142025,0.00693382415920496,-0.014154335483908653,-0.026685262098908424,0.0,0.0,1.392667531967163,-0.24,0.15,0.09,0.0
263.16013800,263160138,2,-0.21,1.68,157.81,0.005466367118060589,0.0060729277320206165,-0.014329210855066776,-0.03766529634594917,0.0,0.0,1.3894182443618774,-0.24,0.15,0.09,0.0
263.26011100,263260111,2,-0.21,1.68,157.82,0.006271513178944588,0.0054541234858334064,-0.013982867822051048,-0.020416563376784325,0.0,0.0,1.3884819746017456,-0.24,0.15,0.09,0.0
263.36011300,263360113,2,-0.21,1.69,157.83,0.0063599576242268085,0.004772212356328964,-0.013962711207568645,0.0012567436788231134,0.0,0.0,1.3883917331695557,-0.24,0.15,0.09,0.0
263.46010900,263460109,2,-0.21,1.68,157.83,0.0072825513780117035,0.004210168030112982,-0.012749046087265015,0.01199324056506157,0.0,0.0,1.3892643451690674,-0.24,0.15,0.09,0.0
263.56011200,263560112,2,-0.21,1.68,157.84,0.007771478034555912,0.003408911172300577,-0.01265846099704504,0.021226562559604645,0.0,0.0,1.3907604217529297,-0.24,0.15,0.09,0.0
263.66013700,263660137,2,-0.21,1.68,157.84,0.007363817188888788,0.003062392584979534,-0.012693986296653748,0.027952397242188454,0.0,0.0,1.393175721168518,-0.24,0.15,0.09,0.0
263.76016200,263760162,2,-0.21,1.69,157.85,0.007219767197966576,0.0027050557546317577,-0.012596040032804012,0.02120286412537098,0.0,0.0,1.3944008350372314,-0.24,0.15,0.09,0.0
263.86011300,263860113,2,-0.21,1.69,157.85,0.008590673096477985,0.002433123765513301,-0.01225238386541605,0.008764146827161312,0.0,0.0,1.395143747329712,-0.24,0.15,0.09,0.0
263.96018900,263960189,2,-0.21,1.7,157.85,0.007394712418317795,0.001882964395917952,-0.01242977287620306,0.008521229960024357,0.0,0.0,1.3963381052017212,-0.24,0.15,0.09,0.0
264.06014000,264060140,2,-0.21,1.7,157.85,0.00861437153071165,0.0011398640926927328,-0.011256583034992218,0.000550869561266154,0.0,0.0,1.395936131477356,-0.24,0.15,0.09,0.0
264.16010900,264160109,2,-0.21,1.7,157.85,0.00960914883762598,0.0011701113544404507,-0.011154008097946644,-0.0076302033849060535,0.0,0.0,1.3955514430999756,-0.24,0.15,0.09,0.0
264.26011600,264260116,2,-0.21,1.7,157.85,0.010218583047389984,0.0009181402274407446,-0.012202000245451927,-0.007789627183228731,0.0,0.0,1.3951081037521362,-0.24,0.15,0.09,0.0
264.36010900,264360109,2,-0.21,1.7,157.85,0.011005330830812454,0.0009656788897700608,-0.013900957070291042,-0.021317169070243835,0.0,0.0,1.3929085731506348,-0.25,0.15,0.09,0.0
264.46010700,264460107,2,-0.21,1.69,157.84,0.010798624716699123,-8.976883691502735e-05,-0.013697240501642227,-0.024033259600400925,0.0,0.0,1.3912229537963867,-0.25,0.15,0.09,0.0
264.56011600,264560116,2,-0.21,1.69,157.85,0.010757622309029102,0.0002598172868601978,-0.013819620944559574,-0.012167924083769321,0.0,0.0,1.3904091119766235,-0.24,0.15,0.09,0.0
264.66015600,264660156,2,-0.21,1.69,157.84,0.010335843078792095,0.0004034892772324383,-0.014015262015163898,0.01915743015706539,0.0,0.0,1.393157958984375,-0.24,0.15,0.09,0.0
264.76012900,264760129,2,-0.21,1.7,157.84,0.011546081863343716,-8.397503552259877e-05,-0.01236631441861391,0.044228892773389816,0.0,0.0,1.396483302116394,-0.24,0.15,0.09,0.0
264.86018400,264860184,2,-0.21,1.7,157.84,0.012675227597355843,-0.0003063809999730438,-0.011949453502893448,0.0407237634062767,0.0,0.0,1.399429440498352,-0.25,0.15,0.09,0.0
264.96014200,264960142,2,-0.21,1.69,157.84,0.012164251878857613,-0.0007127280696295202,-0.01092077512294054,0.03516659140586853,0.0,0.0,1.402414321899414,-0.25,0.15,0.09,0.0
265.06016000,265060160,2,-0.21,1.7,157.84,0.013221107423305511,-0.0010407676454633474,-0.009266823530197144,0.04798821732401848,0.0,0.0,1.4068043231964111,-0.24,0.15,0.09,0.0
265.16010900,265160109,2,-0.21,1.7,157.83,0.013230781070888042,-0.0014428829308599234,-0.007156494539231062,0.05306754633784294,0.0,0.0,1.4112240076065063,-0.24,0.15,0.09,0.0
265.26012100,265260121,2,-0.21,1.7,157.84,0.013320243917405605,-0.0019995239563286304,-0.006517935078591108,0.03806622698903084,0.0,0.0,1.4146007299423218,-0.24,0.15,0.09,0.0
265.36011600,265360116,2,-0.21,1.7,157.84,0.014491074718534946,-0.0009421206777915359,-0.007791702635586262,0.011212749406695366,0.0,0.0,1.4155442714691162,-0.24,0.15,0.09,0.0
265.46013300,265460133,2,-0.21,1.7,157.84,0.015214944258332253,0.00040562599315308034,-0.007255949545651674,-0.006788136437535286,0.0,0.0,1.4156131744384766,-0.24,0.15,0.09,0.0
265.56015600,265560156,2,-0.21,1.71,157.83,0.014874758198857307,0.0013014836004003882,-0.007134643848985434,0.003862673183903098,0.0,0.0,1.417062759399414,-0.24,0.15,0.09,0.0
265.66014100,265660141,2,-0.21,1.71,157.83,0.014957948587834835,0.0016003475757315755,-0.006816723849624395,0.01329409796744585,0.0,0.0,1.4184584617614746,-0.25,0.15,0.09,0.0
265.76018700,265760187,2,-0.21,1.71,157.84,0.016329795122146606,0.0007036899332888424,-0.004952990449965,0.03396714851260185,0.0,0.0,1.4222041368484497,-0.25,0.15,0.09,0.0
265.86013900,265860139,2,-0.21,1.71,157.84,0.017805345356464386,-0.00034496645093895495,-0.002281098859384656,0.06488411873579025,0.0,0.0,1.428237795829773,-0.24,0.15,0.09,0.0
265.96015700,265960157,2,-0.22,1.71,157.83,0.017930932343006134,1.09990214696154e-05,-0.0010429945541545749,0.06163880228996277,0.0,0.0,1.4328380823135376,-0.24,0.15,0.09,0.0
266.06010900,266060109,2,-0.21,1.71,157.84,0.017913641408085823,-0.00046144123189151287,0.00022651990002486855,0.029312990605831146,0.0,0.0,1.4349212646484375,-0.25,0.15,0.09,0.0
266.16012600,266160126,2,-0.21,1.71,157.83,0.018056724220514297,-0.001107259769923985,-0.000302466272842139,-0.0004226442251820117,0.0,0.0,1.4352595806121826,-0.25,0.15,0.09,0.0
266.26011600,266260116,2,-0.22,1.71,157.84,0.018298689275979996,-0.0018462763400748372,-0.00035054670297540724,0.0007806691573932767,0.0,0.0,1.4366250038146973,-0.25,0.15,0.09,0.0
266.36010900,266360109,2,-0.21,1.71,157.84,0.019451070576906204,-0.0016558748902752995,0.00025454701972194016,0.014987503178417683,0.0,0.0,1.4384883642196655,-0.25,0.15,0.09,0.0
266.46015300,266460153,2,-0.21,1.72,157.85,0.018990417942404747,-0.0015788539312779903,-0.00021048999042250216,-0.005201492924243212,0.0,0.0,1.437371015548706,-0.25,0.15,0.09,0.0
335.36011500,335360115,2,-0.29,1.6400000000000001,158.96,0.015672506764531136,0.006055427715182304,0.01392306387424469,0.01927824318408966,0.0,0.0,1.4891449213027954,-0.27,0.17,0.06,0.0
335.46010800,335460108,2,-0.29,1.6400000000000001,158.96,0.01507520955055952,0.0059623378328979015,0.014678176492452621,0.024050692096352577,0.0,0.0,1.4907084703445435,-0.27,0.17,0.06,0.0
335.56011000,335560110,2,-0.29,1.6400000000000001,158.96,0.014370097778737545,0.006751062348484993,0.014044125564396381,0.009448126889765263,0.0,0.0,1.4909504652023315,-0.27,0.17,0.06,0.0
335.66013500,335660135,2,-0.29,1.6400000000000001,158.96,0.014391609467566013,0.008642922155559063,0.013500703498721123,0.012881146743893623,0.0,0.0,1.492950201034546,-0.27,0.17,0.06,0.0
335.76015000,335760150,2,-0.28,1.6400000000000001,158.95000000000002,0.01356006320565939,0.009618946351110935,0.013031799346208572,0.011771539226174355,0.0,0.0,1.49337637424469,-0.27,0.17,0.06,0.0
335.86014100,335860141,2,-0.28,1.6400000000000001,158.95000000000002,0.013515333645045757,0.010353180579841137,0.012112488970160484,0.0011605813633650541,0.0,0.0,1.4937057495117188,-0.27,0.17,0.06,0.0
335.96018200,335960182,2,-0.29,1.6300000000000001,158.95000000000002,0.012499378994107246,0.011137348599731922,0.011321512050926685,0.002585808979347348,0.0,0.0,1.4942182302474976,-0.27,0.17,0.06,0.0
336.06013900,336060139,2,-0.29,1.6300000000000001,158.95000000000002,0.010976721532642841,0.011815879493951797,0.011071493849158287,0.00872359611093998,0.0,0.0,1.4953172206878662,-0.27,0.17,0.06,0.0
336.16010900,336160109,2,-0.29,1.6400000000000001,158.95000000000002,0.009631880559027195,0.012038902379572392,0.01047875639051199,0.020182864740490913,0.0,0.0,1.4975500106811523,-0.27,0.17,0.06,0.0
336.26011100,336260111,2,-0.29,1.6300000000000001,158.95000000000002,0.008200731128454208,0.012708986178040504,0.010723874904215336,0.01856010966002941,0.0,0.0,1.4986090660095215,-0.27,0.17,0.06,0.0
336.36011100,336360111,2,-0.3,1.6300000000000001,158.95000000000002,0.007529335096478462,0.013943368569016457,0.010203429497778416,0.006058224942535162,0.0,0.0,1.499063491821289,-0.27,0.17,0.06,0.0
336.46011700,336460117,2,-0.3,1.6300000000000001,158.95000000000002,0.007745823357254267,0.014533665031194687,0.008906804025173187,-0.005553191527724266,0.0,0.0,1.4985346794128418,-0.27,0.17,0.06,0.0
336.56011000,336560110,2,-0.3,1.6300000000000001,158.95000000000002,0.0074705034494400024,0.01583014242351055,0.007748880423605442,-0.027496660128235817,0.0,0.0,1.4956821203231812,-0.27,0.17,0.06,0.0
336.66017400,336660174,2,-0.3,1.62,158.95000000000002,0.007470270153135061,0.017159096896648407,0.006452408153563738,-0.049522776156663895,0.0,0.0,1.4913532733917236,-0.27,0.17,0.06,0.0
336.76013000,336760130,2,-0.29,1.62,158.95000000000002,0.007325618527829647,0.01817268505692482,0.004936322569847107,-0.05295471474528313,0.0,0.0,1.4872395992279053,-0.27,0.17,0.06,0.0
336.86017900,336860179,2,-0.29,1.62,158.95000000000002,0.006264141760766506,0.019041556864976883,0.0030484474264085293,-0.04017467051744461,0.0,0.0,1.4842355251312256,-0.27,0.17,0.06,0.0
336.96014200,336960142,2,-0.3,1.62,158.95000000000002,0.005601453594863415,0.019561883062124252,0.0012361963745206594,-0.02465866319835186,0.0,0.0,1.4820804595947266,-0.27,0.17,0.06,0.0
337.06011100,337060111,2,-0.3,1.61,158.95000000000002,0.005278127733618021,0.01984589546918869,0.0016781260492280126,-0.006300045643001795,0.0,0.0,1.481430172920227,-0.27,0.17,0.06,0.0
337.16010800,337160108,2,-0.3,1.61,158.94,0.005253928247839212,0.020048756152391434,0.002393862931057811,0.004795394837856293,0.0,0.0,1.481192946434021,-0.27,0.17,0.06,0.0
337.26011200,337260112,2,-0.29,1.61,158.94,0.0059018670581281185,0.019701912999153137,0.002611298579722643,-0.016924699768424034,0.0,0.0,1.4784669876098633,-0.27,0.17,0.06,0.0
337.36012500,337360125,2,-0.29,1.62,158.94,0.004571439232677221,0.02009531669318676,0.003207764122635126,-0.026173442602157593,0.0,0.0,1.4764341115951538,-0.27,0.17,0.06,0.0
337.46010800,337460108,2,-0.29,1.61,158.94,0.004853127058595419,0.019432689994573593,0.004171106033027172,-0.008901560679078102,0.0,0.0,1.475809931755066,-0.27,0.17,0.06,0.0
337.56016100,337560161,2,-0.29,1.62,158.94,0.005327803548425436,0.01983359083533287,0.0036173013504594564,0.0008799846400506794,0.0,0.0,1.4757280349731445,-0.27,0.17,0.06,0.0
337.66013300,337660133,2,-0.28,1.62,158.95000000000002,0.0050786142237484455,0.019377952441573143,0.003534623421728611,-0.014427113346755505,0.0,0.0,1.4734517335891724,-0.27,0.17,0.06,0.0
337.76018300,337760183,2,-0.29,1.61,158.94,0.00538458488881588,0.018890973180532455,0.003842738224193454,-0.03854474425315857,0.0,0.0,1.469792127609253,-0.27,0.17,0.06,0.0
337.86013900,337860139,2,-0.28,1.62,158.95000000000002,0.004889409523457289,0.01959097944200039,0.003449027892202139,-0.0510537326335907,0.0,0.0,1.4651553630828857,-0.27,0.17,0.06,0.0
337.96011000,337960110,2,-0.29,1.6300000000000001,158.96,0.004982762038707733,0.019684473052620888,0.0031688008457422256,-0.050544124096632004,0.0,0.0,1.4611138105392456,-0.27,0.17,0.06,0.0
338.06010900,338060109,2,-0.29,1.6400000000000001,158.96,0.00479303952306509,0.019105739891529083,0.0034921939950436354,-0.04225378483533859,0.0,0.0,1.4572206735610962,-0.27,0.17,0.06,0.0
338.16011900,338160119,2,-0.24,1.62,158.97,0.011343634687364101,0.02508557215332985,-0.0027477156836539507,-0.05512528866529465,0.0,0.0,1.4519734382629395,-0.27,0.17,0.06,0.0
338.26011200,338260112,2,-0.29,1.6400000000000001,158.99,0.004237549379467964,0.017341388389468193,-0.000308988121105358,-0.04491802677512169,0.0,0.0,1.4487131834030151,-0.27,0.17,0.06,0.0
338.36012300,338360123,2,-0.31,1.62,158.98,0.005875756498426199,0.01695137657225132,0.0011767203686758876,-0.027178386226296425,0.0,0.0,1.4461297988891602,-0.27,0.17,0.06,0.0
338.46015700,338460157,2,-0.27,1.6400000000000001,158.99,0.00744034955278039,0.016894539818167686,0.0009409424965269864,-0.026681875810027122,0.0,0.0,1.4431349039077759,-0.27,0.17,0.06,0.0
338.56013100,338560131,2,-0.28,1.6300000000000001,158.98,0.006785308010876179,0.01815817877650261,0.000709778571035713,-0.023332756012678146,0.0,0.0,1.4409369230270386,-0.27,0.17,0.06,0.0
338.66018700,338660187,2,-0.3,1.6300000000000001,158.99,0.00731301587074995,0.01682174764573574,0.0034266142174601555,-0.012726489454507828,0.0,0.0,1.4394891262054443,-0.27,0.17,0.06,0.0
338.76013700,338760137,2,-0.27,1.6300000000000001,158.99,0.007513781078159809,0.015080960467457771,0.005048707593232393,-0.012435892596840858,0.0,0.0,1.4376057386398315,-0.27,0.17,0.06,0.0
338.86011300,338860113,2,-0.26,1.6400000000000001,159.0,0.007995099760591984,0.01549266092479229,-0.0006819810369051993,-0.02552694082260132,0.0,0.0,1.435124397277832,-0.27,0.17,0.06,0.0
338.96011400,338960114,2,-0.27,1.6400000000000001,159.01,0.007401327136904001,0.015530947595834732,0.005298264790326357,-0.019068803638219833,0.0,0.0,1.4333806037902832,-0.27,0.17,0.06,0.0
339.06011400,339060114,2,-0.28,1.6400000000000001,159.0,0.008652728982269764,0.014989043585956097,0.008064134046435356,-0.0033676456660032272,0.0,0.0,1.432957649230957,-0.27,0.17,0.06,0.0
339.16010800,339160108,2,-0.29,1.6300000000000001,159.0,0.00998990423977375,0.016463816165924072,0.004108094610273838,-0.005858938675373793,0.0,0.0,1.4319124221801758,-0.27,0.17,0.06,0.0
339.26011200,339260112,2,-0.29,1.6300000000000001,159.0,0.009985859505832195,0.01591232791543007,0.00475810281932354,-0.006800850387662649,0.0,0.0,1.4313819408416748,-0.27,0.17,0.06,0.0
339.36015800,339360158,2,-0.28,1.6300000000000001,159.01,0.00945567898452282,0.0160420760512352,0.005798629485070705,0.02321367897093296,0.0,0.0,1.4343664646148682,-0.27,0.17,0.06,0.0
339.46011800,339460118,2,-0.28,1.6300000000000001,159.02,0.010530171915888786,0.015777410939335823,0.0066090538166463375,0.053772009909152985,0.0,0.0,1.4388002157211304,-0.27,0.17,0.06,0.0
339.56017800,339560178,2,-0.29,1.6300000000000001,159.02,0.010114148259162903,0.015884380787611008,0.008093531243503094,0.055576831102371216,0.0,0.0,1.4430288076400757,-0.27,0.17,0.06,0.0
339.66014300,339660143,2,-0.29,1.62,159.02,0.009704182855784893,0.015580419450998306,0.00929221697151661,0.04675363004207611,0.0,0.0,1.4468327760696411,-0.27,0.17,0.06,0.0
339.76010800,339760108,2,-0.28,1.62,159.03,0.009079826064407825,0.015078219585120678,0.009522777050733566,0.029373222962021828,0.0,0.0,1.4491407871246338,-0.27,0.17,0.06,0.0
339.86012200,339860122,2,-0.29,1.62,159.03,0.009629015810787678,0.015048847533762455,0.00956690963357687,0.016710875555872917,0.0,0.0,1.451155424118042,-0.27,0.17,0.06,0.0
339.96012500,339960125,2,-0.3,1.62,159.04,0.0090391356498003,0.015514934435486794,0.00948049034923315,0.008868706412613392,0.0,0.0,1.4522051811218262,-0.27,0.17,0.06,0.0
340.06010900,340060109,2,-0.29,1.61,159.04,0.009022516198456287,0.014788866974413395,0.010035619139671326,0.00037822267040610313,0.0,0.0,1.4527522325515747,-0.27,0.17,0.06,0.0
340.16011900,340160119,2,-0.29,1.62,159.05,0.00937605369836092,0.014990368857979774,0.010606416501104832,-0.003493937198072672,0.0,0.0,1.4527394771575928,-0.27,0.17,0.06,0.0
340.26015900,340260159,2,-0.29,1.62,159.05,0.009430520236492157,0.016077568754553795,0.01038241945207119,-0.002088755602017045,0.0,0.0,1.453133463859558,-0.27,0.17,0.06,0.0
340.36012200,340360122,2,-0.29,1.62,159.05,0.009783594869077206,0.01613551750779152,0.011440382339060307,0.0017775190062820911,0.0,0.0,1.4532568454742432,-0.27,0.17,0.06,0.0
340.46018900,340460189,2,-0.29,1.62,159.06,0.009431120939552784,0.016060538589954376,0.011700676754117012,-0.0007635432411916554,0.0,0.0,1.4533225297927856,-0.27,0.17,0.06,0.0
340.56014400,340560144,2,-0.29,1.62,159.06,0.009433282539248466,0.01622018590569496,0.011580017395317554,0.016095668077468872,0.0,0.0,1.4555368423461914,-0.27,0.17,0.06,0.0
340.66011100,340660111,2,-0.3,1.61,159.06,0.009589939378201962,0.01668284647166729,0.012240746058523655,0.023667067289352417,0.0,0.0,1.4572011232376099,-0.27,0.17,0.06,0.0
340.76011200,340760112,2,-0.3,1.61,159.05,0.009229487739503384,0.01622757688164711,0.012493600137531757,-0.0024782877881079912,0.0,0.0,1.4560757875442505,-0.27,0.17,0.06,0.0
340.86010700,340860107,2,-0.3,1.61,159.06,0.00859043188393116,0.01642685942351818,0.013156026601791382,-0.01664045639336109,0.0,0.0,1.4551421403884888,-0.27,0.17,0.06,0.0
340.96011100,340960111,2,-0.3,1.61,159.06,0.008333440870046616,0.016927694901823997,0.01305228378623724,-0.009829525835812092,0.0,0.0,1.4548263549804688,-0.27,0.17,0.06,0.0
341.06011200,341060112,2,-0.3,1.61,159.06,0.008230278268456459,0.0172452162951231,0.013663599267601967,-0.0011213173856958747,0.0,0.0,1.4549154043197632,-0.27,0.17,0.06,0.0
341.16015200,341160152,2,-0.3,1.61,159.06,0.007162202149629593,0.017089398577809334,0.012657775543630123,-0.010108309797942638,0.0,0.0,1.4534739255905151,-0.27,0.17,0.06,0.0
341.26012100,341260121,2,-0.3,1.61,159.06,0.006907896138727665,0.017009250819683075,0.012056292966008186,-0.018743623048067093,0.0,0.0,1.4519751071929932,-0.27,0.17,0.06,0.0
341.36018600,341360186,2,-0.3,1.6,159.06,0.0064319707453250885,0.018004566431045532,0.010788269340991974,-0.02306632325053215,0.0,0.0,1.4498385190963745,-0.27,0.17,0.06,0.0
341.46013500,341460135,2,-0.31,1.6,159.07,0.006817562505602837,0.018551528453826904,0.00951364915817976,-0.03433500975370407,0.0,0.0,1.446590781211853,-0.27,0.17,0.06,0.0
341.56010800,341560108,2,-0.31,1.61,159.07,0.006095848046243191,0.018383948132395744,0.009239865466952324,-0.021589485928416252,0.0,0.0,1.4455934762954712,-0.27,0.17,0.06,0.0
341.66011600,341660116,2,-0.3,1.61,159.06,0.0069359662011265755,0.01869029551744461,0.009732736274600029,-0.003530581947416067,0.0,0.0,1.4450099468231201,-0.27,0.17,0.06,0.0
341.76011500,341760115,2,-0.3,1.62,159.06,0.006627439986914396,0.018199725076556206,0.00973378587514162,0.012780913151800632,0.0,0.0,1.4464548826217651,-0.27,0.17,0.06,0.0
341.86011200,341860112,2,-0.31,1.6300000000000001,159.06,0.006057647056877613,0.018866559490561485,0.009554867632687092,0.030752571299672127,0.0,0.0,1.4489470720291138,-0.27,0.17,0.06,0.0
341.96011100,341960111,2,-0.3,1.6300000000000001,159.06,0.005588791333138943,0.01897267811000347,0.008790410123765469,0.04027548059821129,0.0,0.0,1.4523563385009766,-0.27,0.17,0.06,0.0
342.06016300,342060163,2,-0.3,1.6300000000000001,159.06,0.0058454470708966255,0.019344143569469452,0.008281922899186611,0.03827967494726181,0.0,0.0,1.4552263021469116,-0.27,0.17,0.06,0.0
342.16011900,342160119,2,-0.31,1.6400000000000001,159.07,0.005599128548055887,0.020132873207330704,0.009149731136858463,0.03271264582872391,0.0,0.0,1.458132028579712,-0.27,0.17,0.06,0.0
342.26018400,342260184,2,-0.31,1.6300000000000001,159.07,0.005799887236207724,0.01959341950714588,0.010697844438254833,0.03128170594573021,0.0,0.0,1.460966944694519,-0.27,0.17,0.06,0.0
342.36013700,342360137,2,-0.3,1.6300000000000001,159.08,0.006622594315558672,0.0206886176019907,0.012289084494113922,0.036515746265649796,0.0,0.0,1.464702844619751,-0.27,0.17,0.06,0.0
342.46011300,342460113,2,-0.31,1.6300000000000001,159.09,0.007348493207246065,0.020595358684659004,0.011098609305918217,0.030559027567505836,0.0,0.0,1.467286467552185,-0.27,0.17,0.06,0.0
342.56010900,342560109,2,-0.32,1.6300000000000001,159.09,0.00796595960855484,0.020429037511348724,0.01283295452594757,0.012081604450941086,0.0,0.0,1.4683501720428467,-0.27,0.17,0.06,0.0
342.66011300,342660113,2,-0.32,1.6400000000000001,159.09,0.008402914740145206,0.0211778711527586,0.014237617142498493,0.012621232308447361,0.0,0.0,1.4703768491744995,-0.27,0.17,0.06,0.0
342.76011200,342760112,2,-0.31,1.6300000000000001,159.1,0.00898915808647871,0.021412067115306854,0.015932686626911163,0.027126707136631012,0.0,0.0,1.4732359647750854,-0.27,0.17,0.06,0.0
342.86012600,342860126,2,-0.3,1.6400000000000001,159.1,0.009757809340953827,0.021443746984004974,0.016760921105742455,0.01899545080959797,0.0,0.0,1.4744921922683716,-0.27,0.17,0.06,0.0
342.96015500,342960155,2,-0.31,1.6400000000000001,159.1,0.012712868861854076,0.0225741658359766,0.015170132741332054,0.010808410122990608,0.0,0.0,1.476037859916687,-0.27,0.17,0.06,0.0
343.06012500,343060125,2,-0.32,1.6400000000000001,159.1,0.013487644493579865,0.022517163306474686,0.01422681100666523,0.0008583766175433993,0.0,0.0,1.4759830236434937,-0.27,0.17,0.06,0.0
343.16019900,343160199,2,-0.32,1.6400000000000001,159.1,0.014158853329718113,0.022668231278657913,0.012440104968845844,-0.016918091103434563,0.0,0.0,1.474959135055542,-0.27,0.17,0.06,0.0
343.26013900,343260139,2,-0.33,1.6400000000000001,159.1,0.014975626021623611,0.024193691089749336,0.010547291487455368,-0.001299981027841568,0.0,0.0,1.4762181043624878,-0.27,0.17,0.06,0.0
343.36012600,343360126,2,-0.32,1.6400000000000001,159.09,0.015607968904078007,0.024517906829714775,0.010926412418484688,0.020202480256557465,0.0,0.0,1.4782483577728271,-0.27,0.17,0.06,0.0
343.46011500,343460115,2,-0.32,1.6500000000000001,159.09,0.017728760838508606,0.025393007323145866,0.012705160304903984,0.029988529160618782,0.0,0.0,1.4810421466827393,-0.27,0.17,0.06,0.0
343.56010700,343560107,2,-0.32,1.6500000000000001,159.09,0.018567321822047234,0.025699302554130554,0.015340589918196201,0.040739089250564575,0.0,0.0,1.484541893005371,-0.27,0.17,0.06,0.0
343.66011600,343660116,2,-0.32,1.6600000000000001,159.1,0.017478708177804947,0.02637866698205471,0.016370531171560287,0.03835252672433853,0.0,0.0,1.487600326538086,-0.27,0.17,0.06,0.0
343.76010800,343760108,2,-0.31,1.6500000000000001,159.11,0.01732112653553486,0.025775723159313202,0.017320476472377777,0.024887118488550186,0.0,0.0,1.4895696640014648,-0.27,0.17,0.06,0.0
343.86015300,343860153,2,-0.32,1.6500000000000001,159.11,0.01920926757156849,0.02570304460823536,0.017541740089654922,0.02698875404894352,0.0,0.0,1.4927313327789307,-0.27,0.17,0.06,0.0
343.96012200,343960122,2,-0.32,1.6600000000000001,159.12,0.02071348950266838,0.025274608284235,0.01843612641096115,0.0394471138715744,0.0,0.0,1.4965239763259888,-0.27,0.17,0.06,0.0
344.06018200,344060182,2,-0.32,1.6500000000000001,159.12,0.020879661664366722,0.02393191121518612,0.02217268757522106,0.0487075112760067,0.0,0.0,1.5009344816207886,-0.27,0.17,0.06,0.0
344.16015300,344160153,2,-0.31,1.6400000000000001,159.13,0.022566571831703186,0.025041015818715096,0.020411616191267967,0.0377628393471241,0.0,0.0,1.5040171146392822,-0.27,0.17,0.06,0.0
344.26011300,344260113,2,-0.32,1.6500000000000001,159.13,0.022189226001501083,0.02477356605231762,0.019817862659692764,0.014102896675467491,0.0,0.0,1.5055103302001953,-0.27,0.17,0.06,0.0
344.36011200,344360112,2,-0.32,1.6400000000000001,159.13,0.022421831265091896,0.024653645232319832,0.01917959749698639,0.013131280429661274,0.0,0.0,1.507799744606018,-0.27,0.17,0.06,0.0
344.46011300,344460113,2,-0.33,1.6400000000000001,159.13,0.02292981557548046,0.022773638367652893,0.02175183966755867,0.04371511563658714,0.0,0.0,1.5126577615737915,-0.27,0.17,0.06,0.0
344.56010800,344560108,2,-0.32,1.6400000000000001,159.13,0.0243645329028368,0.02388118766248226,0.022000005468726158,0.0779336541891098,0.0,0.0,1.5201963186264038,-0.27,0.17,0.06,0.0
344.66012400,344660124,2,-0.35000000000000003,1.6300000000000001,159.13,0.023882661014795303,0.02301621064543724,0.025955013930797577,0.09724052995443344,0.0,0.0,1.5285700559616089,-0.27,0.17,0.06,0.0
344.76016900,344760169,2,-0.32,1.6400000000000001,159.13,0.024018293246626854,0.02212582901120186,0.027356399223208427,0.08682259917259216,0.0,0.0,1.5357203483581543,-0.27,0.17,0.06,0.0
344.86011800,344860118,2,-0.32,1.6300000000000001,159.13,0.02340123988687992,0.02366752363741398,0.02765020914375782,0.061176128685474396,0.0,0.0,1.5412018299102783,-0.27,0.17,0.06,0.0
344.96018100,344960181,2,-0.34,1.6300000000000001,159.13,0.023360908031463623,0.023841243237257004,0.02899489924311638,0.02903519943356514,0.0,0.0,1.544007658958435,-0.27,0.17,0.06,0.0
345.06014700,345060147,2,-0.33,1.6300000000000001,159.14000000000001,0.023547159507870674,0.022804265841841698,0.030881645157933235,0.018820123746991158,0.0,0.0,1.5471031665802002,-0.27,0.17,0.06,0.0
345.16011000,345160110,2,-0.32,1.6300000000000001,159.13,0.024958793073892593,0.02338300086557865,0.030905706807971,0.021451499313116074,0.0,0.0,1.5497589111328125,-0.27,0.17,0.06,0.0
345.26011100,345260111,2,-0.33,1.6300000000000001,159.13,0.02531740628182888,0.02341560833156109,0.03183799237012863,0.026273122057318687,0.0,0.0,1.5531114339828491,-0.27,0.17,0.06,0.0
345.36011500,345360115,2,-0.33,1.62,159.13,0.024457979947328568,0.023971259593963623,0.03143364563584328,0.044493667781353,0.0,0.0,1.5579510927200317,-0.27,0.17,0.06,0.0
345.46010800,345460108,2,-0.32,1.6300000000000001,159.13,0.02341476082801819,0.023850267753005028,0.03196212276816368,0.06139755621552467,0.0,0.0,1.5638833045959473,-0.27,0.17,0.06,0.0
345.56010800,345560108,2,-0.33,1.6300000000000001,159.13,0.02167179249227047,0.02400433085858822,0.03278011083602905,0.05954328924417496,0.0,0.0,1.5689605474472046,-0.27,0.17,0.06,0.0
345.66015900,345660159,2,-0.33,1.62,159.13,0.021278738975524902,0.0243952926248312,0.03340854495763779,0.050745394080877304,0.0,0.0,1.5737872123718262,-0.27,0.17,0.06,0.0
345.76012700,345760127,2,-0.32,1.6300000000000001,159.13,0.021693048998713493,0.024243827909231186,0.032904449850320816,0.029118822887539864,0.0,0.0,1.576106309890747,-0.27,0.17,0.06,0.0
345.86020600,345860206,2,-0.32,1.6300000000000001,159.12,0.020984429866075516,0.02382245473563671,0.033208590000867844,0.007599647156894207,0.0,0.0,1.5775465965270996,-0.28,0.17,0.06,0.0
345.96014600,345960146,2,-0.32,1.6400000000000001,159.12,0.020645037293434143,0.02355457842350006,0.03366899862885475,0.006600580643862486,0.0,0.0,1.5788761377334595,-0.28,0.17,0.06,0.0
346.06010800,346060108,2,-0.32,1.6400000000000001,159.12,0.021140867844223976,0.02416892908513546,0.03279419243335724,0.016532307490706444,0.0,0.0,1.5813523530960083,-0.28,0.17,0.06,0.0
346.16010900,346160109,2,-0.32,1.6400000000000001,159.12,0.02093568630516529,0.024158483371138573,0.032315101474523544,0.030074551701545715,0.0,0.0,1.5844351053237915,-0.28,0.17,0.06,0.0
346.26011100,346260111,2,-0.32,1.6300000000000001,159.11,0.019404659047722816,0.025260673835873604,0.031284231692552567,0.020383749157190323,0.0,0.0,1.5859078168869019,-0.27,0.17,0.06,0.0
346.36011500,346360115,2,-0.32,1.6300000000000001,159.11,0.018895208835601807,0.02612653374671936,0.030763451009988785,0.012718035839498043,0.0,0.0,1.5876450538635254,-0.27,0.17,0.06,0.0
346.46011000,346460110,2,-0.32,1.6300000000000001,159.11,0.019317258149385452,0.02562798745930195,0.030967870727181435,0.02962033823132515,0.0,0.0,1.5910685062408447,-0.28,0.17,0.06,0.0
346.56015100,346560151,2,-0.33,1.6300000000000001,159.12,0.01958198845386505,0.024957390502095222,0.030787428840994835,0.030721845105290413,0.0,0.0,1.5933016538619995,-0.28,0.17,0.06,0.0
346.66012900,346660129,2,-0.33,1.62,159.12,0.01937468722462654,0.023989753797650337,0.030786052346229553,0.008938354440033436,0.0,0.0,1.59383225440979,-0.28,0.17,0.06,0.0
346.76018800,346760188,2,-0.32,1.62,159.12,0.018740132451057434,0.02469036541879177,0.030737200751900673,0.013427852652966976,0.0,0.0,1.596246600151062,-0.28,0.17,0.06,0.0
346.86013500,346860135,2,-0.33,1.62,159.11,0.01941644959151745,0.024594752117991447,0.03050326742231846,0.02260950393974781,0.0,0.0,1.5981711149215698,-0.28,0.17,0.06,0.0
346.96012800,346960128,2,-0.32,1.6300000000000001,159.11,0.018719907850027084,0.02334892936050892,0.030864844098687172,0.015873469412326813,0.0,0.0,1.59981369972229,-0.28,0.17,0.06,0.0
347.06011200,347060112,2,-0.31,1.62,159.11,0.017512643709778786,0.0234130397439003,0.03099203109741211,0.011872869916260242,0.0,0.0,1.6009081602096558,-0.28,0.17,0.06,0.0
347.16010900,347160109,2,-0.32,1.6300000000000001,159.12,0.017444277182221413,0.025008542463183403,0.02964373677968979,-0.013795017264783382,0.0,0.0,1.599269986152649,-0.28,0.17,0.06,0.0
347.26011200,347260112,2,-0.33,1.6300000000000001,159.12,0.017532765865325928,0.024398045614361763,0.02745814435184002,-0.05568896606564522,0.0,0.0,1.5941096544265747,-0.28,0.17,0.06,0.0
347.36011400,347360114,2,-0.33,1.6400000000000001,159.12,0.017175525426864624,0.024365821853280067,0.02594149485230446,-0.05959249660372734,0.0,0.0,1.5903815031051636,-0.28,0.17,0.06,0.0
347.46015300,347460153,2,-0.32,1.6300000000000001,159.13,0.016900839284062386,0.024585185572504997,0.02332938089966774,-0.04487919062376022,0.0,0.0,1.5864710807800293,-0.28,0.17,0.06,0.0
347.56013200,347560132,2,-0.32,1.6300000000000001,159.13,0.016833800822496414,0.026549946516752243,0.021889807656407356,-0.026344653218984604,0.0,0.0,1.5850361585617065,-0.28,0.17,0.06,0.0
347.66019100,347660191,2,-0.32,1.6300000000000001,159.12,0.016254747286438942,0.02632010728120804,0.020271189510822296,-0.007675840053707361,0.0,0.0,1.5835648775100708,-0.28,0.17,0.06,0.0
347.76013600,347760136,2,-0.31,1.6300000000000001,159.12,0.016274048015475273,0.026712587103247643,0.019395340234041214,-0.019563982263207436,0.0,0.0,1.5809417963027954,-0.28,0.17,0.06,0.0
347.86010700,347860107,2,-0.31,1.6300000000000001,159.13,0.016641393303871155,0.026544876396656036,0.018857210874557495,-0.026598934084177017,0.0,0.0,1.578313946723938,-0.28,0.17,0.06,0.0
347.96011500,347960115,2,-0.31,1.62,159.12,0.016020648181438446,0.026806293055415154,0.018241027370095253,-0.0280594564974308,0.0,0.0,1.5757415294647217,-0.28,0.17,0.06,0.0
348.06011800,348060118,2,-0.31,1.62,159.12,0.015796441584825516,0.027617765590548515,0.01663299836218357,-0.03001405857503414,0.0,0.0,1.5729279518127441,-0.28,0.17,0.06,0.0
348.16010900,348160109,2,-0.31,1.62,159.12,0.015439855866134167,0.02797715552151203,0.015461432747542858,-0.02684185281395912,0.0,0.0,1.5705697536468506,-0.28,0.17,0.06,0.0
348.26011000,348260110,2,-0.32,1.62,159.12,0.015356375835835934,0.02760297991335392,0.014900834299623966,-0.019113728776574135,0.0,0.0,1.568742036819458,-0.28,0.17,0.06,0.0
