timestamp,TimeUS,I,Status,GMS,GWk,NSats,HDop,Lat,Lng,Alt,Spd,GCrs,VZ,Yaw,U
1666738944.19899988,487260199,0,3,255762199,2233,10,0.79,42.7307615,-84.4902925,214.70000000000002,0.07907591760158539,57.917808532714844,0.12600000202655792,0.0,1
1666738944.39908671,487460286,0,3,255762399,2233,10,0.79,42.730762299999995,-84.49029159999999,214.57,0.033526111394166946,197.35403442382812,0.1680000126361847,0.0,1
1666738944.59905887,487660258,0,3,255762599,2233,10,0.79,42.7307632,-84.4902905,214.4,0.02640075981616974,142.696044921875,0.14800000190734863,0.0,1
1666738944.79909778,487860297,0,3,255762799,2233,10,0.79,42.730764199999996,-84.4902894,214.28,0.07430344074964523,118.97970581054688,0.1380000114440918,0.0,1
1666738944.99910879,488060308,0,3,255762999,2233,10,0.79,42.7307653,-84.4902883,214.25,0.03769615292549133,248.1986083984375,0.13900001347064972,0.0,1
1666738945.19903493,488260234,0,3,255763199,2233,9,0.79,42.7307662,-84.4902874,214.14000000000001,0.0722772479057312,104.42076873779297,0.0990000069141388,0.0,1
1666738945.39906287,488460262,0,3,255763399,2233,9,0.79,42.7307671,-84.4902864,214.06,0.01720465160906315,144.46231079101562,0.1940000057220459,0.0,1
1666738945.59896493,488660164,0,3,255763599,2233,9,0.79,42.7307683,-84.49028539999999,213.92000000000002,0.08159657567739487,19.32318115234375,0.12200000882148743,0.0,1
1666738945.79902172,488860221,0,3,255763799,2233,9,0.79,42.7307693,-84.4902844,213.79,0.1149347722530365,153.6578826904297,0.16600000858306885,0.0,1
1666738945.99907470,489060274,0,3,255763999,2233,9,0.8300000000000001,42.7307704,-84.4902834,213.68,0.023430749773979187,320.1944274902344,0.05400000140070915,0.0,1
1666738946.19907570,489260275,0,3,255764199,2233,9,0.8300000000000001,42.7307716,-84.49028249999999,213.61,0.019026298075914383,356.9872131347656,0.17100000381469727,0.0,1
1666738946.39915085,489460350,0,3,255764399,2233,8,0.8300000000000001,42.730772699999996,-84.4902812,213.51,0.1042928621172905,104.43597412109375,0.1810000091791153,0.0,1
1666738946.59902883,489660228,0,3,255764599,2233,10,0.8300000000000001,42.730773899999996,-84.49028,213.35,0.0805232897400856,345.61859130859375,0.1850000023841858,0.0,1
1666738946.79909587,489860295,0,3,255764799,2233,10,0.8300000000000001,42.7307753,-84.49027889999999,213.25,0.09617692232131958,27.89727020263672,0.06800000369548798,0.0,1
1666738946.99897981,490060179,0,3,255764999,2233,10,0.79,42.7307765,-84.4902779,213.12,0.05011985823512077,331.3895568847656,0.07400000095367432,0.0,1
1666738947.19899988,490260199,0,3,255765199,2233,10,0.79,42.7307777,-84.49027699999999,213.06,0.08377350866794586,246.80142211914062,0.11400000751018524,0.0,1
1666738947.39904189,490460241,0,3,255765399,2233,10,0.79,42.7307789,-84.49027629999999,212.96,0.08994442969560623,261.6897277832031,0.22700001299381256,0.0,1
1666738947.59903383,490660233,0,3,255765599,2233,10,0.79,42.7307801,-84.4902755,212.83,0.09404786676168442,234.9580841064453,0.13100001215934753,0.0,1
1666738947.79911184,490860311,0,3,255765799,2233,10,0.79,42.7307814,-84.49027439999999,212.73000000000002,0.06041523441672325,12.425941467285156,-0.00800000037997961,0.0,1
1666738947.99910975,491060309,0,3,255765999,2233,10,0.79,42.7307827,-84.4902731,212.62,0.11906720697879791,91.92517852783203,-0.020000001415610313,0.0,1
1666738948.17869186,491239891,0,3,255766199,2233,10,0.79,42.730784,-84.4902718,212.49,0.10589145869016647,50.748661041259766,0.058000002056360245,0.0,1
1666738948.39904380,491460243,0,3,255766399,2233,10,0.79,42.7307852,-84.4902707,212.34,0.052000001072883606,0.0,0.10700000822544098,0.0,1
1666738948.59905577,491660255,0,3,255766599,2233,10,0.79,42.7307863,-84.4902697,212.22,0.041593268513679504,152.81887817382812,0.07500000298023224,0.0,1
1666738948.79897785,491860177,0,3,255766799,2233,9,0.79,42.7307869,-84.4902694,212.1,0.13708756864070892,254.34165954589844,0.17800000309944153,0.0,1
1666738948.99905586,492060255,0,3,255766999,2233,9,0.93,42.7307874,-84.4902693,212.04,0.12781627476215363,194.0362548828125,0.10300000756978989,0.0,1
1666738949.19906974,492260269,0,3,255767199,2233,9,0.93,42.730787899999996,-84.490269,211.98000000000002,0.11871394515037537,214.35939025878906,0.07700000703334808,0.0,1
1666738949.39903593,492460235,0,3,255767399,2233,8,0.93,42.730788499999996,-84.4902687,211.91,0.09924717247486115,282.2157287597656,0.05900000408291817,0.0,1
1666738949.57868481,492639884,0,3,255767599,2233,9,0.93,42.730789099999996,-84.4902686,211.88,0.09538344293832779,299.5213623046875,0.11100000888109207,0.0,1
1666738949.79908180,492860281,0,3,255767799,2233,9,0.93,42.7307898,-84.4902685,211.83,0.08809086680412292,230.5275421142578,0.15400001406669617,0.0,1
1666738949.99908185,493060281,0,3,255767999,2233,9,0.93,42.7307905,-84.49026839999999,211.8,0.0789240226149559,292.34063720703125,0.09300000220537186,0.0,1
1666738950.19903278,493260232,0,3,255768199,2233,9,0.93,42.7307913,-84.4902682,211.73000000000002,0.10771258175373077,311.2359619140625,0.020000001415610313,0.0,1
1666738950.39906788,493460267,0,3,255768399,2233,9,0.93,42.730792099999995,-84.4902681,211.69,0.14611297845840454,258.1517333984375,-0.10700000822544098,0.0,1
1666738950.59910393,493660303,0,3,255768599,2233,10,0.93,42.730793399999996,-84.4902676,211.83,0.5799862146377563,335.5560302734375,-0.14500001072883606,0.0,1
1666738950.79906082,493860260,0,3,255768799,2233,10,0.93,42.7307942,-84.4902673,212.43,0.1432236135005951,307.9100646972656,-0.47300001978874207,0.0,1
1666738950.99904680,494060246,0,3,255768999,2233,11,0.87,42.7307947,-84.4902678,212.94,0.05522681027650833,275.1944274902344,-0.2540000081062317,0.0,1
1666738951.19910574,494260305,0,3,255769199,2233,12,0.87,42.7307962,-84.490268,213.27,0.05374011769890785,315.0,-0.14900000393390656,0.0,1
1666738951.39903784,494460237,0,3,255769399,2233,11,0.87,42.7307971,-84.4902683,213.41,0.07387828081846237,219.5076904296875,-0.13199999928474426,0.0,1
1666738951.59900880,494660208,0,3,255769599,2233,11,0.87,42.7307975,-84.49027029999999,213.41,0.159790500998497,219.6678466796875,-0.19200000166893005,0.0,1
1666738951.79905176,494860251,0,3,255769799,2233,11,0.87,42.7307979,-84.4902742,213.70000000000002,0.07294518500566483,241.32687377929688,-0.23000000417232513,0.0,1
1666738951.99908185,495060281,0,3,255769999,2233,11,0.79,42.7307977,-84.49027679999999,213.63,0.17372681200504303,293.7615661621094,-0.39100003242492676,0.0,1
1666738952.19914174,495260341,0,3,255770199,2233,11,0.79,42.7307983,-84.490279,213.98000000000002,0.2147091180086136,242.241455078125,-0.3360000252723694,0.0,1
1666738952.39913988,495460339,0,3,255770399,2233,10,0.79,42.7307979,-84.49028419999999,214.29,0.07184009999036789,218.7843780517578,-0.5139999985694885,0.0,1
1666738952.59903789,495660237,0,3,255770599,2233,11,0.79,42.7307984,-84.4902899,214.63,0.04197618365287781,282.3807678222656,-0.41600000858306885,0.0,1
1666738952.79899073,495860190,0,3,255770799,2233,11,0.79,42.730799,-84.4902923,214.78,0.041868843138217926,310.156005859375,-0.03800000250339508,0.0,1
1666738952.99902892,496060228,0,3,255770999,2233,11,0.79,42.7307987,-84.4902931,214.76,0.2650962173938751,221.02328491210938,-0.09100000560283661,0.0,1
1666738953.19902587,496260225,0,3,255771199,2233,12,0.79,42.7307993,-84.490293,214.72,0.13146863877773285,76.80938720703125,-0.18400001525878906,0.0,1
1666738953.39899683,496460196,0,3,255771399,2233,13,0.79,42.7308002,-84.490293,214.83,0.4528355300426483,241.5107421875,-0.10200000554323196,0.0,1
1666738953.59904075,496660240,0,3,255771599,2233,12,0.79,42.730801199999995,-84.490293,215.02,1.5905823707580566,42.96186447143555,-0.16600000858306885,0.0,1
1666738953.79908085,496860280,0,3,255771799,2233,12,0.79,42.7308016,-84.4902924,214.94,0.3731340169906616,227.9329071044922,0.1120000034570694,0.0,1
1666738953.99913192,497060331,0,3,255771999,2233,12,0.75,42.730801299999996,-84.49029279999999,215.15,0.013152946718037128,8.746161460876465,0.12600000202655792,0.0,1
1666738954.19904780,497260247,0,3,255772199,2233,12,0.75,42.7308008,-84.49029399999999,215.67000000000002,0.0743236169219017,156.1940460205078,0.2160000056028366,0.0,1
1666738954.39907670,497460276,0,3,255772399,2233,12,0.75,42.7308009,-84.4902956,215.70000000000002,0.20181675255298615,306.1317443847656,0.34300002455711365,0.0,1
1666738954.59896493,497660164,0,3,255772599,2233,12,0.75,42.7308003,-84.4902972,215.54,0.20663252472877502,304.1514892578125,0.34800001978874207,0.0,1
1666738954.79907274,497860272,0,3,255772799,2233,12,0.75,42.7308008,-84.490299,215.64000000000001,0.21840330958366394,344.0545959472656,0.16300000250339508,0.0,1
1666738954.99901390,498060213,0,3,255772999,2233,11,0.77,42.7308015,-84.4903006,215.70000000000002,0.21652020514011383,3.9724957942962646,0.12800000607967377,0.0,1
1666738955.19908881,498260288,0,3,255773199,2233,13,0.77,42.730803099999996,-84.4903004,215.95000000000002,0.1638352870941162,38.05901336669922,0.31200000643730164,0.0,1
1666738955.39913273,498460332,0,3,255773399,2233,13,0.77,42.7308044,-84.4903001,215.91,0.32207608222961426,42.357452392578125,0.36000001430511475,0.0,1
1666738955.59911370,498660313,0,3,255773599,2233,12,0.77,42.7308056,-84.49030189999999,215.91,0.14200352132320404,0.4034847319126129,0.5180000066757202,0.0,1
1666738955.79913092,498860330,0,3,255773799,2233,12,0.77,42.7308066,-84.4903032,215.9,0.10607545077800751,45.76389694213867,0.3070000112056732,0.0,1
1666738955.99902678,499060226,0,3,255773999,2233,12,0.74,42.7308076,-84.4903037,215.72,0.3538375496864319,25.261451721191406,0.3800000250339508,0.0,1
1666738956.19897389,499260173,0,3,255774199,2233,12,0.74,42.730807999999996,-84.49030669999999,215.77,0.09466784447431564,328.8286437988281,0.28300002217292786,0.0,1
1666738956.37871671,499439916,0,3,255774399,2233,13,0.74,42.7308078,-84.4903078,215.77,0.1057591661810875,310.013671875,0.28300002217292786,0.0,1
1666738956.59903288,499660232,0,3,255774599,2233,12,0.74,42.7308081,-84.4903089,215.67000000000002,0.29308021068573,292.89056396484375,-0.05700000375509262,0.0,1
1666738956.79906392,499860263,0,3,255774799,2233,12,0.74,42.7308084,-84.4903099,215.69,0.17835359275341034,341.36187744140625,-0.1680000126361847,0.0,1
1666738956.99906087,500060260,0,3,255774999,2233,13,0.7000000000000001,42.7308095,-84.49031029999999,215.87,0.26328691840171814,317.46282958984375,-0.09300000220537186,0.0,1
1666738957.19907188,500260271,0,3,255775199,2233,13,0.7000000000000001,42.730809799999996,-84.4903108,216.03,0.14676854014396667,354.134033203125,0.03100000135600567,0.0,1
1666738957.39911079,500460310,0,3,255775399,2233,13,0.7000000000000001,42.7308105,-84.49031049999999,216.1,0.34477242827415466,348.6248779296875,0.13500000536441803,0.0,1
1666738957.59907269,500660272,0,3,255775599,2233,12,0.7000000000000001,42.730810299999995,-84.4903106,216.07,0.1796274036169052,293.2823486328125,-0.24000000953674316,0.0,1
1666738957.77875590,500839955,0,3,255775799,2233,12,0.7000000000000001,42.730809099999995,-84.4903114,215.52,0.21957232058048248,20.25063133239746,0.203000009059906,0.0,1
1666738957.99904990,501060249,0,3,255775999,2233,12,0.75,42.730807899999995,-84.4903123,215.07,0.1440034806728363,26.387113571166992,0.11100000888109207,0.0,1
1666738958.19901085,501260210,0,3,255776199,2233,11,0.75,42.730807399999996,-84.4903124,215.02,0.16690418124198914,15.285224914550781,0.164000004529953,0.0,1
1666738958.39905572,501460255,0,3,255776399,2233,11,0.75,42.7308069,-84.4903121,214.81,0.3917958736419678,40.03025436401367,0.21000000834465027,0.0,1
1666738958.59912372,501660323,0,3,255776599,2233,11,0.75,42.730806199999996,-84.4903119,214.54,0.29261067509651184,7.659339427947998,0.15000000596046448,0.0,1
1666738958.79908371,501860283,0,3,255776799,2233,12,0.75,42.730806099999995,-84.4903119,214.44,0.21927610039710999,313.521728515625,0.4000000059604645,0.0,1
1666738958.99920177,502060401,0,3,255776999,2233,12,0.75,42.7308059,-84.49031169999999,214.34,0.36661970615386963,37.463775634765625,0.2760000228881836,0.0,1
1666738959.19903970,502260239,0,3,255777199,2233,12,0.75,42.7308064,-84.4903109,214.36,0.6787238717079163,39.85961151123047,0.036000002175569534,0.0,1
1666738959.39902186,502460221,0,3,255777399,2233,11,0.75,42.7308064,-84.4903113,214.01,0.2735781669616699,340.57159423828125,-0.0560000017285347,0.0,1
1666738959.59901285,502660212,0,3,255777599,2233,12,0.75,42.7308064,-84.4903125,213.3,0.19234605133533478,14.7587251663208,0.02800000086426735,0.0,1
1666738959.79901791,502860217,0,3,255777799,2233,13,0.75,42.730807,-84.490313,212.9,0.39778637886047363,353.21441650390625,-0.0950000062584877,0.0,1
1666738959.99906182,503060261,0,3,255777999,2233,13,0.7000000000000001,42.730807399999996,-84.4903137,212.87,0.1923980414867401,280.7843017578125,0.05000000074505806,0.0,1
1666738960.19907570,503260275,0,3,255778199,2233,13,0.7000000000000001,42.7308069,-84.49031509999999,213.20000000000002,0.09600000083446503,270.0,-0.13700000941753387,0.0,1
1666738960.39906287,503460262,0,3,255778399,2233,11,0.7000000000000001,42.7308057,-84.4903168,213.21,0.17884351313114166,20.968505859375,-0.0430000014603138,0.0,1
1666738960.59911776,503660317,0,3,255778599,2233,12,0.7000000000000001,42.730804899999995,-84.4903181,212.9,0.07433035224676132,10.856411933898926,-0.06000000238418579,0.0,1
1666738960.79904675,503860246,0,3,255778799,2233,12,0.7000000000000001,42.7308036,-84.4903215,212.77,0.08884256333112717,191.6893768310547,0.024000000208616257,0.0,1
1666738960.99903393,504060233,0,3,255778999,2233,12,0.75,42.7308023,-84.49032419999999,212.95000000000002,0.056586217135190964,136.43209838867188,0.15900000929832458,0.0,1
1666738961.19911289,504260312,0,3,255779199,2233,12,0.75,42.7308014,-84.4903253,213.06,0.19714462757110596,81.54108428955078,0.13900001347064972,0.0,1
1666738961.39903283,504460232,0,3,255779399,2233,12,0.75,42.7308004,-84.4903257,213.23000000000002,0.14705441892147064,107.81887817382812,0.11300000548362732,0.0,1
1666738961.59905982,504660259,0,3,255779599,2233,12,0.75,42.730799999999995,-84.49032559999999,213.15,0.36674243211746216,62.73624801635742,0.17600001394748688,0.0,1
1666738961.79906988,504860269,0,3,255779799,2233,12,0.75,42.730799399999995,-84.4903262,213.04,0.35473936796188354,97.12501525878906,0.07100000232458115,0.0,1
1666738961.99908686,505060286,0,3,255779999,2233,11,0.75,42.7307987,-84.4903269,213.16,0.1024743914604187,151.4341583251953,0.06000000238418579,0.0,1
1666738962.19916081,505260360,0,3,255780199,2233,11,0.75,42.7307983,-84.4903276,213.21,0.08417244255542755,193.045654296875,-0.04200000315904617,0.0,1
1666738962.39903784,505460237,0,3,255780399,2233,11,0.75,42.7307985,-84.4903278,213.19,0.3872002363204956,55.735347747802734,0.023000001907348633,0.0,1
1666738962.59909773,505660297,0,3,255780599,2233,13,0.75,42.7307997,-84.49032679999999,213.19,0.21324165165424347,113.1985855102539,0.2370000183582306,0.0,1
1666738962.79902291,505860222,0,3,255780799,2233,13,0.75,42.7308005,-84.49032629999999,213.14000000000001,0.2182842344045639,103.7815933227539,0.26900002360343933,0.0,1
1666738962.99909878,506060298,0,3,255780999,2233,13,0.7000000000000001,42.730800699999996,-84.4903266,212.95000000000002,0.19620652496814728,142.66285705566406,0.37700000405311584,0.0,1
1666738963.19913888,506260338,0,3,255781199,2233,13,0.7000000000000001,42.730801199999995,-84.4903267,212.9,0.10210779309272766,104.17233276367188,0.4130000174045563,0.0,1
1666738963.39907885,506460278,0,3,255781399,2233,13,0.7000000000000001,42.730802,-84.4903266,212.94,0.07119691371917725,100.5207748413086,0.4660000205039978,0.0,1
1666738963.59900784,506660207,0,3,255781599,2233,13,0.7000000000000001,42.730802499999996,-84.490326,212.88,0.1394345909357071,85.47522735595703,0.6920000314712524,0.0,1
1666738963.79902887,506860228,0,3,255781799,2233,13,0.7000000000000001,42.7308033,-84.4903248,212.70000000000002,0.3443617522716522,63.80698776245117,0.49000000953674316,0.0,1
1666738963.99904871,507060248,0,3,255781999,2233,13,0.7000000000000001,42.7308038,-84.49032299999999,212.51,0.2650924623012543,88.48686981201172,0.23800000548362732,0.0,1
1666738964.19902182,507260221,0,3,255782199,2233,13,0.7000000000000001,42.730804,-84.4903227,212.49,0.15800316631793976,359.6373596191406,0.3370000123977661,0.0,1
1666738964.39902973,507460229,0,3,255782399,2233,12,0.7000000000000001,42.7308036,-84.49032299999999,212.47,0.41723495721817017,181.92288208007812,0.12400000542402267,0.0,1
1666738964.57875991,507639959,0,3,255782599,2233,13,0.7000000000000001,42.730802999999995,-84.4903234,212.4,0.44820645451545715,205.3644256591797,0.1469999998807907,0.0,1
1666738964.79915071,507860350,0,3,255782799,2233,12,0.7000000000000001,42.730802499999996,-84.4903247,212.29,0.2383463978767395,133.81005859375,0.28200000524520874,0.0,1
1666738964.99905181,508060251,0,3,255782999,2233,12,0.75,42.730802499999996,-84.49032679999999,212.14000000000001,0.10339246690273285,131.86363220214844,0.5270000100135803,0.0,1
1666738965.19900680,508260206,0,3,255783199,2233,12,0.75,42.7308027,-84.4903288,212.11,0.04904080182313919,73.41265869140625,0.38700002431869507,0.0,1
1666738965.39903593,508460235,0,3,255783399,2233,12,0.75,42.730802999999995,-84.4903306,212.08,0.10878419876098633,18.768056869506836,0.27900001406669617,0.0,1
1666738965.59898973,508660189,0,3,255783599,2233,11,0.75,42.7308033,-84.4903308,212.05,0.18543194234371185,29.74488067626953,0.14000000059604645,0.0,1
1666738965.79899883,508860198,0,3,255783799,2233,11,0.75,42.7308036,-84.4903314,212.03,0.02385372295975685,123.02385711669922,0.06800000369548798,0.0,1
1666738965.99904490,509060244,0,3,255783999,2233,13,0.7000000000000001,42.730803699999996,-84.4903326,212.11,0.250108003616333,245.1768798828125,0.2370000183582306,0.0,1
1666738966.19910669,509260306,0,3,255784199,2233,11,0.7000000000000001,42.7308042,-84.4903349,212.11,0.13849548995494843,284.6382751464844,0.16300000250339508,0.0,1
1666738966.39920282,509460402,0,3,255784399,2233,13,0.7000000000000001,42.730804299999996,-84.490338,211.85,0.04876474291086197,15.461216926574707,0.13500000536441803,0.0,1
1666738966.59912682,509660326,0,3,255784599,2233,13,0.7000000000000001,42.7308042,-84.4903415,211.57,0.09533625096082687,15.202406883239746,0.1730000078678131,0.0,1
1666738966.79908991,509860289,0,3,255784799,2233,13,0.7000000000000001,42.7308047,-84.49034379999999,211.47,0.12349089235067368,354.88958740234375,0.07800000160932541,0.0,1
1666738966.99903989,510060239,0,3,255784999,2233,13,0.7000000000000001,42.730804899999995,-84.49034429999999,211.4,0.14241138100624084,53.854305267333984,0.2639999985694885,0.0,1
1666738967.19900274,510260202,0,3,255785199,2233,12,0.7000000000000001,42.730803699999996,-84.49034689999999,211.05,0.02140093594789505,307.4053649902344,0.2750000059604645,0.0,1
1666738967.39902472,510460224,0,3,255785399,2233,12,0.7000000000000001,42.7308023,-84.49034979999999,210.74,0.10331021994352341,207.0611114501953,0.23500001430511475,0.0,1
1666738967.59909892,510660298,0,3,255785599,2233,12,0.7000000000000001,42.730801,-84.49035289999999,210.76,0.029120439663529396,254.0546112060547,0.30400002002716064,0.0,1
1666738967.79908371,510860283,0,3,255785799,2233,12,0.7000000000000001,42.7307998,-84.49035599999999,210.87,0.18402445316314697,234.06417846679688,0.34800001978874207,0.0,1
1666738967.99913788,511060337,0,3,255785999,2233,11,0.7000000000000001,42.730798899999996,-84.4903573,210.88,0.3226143419742584,197.3116455078125,0.3800000250339508,0.0,1
1666738968.19909692,511260296,0,3,255786199,2233,12,0.7000000000000001,42.730798199999995,-84.4903581,210.91,0.20349448919296265,205.93545532226562,0.3760000169277191,0.0,1
1666738968.39916182,511460361,0,3,255786399,2233,12,0.7000000000000001,42.7307981,-84.4903586,210.94,0.08393450081348419,201.67465209960938,0.32100000977516174,0.0,1
1666738968.59896779,511660167,0,3,255786599,2233,12,0.7000000000000001,42.730798199999995,-84.49035889999999,210.98000000000002,0.08297590166330338,257.47119140625,0.2760000228881836,0.0,1
1666738968.79900789,511860207,0,3,255786799,2233,12,0.7000000000000001,42.7307984,-84.4903595,211.04,0.1124499961733818,189.21102905273438,0.1600000113248825,0.0,1
1666738968.99899888,512060198,0,3,255786999,2233,12,0.75,42.7307984,-84.49036029999999,211.13,0.147105410695076,223.89830017089844,-0.018000001087784767,0.0,1
1666738969.19901991,512260219,0,3,255787199,2233,11,0.75,42.7307985,-84.490361,211.15,0.11524756997823715,329.2067565917969,-0.017000000923871994,0.0,1
1666738969.39912891,512460328,0,3,255787399,2233,11,0.75,42.7307987,-84.4903618,211.12,0.08115417510271072,3.532294750213623,-0.020000001415610313,0.0,1
1666738969.59907985,512660279,0,3,255787599,2233,11,0.75,42.730799,-84.49036249999999,211.13,0.18173058331012726,344.3577575683594,0.08100000023841858,0.0,1
1666738969.79909182,512860291,0,3,255787799,2233,11,0.75,42.7307992,-84.4903629,211.13,0.19077998399734497,262.1672058105469,-0.0690000057220459,0.0,1
1666738969.97875881,513039958,0,3,255787999,2233,11,0.87,42.730799499999996,-84.490363,211.06,0.07762087881565094,345.0685729980469,0.08100000023841858,0.0,1
1666738970.19913292,513260332,0,3,255788199,2233,11,0.87,42.7307998,-84.49036339999999,211.05,0.3029521703720093,274.54376220703125,-0.08100000023841858,0.0,1
1666738970.39895487,513460154,0,3,255788399,2233,12,0.87,42.730801299999996,-84.4903628,210.91,0.17544515430927277,328.7562255859375,0.0950000062584877,0.0,1
1666738970.59902382,513660223,0,3,255788599,2233,12,0.87,42.7308027,-84.49036149999999,210.81,0.1122942641377449,13.912493705749512,0.04500000178813934,0.0,1
1666738970.79902291,513860222,0,3,255788799,2233,12,0.87,42.730804299999996,-84.4903604,210.66,0.2052437663078308,19.052906036376953,0.07100000232458115,0.0,1
1666738970.99906492,514060264,0,3,255788999,2233,13,0.7000000000000001,42.7308064,-84.4903588,210.59,0.09823442250490189,308.38653564453125,0.15700000524520874,0.0,1
1666738971.19909573,514260295,0,3,255789199,2233,12,0.7000000000000001,42.7308083,-84.490357,210.56,0.1087244302034378,34.12854766845703,-0.04400000348687172,0.0,1
1666738971.39910889,514460308,0,3,255789399,2233,12,0.7000000000000001,42.7308095,-84.49035549999999,210.54,0.2035902738571167,49.58185577392578,0.2240000069141388,0.0,1
1666738971.59915781,514660357,0,3,255789599,2233,11,0.7000000000000001,42.730810399999996,-84.490354,210.52,0.03679674118757248,137.2025909423828,0.18000000715255737,0.0,1
1666738971.79904270,514860242,0,3,255789799,2233,12,0.7000000000000001,42.7308111,-84.4903526,210.65,0.1031746193766594,93.3338394165039,0.27900001406669617,0.0,1
1666738971.99911189,515060311,0,3,255789999,2233,11,0.75,42.7308117,-84.4903513,210.71,0.0677790567278862,21.644433975219727,0.17600001394748688,0.0,1
1666738972.19901872,515260218,0,3,255790199,2233,12,0.75,42.7308124,-84.49035119999999,210.96,0.06080296263098717,53.695499420166016,0.20200000703334808,0.0,1
1666738972.39902592,515460225,0,3,255790399,2233,13,0.75,42.7308124,-84.490352,211.22,0.10186265408992767,133.4088592529297,0.04100000113248825,0.0,1
1666738972.59905291,515660252,0,3,255790599,2233,13,0.75,42.7308125,-84.4903526,211.39000000000001,0.11345484107732773,130.71084594726562,0.11000000685453415,0.0,1
1666738972.79906178,515860261,0,3,255790799,2233,13,0.75,42.730813,-84.4903525,211.41,0.1637192666530609,25.312881469726562,-0.03400000184774399,0.0,1
1666738972.99910283,516060302,0,3,255790999,2233,14,0.68,42.730813999999995,-84.4903516,211.47,0.06200806796550751,37.793941497802734,-0.03200000151991844,0.0,1
1666738973.19905281,516260252,0,3,255791199,2233,14,0.68,42.730815199999995,-84.4903504,211.52,0.07247068732976913,320.5993347167969,-0.07500000298023224,0.0,1
1666738973.39908981,516460289,0,3,255791399,2233,14,0.68,42.7308167,-84.49034929999999,211.52,0.17988885939121246,331.44036865234375,0.06200000271201134,0.0,1
1666738973.59900475,516660204,0,3,255791599,2233,14,0.68,42.7308185,-84.4903478,211.53,0.09990495443344116,41.347774505615234,-0.13300000131130219,0.0,1
1666738973.79910874,516860308,0,3,255791799,2233,13,0.68,42.7308199,-84.4903468,211.58,0.08417245000600815,260.42578125,0.18300001323223114,0.0,1
1666738973.99905372,517060253,0,3,255791999,2233,13,0.72,42.730821,-84.4903461,211.58,0.09732934087514877,175.2852325439453,-0.03100000135600567,0.0,1
1666738974.19907975,517260279,0,3,255792199,2233,13,0.72,42.730821899999995,-84.4903456,211.58,0.1346588432788849,334.9573974609375,0.10100000351667404,0.0,1
1666738974.39905572,517460255,0,3,255792399,2233,13,0.72,42.730823099999995,-84.4903451,211.58,0.20468513667583466,326.1546630859375,0.26500001549720764,0.0,1
1666738974.59901476,517660214,0,3,255792599,2233,13,0.72,42.730824,-84.4903447,211.58,0.16899999976158142,22.619863510131836,0.19700001180171967,0.0,1
1666738974.79921174,517860411,0,3,255792799,2233,13,0.72,42.730824999999996,-84.490344,211.65,0.3068631589412689,41.168357849121094,0.30300000309944153,0.0,1
1666738974.99901581,518060215,0,3,255792999,2233,13,0.72,42.730826,-84.4903435,211.58,0.13720059394836426,149.3227081298828,0.13500000536441803,0.0,1
1666738975.19901991,518260219,0,3,255793199,2233,13,0.72,42.730826199999996,-84.49034309999999,211.52,0.07002856582403183,178.36341857910156,0.07200000435113907,0.0,1
1666738975.39904189,518460241,0,3,255793399,2233,11,0.72,42.7308261,-84.49034309999999,211.39000000000001,0.03328663483262062,147.2647705078125,0.1290000081062317,0.0,1
1666738975.59913278,518660332,0,3,255793599,2233,12,0.72,42.7308263,-84.4903434,211.3,0.2797284722328186,20.508098602294922,0.3110000193119049,0.0,1
1666738975.79916883,518860368,0,3,255793799,2233,12,0.72,42.7308272,-84.4903432,211.3,0.14538227021694183,7.907162666320801,0.20400001108646393,0.0,1
1666738975.99904871,519060248,0,3,255793999,2233,13,0.72,42.7308283,-84.49034309999999,211.36,0.09381365031003952,215.89266967773438,0.28700000047683716,0.0,1
1666738976.19902182,519260221,0,3,255794199,2233,13,0.72,42.7308295,-84.490343,211.51,0.08944272249937057,206.56504821777344,-0.004000000189989805,0.0,1
1666738976.39899993,519460199,0,3,255794399,2233,13,0.72,42.7308307,-84.4903429,211.67000000000002,0.0735459104180336,258.2317199707031,0.16200000047683716,0.0,1
1666738976.59901571,519660215,0,3,255794599,2233,12,0.72,42.730831699999996,-84.4903435,211.82,0.5801112055778503,5.936629772186279,0.34300002455711365,0.0,1
1666738976.79903173,519860231,0,3,255794799,2233,12,0.72,42.730832299999996,-84.49034379999999,211.81,0.14029255509376526,239.59658813476562,0.052000001072883606,0.0,1
1666738976.99908876,520060288,0,3,255794999,2233,12,0.77,42.7308324,-84.4903441,211.99,0.13188253343105316,211.03826904296875,0.06100000441074371,0.0,1
1666738977.19907689,520260276,0,3,255795199,2233,12,0.77,42.7308325,-84.49034429999999,212.27,0.06216912716627121,295.74072265625,0.1210000067949295,0.0,1
1666738977.39911485,520460314,0,3,255795399,2233,12,0.77,42.7308326,-84.4903447,212.59,0.15652476251125336,243.43496704101562,-0.05700000375509262,0.0,1
1666738977.59906983,520660269,0,3,255795599,2233,12,0.77,42.730832899999996,-84.4903449,212.84,0.1833057701587677,47.431949615478516,0.08500000089406967,0.0,1
1666738977.79902291,520860222,0,3,255795799,2233,12,0.77,42.730833399999995,-84.4903454,213.13,0.11957006901502609,32.36093521118164,-0.20000000298023224,0.0,1
1666738977.99901772,521060217,0,3,255795999,2233,12,0.77,42.730833399999995,-84.490347,213.45000000000002,0.02692582458257675,201.80142211914062,0.029000001028180122,0.0,1
1666738978.19916081,521260360,0,3,255796199,2233,12,0.77,42.730833499999996,-84.490349,213.70000000000002,0.16404877603054047,1.3971809148788452,-0.026000000536441803,0.0,1
1666738978.39906478,521460264,0,3,255796399,2233,14,0.77,42.7308349,-84.4903494,213.94,0.21392758190631866,14.620872497558594,0.06700000166893005,0.0,1
1666738978.59904885,521660248,0,3,255796599,2233,14,0.77,42.730835899999995,-84.49034979999999,214.19,0.1820247322320938,207.12814331054688,-0.20800000429153442,0.0,1
1666738978.79911470,521860314,0,3,255796799,2233,13,0.77,42.7308357,-84.4903511,214.20000000000002,0.30241858959198,57.833953857421875,-0.3680000305175781,0.0,1
1666738978.99923682,522060436,0,3,255796999,2233,13,0.74,42.7308354,-84.49035359999999,214.27,0.07787811011075974,294.26129150390625,0.007000000216066837,0.0,1
1666738979.19912982,522260329,0,3,255797199,2233,13,0.74,42.7308351,-84.49035599999999,214.31,0.06350590288639069,352.7630920410156,0.25,0.0,1
1666738979.39909577,522460295,0,3,255797399,2233,12,0.74,42.730835299999995,-84.4903576,214.38,0.2554408013820648,12.893743515014648,0.1420000046491623,0.0,1
1666738979.59903073,522660230,0,3,255797599,2233,12,0.74,42.7308352,-84.490359,214.53,0.2323617935180664,166.56179809570312,0.027000000700354576,0.0,1
1666738979.79900575,522860205,0,3,255797799,2233,12,0.74,42.7308348,-84.4903604,214.59,0.2949203550815582,106.3456802368164,-0.02200000174343586,0.0,1
1666738979.99907970,523060279,0,3,255797999,2233,13,0.74,42.7308348,-84.4903612,214.89000000000001,0.24329818785190582,105.00726318359375,-0.0010000000474974513,0.0,1
1666738980.19907880,523260278,0,3,255798199,2233,13,0.74,42.7308342,-84.4903618,214.95000000000002,0.556938111782074,150.76553344726562,-0.3410000205039978,0.0,1
1666738980.39904785,523460247,0,3,255798399,2233,12,0.74,42.730834099999996,-84.4903619,214.85,0.204384446144104,62.9334602355957,0.2200000137090683,0.0,1
1666738980.59909987,523660299,0,3,255798599,2233,12,0.74,42.730834099999996,-84.49036149999999,214.87,0.5975659489631653,101.29112243652344,-0.06200000271201134,0.0,1
1666738980.79910183,523860301,0,3,255798799,2233,12,0.74,42.730834,-84.49036079999999,214.98000000000002,0.4823702275753021,169.9713592529297,0.36000001430511475,0.0,1
1666738980.99911785,524060317,0,3,255798999,2233,11,0.91,42.730833,-84.4903612,215.19,0.2594224512577057,117.55279541015625,-0.018000001087784767,0.0,1
1666738981.19899178,524260191,0,3,255799199,2233,11,0.91,42.7308331,-84.4903611,215.39000000000001,0.6208711862564087,37.737388610839844,0.5270000100135803,0.0,1
1666738981.39900589,524460205,0,3,255799399,2233,11,0.91,42.7308331,-84.4903619,215.8,0.3857940137386322,33.690067291259766,0.04000000283122063,0.0,1
1666738981.59904480,524660244,0,3,255799599,2233,11,0.91,42.7308326,-84.4903629,216.03,0.1086830347776413,102.75753021240234,-0.04700000211596489,0.0,1
1666738981.79907990,524860279,0,3,255799799,2233,11,0.91,42.7308319,-84.4903643,216.27,0.018110770732164383,276.3402099609375,-0.18700000643730164,0.0,1
1666738981.99909186,525060291,0,3,255799999,2233,14,0.68,42.730831699999996,-84.490365,216.44,0.13146863877773285,13.1906099319458,-0.3800000250339508,0.0,1
1666738982.19907570,525260275,0,3,255800199,2233,14,0.68,42.730831599999995,-84.4903659,216.51,0.12140017002820969,323.03570556640625,-0.1600000113248825,0.0,1
1666738982.39911175,525460311,0,3,255800399,2233,10,0.68,42.730831699999996,-84.4903671,216.65,0.19670537114143372,281.1385498046875,-0.1210000067949295,0.0,1
1666738982.59905171,525660251,0,3,255800599,2233,11,0.68,42.730832199999995,-84.4903673,216.71,0.23821420967578888,279.42279052734375,-0.23800000548362732,0.0,1
1666738982.79909992,525860299,0,3,255800799,2233,11,0.68,42.7308331,-84.4903673,216.85,0.400005042552948,275.7391052246094,-0.3050000071525574,0.0,1
1666738982.99893475,526060134,0,3,255800999,2233,11,0.68,42.730834,-84.4903676,216.99,0.3473327159881592,277.9434814453125,-0.39400002360343933,0.0,1
1666738983.19906092,526260260,0,3,255801199,2233,10,0.68,42.7308343,-84.4903685,217.13,0.37770891189575195,292.0830993652344,-0.40800002217292786,0.0,1
1666738983.39909887,526460298,0,3,255801399,2233,12,0.68,42.7308354,-84.4903683,217.21,0.22880561649799347,323.53076171875,-0.04700000211596489,0.0,1
1666738983.59905291,526660252,0,3,255801599,2233,13,0.68,42.730836,-84.4903678,217.3,0.11399123072624207,303.5506591796875,-0.015000000596046448,0.0,1
1666738983.79906583,526860265,0,3,255801799,2233,13,0.68,42.730836599999996,-84.4903674,217.39000000000001,0.10756394267082214,354.1304016113281,-0.0010000000474974513,0.0,1
1666738983.99911475,527060314,0,3,255801999,2233,13,0.72,42.730837,-84.4903676,217.42000000000002,0.31533634662628174,264.72332763671875,0.027000000700354576,0.0,1
1666738984.19908690,527260286,0,3,255802199,2233,12,0.72,42.7308362,-84.4903695,217.43,0.23708438873291016,254.08779907226562,0.03800000250339508,0.0,1
1666738984.39902592,527460225,0,3,255802399,2233,12,0.72,42.7308357,-84.4903709,217.46,0.15601281821727753,0.7345210313796997,-0.004000000189989805,0.0,1
1666738984.59901786,527660217,0,3,255802599,2233,12,0.72,42.730834699999996,-84.490372,217.53,0.23647622764110565,183.6367950439453,-0.13100001215934753,0.0,1
1666738984.79903173,527860231,0,3,255802799,2233,14,0.72,42.730834,-84.4903727,217.75,0.15273834764957428,198.3163299560547,-0.02800000086426735,0.0,1
1666738984.99907780,528060277,0,3,255802999,2233,13,0.72,42.7308336,-84.4903736,217.86,0.1472005546092987,216.71420288085938,0.10400000214576721,0.0,1
1666738985.19903183,528260231,0,3,255803199,2233,14,0.72,42.730832799999995,-84.4903745,218.0,0.24740655720233917,53.546958923339844,0.08500000089406967,0.0,1
1666738985.39910078,528460300,0,3,255803399,2233,13,0.72,42.7308321,-84.490376,218.19,0.02828427404165268,315.0,0.01100000087171793,0.0,1
1666738985.59904075,528660240,0,3,255803599,2233,13,0.72,42.7308314,-84.4903777,218.32,0.1320757418870926,237.99462890625,0.10300000756978989,0.0,1
1666738985.79897785,528860177,0,3,255803799,2233,12,0.72,42.7308308,-84.49037849999999,218.4,0.029546573758125305,23.962488174438477,-0.004000000189989805,0.0,1
1666738985.99903679,529060236,0,3,255803999,2233,12,0.72,42.7308306,-84.49037899999999,218.52,0.16082289814949036,259.2490234375,0.01900000125169754,0.0,1
1666738986.19900870,529260208,0,3,255804199,2233,12,0.72,42.7308301,-84.4903798,218.58,0.20541179180145264,245.55606079101562,0.12000000476837158,0.0,1
1666738986.39912677,529460326,0,3,255804399,2233,12,0.72,42.730829199999995,-84.4903812,218.85,0.20927494764328003,218.4032745361328,-0.032999999821186066,0.0,1
1666738986.59902883,529660228,0,3,255804599,2233,12,0.72,42.7308288,-84.4903824,219.04,0.18752333521842957,274.28155517578125,0.10100000351667404,0.0,1
1666738986.79906178,529860261,0,3,255804799,2233,13,0.72,42.730829199999995,-84.4903827,219.15,0.2651659846305847,224.8472137451172,-0.08900000154972076,0.0,1
1666738986.99906683,530060266,0,3,255804999,2233,13,0.72,42.7308285,-84.4903831,219.08,0.1672004759311676,233.26718139648438,0.16200000047683716,0.0,1
1666738987.19902682,530260226,0,3,255805199,2233,12,0.72,42.7308278,-84.490383,218.96,0.16614753007888794,145.5447540283203,0.359000027179718,0.0,1
1666738987.39917183,530460371,0,3,255805399,2233,11,0.72,42.7308264,-84.4903832,218.83,0.30803897976875305,211.72935485839844,0.37300002574920654,0.0,1
1666738987.59900689,530660206,0,3,255805599,2233,13,0.72,42.7308246,-84.49038399999999,218.89000000000001,0.34614017605781555,158.47523498535156,0.23800000548362732,0.0,1
1666738987.79900289,530860202,0,3,255805799,2233,13,0.72,42.730823099999995,-84.49038399999999,218.75,0.31045934557914734,168.29193115234375,0.5740000009536743,0.0,1
1666738987.99903584,531060235,0,3,255805999,2233,13,0.72,42.730822499999995,-84.4903839,218.48000000000002,0.32314860820770264,151.13482666015625,0.3370000123977661,0.0,1
1666738988.19915581,531260355,0,3,255806199,2233,13,0.72,42.730821999999996,-84.4903829,218.54,0.453027606010437,179.36761474609375,0.5250000357627869,0.0,1
1666738988.39912891,531460328,0,3,255806399,2233,13,0.72,42.7308215,-84.4903825,218.45000000000002,0.03801315650343895,144.6375274658203,0.4220000207424164,0.0,1
1666738988.59899688,531660196,0,3,255806599,2233,12,0.72,42.7308209,-84.4903824,218.42000000000002,0.2781258821487427,185.15713500976562,0.2590000033378601,0.0,1
1666738988.79901385,531860213,0,3,255806799,2233,13,0.72,42.7308199,-84.4903832,218.36,0.27144983410835266,254.8374481201172,-0.11300000548362732,0.0,1
1666738988.99899173,532060191,0,3,255806999,2233,12,0.87,42.730819499999996,-84.49038379999999,218.36,0.060074955224990845,272.8624267578125,0.3240000009536743,0.0,1
1666738989.19897485,532260174,0,3,255807199,2233,14,0.87,42.73082,-84.49038379999999,218.4,0.37776318192481995,213.2273406982422,0.1990000158548355,0.0,1
1666738989.39905787,532460257,0,3,255807399,2233,13,0.87,42.7308212,-84.4903823,218.41,0.19811362028121948,147.99461364746094,0.43300002813339233,0.0,1
1666738989.59902978,532660229,0,3,255807599,2233,13,0.87,42.730821299999995,-84.4903829,218.36,0.12103719264268875,255.16006469726562,0.41700002551078796,0.0,1
1666738989.79908776,532860287,0,3,255807799,2233,12,0.87,42.730821299999995,-84.4903848,218.25,0.14280056953430176,307.0303955078125,0.42600002884864807,0.0,1
1666738989.99912286,533060322,0,3,255807999,2233,11,0.87,42.730821,-84.49038639999999,218.16,0.3678654730319977,202.03280639648438,0.1420000046491623,0.0,1
1666738990.19907570,533260275,0,3,255808199,2233,13,0.87,42.7308209,-84.49038829999999,218.11,0.10904128849506378,191.1038360595703,0.06599999964237213,0.0,1
1666738990.37866879,533439868,0,3,255808399,2233,13,0.87,42.7308206,-84.4903901,218.17000000000002,0.3345504403114319,212.5500030517578,-0.36100003123283386,0.0,1
1666738990.59906983,533660269,0,3,255808599,2233,13,0.87,42.7308202,-84.4903916,218.34,0.5310969948768616,202.1219482421875,-0.49500003457069397,0.0,1
1666738990.79902577,533860225,0,3,255808799,2233,12,0.87,42.7308193,-84.4903927,218.48000000000002,0.08062257617712021,330.255126953125,-0.14800000190734863,0.0,1
1666738990.99905777,534060257,0,3,255808999,2233,12,0.77,42.7308191,-84.49039379999999,218.75,0.2611991763114929,301.3775634765625,0.01900000125169754,0.0,1
1666738991.19907188,534260271,0,3,255809199,2233,12,0.77,42.7308188,-84.4903947,219.05,0.10538501292467117,184.89910888671875,-0.08800000697374344,0.0,1
1666738991.39909291,534460292,0,3,255809399,2233,12,0.77,42.7308192,-84.49039499999999,219.34,0.45213383436203003,352.2462463378906,0.039000000804662704,0.0,1
1666738991.59911776,534660317,0,3,255809599,2233,11,0.77,42.7308193,-84.4903956,219.47,0.07871467620134354,207.21612548828125,-0.6460000276565552,0.0,1
1666738991.77877378,534839973,0,3,255809799,2233,12,0.77,42.730819,-84.49039619999999,219.52,0.11237882822751999,29.30220603942871,-0.2720000147819519,0.0,1
1666738991.99901175,535060211,0,3,255809999,2233,12,0.8300000000000001,42.7308187,-84.49039669999999,219.46,0.14263591170310974,40.16559600830078,-0.24900001287460327,0.0,1
1666738992.19901371,535260213,0,3,255810199,2233,14,0.8300000000000001,42.7308185,-84.4903971,219.38,0.11884864419698715,14.620872497558594,-0.3160000145435333,0.0,1
1666738992.39900970,535460209,0,3,255810399,2233,14,0.8300000000000001,42.730818199999995,-84.4903975,219.32,0.1366235762834549,109.23066711425781,-0.19100001454353333,0.0,1
1666738992.59910870,535660308,0,3,255810599,2233,14,0.8300000000000001,42.7308179,-84.4903977,219.3,0.06020797789096832,147.89373779296875,-0.12300000339746475,0.0,1
1666738992.79909587,535860295,0,3,255810799,2233,14,0.8300000000000001,42.7308174,-84.4903983,219.22,0.09945853799581528,164.84591674804688,-0.21700000762939453,0.0,1
1666738992.99907970,536060279,0,3,255810999,2233,13,0.8300000000000001,42.730816999999995,-84.4903987,219.18,0.036878179758787155,319.3987121582031,-0.06100000441074371,0.0,1
1666738993.17874670,536239946,0,3,255811199,2233,13,0.8300000000000001,42.7308167,-84.49039909999999,219.12,0.0126491105183959,71.56504821777344,-0.06700000166893005,0.0,1
1666738993.39911270,536460312,0,3,255811399,2233,12,0.8300000000000001,42.7308162,-84.49039909999999,219.12,0.13778606057167053,195.14572143554688,-0.1080000028014183,0.0,1
1666738993.59909487,536660294,0,3,255811599,2233,12,0.8300000000000001,42.7308156,-84.49039929999999,219.06,0.047010637819767,29.29136085510254,-0.032999999821186066,0.0,1
1666738993.79893589,536860135,0,3,255811799,2233,12,0.8300000000000001,42.730815199999995,-84.49039929999999,219.0,0.022090723738074303,5.194427967071533,0.029000001028180122,0.0,1
1666738993.99894571,537060145,0,3,255811999,2233,12,0.74,42.730814699999996,-84.4903994,218.92000000000002,0.05412023887038231,106.09081268310547,0.06800000369548798,0.0,1
1666738994.19901490,537260214,0,3,255812199,2233,12,0.74,42.7308142,-84.4903995,218.89000000000001,0.0150332972407341,3.814074754714966,-0.03500000014901161,0.0,1
1666738994.39899874,537460198,0,3,255812399,2233,12,0.74,42.7308137,-84.4903995,218.92000000000002,0.020124612376093864,206.56504821777344,0.0020000000949949026,0.0,1
1666738994.59908986,537660289,0,3,255812599,2233,12,0.74,42.7308132,-84.49039959999999,218.93,0.026476405560970306,280.8855285644531,-0.04800000041723251,0.0,1
1666738994.79907084,537860270,0,3,255812799,2233,11,0.74,42.7308125,-84.49039959999999,218.93,0.03801315650343895,271.5074462890625,0.0690000057220459,0.0,1
1666738994.99902272,538060222,0,3,255812999,2233,11,0.8300000000000001,42.7308118,-84.4903997,218.93,0.049244292080402374,209.16761779785156,0.030000001192092896,0.0,1
1666738995.19898677,538260186,0,3,255813199,2233,11,0.8300000000000001,42.7308111,-84.49039979999999,218.96,0.03551056236028671,279.72760009765625,0.1340000033378601,0.0,1
1666738995.39904189,538460241,0,3,255813399,2233,11,0.8300000000000001,42.7308105,-84.4903997,218.97,0.07106335461139679,129.28941345214844,-0.013000000268220901,0.0,1
1666738995.59895992,538660159,0,3,255813599,2233,11,0.8300000000000001,42.7308096,-84.4903997,219.03,0.17327724397182465,186.9609832763672,-0.0650000050663948,0.0,1
1666738995.79903388,538860233,0,3,255813799,2233,10,0.8300000000000001,42.7308089,-84.4903994,219.18,0.0462709441781044,173.79653930664062,0.07100000232458115,0.0,1
1666738995.99902582,539060225,0,3,255813999,2233,10,0.85,42.7308083,-84.49039909999999,219.3,0.055317267775535583,12.528807640075684,-0.006000000052154064,0.0,1
1666738996.19904971,539260249,0,3,255814199,2233,10,0.85,42.7308078,-84.490399,219.41,0.06403124332427979,284.4703063964844,-0.09700000286102295,0.0,1
1666738996.39908886,539460288,0,3,255814399,2233,10,0.85,42.730807299999995,-84.4903989,219.55,0.111287921667099,310.9921875,0.026000000536441803,0.0,1
1666738996.59900284,539660202,0,3,255814599,2233,10,0.85,42.730806699999995,-84.49039859999999,219.65,0.04000000283122063,53.13010025024414,0.08300000429153442,0.0,1
1666738996.79906487,539860264,0,3,255814799,2233,10,0.85,42.7308063,-84.4903981,219.81,0.06691038608551025,9.462322235107422,0.0,0.0,1
1666738996.99898791,540060187,0,3,255814999,2233,10,0.85,42.7308058,-84.4903977,219.92000000000002,0.01910497434437275,6.009006023406982,0.12600000202655792,0.0,1
1666738997.19903684,540260236,0,3,255815199,2233,10,0.85,42.7308052,-84.4903973,220.06,0.017804494127631187,231.8427734375,0.07000000029802322,0.0,1
1666738997.39904475,540460244,0,3,255815399,2233,10,0.85,42.7308046,-84.4903969,220.22,0.05724509060382843,250.615478515625,0.052000001072883606,0.0,1
1666738997.59901571,540660215,0,3,255815599,2233,10,0.85,42.730804,-84.4903966,220.37,0.07849203795194626,315.51617431640625,0.06300000101327896,0.0,1
1666738997.79901886,540860218,0,3,255815799,2233,10,0.85,42.7308033,-84.4903964,220.51,0.025961510837078094,195.6422576904297,0.06200000271201134,0.0,1
1666738997.99901676,541060216,0,3,255815999,2233,10,0.85,42.730802499999996,-84.4903961,220.63,0.07727871835231781,169.56251525878906,0.006000000052154064,0.0,1
1666738998.19902682,541260226,0,3,255816199,2233,11,0.85,42.7308017,-84.4903958,220.74,0.02789265289902687,104.5344467163086,0.003000000026077032,0.0,1
1666738998.39906287,541460262,0,3,255816399,2233,11,0.85,42.7308009,-84.4903954,220.8,0.12567418813705444,154.04661560058594,0.04700000211596489,0.0,1
1666738998.57868886,541639888,0,3,255816599,2233,11,0.85,42.7308002,-84.4903951,220.87,0.1272006332874298,343.55963134765625,0.013000000268220901,0.0,1
1666738998.79902172,541860221,0,3,255816799,2233,11,0.85,42.7307996,-84.4903949,220.96,0.037443291395902634,214.11447143554688,-0.02800000086426735,0.0,1
1666738998.99911690,542060316,0,3,255816999,2233,10,0.85,42.730798899999996,-84.4903944,221.08,0.11081967502832413,169.6026611328125,0.07200000435113907,0.0,1
1666738999.19903779,542260237,0,3,255817199,2233,9,0.85,42.7307984,-84.490394,221.21,0.0573846697807312,311.46771240234375,0.030000001192092896,0.0,1
1666738999.39906192,542460261,0,3,255817399,2233,10,0.85,42.7307978,-84.4903937,221.35,0.10793516784906387,283.39251708984375,0.06599999964237213,0.0,1
1666738999.59899378,542660193,0,3,255817599,2233,10,0.85,42.7307973,-84.4903934,221.46,0.06946222484111786,59.743560791015625,0.1550000011920929,0.0,1
1666738999.79895878,542860158,0,3,255817799,2233,10,0.85,42.7307967,-84.49039289999999,221.61,0.12961867451667786,202.2118377685547,0.032999999821186066,0.0,1
1666738999.97865176,543039851,0,3,255817999,2233,10,0.85,42.730796,-84.49039259999999,221.74,0.08908984065055847,182.57337951660156,0.01100000087171793,0.0,1
1666739000.19900680,543260206,0,3,255818199,2233,10,0.85,42.7307954,-84.4903922,221.89000000000001,0.08002500236034393,181.43209838867188,0.09800000488758087,0.0,1
1666739000.39903975,543460239,0,3,255818399,2233,10,0.85,42.7307949,-84.4903916,222.06,0.0778331607580185,20.29756736755371,-0.039000000804662704,0.0,1
1666739000.59906888,543660268,0,3,255818599,2233,9,0.85,42.730794599999996,-84.4903911,222.19,0.0868331789970398,7.9434709548950195,0.0690000057220459,0.0,1
1666739000.79908276,543860282,0,3,255818799,2233,9,0.85,42.7307943,-84.4903906,222.32,0.12041594833135605,355.2363586425781,0.04100000113248825,0.0,1
1666739000.99912477,544060324,0,3,255818999,2233,9,0.85,42.7307942,-84.4903903,222.44,0.07920227944850922,294.6235656738281,-0.01100000087171793,0.0,1
1666739001.19899583,544260195,0,3,255819199,2233,9,0.85,42.730793899999995,-84.4903899,222.59,0.041773200035095215,258.9590759277344,0.10000000149011612,0.0,1
1666739001.39915180,544460351,0,3,255819399,2233,9,0.85,42.7307936,-84.4903896,222.73000000000002,0.11289376020431519,325.46533203125,-0.04400000348687172,0.0,1
1666739001.59894371,544660143,0,3,255819599,2233,9,0.85,42.730793399999996,-84.49038929999999,222.88,0.08807383477687836,257.541748046875,-0.06700000166893005,0.0,1
1666739001.79897785,544860177,0,3,255819799,2233,9,0.85,42.7307929,-84.490389,223.0,0.11511734127998352,172.0106658935547,-0.013000000268220901,0.0,1
1666739001.99902582,545060225,0,3,255819999,2233,9,0.93,42.7307923,-84.4903885,223.12,0.04810405522584915,43.315311431884766,-0.07800000160932541,0.0,1
1666739002.19905782,545260257,0,3,255820199,2233,9,0.93,42.7307918,-84.4903878,223.25,0.11001818627119064,152.96913146972656,-0.004000000189989805,0.0,1
1666739002.39906573,545460265,0,3,255820399,2233,9,0.93,42.7307914,-84.4903872,223.37,0.16609033942222595,6.568763732910156,-0.013000000268220901,0.0,1
1666739002.57868171,545639881,0,3,255820599,2233,9,0.93,42.7307913,-84.4903867,223.49,0.1596652865409851,332.7929992675781,-0.04000000283122063,0.0,1
1666739002.79900670,545860206,0,3,255820799,2233,10,0.93,42.7307912,-84.49038639999999,223.64000000000001,0.09859513491392136,319.5247802734375,-0.10900000482797623,0.0,1
1666739002.99897170,546060171,0,3,255820999,2233,10,0.93,42.730790899999995,-84.4903861,223.75,0.055901702493429184,259.6951599121094,0.06200000271201134,0.0,1
1666739003.19897175,546260171,0,3,255821199,2233,10,0.93,42.7307904,-84.49038569999999,223.84,0.09123595803976059,153.99664306640625,0.11800000816583633,0.0,1
1666739003.39898586,546460185,0,3,255821399,2233,10,0.93,42.73079,-84.49038519999999,223.97,0.10592922568321228,187.5946502685547,0.13700000941753387,0.0,1
1666739003.59903669,546660236,0,3,255821599,2233,10,0.93,42.7307896,-84.49038469999999,224.15,0.04049691557884216,237.0947723388672,0.023000001907348633,0.0,1
1666739003.79906988,546860269,0,3,255821799,2233,10,0.93,42.7307892,-84.49038449999999,224.28,0.03701351210474968,218.41806030273438,0.030000001192092896,0.0,1
1666739003.97867680,547039876,0,3,255821999,2233,10,0.81,42.7307888,-84.4903843,224.43,0.07299315184354782,260.5376892089844,0.06599999964237213,0.0,1
1666739004.19913673,547260336,0,3,255822199,2233,10,0.81,42.7307886,-84.49038399999999,224.6,0.08198780566453934,329.9950866699219,0.0010000000474974513,0.0,1
1666739004.39911890,547460318,0,3,255822399,2233,10,0.81,42.7307882,-84.49038379999999,224.75,0.08178631216287613,168.0030975341797,-0.07300000637769699,0.0,1
1666739004.59893489,547660134,0,3,255822599,2233,10,0.81,42.730787799999995,-84.4903836,224.91,0.0522015318274498,196.69924926757812,0.07700000703334808,0.0,1
1666739004.79894972,547860149,0,3,255822799,2233,10,0.81,42.7307874,-84.4903835,225.04,0.1080416589975357,271.59112548828125,-0.06300000101327896,0.0,1
1666739004.99902391,548060223,0,3,255822999,2233,10,0.81,42.7307869,-84.4903835,225.1,0.12269067764282227,173.91766357421875,-0.030000001192092896,0.0,1
1666739005.19912577,548260325,0,3,255823199,2233,10,0.81,42.7307865,-84.4903831,225.18,0.15222680568695068,47.928855895996094,0.01600000075995922,0.0,1
1666739005.37863183,548439831,0,3,255823399,2233,10,0.81,42.7307862,-84.49038259999999,225.24,0.19201041758060455,179.40318298339844,0.05700000375509262,0.0,1
1666739005.59902191,548660221,0,3,255823599,2233,10,0.81,42.7307858,-84.4903824,225.31,0.14071603119373322,314.71209716796875,0.04400000348687172,0.0,1
1666739005.79907990,548860279,0,3,255823799,2233,9,0.81,42.7307856,-84.4903822,225.35,0.18908199667930603,10.359051704406738,-0.017000000923871994,0.0,1
1666739005.99903488,549060234,0,3,255823999,2233,9,0.8300000000000001,42.730784799999995,-84.49038209999999,225.17000000000002,0.012806248851120472,308.6598205566406,-0.018000001087784767,0.0,1
1666739006.19918275,549260382,0,3,255824199,2233,9,0.8300000000000001,42.7307838,-84.49038159999999,225.11,0.11813975870609283,195.2126007080078,-0.24700000882148743,0.0,1
1666739006.39896178,549460161,0,3,255824399,2233,10,0.8300000000000001,42.7307829,-84.49038139999999,225.04,0.1376444697380066,130.2852325439453,0.0,0.0,1
1666739006.59895372,549660153,0,3,255824599,2233,10,0.8300000000000001,42.7307821,-84.4903811,224.96,0.08215229958295822,183.4893341064453,-0.027000000700354576,0.0,1
1666739006.77870178,549839901,0,3,255824799,2233,10,0.8300000000000001,42.7307814,-84.4903811,224.88,0.024186773225665092,172.87496948242188,0.018000001087784767,0.0,1
1666739006.99903274,550060232,0,3,255824999,2233,10,0.81,42.7307807,-84.4903812,224.73000000000002,0.05277309939265251,80.18069458007812,-0.0010000000474974513,0.0,1
1666739007.19907284,550260272,0,3,255825199,2233,10,0.81,42.7307802,-84.4903811,224.66,0.040804412215948105,197.1027374267578,0.04000000283122063,0.0,1
1666739007.39909887,550460298,0,3,255825399,2233,11,0.81,42.7307792,-84.4903811,224.58,0.03420526161789894,164.74485778808594,-0.11700000613927841,0.0,1
1666739007.59905481,550660254,0,3,255825599,2233,11,0.81,42.7307784,-84.49038089999999,224.48000000000002,0.09493682533502579,23.594818115234375,0.11900000274181366,0.0,1
1666739007.79898071,550860180,0,3,255825799,2233,12,0.81,42.730777499999995,-84.49038089999999,224.44,0.2440737783908844,178.59136962890625,-0.03200000151991844,0.0,1
1666739007.99907184,551060271,0,3,255825999,2233,12,0.77,42.7307766,-84.4903806,224.46,0.0505964420735836,71.56504821777344,0.05000000074505806,0.0,1
1666739008.19899082,551260190,0,3,255826199,2233,12,0.77,42.7307759,-84.4903805,224.44,0.029966648668050766,64.2900390625,0.05000000074505806,0.0,1
1666739008.39909172,551460291,0,3,255826399,2233,12,0.77,42.7307752,-84.49038039999999,224.47,0.08681590110063553,155.5014190673828,0.09700000286102295,0.0,1
