timestamp,TimeUS,Lat,Lng,Alt,RelHomeAlt,RelOriginAlt
1666738944.13940883,487200608,42.730756299999996,-84.49030169999999,278.4599914550781,0.0034982338547706604,-1.3165017366409302
1666738944.13954782,487200747,42.730756299999996,-84.49030169999999,278.4599914550781,0.0034982338547706604,-1.3165017366409302
1666738944.17897582,487240175,42.7307564,-84.4903016,278.4599914550781,0.004764355719089508,-1.3152356147766113
1666738944.21907282,487280272,42.7307565,-84.4903015,278.4599914550781,0.005938686430454254,-1.3140612840652466
1666738944.23918581,487300385,42.7307565,-84.49030139999999,278.4599914550781,0.005962051451206207,-1.3140379190444946
1666738944.25954080,487320740,42.7307566,-84.4903013,278.4599914550781,0.006013192236423492,-1.3139867782592773
1666738944.29950476,487360704,42.7307567,-84.4903011,278.4599914550781,0.006444968283176422,-1.3135550022125244
1666738944.33919978,487400399,42.730756799999995,-84.490301,278.4599914550781,0.007100500166416168,-1.3128994703292847
1666738944.33934784,487400547,42.730756799999995,-84.490301,278.4599914550781,0.007100500166416168,-1.3128994703292847
1666738944.37900686,487440206,42.730756899999996,-84.4903008,278.4599914550781,0.0077836886048316956,-1.3122162818908691
1666738944.41905189,487480251,42.7307571,-84.49030069999999,278.4599914550781,0.008260764181613922,-1.311739206314087
1666738944.43920779,487500407,42.7307571,-84.4903006,278.4599914550781,0.007619179785251617,-1.3123807907104492
1666738944.45953083,487520730,42.7307572,-84.49030049999999,278.4599914550781,0.007080473005771637,-1.3129194974899292
1666738944.49935079,487560550,42.7307573,-84.4903003,278.4599914550781,0.006659306585788727,-1.313340663909912
1666738944.53913784,487600337,42.730757399999995,-84.4903002,278.4599914550781,0.006378449499607086,-1.3136215209960938
1666738944.53926373,487600463,42.730757399999995,-84.4903002,278.4599914550781,0.006378449499607086,-1.3136215209960938
1666738944.57898974,487640189,42.730757499999996,-84.4903001,278.4599914550781,0.006199754774570465,-1.3138002157211304
1666738944.61907291,487680272,42.7307577,-84.4902999,278.4599914550781,0.005611695349216461,-1.3143882751464844
1666738944.63945889,487700658,42.7307577,-84.4902998,278.4599914550781,0.004351891577243805,-1.315648078918457
1666738944.65946889,487720668,42.7307578,-84.4902997,278.4599914550781,0.003236927092075348,-1.3167630434036255
1666738944.69928980,487760489,42.7307579,-84.4902996,278.4599914550781,0.002165950834751129,-1.3178340196609497
1666738944.73931170,487800511,42.730758,-84.4902994,278.4599914550781,0.0013555660843849182,-1.318644404411316
1666738944.73945475,487800654,42.730758,-84.4902994,278.4599914550781,0.0013555660843849182,-1.318644404411316
1666738944.77904081,487840240,42.730758099999996,-84.49029929999999,278.4599914550781,0.0007028952240943909,-1.3192970752716064
1666738944.81905079,487880250,42.7307582,-84.4902991,278.4499816894531,-3.357976675033569e-05,-1.3200335502624512
1666738944.83920979,487900409,42.7307583,-84.490299,278.4499816894531,-0.001375637948513031,-1.3213756084442139
1666738944.85940289,487920602,42.7307584,-84.4902989,278.4499816894531,-0.002599559724330902,-1.3225995302200317
1666738944.89933586,487960535,42.7307585,-84.4902987,278.4499816894531,-0.0038398131728172302,-1.323839783668518
1666738944.93926787,488000467,42.7307586,-84.4902986,278.4499816894531,-0.004811488091945648,-1.3248114585876465
1666738944.93940687,488000606,42.7307586,-84.4902986,278.4499816894531,-0.004811488091945648,-1.3248114585876465
1666738944.97913575,488040335,42.730758699999996,-84.4902984,278.4499816894531,-0.005642972886562347,-1.3256429433822632
1666738945.01898980,488080189,42.7307588,-84.49029829999999,278.4499816894531,-0.006817422807216644,-1.3268173933029175
1666738945.03920579,488100405,42.7307589,-84.4902982,278.4499816894531,-0.008304677903652191,-1.328304648399353
1666738945.05940270,488120602,42.7307589,-84.49029809999999,278.4499816894531,-0.009683571755886078,-1.329683542251587
1666738945.09946084,488160660,42.730759,-84.490298,278.44000244140625,-0.011051855981349945,-1.3310518264770508
1666738945.13938785,488200587,42.7307591,-84.4902978,278.44000244140625,-0.012117825448513031,-1.3321177959442139
1666738945.13955975,488200759,42.7307591,-84.4902978,278.44000244140625,-0.012117825448513031,-1.3321177959442139
1666738945.17910576,488240305,42.7307592,-84.4902977,278.44000244140625,-0.013025008141994476,-1.3330249786376953
1666738945.21903491,488280234,42.7307594,-84.4902975,278.44000244140625,-0.01382812112569809,-1.333828091621399
1666738945.23915291,488300352,42.7307594,-84.4902974,278.44000244140625,-0.014950834214687347,-1.3349508047103882
1666738945.25941586,488320615,42.7307595,-84.4902973,278.44000244140625,-0.01599022001028061,-1.3359901905059814
1666738945.29936576,488360565,42.7307596,-84.4902972,278.44000244140625,-0.01717468351125717,-1.337174654006958
1666738945.33924389,488400443,42.7307597,-84.490297,278.44000244140625,-0.018171869218349457,-1.3381718397140503
1666738945.33931971,488400519,42.7307597,-84.490297,278.44000244140625,-0.018171869218349457,-1.3381718397140503
1666738945.37903571,488440235,42.7307598,-84.49029689999999,278.44000244140625,-0.0190327987074852,-1.339032769203186
1666738945.41906381,488480263,42.730759899999995,-84.4902967,278.42999267578125,-0.02051898092031479,-1.3405189514160156
1666738945.43924069,488500440,42.73076,-84.4902966,278.42999267578125,-0.02238675206899643,-1.3423867225646973
1666738945.45948982,488520689,42.73076,-84.4902965,278.42999267578125,-0.02411099523305893,-1.3441109657287598
1666738945.49934673,488560546,42.7307602,-84.49029639999999,278.42999267578125,-0.026373229920864105,-1.346373200416565
1666738945.53925586,488600455,42.7307603,-84.4902962,278.42999267578125,-0.02839883416891098,-1.3483988046646118
1666738945.53933072,488600530,42.7307603,-84.4902962,278.42999267578125,-0.02839883416891098,-1.3483988046646118
1666738945.57911777,488640317,42.7307604,-84.4902961,278.41998291015625,-0.030204378068447113,-1.350204348564148
1666738945.61909580,488680295,42.730760499999995,-84.49029589999999,278.41998291015625,-0.03183241933584213,-1.351832389831543
1666738945.63930988,488700509,42.730760599999996,-84.4902958,278.41998291015625,-0.03345092386007309,-1.353450894355774
1666738945.65951180,488720711,42.7307607,-84.49029569999999,278.41998291015625,-0.0349479541182518,-1.3549479246139526
1666738945.69942689,488760626,42.7307608,-84.4902956,278.41998291015625,-0.036463700234889984,-1.3564636707305908
1666738945.73929191,488800491,42.7307609,-84.4902954,278.41998291015625,-0.03759642690420151,-1.3575963973999023
1666738945.73936772,488800567,42.7307609,-84.4902954,278.41998291015625,-0.03759642690420151,-1.3575963973999023
1666738945.77894092,488840140,42.730761,-84.4902953,278.41998291015625,-0.03861328214406967,-1.3586132526397705
1666738945.81915879,488880358,42.730761099999995,-84.4902951,278.41998291015625,-0.03998490422964096,-1.3599848747253418
1666738945.83915281,488900352,42.730761199999996,-84.490295,278.4100036621094,-0.041706763207912445,-1.3617067337036133
1666738945.85945892,488920658,42.7307613,-84.4902949,278.4100036621094,-0.04329928010702133,-1.3632992506027222
1666738945.89943981,488960639,42.7307614,-84.4902948,278.4100036621094,-0.04520174115896225,-1.365201711654663
1666738945.93916678,489000366,42.7307615,-84.4902946,278.4100036621094,-0.04679282754659653,-1.3667927980422974
1666738945.93929887,489000498,42.7307615,-84.4902946,278.4100036621094,-0.04679282754659653,-1.3667927980422974
1666738945.97902584,489040225,42.7307616,-84.49029449999999,278.4100036621094,-0.04823978990316391,-1.3682397603988647
1666738946.01910472,489080304,42.730761699999995,-84.4902943,278.4100036621094,-0.049464426934719086,-1.36946439743042
1666738946.03925776,489100457,42.730761799999996,-84.4902942,278.3999938964844,-0.05045648664236069,-1.3704564571380615
1666738946.05949092,489120690,42.730761799999996,-84.4902941,278.3999938964844,-0.051380716264247894,-1.3713806867599487
1666738946.09960270,489160802,42.730762,-84.49029399999999,278.3999938964844,-0.05241736024618149,-1.3724173307418823
1666738946.13931370,489200513,42.7307621,-84.49029379999999,278.3999938964844,-0.05324026197195053,-1.3732402324676514
1666738946.13947177,489200671,42.7307621,-84.49029379999999,278.3999938964844,-0.05324026197195053,-1.3732402324676514
1666738946.17900681,489240206,42.7307622,-84.4902937,278.3999938964844,-0.05400427430868149,-1.3740042448043823
1666738946.21919084,489280390,42.730762299999995,-84.4902936,278.3999938964844,-0.054948411881923676,-1.3749483823776245
1666738946.23929977,489300499,42.730762399999996,-84.49029349999999,278.3999938964844,-0.05630072206258774,-1.3763006925582886
1666738946.25951791,489320717,42.7307625,-84.4902934,278.3999938964844,-0.057560406625270844,-1.3775603771209717
1666738946.29929590,489360495,42.7307626,-84.4902932,278.3999938964844,-0.058943234384059906,-1.3789432048797607
1666738946.33921790,489400417,42.7307627,-84.4902931,278.3899841308594,-0.06002303212881088,-1.3800230026245117
1666738946.33936882,489400568,42.7307627,-84.4902931,278.3899841308594,-0.06002303212881088,-1.3800230026245117
1666738946.37903070,489440230,42.7307628,-84.490293,278.3899841308594,-0.061030350625514984,-1.3810303211212158
1666738946.41902184,489480221,42.730762899999995,-84.49029279999999,278.3899841308594,-0.06270106881856918,-1.38270103931427
1666738946.43928671,489500486,42.730762999999996,-84.4902927,278.3899841308594,-0.0646035298705101,-1.384603500366211
1666738946.45945382,489520653,42.7307631,-84.49029259999999,278.3899841308594,-0.06636854261159897,-1.3863685131072998
1666738946.49934793,489560547,42.7307632,-84.4902924,278.3899841308594,-0.06870874017477036,-1.3887087106704712
1666738946.53925371,489600453,42.7307634,-84.4902923,278.3800048828125,-0.07076414674520493,-1.3907641172409058
1666738946.53932977,489600529,42.7307634,-84.4902923,278.3800048828125,-0.07076414674520493,-1.3907641172409058
1666738946.57906485,489640264,42.730763499999995,-84.49029209999999,278.3800048828125,-0.07265075296163559,-1.3926507234573364
1666738946.61908174,489680281,42.730763599999996,-84.490292,278.3800048828125,-0.07424946874380112,-1.394249439239502
1666738946.63931274,489700512,42.7307637,-84.4902919,278.3800048828125,-0.07605501264333725,-1.396054983139038
1666738946.65950775,489720707,42.7307638,-84.4902918,278.3800048828125,-0.0777338370680809,-1.3977338075637817
1666738946.69937181,489760571,42.730764,-84.49029159999999,278.3800048828125,-0.07989522069692612,-1.399895191192627
1666738946.73928285,489800482,42.730764199999996,-84.49029139999999,278.3699951171875,-0.0817544087767601,-1.401754379272461
1666738946.73938489,489800584,42.730764199999996,-84.49029139999999,278.3699951171875,-0.0817544087767601,-1.401754379272461
1666738946.77909088,489840290,42.730764199999996,-84.4902913,278.3699951171875,-0.0834946259856224,-1.4034945964813232
1666738946.81913781,489880337,42.7307644,-84.4902912,278.3699951171875,-0.08486922830343246,-1.4048691987991333
1666738946.83921981,489900419,42.7307645,-84.490291,278.3699951171875,-0.08592113107442856,-1.4059211015701294
1666738946.85942793,489920627,42.7307646,-84.49029089999999,278.3699951171875,-0.0869203433394432,-1.406920313835144
1666738946.89936781,489960567,42.730764799999996,-84.4902908,278.3699951171875,-0.08793648332357407,-1.407936453819275
1666738946.93920088,490000400,42.7307649,-84.4902906,278.3699951171875,-0.08867260068655014,-1.408672571182251
1666738946.93930674,490000506,42.7307649,-84.4902906,278.3699951171875,-0.08867260068655014,-1.408672571182251
1666738946.97911692,490040316,42.7307651,-84.4902905,278.3699951171875,-0.08941169828176498,-1.4094116687774658
1666738947.01937580,490080575,42.7307653,-84.4902903,278.3699951171875,-0.08966871351003647,-1.4096686840057373
1666738947.03922892,490100428,42.730765399999996,-84.49029019999999,278.3599853515625,-0.0900481566786766,-1.4100481271743774
1666738947.05923271,490120432,42.7307655,-84.4902901,278.3599853515625,-0.09043558686971664,-1.4104355573654175
1666738947.09936786,490160567,42.7307657,-84.4902899,278.3599853515625,-0.09110923856496811,-1.411109209060669
1666738947.13937378,490200573,42.7307658,-84.4902898,278.3599853515625,-0.09172948449850082,-1.4117294549942017
1666738947.13946176,490200661,42.7307658,-84.4902898,278.3599853515625,-0.09172948449850082,-1.4117294549942017
1666738947.17897892,490240178,42.730765999999996,-84.49028969999999,278.3599853515625,-0.09238322824239731,-1.4123831987380981
1666738947.21934175,490280541,42.7307662,-84.4902895,278.3599853515625,-0.09227665513753891,-1.4122766256332397
1666738947.23928189,490300481,42.7307663,-84.4902894,278.3599853515625,-0.09263487905263901,-1.4126348495483398
1666738947.25914788,490320347,42.7307664,-84.4902893,278.3599853515625,-0.09298666566610336,-1.4129866361618042
1666738947.29937577,490360575,42.730766599999995,-84.49028919999999,278.3599853515625,-0.09339161962270737,-1.4133915901184082
1666738947.33932281,490400522,42.7307667,-84.49028899999999,278.3599853515625,-0.0936952456831932,-1.413695216178894
1666738947.33939290,490400592,42.7307667,-84.49028899999999,278.3599853515625,-0.0936952456831932,-1.413695216178894
1666738947.37895989,490440159,42.7307668,-84.4902889,278.3599853515625,-0.09409566968679428,-1.4140956401824951
1666738947.41936588,490480565,42.7307671,-84.4902888,278.3599853515625,-0.09538193792104721,-1.415381908416748
1666738947.43922782,490500427,42.7307671,-84.4902887,278.3599853515625,-0.09631630033254623,-1.416316270828247
1666738947.45919085,490520390,42.7307673,-84.4902886,278.3599853515625,-0.09765585511922836,-1.4176558256149292
1666738947.49944377,490560643,42.7307674,-84.49028849999999,278.3599853515625,-0.09928210824728012,-1.419282078742981
1666738947.53922677,490600426,42.7307676,-84.4902883,278.3500061035156,-0.10061641782522202,-1.4206163883209229
1666738947.53936887,490600568,42.7307676,-84.4902883,278.3500061035156,-0.10061641782522202,-1.4206163883209229
1666738947.57899690,490640196,42.7307677,-84.4902882,278.3500061035156,-0.10191591829061508,-1.421915888786316
1666738947.61938381,490680583,42.7307679,-84.4902881,278.3500061035156,-0.10319849103689194,-1.4231984615325928
1666738947.63941789,490700617,42.730768,-84.49028799999999,278.3500061035156,-0.10397513955831528,-1.4239751100540161
1666738947.65924478,490720444,42.7307681,-84.4902879,278.3500061035156,-0.10499771684408188,-1.4249976873397827
1666738947.69946575,490760665,42.7307683,-84.49028779999999,278.3500061035156,-0.10624464601278305,-1.4262446165084839
1666738947.73920488,490800404,42.730768499999996,-84.4902877,278.3500061035156,-0.10710199922323227,-1.427101969718933
1666738947.73933673,490800536,42.730768499999996,-84.4902877,278.3500061035156,-0.10710199922323227,-1.427101969718933
1666738947.77903175,490840231,42.7307686,-84.4902876,278.3500061035156,-0.10816379636526108,-1.428163766860962
1666738947.81940269,490880602,42.7307688,-84.4902874,278.3500061035156,-0.10818585008382797,-1.4281858205795288
1666738947.83923793,490900437,42.7307689,-84.49028729999999,278.3500061035156,-0.10841282457113266,-1.4284127950668335
1666738947.85916972,490920369,42.730768999999995,-84.4902872,278.3500061035156,-0.10847493261098862,-1.4284749031066895
1666738947.89930677,490960506,42.7307692,-84.49028709999999,278.3500061035156,-0.10833676904439926,-1.4283367395401
1666738947.93924475,491000444,42.7307694,-84.4902869,278.3500061035156,-0.10810097306966782,-1.4281009435653687
1666738947.93939090,491000590,42.7307694,-84.4902869,278.3500061035156,-0.10810097306966782,-1.4281009435653687
1666738947.97904086,491040240,42.7307695,-84.49028679999999,278.3500061035156,-0.10801728814840317,-1.428017258644104
1666738948.01940989,491080609,42.7307698,-84.49028659999999,278.3500061035156,-0.10582038015127182,-1.4258203506469727
1666738948.03922486,491100424,42.7307698,-84.4902865,278.3500061035156,-0.10550376027822495,-1.4255037307739258
1666738948.05925488,491120454,42.73077,-84.4902864,278.3500061035156,-0.10445960611104965,-1.4244595766067505
1666738948.09935784,491160557,42.730770199999995,-84.4902862,278.3500061035156,-0.10251518338918686,-1.4225151538848877
1666738948.13930583,491200505,42.730770299999996,-84.490286,278.3500061035156,-0.10052903741598129,-1.4205290079116821
1666738948.13943672,491200636,42.730770299999996,-84.490286,278.3500061035156,-0.10052903741598129,-1.4205290079116821
1666738948.17906380,491240263,42.7307705,-84.49028589999999,278.3599853515625,-0.09889324754476547,-1.4188932180404663
1666738948.21943879,491280638,42.730770799999995,-84.4902855,278.3599853515625,-0.09570857137441635,-1.4157085418701172
1666738948.23928881,491300488,42.730770899999996,-84.4902855,278.3599853515625,-0.09529467672109604,-1.4152946472167969
1666738948.25905585,491320255,42.730771,-84.4902853,278.3599853515625,-0.09407778829336166,-1.4140777587890625
1666738948.29931879,491360518,42.7307712,-84.4902851,278.3599853515625,-0.09226103872060776,-1.4122610092163086
1666738948.33932281,491400522,42.730771399999995,-84.49028489999999,278.3599853515625,-0.09066947549581528,-1.4106694459915161
1666738948.33939481,491400594,42.730771399999995,-84.49028489999999,278.3599853515625,-0.09066947549581528,-1.4106694459915161
1666738948.37908673,491440286,42.7307716,-84.4902848,278.3699951171875,-0.0892769917845726,-1.4092769622802734
1666738948.41953683,491480736,42.7307718,-84.4902845,278.3699951171875,-0.08738978952169418,-1.407389760017395
1666738948.43922973,491500429,42.7307719,-84.4902845,278.3699951171875,-0.08739253133535385,-1.4073925018310547
1666738948.45909190,491520291,42.730772099999996,-84.4902843,278.3699951171875,-0.08697088807821274,-1.4069708585739136
1666738948.49937582,491560575,42.7307723,-84.4902841,278.3699951171875,-0.08639141172170639,-1.4063913822174072
1666738948.53925085,491600450,42.7307724,-84.490284,278.3699951171875,-0.08563443273305893,-1.4056344032287598
1666738948.53936672,491600566,42.7307724,-84.490284,278.3699951171875,-0.08563443273305893,-1.4056344032287598
1666738948.57906270,491640262,42.730772599999995,-84.4902838,278.3699951171875,-0.08518990129232407,-1.405189871788025
1666738948.61948776,491680687,42.7307729,-84.4902836,278.3699951171875,-0.08391257375478745,-1.4039125442504883
1666738948.63933372,491700533,42.7307729,-84.49028349999999,278.3699951171875,-0.08397277444601059,-1.4039727449417114
1666738948.65904880,491720248,42.7307731,-84.4902833,278.3699951171875,-0.08362778276205063,-1.4036277532577515
1666738948.69940186,491760601,42.730773299999996,-84.4902832,278.3699951171875,-0.082905612885952,-1.4029055833816528
1666738948.73928571,491800485,42.7307735,-84.49028299999999,278.3699951171875,-0.08188530057668686,-1.4018852710723877
1666738948.73936176,491800561,42.7307735,-84.49028299999999,278.3699951171875,-0.08188530057668686,-1.4018852710723877
1666738948.77916574,491840365,42.7307736,-84.4902828,278.3699951171875,-0.0810592994093895,-1.4010592699050903
1666738948.81937289,491880572,42.730773899999996,-84.4902826,278.3800048828125,-0.07961078733205795,-1.3996107578277588
1666738948.83917069,491900370,42.730773899999996,-84.49028249999999,278.3800048828125,-0.07974692434072495,-1.3997468948364258
1666738948.85916090,491920360,42.7307741,-84.4902824,278.3800048828125,-0.07985647767782211,-1.399856448173523
1666738948.89942670,491960626,42.7307743,-84.4902822,278.3800048828125,-0.079229436814785,-1.3992294073104858
1666738948.93930984,492000509,42.7307744,-84.4902821,278.3800048828125,-0.07847794145345688,-1.3984779119491577
1666738948.93938589,492000585,42.7307744,-84.4902821,278.3800048828125,-0.07847794145345688,-1.3984779119491577
1666738948.97903490,492040234,42.7307746,-84.490282,278.3800048828125,-0.07797952741384506,-1.397979497909546
1666738949.01937771,492080577,42.7307748,-84.49028179999999,278.3800048828125,-0.07707592099905014,-1.397075891494751
1666738949.03921175,492100411,42.7307749,-84.4902817,278.3800048828125,-0.07727178186178207,-1.397271752357483
1666738949.05920672,492120406,42.730775,-84.4902816,278.3800048828125,-0.07728608697652817,-1.397286057472229
1666738949.09943390,492160633,42.7307752,-84.4902814,278.3800048828125,-0.07681723684072495,-1.3968172073364258
1666738949.13943076,492200630,42.7307754,-84.49028129999999,278.3800048828125,-0.07617660611867905,-1.3961765766143799
1666738949.13953280,492200732,42.7307754,-84.49028129999999,278.3800048828125,-0.07617660611867905,-1.3961765766143799
1666738949.17905092,492240250,42.7307755,-84.49028109999999,278.3800048828125,-0.07569452375173569,-1.3956944942474365
1666738949.21938777,492280587,42.730775699999995,-84.490281,278.3800048828125,-0.07383056730031967,-1.3938305377960205
1666738949.23924971,492300449,42.730775799999996,-84.4902809,278.3800048828125,-0.07371839135885239,-1.3937183618545532
1666738949.25920987,492320409,42.7307759,-84.4902808,278.3800048828125,-0.07320364564657211,-1.393203616142273
1666738949.29940772,492360607,42.7307761,-84.49028059999999,278.3800048828125,-0.0723462924361229,-1.3923462629318237
1666738949.33927584,492400475,42.7307762,-84.4902805,278.3800048828125,-0.07140549272298813,-1.391405463218689
1666738949.33942270,492400622,42.7307762,-84.4902805,278.3800048828125,-0.07140549272298813,-1.391405463218689
1666738949.37901092,492440210,42.730776399999996,-84.4902804,278.3800048828125,-0.07068141549825668,-1.3906813859939575
1666738949.41939092,492480590,42.7307766,-84.4902802,278.3899841308594,-0.06671639531850815,-1.386716365814209
1666738949.43924785,492500447,42.7307766,-84.49028009999999,278.3899841308594,-0.06610020250082016,-1.386100172996521
1666738949.45922184,492520421,42.7307768,-84.49028,278.3899841308594,-0.06458481401205063,-1.3845847845077515
1666738949.49941087,492560610,42.730776999999996,-84.49027989999999,278.3899841308594,-0.06132980436086655,-1.3813297748565674
1666738949.53922987,492600429,42.7307771,-84.4902798,278.3999938964844,-0.05771096795797348,-1.3777109384536743
1666738949.53935981,492600559,42.7307771,-84.4902798,278.3999938964844,-0.05771096795797348,-1.3777109384536743
1666738949.57902884,492640228,42.7307773,-84.4902797,278.3999938964844,-0.054627738893032074,-1.374627709388733
1666738949.61942387,492680623,42.730777499999995,-84.4902795,278.4100036621094,-0.049344502389431,-1.3693444728851318
1666738949.63938785,492700587,42.730777599999996,-84.49027939999999,278.4100036621094,-0.04837914556264877,-1.3683791160583496
1666738949.65924573,492720445,42.7307777,-84.49027939999999,278.4100036621094,-0.04619523137807846,-1.3661952018737793
1666738949.69934773,492760547,42.7307779,-84.4902793,278.4100036621094,-0.04220017045736313,-1.362200140953064
1666738949.73925471,492800454,42.730778099999995,-84.4902791,278.41998291015625,-0.038206420838832855,-1.3582063913345337
1666738949.73936176,492800561,42.730778099999995,-84.4902791,278.41998291015625,-0.038206420838832855,-1.3582063913345337
1666738949.77912879,492840328,42.730778199999996,-84.490279,278.41998291015625,-0.03470250219106674,-1.3547024726867676
1666738949.81946588,492880665,42.7307785,-84.49027889999999,278.42999267578125,-0.02859421819448471,-1.3485941886901855
1666738949.83926773,492900467,42.7307785,-84.49027889999999,278.42999267578125,-0.027623139321804047,-1.3476231098175049
1666738949.85915184,492920351,42.730778699999995,-84.4902788,278.42999267578125,-0.025558553636074066,-1.345558524131775
1666738949.89934492,492960544,42.730778799999996,-84.49027869999999,278.44000244140625,-0.01971503347158432,-1.3397150039672852
1666738949.93923783,493000437,42.730779,-84.4902786,278.44000244140625,-0.012684904038906097,-1.332684874534607
1666738949.93934393,493000543,42.730779,-84.4902786,278.44000244140625,-0.012684904038906097,-1.332684874534607
1666738949.97909474,493040294,42.7307791,-84.4902785,278.4499816894531,-0.005511961877346039,-1.3255119323730469
1666738950.01954269,493080742,42.730779299999995,-84.4902784,278.4599914550781,0.009989537298679352,-1.3100104331970215
1666738950.03929186,493100491,42.730779399999996,-84.4902783,278.4700012207031,0.014445222914218903,-1.305554747581482
1666738950.05905890,493120258,42.7307795,-84.4902783,278.47998046875,0.021653808653354645,-1.2983461618423462
1666738950.09936476,493160564,42.7307797,-84.49027819999999,278.489990234375,0.03819660097360611,-1.2818033695220947
1666738950.13937283,493200572,42.730779899999995,-84.4902781,278.5099792480469,0.05698660761117935,-1.2630133628845215
1666738950.13944483,493200644,42.730779899999995,-84.4902781,278.5099792480469,0.05698660761117935,-1.2630133628845215
1666738950.17912889,493240328,42.730779999999996,-84.4902781,278.5299987792969,0.07564929872751236,-1.2443506717681885
1666738950.21951771,493280717,42.7307802,-84.49027799999999,278.55999755859375,0.1067066565155983,-1.2132933139801025
1666738950.23924780,493300447,42.7307803,-84.4902779,278.57000732421875,0.11671391874551773,-1.203286051750183
1666738950.25914693,493320346,42.7307804,-84.4902779,278.5899963378906,0.1307925283908844,-1.1892074346542358
1666738950.29936075,493360560,42.730780599999996,-84.4902778,278.6199951171875,0.16066482663154602,-1.1593351364135742
1666738950.33923674,493400436,42.7307807,-84.4902777,278.6499938964844,0.19245114922523499,-1.1275488138198853
1666738950.33935690,493400556,42.7307807,-84.4902777,278.6499938964844,0.19245114922523499,-1.1275488138198853
1666738950.37909484,493440294,42.7307809,-84.4902777,278.67999267578125,0.22362402081489563,-1.0963759422302246
1666738950.41943789,493480637,42.7307811,-84.4902776,278.7200012207031,0.2681286633014679,-1.0518712997436523
1666738950.43933392,493500533,42.7307811,-84.4902776,278.739990234375,0.2825092375278473,-1.037490725517273
1666738950.45919871,493520398,42.730781199999996,-84.4902776,278.7599792480469,0.3025297224521637,-1.0174702405929565
1666738950.49942088,493560620,42.7307814,-84.49027749999999,278.79998779296875,0.34013208746910095,-0.9798678755760193
1666738950.53931189,493600511,42.7307815,-84.49027749999999,278.8299865722656,0.3783746063709259,-0.9416253566741943
1666738950.53938389,493600583,42.7307815,-84.49027749999999,278.8299865722656,0.3783746063709259,-0.9416253566741943
1666738950.57909274,493640292,42.7307817,-84.4902774,278.8699951171875,0.41480061411857605,-0.9051993489265442
1666738950.61938572,493680585,42.7307819,-84.4902774,278.9499816894531,0.4913667142391205,-0.8286332488059998
1666738950.63937974,493700579,42.730782,-84.4902774,278.9700012207031,0.5134842991828918,-0.8065156936645508
1666738950.65914392,493720343,42.7307822,-84.4902774,279.0,0.5467660427093506,-0.773233950138092
1666738950.69947982,493760679,42.730782399999995,-84.4902773,279.07000732421875,0.6154541373252869,-0.7045458555221558
1666738950.73936176,493800561,42.7307827,-84.4902773,279.1399841308594,0.6871287226676941,-0.6328712701797485
1666738950.73943377,493800633,42.7307827,-84.4902773,279.1399841308594,0.6871287226676941,-0.6328712701797485
1666738950.77901578,493840215,42.7307828,-84.4902773,279.2099914550781,0.7530516982078552,-0.5669482946395874
1666738950.81938672,493880586,42.7307831,-84.4902772,279.29998779296875,0.8496606349945068,-0.4703393280506134
1666738950.83916688,493900366,42.7307832,-84.4902772,279.3299865722656,0.877020537853241,-0.44297945499420166
1666738950.85925484,493920454,42.7307834,-84.4902771,279.3699951171875,0.9191159009933472,-0.40088406205177307
1666738950.89941883,493960618,42.730783599999995,-84.49027699999999,279.4499816894531,0.9928654432296753,-0.32713451981544495
1666738950.93930674,494000506,42.7307838,-84.4902769,279.5199890136719,1.0650968551635742,-0.2549031376838684
1666738950.93945384,494000653,42.7307838,-84.4902769,279.5199890136719,1.0650968551635742,-0.2549031376838684
1666738950.97904491,494040244,42.730784,-84.49027679999999,279.5799865722656,1.1299797296524048,-0.19002027809619904
1666738951.01944876,494080648,42.730784299999996,-84.4902767,279.66998291015625,1.2168421745300293,-0.10315774381160736
1666738951.03926277,494100462,42.730784299999996,-84.4902767,279.6999816894531,1.2406220436096191,-0.07937797904014587
1666738951.05915976,494120359,42.7307845,-84.4902766,279.72998046875,1.2765430212020874,-0.043456997722387314
1666738951.09936070,494160560,42.7307847,-84.4902765,279.7900085449219,1.336047887802124,0.01604788564145565
1666738951.13940573,494200605,42.730784899999996,-84.4902764,279.8500061035156,1.3918944597244263,0.07189448922872543
1666738951.13954878,494200748,42.730784899999996,-84.4902764,279.8500061035156,1.3918944597244263,0.07189448922872543
1666738951.17900276,494240202,42.7307851,-84.4902764,279.8999938964844,1.441452980041504,0.12145299464464188
1666738951.21940470,494280604,42.7307853,-84.4902762,279.9499816894531,1.4983115196228027,0.17831158638000488
1666738951.23925281,494300452,42.730785399999995,-84.4902762,279.9700012207031,1.5138659477233887,0.19386592507362366
1666738951.25913286,494320332,42.730785499999996,-84.4902762,279.989990234375,1.536637783050537,0.21663783490657806
1666738951.29938889,494360588,42.7307857,-84.4902761,280.0199890136719,1.566886067390442,0.24688608944416046
1666738951.33922887,494400428,42.7307859,-84.490276,280.04998779296875,1.5918611288070679,0.27186119556427
1666738951.33930373,494400503,42.7307859,-84.490276,280.04998779296875,1.5918611288070679,0.27186119556427
1666738951.37904882,494440248,42.730785999999995,-84.490276,280.07000732421875,1.6141345500946045,0.29413455724716187
1666738951.41946387,494480663,42.7307862,-84.4902759,280.0899963378906,1.6316862106323242,0.311686247587204
1666738951.43933892,494500538,42.7307863,-84.4902759,280.0899963378906,1.6380144357681274,0.3180144727230072
1666738951.45917177,494520371,42.7307864,-84.49027579999999,280.1000061035156,1.645009160041809,0.32500913739204407
1666738951.49937177,494560571,42.730786599999995,-84.4902757,280.1099853515625,1.654227375984192,0.33422741293907166
1666738951.53924870,494600448,42.7307868,-84.4902757,280.1199951171875,1.6620004177093506,0.34200039505958557
1666738951.53932381,494600523,42.7307868,-84.4902757,280.1199951171875,1.6620004177093506,0.34200039505958557
1666738951.57906485,494640264,42.7307869,-84.49027559999999,280.1300048828125,1.6701009273529053,0.35010093450546265
1666738951.61946487,494680664,42.7307871,-84.4902755,280.1199951171875,1.6683429479599,0.3483429551124573
1666738951.63937092,494700570,42.7307871,-84.4902755,280.1300048828125,1.6712092161178589,0.35120919346809387
1666738951.65923381,494720433,42.730787199999995,-84.4902755,280.1300048828125,1.6713731288909912,0.35137316584587097
1666738951.69941878,494760618,42.730787299999996,-84.4902754,280.1300048828125,1.6708574295043945,0.3508574664592743
1666738951.73927283,494800472,42.7307875,-84.4902753,280.1300048828125,1.6703732013702393,0.35037317872047424
1666738951.73938084,494800580,42.7307875,-84.4902753,280.1300048828125,1.6703732013702393,0.35037317872047424
1666738951.77911687,494840316,42.7307876,-84.4902753,280.1300048828125,1.6723684072494507,0.35236844420433044
1666738951.81944084,494880640,42.7307877,-84.4902752,280.1199951171875,1.6615204811096191,0.3415204584598541
1666738951.83927679,494900476,42.730787799999995,-84.4902752,280.1199951171875,1.6638281345367432,0.3438281714916229
1666738951.85927677,494920476,42.730787899999996,-84.4902752,280.1199951171875,1.6610678434371948,0.3410678803920746
1666738951.89940882,494960608,42.730788,-84.49027509999999,280.1199951171875,1.6603654623031616,0.3403654992580414
1666738951.93926477,495000464,42.7307881,-84.49027509999999,280.1199951171875,1.6620559692382812,0.3420560359954834
1666738951.93934679,495000546,42.7307881,-84.49027509999999,280.1199951171875,1.6620559692382812,0.3420560359954834
1666738951.97905087,495040250,42.7307882,-84.490275,280.1199951171875,1.6668503284454346,0.34685036540031433
1666738952.01948881,495080688,42.7307883,-84.490275,280.1199951171875,1.6644291877746582,0.34442925453186035
1666738952.03919673,495100396,42.7307884,-84.49027509999999,280.1300048828125,1.6707974672317505,0.3507974445819855
1666738952.05917788,495120377,42.730788499999996,-84.49027509999999,280.1300048828125,1.6729965209960938,0.35299649834632874
1666738952.09943771,495160637,42.7307886,-84.49027509999999,280.1399841308594,1.6808254718780518,0.3608255386352539
1666738952.13939786,495200597,42.7307888,-84.49027509999999,280.1499938964844,1.691300630569458,0.37130069732666016
1666738952.13946772,495200667,42.7307888,-84.49027509999999,280.1499938964844,1.691300630569458,0.37130069732666016
1666738952.17901087,495240210,42.7307889,-84.49027509999999,280.1600036621094,1.7051225900650024,0.3851226270198822
1666738952.21939778,495280597,42.730789,-84.4902752,280.16998291015625,1.7100908756256104,0.39009085297584534
1666738952.23918772,495300387,42.730789099999996,-84.4902753,280.16998291015625,1.7196768522262573,0.3996768891811371
1666738952.25914288,495320342,42.730789099999996,-84.4902753,280.17999267578125,1.7244274616241455,0.40442752838134766
1666738952.29940391,495360603,42.7307893,-84.4902754,280.19000244140625,1.738031029701233,0.4180310368537903
1666738952.33924389,495400443,42.7307894,-84.4902755,280.2099914550781,1.7529630661010742,0.43296313285827637
1666738952.33939075,495400590,42.7307894,-84.4902755,280.2099914550781,1.7529630661010742,0.43296313285827637
1666738952.37905884,495440258,42.7307895,-84.4902755,280.22998046875,1.7705987691879272,0.45059874653816223
1666738952.41934681,495480546,42.7307896,-84.4902757,280.22998046875,1.778874397277832,0.4588744640350342
1666738952.43926287,495500462,42.7307896,-84.4902757,280.239990234375,1.7891122102737427,0.46911224722862244
1666738952.45918489,495520384,42.730789699999995,-84.49027579999999,280.25,1.7938497066497803,0.47384971380233765
1666738952.49942088,495560620,42.7307898,-84.4902759,280.2599792480469,1.807376503944397,0.48737654089927673
1666738952.53934669,495600546,42.7307899,-84.4902761,280.2799987792969,1.8207184076309204,0.5007184147834778
1666738952.53948689,495600686,42.7307899,-84.4902761,280.2799987792969,1.8207184076309204,0.5007184147834778
1666738952.57902193,495640221,42.73079,-84.4902762,280.2900085449219,1.8360934257507324,0.5160934329032898
1666738952.61943293,495680632,42.7307901,-84.4902764,280.29998779296875,1.8409279584884644,0.5209280252456665
1666738952.63936186,495700561,42.7307902,-84.4902765,280.30999755859375,1.8505815267562866,0.530581533908844
1666738952.65919781,495720397,42.730790299999995,-84.4902766,280.30999755859375,1.8529770374298096,0.5329770445823669
1666738952.69953275,495760732,42.7307904,-84.49027679999999,280.32000732421875,1.8641120195388794,0.5441120862960815
1666738952.73937273,495800572,42.7307905,-84.4902771,280.3299865722656,1.8747297525405884,0.5547297596931458
1666738952.73944592,495800645,42.7307905,-84.4902771,280.3299865722656,1.8747297525405884,0.5547297596931458
1666738952.77905774,495840257,42.7307906,-84.4902773,280.3399963378906,1.8871010541915894,0.5671011209487915
1666738952.81940269,495880602,42.7307907,-84.49027749999999,280.3399963378906,1.8868266344070435,0.5668266415596008
1666738952.83919477,495900394,42.7307907,-84.4902776,280.3500061035156,1.893857717514038,0.5738577246665955
1666738952.85914278,495920342,42.7307908,-84.4902777,280.3500061035156,1.8930261135101318,0.573026180267334
1666738952.89937687,495960576,42.730790899999995,-84.4902779,280.3500061035156,1.8992074728012085,0.5792075395584106
1666738952.93924284,496000442,42.730790999999996,-84.4902781,280.3599853515625,1.9073551893234253,0.5873551964759827
1666738952.93934989,496000549,42.730790999999996,-84.4902781,280.3599853515625,1.9073551893234253,0.5873551964759827
1666738952.97906184,496040261,42.7307911,-84.49027819999999,280.3699951171875,1.9172515869140625,0.5972515940666199
1666738953.01943088,496080630,42.7307912,-84.4902785,280.3699951171875,1.9188611507415771,0.5988611578941345
1666738953.03927374,496100473,42.7307912,-84.4902786,280.3800048828125,1.9260280132293701,0.6060280203819275
1666738953.05916190,496120361,42.7307913,-84.4902788,280.3800048828125,1.9273184537887573,0.6073185205459595
1666738953.09940481,496160604,42.7307914,-84.490279,280.3899841308594,1.93632173538208,0.6163218021392822
1666738953.13931179,496200511,42.7307914,-84.49027919999999,280.3999938964844,1.946461796760559,0.6264618635177612
1666738953.13942981,496200629,42.7307914,-84.49027919999999,280.3999938964844,1.946461796760559,0.6264618635177612
1666738953.17906189,496240261,42.730791499999995,-84.49027939999999,280.4100036621094,1.9577291011810303,0.6377291083335876
1666738953.21948791,496280687,42.730791599999996,-84.4902797,280.41998291015625,1.9606174230575562,0.6406174898147583
1666738953.23925090,496300450,42.730791599999996,-84.4902797,280.41998291015625,1.967360258102417,0.6473603248596191
1666738953.25913787,496320337,42.730791599999996,-84.49027989999999,280.41998291015625,1.9688371419906616,0.6488372087478638
1666738953.29933286,496360532,42.7307917,-84.49028009999999,280.42999267578125,1.9776557683944702,0.6576558351516724
1666738953.33923078,496400430,42.7307918,-84.4902802,280.44000244140625,1.9870525598526,0.6670526266098022
1666738953.33934689,496400546,42.7307918,-84.4902802,280.44000244140625,1.9870525598526,0.6670526266098022
1666738953.37917686,496440376,42.7307918,-84.4902803,280.4499816894531,1.9976805448532104,0.6776806116104126
1666738953.41945291,496480652,42.7307919,-84.49028059999999,280.4599914550781,2.001448392868042,0.6814483404159546
1666738953.43928981,496500489,42.7307919,-84.4902807,280.4599914550781,2.0073978900909424,0.6873980164527893
1666738953.45928478,496520484,42.7307919,-84.4902808,280.4599914550781,2.009274959564209,0.6892749071121216
1666738953.49939775,496560597,42.730792,-84.490281,280.4700012207031,2.0171902179718018,0.6971903443336487
1666738953.53926373,496600463,42.730792,-84.4902812,280.47998046875,2.026216983795166,0.7062169909477234
1666738953.53938270,496600582,42.730792,-84.4902812,280.47998046875,2.026216983795166,0.7062169909477234
1666738953.57902074,496640220,42.730792,-84.4902814,280.489990234375,2.0354127883911133,0.7154129147529602
1666738953.61946177,496680661,42.730792099999995,-84.4902816,280.489990234375,2.0399293899536133,0.7199295163154602
1666738953.63938570,496700585,42.730792199999996,-84.4902816,280.5,2.0455362796783447,0.7255362272262573
1666738953.65918589,496720385,42.730792199999996,-84.4902817,280.5,2.047792434692383,0.7277923822402954
1666738953.69933987,496760539,42.7307924,-84.49028179999999,280.5099792480469,2.0552525520324707,0.7352525591850281
1666738953.73928690,496800486,42.7307926,-84.490282,280.5199890136719,2.062779664993286,0.7427796721458435
1666738953.73941374,496800613,42.7307926,-84.490282,280.5199890136719,2.062779664993286,0.7427796721458435
1666738953.77902174,496840221,42.7307926,-84.4902821,280.5299987792969,2.070767641067505,0.7507677674293518
1666738953.81946087,496880660,42.730792699999995,-84.4902822,280.5299987792969,2.075021266937256,0.7550212740898132
1666738953.83921075,496900410,42.730792699999995,-84.49028229999999,280.5299987792969,2.079329252243042,0.7593292593955994
1666738953.85920882,496920408,42.730792799999996,-84.4902824,280.5400085449219,2.0815181732177734,0.7615182399749756
1666738953.89937592,496960575,42.7307929,-84.49028249999999,280.5400085449219,2.0882954597473145,0.7682954668998718
1666738953.93928170,497000481,42.730793,-84.4902827,280.54998779296875,2.0954015254974365,0.7754015326499939
1666738953.93942380,497000623,42.730793,-84.4902827,280.54998779296875,2.0954015254974365,0.7754015326499939
1666738953.97906590,497040265,42.7307931,-84.4902828,280.55999755859375,2.1027047634124756,0.782704770565033
1666738954.01934791,497080547,42.7307932,-84.49028299999999,280.55999755859375,2.107104539871216,0.7871044874191284
1666738954.03920579,497100405,42.7307932,-84.4902831,280.57000732421875,2.1105763912200928,0.7905765175819397
1666738954.05918384,497120383,42.730793299999995,-84.4902832,280.57000732421875,2.112482786178589,0.792482852935791
1666738954.09934878,497160548,42.730793399999996,-84.4902833,280.57000732421875,2.1179161071777344,0.7979161143302917
1666738954.13943577,497200635,42.730793399999996,-84.49028349999999,280.5799865722656,2.1231181621551514,0.803118109703064
1666738954.13954186,497200741,42.730793399999996,-84.49028349999999,280.5799865722656,2.1231181621551514,0.803118109703064
1666738954.17909193,497240291,42.7307935,-84.4902836,280.5799865722656,2.1283464431762695,0.8083465695381165
1666738954.21947289,497280672,42.7307936,-84.4902838,280.5899963378906,2.130305051803589,0.8103051781654358
1666738954.23920083,497300400,42.7307936,-84.4902838,280.5899963378906,2.132328748703003,0.8123288154602051
1666738954.25915074,497320350,42.7307936,-84.4902839,280.5899963378906,2.132551908493042,0.8125519752502441
1666738954.29937291,497360572,42.7307937,-84.4902841,280.5899963378906,2.1345856189727783,0.8145855665206909
1666738954.33921480,497400414,42.7307937,-84.49028419999999,280.5899963378906,2.1366677284240723,0.8166677951812744
1666738954.33933687,497400536,42.7307937,-84.49028419999999,280.5899963378906,2.1366677284240723,0.8166677951812744
1666738954.37904072,497440240,42.7307937,-84.4902843,280.5899963378906,2.1384494304656982,0.8184493780136108
1666738954.41975284,497480952,42.7307938,-84.4902845,280.5899963378906,2.1377971172332764,0.817797064781189
1666738954.43921876,497500418,42.7307938,-84.4902846,280.5899963378906,2.138197660446167,0.8181977272033691
1666738954.45916986,497520369,42.7307938,-84.49028469999999,280.5899963378906,2.1368041038513184,0.8168041110038757
1666738954.49939370,497560593,42.7307938,-84.4902848,280.5899963378906,2.1361145973205566,0.816114604473114
1666738954.53929877,497600498,42.7307938,-84.490285,280.5899963378906,2.135188579559326,0.8151885867118835
1666738954.53937674,497600576,42.7307938,-84.490285,280.5899963378906,2.135188579559326,0.8151885867118835
1666738954.57905889,497640258,42.7307938,-84.4902851,280.5899963378906,2.1343538761138916,0.814353883266449
1666738954.61946392,497680663,42.730793899999995,-84.4902853,280.5899963378906,2.1304168701171875,0.8104168176651001
1666738954.63941574,497700615,42.730793899999995,-84.49028539999999,280.5799865722656,2.1294610500335693,0.8094610571861267
1666738954.65916371,497720363,42.730793899999995,-84.4902855,280.5799865722656,2.1268954277038574,0.8068955540657043
1666738954.69941592,497760615,42.730793999999996,-84.4902857,280.5799865722656,2.123383045196533,0.8033831715583801
1666738954.73925281,497800452,42.7307941,-84.49028589999999,280.57000732421875,2.119983673095703,0.7999836802482605
1666738954.73936081,497800560,42.7307941,-84.49028589999999,280.57000732421875,2.119983673095703,0.7999836802482605
1666738954.77905178,497840251,42.7307941,-84.49028609999999,280.57000732421875,2.116715431213379,0.7967155575752258
1666738954.81939483,497880594,42.7307942,-84.4902863,280.57000732421875,2.1117589473724365,0.7917589545249939
1666738954.83925271,497900452,42.7307942,-84.4902863,280.57000732421875,2.1100926399230957,0.7900925874710083
1666738954.85916090,497920360,42.7307943,-84.4902864,280.55999755859375,2.107396364212036,0.7873964309692383
1666738954.89942288,497960622,42.7307943,-84.49028659999999,280.55999755859375,2.103090763092041,0.7830908894538879
1666738954.93923283,498000432,42.7307944,-84.49028679999999,280.54998779296875,2.0988283157348633,0.7788282632827759
1666738954.93935180,498000551,42.7307944,-84.49028679999999,280.54998779296875,2.0988283157348633,0.7788282632827759
1666738954.97899389,498040193,42.7307944,-84.490287,280.54998779296875,2.0943360328674316,0.7743360996246338
1666738955.01942873,498080628,42.730794499999995,-84.49028729999999,280.5400085449219,2.0894124507904053,0.7694125175476074
1666738955.03927374,498100473,42.730794499999995,-84.4902874,280.5400085449219,2.0872507095336914,0.7672508358955383
1666738955.05920672,498120406,42.730794499999995,-84.4902876,280.5400085449219,2.084506034851074,0.7645059823989868
1666738955.09939289,498160592,42.730794599999996,-84.4902879,280.5299987792969,2.079979181289673,0.759979248046875
1666738955.13937283,498200572,42.7307947,-84.4902881,280.5299987792969,2.0753610134124756,0.7553609609603882
1666738955.13947272,498200672,42.7307947,-84.4902881,280.5299987792969,2.0753610134124756,0.7553609609603882
1666738955.17904377,498240243,42.7307948,-84.4902884,280.5299987792969,2.0707592964172363,0.7507592439651489
1666738955.21952581,498280725,42.730795,-84.4902887,280.5199890136719,2.064595937728882,0.7445959448814392
1666738955.23921990,498300419,42.730795,-84.4902889,280.5199890136719,2.061664342880249,0.7416644096374512
1666738955.25922775,498320427,42.730795099999995,-84.49028899999999,280.5099792480469,2.0579681396484375,0.7379680871963501
1666738955.29939389,498360593,42.730795199999996,-84.4902893,280.5099792480469,2.0516602993011475,0.7316604256629944
1666738955.33930993,498400509,42.7307953,-84.4902896,280.5,2.045499801635742,0.7254998683929443
1666738955.33938789,498400587,42.7307953,-84.4902896,280.5,2.045499801635742,0.7254998683929443
1666738955.37902379,498440223,42.7307954,-84.4902899,280.489990234375,2.0392963886260986,0.7192965149879456
1666738955.41972685,498480926,42.7307956,-84.49029019999999,280.489990234375,2.0316855907440186,0.7116855382919312
1666738955.43938279,498500582,42.7307957,-84.4902903,280.47998046875,2.028109073638916,0.7081091403961182
1666738955.45916772,498520367,42.730795799999996,-84.49029039999999,280.47998046875,2.0237927436828613,0.7037926912307739
1666738955.49939084,498560590,42.730796,-84.4902906,280.4700012207031,2.0163207054138184,0.696320652961731
1666738955.53920388,498600403,42.7307961,-84.4902908,280.4599914550781,2.0089619159698486,0.6889618635177612
1666738955.53933287,498600532,42.7307961,-84.4902908,280.4599914550781,2.0089619159698486,0.6889618635177612
1666738955.57899284,498640192,42.7307962,-84.490291,280.4599914550781,2.0015196800231934,0.6815197467803955
1666738955.61943483,498680634,42.7307965,-84.4902912,280.4499816894531,1.9916462898254395,0.6716462969779968
1666738955.63936877,498700568,42.7307965,-84.4902913,280.44000244140625,1.987015724182129,0.6670157313346863
1666738955.65916872,498720368,42.7307966,-84.49029139999999,280.44000244140625,1.981384038925171,0.661384105682373
1666738955.69937992,498760579,42.7307968,-84.49029159999999,280.42999267578125,1.9714903831481934,0.6514904499053955
1666738955.73932981,498800529,42.730796999999995,-84.4902917,280.41998291015625,1.9617893695831299,0.641789436340332
1666738955.73947191,498800671,42.730796999999995,-84.4902917,280.41998291015625,1.9617893695831299,0.641789436340332
1666738955.77909184,498840291,42.7307971,-84.4902919,280.4100036621094,1.9523636102676392,0.6323636174201965
1666738955.81934190,498880541,42.7307973,-84.490292,280.3999938964844,1.9429038763046265,0.6229038834571838
1666738955.83921885,498900418,42.7307974,-84.49029209999999,280.3899841308594,1.93844735622406,0.6184473633766174
1666738955.85908985,498920289,42.7307974,-84.4902922,280.3899841308594,1.9335603713989258,0.6135604381561279
1666738955.89941883,498960618,42.7307975,-84.4902923,280.3800048828125,1.9249699115753174,0.6049699783325195
1666738955.93921876,499000418,42.7307977,-84.4902925,280.3699951171875,1.9169566631317139,0.5969566702842712
1666738955.93937182,499000571,42.7307977,-84.4902925,280.3699951171875,1.9169566631317139,0.5969566702842712
1666738955.97911382,499040313,42.7307978,-84.49029259999999,280.3599853515625,1.9089854955673218,0.5889855623245239
1666738956.01942873,499080628,42.730798,-84.4902927,280.3599853515625,1.9002879858016968,0.5802880525588989
1666738956.03923678,499100436,42.730798,-84.49029279999999,280.3500061035156,1.8958848714828491,0.5758848786354065
1666738956.05913091,499120330,42.7307981,-84.4902929,280.3500061035156,1.8912403583526611,0.5712404251098633
1666738956.09937572,499160575,42.7307983,-84.490293,280.3399963378906,1.882574439048767,0.5625744462013245
1666738956.13936973,499200569,42.7307984,-84.4902931,280.3299865722656,1.8740410804748535,0.5540410876274109
1666738956.13950992,499200709,42.7307984,-84.4902931,280.3299865722656,1.8740410804748535,0.5540410876274109
1666738956.17905593,499240255,42.7307985,-84.4902932,280.32000732421875,1.8655427694320679,0.5455427765846252
1666738956.21947289,499280672,42.7307987,-84.4902934,280.30999755859375,1.8574637174606323,0.5374637246131897
1666738956.23923087,499300430,42.730798799999995,-84.49029349999999,280.30999755859375,1.853350281715393,0.5333503484725952
1666738956.25919890,499320398,42.730798899999996,-84.4902936,280.29998779296875,1.8491123914718628,0.5291124582290649
1666738956.29938674,499360586,42.730799,-84.4902937,280.29998779296875,1.8415071964263916,0.521507203578949
1666738956.33930874,499400508,42.7307992,-84.4902939,280.2900085449219,1.8342185020446777,0.5142185688018799
1666738956.33939075,499400590,42.7307992,-84.4902939,280.2900085449219,1.8342185020446777,0.5142185688018799
1666738956.37908983,499440289,42.7307993,-84.49029399999999,280.2799987792969,1.8269597291946411,0.5069597959518433
1666738956.41969275,499480892,42.730799499999996,-84.4902943,280.2799987792969,1.8200387954711914,0.5000388622283936
1666738956.43928790,499500487,42.730799499999996,-84.4902944,280.2699890136719,1.8162133693695068,0.4962133467197418
1666738956.45915174,499520351,42.7307996,-84.49029449999999,280.2699890136719,1.8127771615982056,0.4927772283554077
1666738956.49935269,499560552,42.7307998,-84.49029469999999,280.2599792480469,1.805765986442566,0.48576605319976807
1666738956.53923988,499600439,42.7307999,-84.4902948,280.25,1.798725962638855,0.47872596979141235
1666738956.53935885,499600558,42.7307999,-84.4902948,280.25,1.798725962638855,0.47872596979141235
1666738956.57903790,499640237,42.730799999999995,-84.490295,280.25,1.791609525680542,0.47160959243774414
1666738956.61944890,499680648,42.730800099999996,-84.4902953,280.239990234375,1.7868897914886475,0.4668898284435272
1666738956.63938975,499700589,42.7308002,-84.4902954,280.239990234375,1.7840907573699951,0.46409082412719727
1666738956.65919971,499720399,42.7308003,-84.4902955,280.239990234375,1.7821816205978394,0.46218162775039673
1666738956.69945788,499760657,42.7308004,-84.4902958,280.22998046875,1.777294635772705,0.4572947025299072
1666738956.73935676,499800556,42.7308005,-84.4902961,280.22998046875,1.772513508796692,0.45251357555389404
1666738956.73942780,499800627,42.7308005,-84.4902961,280.22998046875,1.772513508796692,0.45251357555389404
1666738956.77897978,499840179,42.730800699999996,-84.4902963,280.2200012207031,1.7671469449996948,0.447147011756897
1666738956.81940389,499880603,42.7308008,-84.4902965,280.2200012207031,1.7654435634613037,0.44544363021850586
1666738956.83922791,499900427,42.7308009,-84.4902966,280.2200012207031,1.7633895874023438,0.4433896243572235
1666738956.85917473,499920374,42.730801,-84.4902967,280.2200012207031,1.7631049156188965,0.44310489296913147
1666738956.89937186,499960571,42.730801199999995,-84.490297,280.2200012207031,1.7603479623794556,0.44034793972969055
1666738956.93920875,500000408,42.730801299999996,-84.4902972,280.2099914550781,1.7569725513458252,0.43697255849838257
1666738956.93939471,500000594,42.730801299999996,-84.4902972,280.2099914550781,1.7569725513458252,0.43697255849838257
1666738956.97905684,500040256,42.7308015,-84.4902974,280.2099914550781,1.7528204917907715,0.43282046914100647
1666738957.01941681,500080616,42.7308017,-84.4902977,280.2099914550781,1.7518460750579834,0.4318460524082184
1666738957.03925085,500100450,42.7308017,-84.4902978,280.1999816894531,1.7498691082000732,0.4298691749572754
1666738957.05924392,500120443,42.730801899999996,-84.4902979,280.1999816894531,1.7494820356369019,0.42948204278945923
1666738957.09938478,500160584,42.7308021,-84.4902982,280.1999816894531,1.7470321655273438,0.4270321726799011
1666738957.13932180,500200521,42.7308022,-84.4902984,280.1999816894531,1.7442100048065186,0.4242100715637207
1666738957.13947892,500200678,42.7308022,-84.4902984,280.1999816894531,1.7442100048065186,0.4242100715637207
1666738957.17903090,500240230,42.730802399999995,-84.4902986,280.1999816894531,1.7407830953598022,0.420783132314682
1666738957.21941972,500280619,42.7308026,-84.4902989,280.19000244140625,1.7398234605789185,0.4198235273361206
1666738957.23924780,500300447,42.7308027,-84.490299,280.19000244140625,1.7375916242599487,0.4175916910171509
1666738957.25914288,500320342,42.7308028,-84.4902992,280.19000244140625,1.736987590789795,0.41698765754699707
1666738957.29934287,500360542,42.730802999999995,-84.4902994,280.19000244140625,1.7338547706604004,0.41385483741760254
1666738957.33925581,500400455,42.730803099999996,-84.4902997,280.19000244140625,1.730045199394226,0.41004520654678345
1666738957.33937573,500400575,42.730803099999996,-84.4902997,280.19000244140625,1.730045199394226,0.41004520654678345
1666738957.37904072,500440240,42.7308033,-84.4902999,280.17999267578125,1.7255247831344604,0.4055248200893402
1666738957.41964078,500480840,42.7308035,-84.4903002,280.17999267578125,1.7232550382614136,0.40325504541397095
1666738957.43926692,500500466,42.7308036,-84.4903003,280.17999267578125,1.7202776670455933,0.4002777338027954
1666738957.45917177,500520371,42.730803699999996,-84.49030049999999,280.16998291015625,1.7190008163452148,0.3990008533000946
1666738957.49934173,500560541,42.7308039,-84.4903008,280.16998291015625,1.714510440826416,0.3945104479789734
1666738957.53923988,500600439,42.7308041,-84.4903011,280.1600036621094,1.7098243236541748,0.38982439041137695
1666738957.53931475,500600514,42.7308041,-84.4903011,280.1600036621094,1.7098243236541748,0.38982439041137695
1666738957.57915592,500640355,42.730804299999996,-84.4903013,280.1600036621094,1.7046592235565186,0.38465920090675354
1666738957.61945677,500680656,42.7308045,-84.49030169999999,280.1600036621094,1.7047805786132812,0.3847805857658386
1666738957.63933587,500700535,42.7308046,-84.4903018,280.1600036621094,1.7029311656951904,0.3829311728477478
1666738957.65912080,500720320,42.7308047,-84.490302,280.1600036621094,1.7042044401168823,0.3842044174671173
1666738957.69936371,500760563,42.730804899999995,-84.4903023,280.1600036621094,1.702868103981018,0.3828681409358978
1666738957.73936582,500800565,42.730805,-84.49030259999999,280.1600036621094,1.7009094953536987,0.3809094727039337
1666738957.73949790,500800697,42.730805,-84.49030259999999,280.1600036621094,1.7009094953536987,0.3809094727039337
1666738957.77916670,500840366,42.7308051,-84.4903028,280.1499938964844,1.6978673934936523,0.3778674304485321
1666738957.81943178,500880631,42.7308053,-84.49030309999999,280.1499938964844,1.698012113571167,0.37801212072372437
1666738957.83923388,500900433,42.7308054,-84.4903032,280.1499938964844,1.6951760053634644,0.3751760721206665
1666738957.85912681,500920326,42.730805499999995,-84.4903033,280.1499938964844,1.694588303565979,0.37458834052085876
1666738957.89938378,500960583,42.7308057,-84.4903035,280.1499938964844,1.6903396844863892,0.37033969163894653
1666738957.93927479,501000474,42.7308058,-84.4903037,280.1399841308594,1.6854033470153809,0.36540332436561584
1666738957.93938088,501000580,42.7308058,-84.4903037,280.1399841308594,1.6854033470153809,0.36540332436561584
1666738957.97900176,501040201,42.7308059,-84.4903039,280.1300048828125,1.6796666383743286,0.359666645526886
1666738958.01942992,501080629,42.730806099999995,-84.4903041,280.1300048828125,1.6761741638183594,0.35617417097091675
1666738958.03923178,501100431,42.730806099999995,-84.4903042,280.1300048828125,1.672903060913086,0.3529030382633209
1666738958.05916381,501120363,42.730806199999996,-84.4903042,280.1300048828125,1.6712121963500977,0.3512122333049774
1666738958.09937477,501160574,42.7308063,-84.4903044,280.1199951171875,1.6664384603500366,0.3464384973049164
1666738958.13941789,501200617,42.7308064,-84.4903045,280.1199951171875,1.661207675933838,0.34120771288871765
1666738958.13951993,501200719,42.7308064,-84.4903045,280.1199951171875,1.661207675933838,0.34120771288871765
1666738958.17902684,501240226,42.7308065,-84.4903046,280.1099853515625,1.6553314924240112,0.3353314697742462
1666738958.21937370,501280573,42.7308066,-84.4903047,280.1099853515625,1.6522321701049805,0.3322322368621826
1666738958.23928475,501300484,42.7308066,-84.4903047,280.1000061035156,1.6490767002105713,0.32907673716545105
1666738958.25918770,501320387,42.730806699999995,-84.4903047,280.1000061035156,1.6472649574279785,0.3272649645805359
1666738958.29942369,501360623,42.730806799999996,-84.49030479999999,280.1000061035156,1.6425906419754028,0.3225906193256378
1666738958.33918571,501400385,42.7308069,-84.4903049,280.0899963378906,1.6375142335891724,0.3175142705440521
1666738958.33932376,501400523,42.7308069,-84.4903049,280.0899963378906,1.6375142335891724,0.3175142705440521
1666738958.37894773,501440147,42.730807,-84.4903049,280.0899963378906,1.6319111585617065,0.3119111955165863
1666738958.41957784,501480777,42.7308071,-84.4903049,280.0799865722656,1.6281912326812744,0.3081912100315094
1666738958.43923378,501500433,42.7308071,-84.4903049,280.0799865722656,1.6248893737792969,0.304889440536499
1666738958.45917273,501520372,42.7308072,-84.4903049,280.0799865722656,1.6226354837417603,0.3026354908943176
1666738958.49948287,501560682,42.730807299999995,-84.49030499999999,280.07000732421875,1.617451786994934,0.29745176434516907
1666738958.53926086,501600460,42.730807399999996,-84.49030499999999,280.07000732421875,1.6124407052993774,0.2924407124519348
1666738958.53936887,501600568,42.730807399999996,-84.49030499999999,280.07000732421875,1.6124407052993774,0.2924407124519348
1666738958.57902193,501640221,42.7308075,-84.49030499999999,280.05999755859375,1.6070855855941772,0.28708556294441223
1666738958.61940169,501680601,42.7308075,-84.49030499999999,280.05999755859375,1.6041308641433716,0.28413087129592896
1666738958.63940191,501700601,42.7308076,-84.49030499999999,280.05999755859375,1.601796269416809,0.28179627656936646
1666738958.65918279,501720382,42.7308076,-84.49030499999999,280.05999755859375,1.600542426109314,0.2805424630641937
1666738958.69940782,501760607,42.7308077,-84.4903051,280.04998779296875,1.5977741479873657,0.2777741551399231
1666738958.73927379,501800473,42.7308078,-84.4903051,280.04998779296875,1.5954935550689697,0.2754936218261719
1666738958.73942184,501800621,42.7308078,-84.4903051,280.04998779296875,1.5954935550689697,0.2754936218261719
1666738958.77902985,501840229,42.730807899999995,-84.4903051,280.04998779296875,1.593112587928772,0.27311262488365173
1666738958.81939387,501880593,42.730807999999996,-84.4903052,280.04998779296875,1.5913445949554443,0.2713446319103241
1666738958.83932686,501900526,42.730807999999996,-84.4903052,280.0400085449219,1.5891385078430176,0.2691385746002197
1666738958.85924172,501920441,42.730807999999996,-84.4903053,280.0400085449219,1.587385654449463,0.2673856317996979
1666738958.89933872,501960538,42.7308081,-84.4903054,280.0400085449219,1.586643934249878,0.2666440010070801
1666738958.93926978,502000469,42.7308082,-84.4903054,280.0400085449219,1.5872350931167603,0.26723507046699524
1666738958.93944788,502000647,42.7308082,-84.4903054,280.0400085449219,1.5872350931167603,0.26723507046699524
1666738958.97905493,502040254,42.7308082,-84.49030549999999,280.0400085449219,1.588059425354004,0.26805946230888367
1666738959.01940989,502080609,42.7308083,-84.4903056,280.04998779296875,1.5918458700180054,0.27184590697288513
1666738959.03927493,502100474,42.7308083,-84.4903056,280.04998779296875,1.5918153524398804,0.2718154191970825
1666738959.05912185,502120321,42.7308083,-84.4903056,280.04998779296875,1.5930795669555664,0.27307963371276855
1666738959.09934592,502160545,42.7308084,-84.4903056,280.04998779296875,1.5972771644592285,0.2772772014141083
1666738959.13934493,502200544,42.730808499999995,-84.4903057,280.05999755859375,1.6024408340454102,0.2824408710002899
