timestamp,TimeUS,C,Q1,Q2,Q3,Q4
1666738944.13831973,487199519,1,0.991754949092865,0.005341900046914816,-0.004709893371909857,-0.12795060873031616
1666738944.17831373,487239513,1,0.9917567372322083,0.005342551041394472,-0.004664590582251549,-0.12793846428394318
1666738944.21834278,487279542,1,0.9917583465576172,0.0053183091804385185,-0.00464680464938283,-0.12792760133743286
1666738944.23828483,487299484,1,0.9917593002319336,0.005319548305124044,-0.004633208271116018,-0.12792065739631653
1666738944.25832677,487319526,1,0.99176025390625,0.005314358975738287,-0.004625920671969652,-0.12791381776332855
1666738944.29833174,487359531,1,0.9917618036270142,0.005328143015503883,-0.004582416266202927,-0.12790288031101227
1666738944.33831477,487399514,1,0.9917616248130798,0.0053262533619999886,-0.004563161171972752,-0.1279049813747406
1666738944.37832379,487439523,1,0.9917605519294739,0.005334078334271908,-0.00453275116160512,-0.1279139518737793
1666738944.41831279,487479512,1,0.9917606115341187,0.005331392399966717,-0.004534957464784384,-0.12791341543197632
1666738944.43833184,487499531,1,0.9917604923248291,0.005317477975040674,-0.004537784494459629,-0.12791511416435242
1666738944.45833588,487519535,1,0.9917607307434082,0.005316048860549927,-0.00453346548601985,-0.12791350483894348
1666738944.49834085,487559540,1,0.9917651414871216,0.005312719382345676,-0.004514757543802261,-0.12787990272045135
1666738944.53835177,487599551,1,0.9917699098587036,0.005321938544511795,-0.004502241499722004,-0.12784308195114136
1666738944.57828784,487639487,1,0.9917714595794678,0.005321528296917677,-0.004502379801124334,-0.12783104181289673
1666738944.61831188,487679511,1,0.9917764067649841,0.005319017916917801,-0.004495146684348583,-0.1277928203344345
1666738944.63835073,487699550,1,0.9917780756950378,0.005316569469869137,-0.004491034429520369,-0.12778010964393616
1666738944.65832472,487719524,1,0.9917787909507751,0.005309910047799349,-0.0044752308167517185,-0.1277754306793213
1666738944.69833374,487759533,1,0.9917832612991333,0.005323824472725391,-0.004438208881765604,-0.1277417540550232
1666738944.73835492,487799554,1,0.9917891621589661,0.005318603944033384,-0.004418395459651947,-0.12769663333892822
1666738944.77835393,487839553,1,0.9917939305305481,0.00530862296000123,-0.004410767462104559,-0.1276603490114212
1666738944.81830478,487879504,1,0.9917968511581421,0.005305408965796232,-0.0043931687250733376,-0.1276383101940155
1666738944.83833885,487899538,1,0.9917969703674316,0.005314851179718971,-0.004377282224595547,-0.12763771414756775
1666738944.85831070,487919510,1,0.9917992353439331,0.005315158981829882,-0.004368471913039684,-0.1276203691959381
1666738944.89834070,487959540,1,0.991804838180542,0.0053198691457509995,-0.004344856832176447,-0.12757714092731476
1666738944.93833876,487999538,1,0.9918076992034912,0.005311337299644947,-0.004325643181800842,-0.12755633890628815
1666738944.97834587,488039545,1,0.9918099641799927,0.005303969606757164,-0.004300939384847879,-0.12753959000110626
1666738945.01831269,488079512,1,0.9918116331100464,0.005305323284119368,-0.0043075066059827805,-0.12752625346183777
1666738945.03833389,488099533,1,0.9918128252029419,0.005299441050738096,-0.004294674377888441,-0.1275177299976349
1666738945.05831981,488119519,1,0.9918158054351807,0.005287925712764263,-0.0042765880934894085,-0.12749585509300232
1666738945.09830976,488159509,1,0.991817831993103,0.00530171999707818,-0.00425834720954299,-0.12748019397258759
1666738945.13833976,488199539,1,0.991818904876709,0.005288643296808004,-0.004252997692674398,-0.12747251987457275
1666738945.17832780,488239527,1,0.9918206930160522,0.0052762944251298904,-0.0042352499440312386,-0.12745968997478485
1666738945.21831989,488279519,1,0.9918236136436462,0.005271574016660452,-0.004234890919178724,-0.12743695080280304
1666738945.23830676,488299506,1,0.9918249249458313,0.005272562149912119,-0.004230880178511143,-0.12742696702480316
1666738945.25832891,488319528,1,0.9918267130851746,0.005282466299831867,-0.004241426475346088,-0.12741242349147797
1666738945.29830980,488359509,1,0.9918267726898193,0.005265512503683567,-0.004259116016328335,-0.12741167843341827
1666738945.33830881,488399508,1,0.9918242692947388,0.005255796015262604,-0.004264479968696833,-0.1274314969778061
1666738945.37833285,488439532,1,0.9918226003646851,0.005262892227619886,-0.004265762399882078,-0.1274440437555313
1666738945.41832185,488479521,1,0.9918206334114075,0.005260891281068325,-0.0042574359104037285,-0.12745976448059082
1666738945.43831086,488499510,1,0.9918175339698792,0.005265968386083841,-0.004268474876880646,-0.12748335301876068
1666738945.45836782,488519567,1,0.9918137192726135,0.005267449654638767,-0.00427808053791523,-0.12751255929470062
1666738945.49828291,488559482,1,0.9918094873428345,0.00527132349088788,-0.004269173834472895,-0.12754568457603455
1666738945.53831077,488599510,1,0.9918057322502136,0.005285164341330528,-0.004286499693989754,-0.12757395207881927
1666738945.57831383,488639513,1,0.9918036460876465,0.005288078915327787,-0.004290858283638954,-0.12758968770503998
1666738945.61833692,488679536,1,0.9918015599250793,0.005287224426865578,-0.004288388416171074,-0.12760598957538605
1666738945.63830185,488699501,1,0.9918005466461182,0.0052978722378611565,-0.004294576123356819,-0.12761349976062775
1666738945.65833783,488719537,1,0.991800844669342,0.005305015482008457,-0.004293064586818218,-0.1276109367609024
1666738945.69835687,488759556,1,0.9917965531349182,0.005300248507410288,-0.004317074082791805,-0.1276434063911438
1666738945.73829269,488799492,1,0.991794764995575,0.005328355357050896,-0.004331250209361315,-0.12765589356422424
1666738945.77830982,488839509,1,0.9917938113212585,0.005328858271241188,-0.004334595054388046,-0.1276632696390152
1666738945.81834793,488879547,1,0.9917943477630615,0.0053380439057946205,-0.004345245193690062,-0.12765799462795258
1666738945.83831477,488899514,1,0.9917945265769958,0.005339008290320635,-0.004358354024589062,-0.1276562362909317
1666738945.85833573,488919535,1,0.9917964935302734,0.005352915730327368,-0.00435395073145628,-0.12764057517051697
1666738945.89833784,488959537,1,0.9917927384376526,0.00537512730807066,-0.004363915883004665,-0.12766821682453156
1666738945.93832684,488999526,1,0.9917960166931152,0.005389634985476732,-0.004364026710391045,-0.1276424080133438
1666738945.97830081,489039500,1,0.9917961955070496,0.005397743545472622,-0.004381054081022739,-0.12764006853103638
1666738946.01830983,489079509,1,0.9917973279953003,0.005409711971879005,-0.004392602480947971,-0.12763050198554993
1666738946.03834081,489099540,1,0.9917972087860107,0.005427656229585409,-0.004419500473886728,-0.12762942910194397
1666738946.05835485,489119554,1,0.991799533367157,0.00544164702296257,-0.0044273026287555695,-0.12761083245277405
1666738946.09833980,489159539,1,0.9918028712272644,0.0054405927658081055,-0.004439712502062321,-0.12758435308933258
1666738946.13833690,489199536,1,0.9918074011802673,0.00543373916298151,-0.0044333189725875854,-0.12754979729652405
1666738946.17833185,489239531,1,0.991811215877533,0.00542013393715024,-0.004452783148735762,-0.12751981616020203
1666738946.21839380,489279593,1,0.9918128252029419,0.00544112641364336,-0.004458458162844181,-0.12750639021396637
1666738946.23833680,489299536,1,0.9918134212493896,0.005447705741971731,-0.004478315822780132,-0.1275007277727127
1666738946.25831175,489319511,1,0.9918118715286255,0.005455723963677883,-0.004481289070099592,-0.12751199305057526
1666738946.29833984,489359539,1,0.9918116331100464,0.0054764412343502045,-0.004515053704380989,-0.12751217186450958
1666738946.33831978,489399519,1,0.9918110370635986,0.005471694283187389,-0.004532898310571909,-0.1275162398815155
1666738946.37834883,489439548,1,0.9918109774589539,0.005471899639815092,-0.004550206940621138,-0.12751616537570953
1666738946.41833091,489479530,1,0.9918131828308105,0.00546775059774518,-0.004549167584627867,-0.12749898433685303
1666738946.43834472,489499544,1,0.991812527179718,0.0054722013883292675,-0.004554402083158493,-0.12750393152236938
1666738946.45832586,489519525,1,0.9918110966682434,0.0054830750450491905,-0.0045583839528262615,-0.12751443684101105
1666738946.49831271,489559512,1,0.9918103814125061,0.005489627365022898,-0.004572015721350908,-0.12751923501491547
1666738946.53833270,489599532,1,0.9918107986450195,0.005517176352441311,-0.004571771714836359,-0.12751483917236328
1666738946.57835293,489639552,1,0.9918131828308105,0.00551565270870924,-0.004576349165290594,-0.12749625742435455
1666738946.61834574,489679545,1,0.9918131828308105,0.005529342219233513,-0.004609747789800167,-0.12749440968036652
1666738946.63834977,489699549,1,0.9918119311332703,0.005534909199923277,-0.004638834856450558,-0.1275026500225067
1666738946.65833974,489719539,1,0.9918138980865479,0.005539599806070328,-0.004627115558832884,-0.127487450838089
1666738946.69831586,489759515,1,0.9918165802955627,0.005565295927226543,-0.004612379241734743,-0.12746602296829224
1666738946.73834586,489799545,1,0.9918199181556702,0.005560531746596098,-0.004598149098455906,-0.12744112312793732
1666738946.77835083,489839550,1,0.9918236136436462,0.005573862232267857,-0.004579210188239813,-0.12741219997406006
1666738946.81835771,489879557,1,0.9918258786201477,0.005575892515480518,-0.004592618439346552,-0.12739427387714386
1666738946.83831787,489899517,1,0.9918268918991089,0.005590043496340513,-0.004600767977535725,-0.12738515436649323
1666738946.85831690,489919516,1,0.9918272495269775,0.005591235589236021,-0.00460140872746706,-0.12738235294818878
1666738946.89830089,489959500,1,0.9918251633644104,0.005601225420832634,-0.004620376043021679,-0.12739728391170502
1666738946.93831182,489999511,1,0.9918274879455566,0.005615300498902798,-0.004633942618966103,-0.12737809121608734
1666738946.97834182,490039541,1,0.9918240904808044,0.0055693937465548515,-0.0046500577591359615,-0.12740632891654968
1666738947.01834083,490079540,1,0.9918239116668701,0.005575230810791254,-0.004662580322474241,-0.12740705907344818
1666738947.03831792,490099517,1,0.9918239712715149,0.005590508226305246,-0.0046622734516859055,-0.1274055689573288
1666738947.05836177,490119561,1,0.9918286800384521,0.005588417872786522,-0.004672222305089235,-0.12736894190311432
1666738947.09832883,490159528,1,0.991831362247467,0.005583848338574171,-0.004674449097365141,-0.12734824419021606
1666738947.13833070,490199530,1,0.9918310642242432,0.005577892065048218,-0.0046731107868254185,-0.1273507922887802
1666738947.17829370,490239493,1,0.9918263554573059,0.005570753011852503,-0.004696920979768038,-0.12738695740699768
1666738947.21834087,490279540,1,0.991829514503479,0.005649667698889971,-0.004707767628133297,-0.127358078956604
1666738947.23832774,490299527,1,0.9918400049209595,0.005649160128086805,-0.004725794307887554,-0.1272757649421692
1666738947.25834990,490319549,1,0.9918542504310608,0.00566605431959033,-0.004743107594549656,-0.1271633505821228
1666738947.29835081,490359550,1,0.9918619990348816,0.0056664664298295975,-0.004705212544649839,-0.12710422277450562
1666738947.33832669,490399526,1,0.9918409585952759,0.005641595460474491,-0.004728939384222031,-0.1272687166929245
1666738947.37831879,490439518,1,0.9918453693389893,0.005678953602910042,-0.004713079892098904,-0.12723322212696075
1666738947.41832685,490479526,1,0.9918484687805176,0.005590369459241629,-0.00461244722828269,-0.127216637134552
1666738947.43831587,490499515,1,0.9918310046195984,0.005470986012369394,-0.004686378873884678,-0.12735511362552643
1666738947.45834374,490519543,1,0.991827666759491,0.005375605542212725,-0.004591740667819977,-0.12738874554634094
1666738947.49832582,490559525,1,0.9918453097343445,0.00532684987410903,-0.004658612888306379,-0.12725073099136353
1666738947.53836775,490599567,1,0.9918337464332581,0.00523240165784955,-0.004793753381818533,-0.12733985483646393
1666738947.57830477,490639504,1,0.9918460845947266,0.005387650337070227,-0.004699578043073416,-0.12724071741104126
1666738947.61832285,490679522,1,0.9918469786643982,0.00585169717669487,-0.004808394238352776,-0.12720921635627747
1666738947.63833380,490699533,1,0.9918563365936279,0.005620307754725218,-0.004853215534240007,-0.12714484333992004
1666738947.65834570,490719545,1,0.9918522834777832,0.005450572818517685,-0.004660807549953461,-0.1271914392709732
1666738947.69834590,490759545,1,0.9918444156646729,0.005431732628494501,-0.00499318353831768,-0.12724065780639648
1666738947.73832583,490799525,1,0.9918524622917175,0.006091668736189604,-0.00507991062477231,-0.12714451551437378
1666738947.77836776,490839567,1,0.9918491840362549,0.005389598663896322,-0.004854708444327116,-0.12721095979213715
1666738947.81833076,490879530,1,0.9918521046638489,0.005604909732937813,-0.004801971837878227,-0.12718075513839722
1666738947.83835173,490899551,1,0.9918469786643982,0.005713696125894785,-0.00496080843731761,-0.12720949947834015
1666738947.85831475,490919514,1,0.9918709397315979,0.0058561223559081554,-0.004924150183796883,-0.12701790034770966
1666738947.89834070,490959540,1,0.991868793964386,0.005686130374670029,-0.004750024527311325,-0.12704898416996002
1666738947.93833780,490999537,1,0.9918864369392395,0.005749956239014864,-0.004891551565378904,-0.12690280377864838
1666738947.97835875,491039558,1,0.991860568523407,0.005593174137175083,-0.004881138913333416,-0.12711210548877716
1666738948.01833487,491079534,1,0.9918773174285889,0.005783420987427235,-0.004959557205438614,-0.12696990370750427
1666738948.03834176,491099541,1,0.9918778538703918,0.00560813257470727,-0.004927149508148432,-0.1269746571779251
1666738948.05831790,491119517,1,0.9918888211250305,0.005771231837570667,-0.005042468197643757,-0.12687714397907257
1666738948.09831691,491159516,1,0.99190354347229,0.0059762815944850445,-0.0049789645709097385,-0.12675492465496063
1666738948.13834882,491199548,1,0.9919000864028931,0.006045645568519831,-0.005039921496063471,-0.1267765611410141
1666738948.17830777,491239507,1,0.9919043183326721,0.0054110935889184475,-0.004943015985190868,-0.12677577137947083
1666738948.21832776,491279527,1,0.9919164180755615,0.005836736876517534,-0.005060184746980667,-0.1266576051712036
1666738948.23834491,491299544,1,0.9919036030769348,0.005759965628385544,-0.005095718428492546,-0.12675978243350983
1666738948.25832891,491319528,1,0.9919017553329468,0.005476074758917093,-0.0050271051004529,-0.12678974866867065
1666738948.29831982,491359519,1,0.9919377565383911,0.00590129941701889,-0.0051660677418112755,-0.12648309767246246
1666738948.33834386,491399543,1,0.9919013977050781,0.005842177662998438,-0.0051020486280322075,-0.12677308917045593
1666738948.37834191,491439541,1,0.9919530153274536,0.0058897254057228565,-0.005190004128962755,-0.12636305391788483
1666738948.41836476,491479564,1,0.9919201731681824,0.00577526306733489,-0.005196013022214174,-0.12662570178508759
1666738948.43831778,491499517,1,0.9919289946556091,0.005817574914544821,-0.005167311988770962,-0.12655574083328247
1666738948.45832586,491519525,1,0.9919689893722534,0.005707824137061834,-0.004983896389603615,-0.1262540966272354
1666738948.49830174,491559501,1,0.991925060749054,0.005662623327225447,-0.005064346827566624,-0.12659776210784912
1666738948.53832579,491599525,1,0.9919338226318359,0.0055930581875145435,-0.0048993537202477455,-0.12653863430023193
1666738948.57834387,491639543,1,0.9919105172157288,0.005609254352748394,-0.005270712077617645,-0.12670569121837616
1666738948.61833572,491679535,1,0.9919400215148926,0.005996245890855789,-0.005171194672584534,-0.1264604926109314
1666738948.63831687,491699516,1,0.9919309020042419,0.006033763289451599,-0.005197354592382908,-0.12652939558029175
1666738948.65833783,491719537,1,0.9919445514678955,0.00625962158665061,-0.005091139115393162,-0.1264156550168991
1666738948.69830275,491759502,1,0.9919508695602417,0.005736847873777151,-0.005150711163878441,-0.12638859450817108
1666738948.73831582,491799515,1,0.9919784069061279,0.005502658896148205,-0.005040477029979229,-0.12618683278560638
1666738948.77831984,491839519,1,0.9919695854187012,0.006116150878369808,-0.005172144155949354,-0.12622284889221191
1666738948.81834173,491879541,1,0.9919682145118713,0.0057662054896354675,-0.005149755626916885,-0.12625090777873993
1666738948.83832288,491899522,1,0.9919710159301758,0.00620014313608408,-0.005316336639225483,-0.1262013167142868
1666738948.85832882,491919528,1,0.9919620156288147,0.005605227313935757,-0.0050392006523907185,-0.12631140649318695
1666738948.89836693,491959566,1,0.991966187953949,0.005788481328636408,-0.005100600887089968,-0.12626759707927704
1666738948.93832970,491999529,1,0.9919751882553101,0.005579014308750629,-0.005164095666259527,-0.1262037456035614
1666738948.97832489,492039524,1,0.9919883012771606,0.005842525977641344,-0.005064432043582201,-0.12609276175498962
1666738949.01831985,492079519,1,0.9920012354850769,0.006018705200403929,-0.005207276903092861,-0.125977024435997
1666738949.03831387,492099513,1,0.9919936060905457,0.0056559257209300995,-0.0051185269840061665,-0.12605763971805573
1666738949.05834889,492119548,1,0.9919982552528381,0.005409802310168743,-0.005046950653195381,-0.12603461742401123
1666738949.09834480,492159544,1,0.9920088648796082,0.0060216509737074375,-0.0052576311863958836,-0.12591490149497986
1666738949.13836980,492199569,1,0.9920135140419006,0.006275002378970385,-0.005195912905037403,-0.125868022441864
1666738949.17832971,492239529,1,0.992033839225769,0.005927694030106068,-0.0055002146400511265,-0.125712051987648
1666738949.21832490,492279524,1,0.9920601844787598,0.005495233461260796,-0.005437483079731464,-0.1255262792110443
1666738949.23835492,492299554,1,0.9920446276664734,0.005389165133237839,-0.005307777784764767,-0.12565934658050537
1666738949.25834370,492319543,1,0.9920822978019714,0.006038784049451351,-0.0054314592853188515,-0.125326469540596
1666738949.29833579,492359535,1,0.9921014904975891,0.0060946340672671795,-0.005361699499189854,-0.12517471611499786
1666738949.33833790,492399537,1,0.9921117424964905,0.005827939137816429,-0.005336089991033077,-0.12510737776756287
1666738949.37832785,492439527,1,0.9921213984489441,0.006175977177917957,-0.005222468636929989,-0.12501901388168335
1666738949.41831875,492479518,1,0.9921262860298157,0.006315191742032766,-0.0051465267315506935,-0.12497615814208984
1666738949.43832779,492499527,1,0.9921212792396545,0.006102087441831827,-0.005201329011470079,-0.12502428889274597
1666738949.45830679,492519506,1,0.9921217560768127,0.006392213050276041,-0.005200333893299103,-0.12500594556331635
1666738949.49834371,492559543,1,0.9921183586120605,0.006017859559506178,-0.005119549110531807,-0.1250549703836441
1666738949.53834271,492599542,1,0.9921389818191528,0.006193386856466532,-0.005021008662879467,-0.124886654317379
1666738949.57835674,492639556,1,0.992139458656311,0.006053199525922537,-0.005189664661884308,-0.1248827651143074
1666738949.61832690,492679526,1,0.9921663403511047,0.005859052762389183,-0.0048508415929973125,-0.12469197064638138
1666738949.63834691,492699546,1,0.9921472668647766,0.006160437595099211,-0.004965804982930422,-0.12482473254203796
1666738949.65832686,492719526,1,0.9921408295631409,0.005936580244451761,-0.0051211705431342125,-0.12488027662038803
1666738949.69831586,492759515,1,0.9921576380729675,0.006111697293817997,-0.005074984394013882,-0.12474030256271362
1666738949.73833990,492799539,1,0.9921554327011108,0.006236901506781578,-0.0048850844614207745,-0.12475896626710892
1666738949.77832389,492839523,1,0.9921513795852661,0.006380042526870966,-0.004908598493784666,-0.12478324770927429
1666738949.81836987,492879569,1,0.9921542406082153,0.006742623634636402,-0.004943692125380039,-0.12473998218774796
1666738949.83834171,492899541,1,0.9921249747276306,0.006093571428209543,-0.004562932066619396,-0.1250201165676117
1666738949.85829377,492919493,1,0.9921450614929199,0.005687272176146507,-0.004938255995512009,-0.12486550211906433
1666738949.89832687,492959526,1,0.9921125769615173,0.005509902257472277,-0.004516749642789364,-0.12514746189117432
1666738949.93833280,492999532,1,0.9920892119407654,0.005363387521356344,-0.004404209088534117,-0.12534268200397491
1666738949.97834373,493039543,1,0.9920615553855896,0.003995205741375685,-0.004120166879147291,-0.12562216818332672
1666738950.01836371,493079563,1,0.9920638799667358,0.0031115070451050997,-0.0032137923408299685,-0.12565521895885468
1666738950.03831577,493099515,1,0.9920844435691833,0.001005627098493278,-0.002454295288771391,-0.1255447268486023
1666738950.05833077,493119530,1,0.9920308589935303,0.001390378805808723,-0.002179622882977128,-0.125968798995018
1666738950.09833288,493159532,1,0.9920450448989868,-0.00045665004290640354,-0.0009039710857905447,-0.12587931752204895
1666738950.13831973,493199519,1,0.9920333623886108,-0.0017270889366045594,0.00015311925380956382,-0.12596367299556732
1666738950.17834592,493239545,1,0.9920390844345093,-0.0023214416578412056,0.001171907759271562,-0.12590348720550537
1666738950.21834278,493279542,1,0.9919936060905457,-0.003478018566966057,0.001977661158889532,-0.12622487545013428
1666738950.23831773,493299517,1,0.991974949836731,-0.002628719201311469,0.0021689473651349545,-0.12638883292675018
1666738950.25834870,493319548,1,0.991982102394104,-0.003924585413187742,0.0027046457398682833,-0.1262885332107544
1666738950.29833078,493359530,1,0.9919421672821045,-0.004145049024373293,0.003297276794910431,-0.12658096849918365
1666738950.33832669,493399526,1,0.9919023513793945,-0.0045073083601891994,0.0036745350807905197,-0.126869797706604
1666738950.37831688,493439516,1,0.9918614029884338,-0.004477913025766611,0.003802411025390029,-0.1271868199110031
1666738950.41835070,493479550,1,0.991811215877533,-0.0049895779229700565,0.003988640382885933,-0.1275528073310852
1666738950.43832183,493499521,1,0.9918336272239685,-0.005816135089844465,0.003917292691767216,-0.12734569609165192
1666738950.45834374,493519543,1,0.9917808175086975,-0.004866223782300949,0.003963685594499111,-0.1277942806482315
1666738950.49836588,493559565,1,0.9917223453521729,-0.005088304169476032,0.003929366823285818,-0.12823984026908875
1666738950.53830791,493599507,1,0.9916902184486389,-0.0053819105960428715,0.0038818304892629385,-0.1284773051738739
1666738950.57832670,493639526,1,0.9916266202926636,-0.005730804987251759,0.0035485606640577316,-0.1289622187614441
1666738950.61831784,493679517,1,0.9915860891342163,-0.004992776550352573,0.0032442305237054825,-0.12931184470653534
1666738950.63832784,493699527,1,0.9915568232536316,-0.004139109048992395,0.0027822896372526884,-0.12957710027694702
1666738950.65834284,493719542,1,0.9915319085121155,-0.0041016945615410805,0.002632696647197008,-0.1297719031572342
1666738950.69832492,493759524,1,0.11955712735652924,-0.006029237061738968,-0.008389472961425781,0.9927735924720764
1666738950.73835588,493799555,1,0.12011522054672241,-0.004776219837367535,-0.004938036669045687,0.9927361607551575
1666738950.77833271,493839532,1,0.12039939314126968,-0.0033646360971033573,-0.0015784789575263858,0.9927185773849487
1666738950.81832385,493879523,1,0.12037757784128189,-0.0024196619633585215,0.003033589106053114,0.9927206039428711
1666738950.83835793,493899557,1,0.12015924602746964,-0.0020775850862264633,0.004864799324423075,0.9927405118942261
1666738950.85832787,493919527,1,0.1199493408203125,-0.0012903360184282064,0.008266422897577286,0.9927447438240051
1666738950.89835286,493959552,1,0.1193850189447403,0.000199517875444144,0.013215078972280025,0.9927600622177124
1666738950.93834591,493999545,1,0.11776573210954666,0.0012094589183107018,0.016309654340147972,0.9929067492485046
1666738950.97832179,494039521,1,0.11652056872844696,0.0015711406012997031,0.018689831718802452,0.9930111765861511
1666738951.01833487,494079534,1,0.11496920138597488,0.001105062896385789,0.019489172846078873,0.9931772351264954
1666738951.03833985,494099539,1,0.114456906914711,0.0008923051645979285,0.01992265321314335,0.993228018283844
1666738951.05831480,494119514,1,0.11369538307189941,0.0006708636647090316,0.019952362403273582,0.9933150410652161
1666738951.09834170,494159541,1,0.11258648335933685,0.00103648635558784,0.021813901141285896,0.9934018850326538
1666738951.13834381,494199543,1,0.11190053075551987,0.000976641895249486,0.022384006530046463,0.9934667944908142
1666738951.17835474,494239554,1,0.11124802380800247,0.0010890900157392025,0.022762073203921318,0.993531346321106
1666738951.21832681,494279526,1,0.1102171316742897,0.00124862021766603,0.02188766933977604,0.9936656951904297
1666738951.23834181,494299541,1,0.1097097247838974,0.0015360676916316152,0.021407373249530792,0.9937319159507751
1666738951.25830889,494319508,1,0.10926669090986252,0.0017171198269352317,0.019378872588276863,0.9938220381736755
1666738951.29831672,494359516,1,0.10798027366399765,0.002063942374661565,0.016007283702492714,0.994022011756897
1666738951.33834291,494399542,1,0.10637477040290833,0.0018829918699339032,0.011924425140023232,0.9942528009414673
1666738951.37834573,494439545,1,0.1046736016869545,0.001572457025758922,0.008340592496097088,0.9944704174995422
1666738951.41836381,494479563,1,0.10304901748895645,0.0006391425267793238,0.004483024589717388,0.9946659803390503
1666738951.43834376,494499543,1,0.10222576558589935,0.0004678295226767659,0.003423824440687895,0.994755208492279
1666738951.45833087,494519530,1,0.10140854865312576,0.00011289864778518677,0.002361062914133072,0.9948420524597168
1666738951.49832773,494559527,1,0.10036065429449081,0.000872986507602036,4.744469333672896e-05,0.9949507117271423
1666738951.53831387,494599513,1,0.09915857762098312,0.004408448934555054,-0.0011400998337194324,0.9950612187385559
1666738951.57833576,494639535,1,0.09860681742429733,0.008740382269024849,-0.002087690867483616,0.9950858950614929
1666738951.61836576,494679565,1,0.09798046946525574,0.012051691301167011,-0.0031847187783569098,0.995110273361206
1666738951.63831878,494699518,1,0.09789156168699265,0.013180272653698921,-0.0029908372089266777,0.9951053261756897
1666738951.65834689,494719546,1,0.09794320911169052,0.013383892364799976,-0.0034142863005399704,0.9950961470603943
1666738951.69833088,494759530,1,0.09793279320001602,0.011504039168357849,-0.004172310698777437,0.9951177835464478
1666738951.73831582,494799515,1,0.09821795672178268,0.008606585673987865,-0.0037988254334777594,0.9951204657554626
1666738951.77835178,494839551,1,0.09849465638399124,0.005970668513327837,-0.0033494874369353056,0.9951140284538269
1666738951.81834078,494879540,1,0.09988541901111603,0.004730389453470707,-0.0018580605974420905,0.9949859380722046
1666738951.83831477,494899514,1,0.10076567530632019,0.004477436654269695,-0.0006193316075950861,0.9948999285697937
1666738951.85836077,494919560,1,0.10155121982097626,0.00443583307787776,0.0004803690826520324,0.9948202967643738
1666738951.89833570,494959535,1,0.10338278859853745,0.004770955070853233,0.0023607960902154446,0.9946274161338806
1666738951.93828773,494999487,1,0.105711430311203,0.004310499876737595,0.00440972438082099,0.9943777322769165
1666738951.97833776,495039537,1,0.10778611898422241,0.0028109299018979073,0.00669678533449769,0.9941475987434387
1666738952.01834774,495079547,1,0.10991548001766205,0.0015081004239618778,0.0081641161814332,0.9939062595367432
1666738952.03831291,495099512,1,0.11097890883684158,0.0008432262111455202,0.009747358039021492,0.9937745928764343
1666738952.05834675,495119546,1,0.11188452690839767,-0.00014363981608767062,0.010000095702707767,0.9936708807945251
1666738952.09832573,495159525,1,0.11409638077020645,-0.00057902344269678,0.010006774216890335,0.9934191107749939
1666738952.13832974,495199529,1,0.11639530211687088,-0.00109958671964705,0.011377207934856415,0.9931371808052063
1666738952.17834187,495239541,1,0.1183643564581871,-0.0017090627225115895,0.012942786328494549,0.9928843975067139
1666738952.21832085,495279520,1,0.12015350908041,-0.002157130278646946,0.013026677072048187,0.9926674962043762
1666738952.23834682,495299546,1,0.12086156010627747,-0.0018277798080816865,0.013758488930761814,0.9925723671913147
1666738952.25834775,495319547,1,0.12157514691352844,-0.0023340273182839155,0.013738538138568401,0.9924843907356262
1666738952.29833579,495359535,1,0.12286831438541412,-0.002136321272701025,0.015642154961824417,0.9922974109649658
1666738952.33836484,495399564,1,0.12368431687355042,-0.0016662894049659371,0.015406886115670204,0.9922006130218506
1666738952.37832975,495439529,1,0.12457319349050522,-0.0006924745975993574,0.015183530747890472,0.9920939803123474
1666738952.41831970,495479519,1,0.12493163347244263,0.00039470058982260525,0.01458845566958189,0.9920580387115479
1666738952.43834877,495499548,1,0.12507344782352448,0.0010193753987550735,0.014393644407391548,0.9920425415039062
1666738952.45831680,495519516,1,0.12531697750091553,0.001437618862837553,0.014310644008219242,0.9920125007629395
1666738952.49834585,495559545,1,0.12542195618152618,0.001719398540444672,0.013718804344534874,0.9920071363449097
1666738952.53836679,495599566,1,0.1252458393573761,0.002116939751431346,0.014155352488160133,0.9920225143432617
1666738952.57835484,495639554,1,0.12500283122062683,0.0022600905504077673,0.013711541891098022,0.992059051990509
1666738952.61832690,495679526,1,0.12455137819051743,0.002626698464155197,0.013474390842020512,0.9921181797981262
1666738952.63833880,495699538,1,0.12442123889923096,0.002880214247852564,0.013252907432615757,0.9921367764472961
1666738952.65833092,495719530,1,0.12428800761699677,0.0033056081738322973,0.01264183409512043,0.9921601414680481
1666738952.69834590,495759545,1,0.12374712526798248,0.004365658387541771,0.012131494469940662,0.9922299981117249
1666738952.73834181,495799541,1,0.12328895926475525,0.00525699695572257,0.010975482873618603,0.9922962188720703
1666738952.77835989,495839559,1,0.12288270145654678,0.005967304110527039,0.00996095035225153,0.9923532605171204
1666738952.81832480,495879524,1,0.12238261848688126,0.005820371676236391,0.009397546760737896,0.9924214482307434
1666738952.83834577,495899545,1,0.12213926017284393,0.005544586107134819,0.00939380843192339,0.9924530386924744
1666738952.85830283,495919502,1,0.12179040908813477,0.0054833972826600075,0.008739273995161057,0.9925022125244141
1666738952.89831877,495959518,1,0.12137068808078766,0.005677485838532448,0.008014173246920109,0.9925586581230164
1666738952.93834281,495999542,1,0.12068019807338715,0.007122226059436798,0.006813520099967718,0.9926425218582153
1666738952.97834373,496039543,1,0.12031904608011246,0.010618521831929684,0.005112049635499716,0.9926653504371643
1666738953.01835680,496079556,1,0.11973647028207779,0.015153974294662476,0.002232076833024621,0.9926875233650208
1666738953.03835893,496099558,1,0.11963218450546265,0.017116863280534744,0.0012190679553896189,0.992669939994812
1666738953.05830479,496119504,1,0.1195046603679657,0.019415225833654404,-0.00013954789028503,0.9926437735557556
1666738953.09830785,496159507,1,0.11913753300905228,0.021786196157336235,-0.002283249981701374,0.9926360845565796
1666738953.13831377,496199513,1,0.11869170516729355,0.02170959860086441,-0.0032057110220193863,0.9926885962486267
1666738953.17834473,496239544,1,0.11833576112985611,0.019768603146076202,-0.00357089308090508,0.9927704334259033
1666738953.21833181,496279531,1,0.11807852238416672,0.017767060548067093,-0.0036377431824803352,0.9928386211395264
1666738953.23831487,496299514,1,0.11798664927482605,0.01709219627082348,-0.004687373526394367,0.9928569793701172
1666738953.25835371,496319553,1,0.11789468675851822,0.017567208036780357,-0.004248212091624737,0.9928616285324097
1666738953.29832792,496359527,1,0.11784306168556213,0.01932446099817753,-0.004131010267883539,0.9928355813026428
1666738953.33832669,496399526,1,0.11819460988044739,0.021948643028736115,-0.005354178603738546,0.9927334189414978
1666738953.37831473,496439514,1,0.11840492486953735,0.023173661902546883,-0.004293479956686497,0.9926856756210327
1666738953.41834188,496479541,1,0.11858469992876053,0.022115834057331085,-0.0021048940252512693,0.9926953911781311
1666738953.43831682,496499516,1,0.11831845343112946,0.02094804309308529,-0.0014119583647698164,0.9927536845207214
1666738953.45835471,496519554,1,0.11827342957258224,0.018392138183116913,0.000975710223428905,0.9928102493286133
1666738953.49833775,496559537,1,0.1184084489941597,0.013777005486190319,0.004746397025883198,0.9928580522537231
1666738953.53828883,496599488,1,0.11828824132680893,0.009743399918079376,0.007908574305474758,0.992900013923645
1666738953.57831693,496639516,1,0.11847463995218277,0.007372139021754265,0.009392805397510529,0.9928852915763855
1666738953.61834383,496679543,1,0.11866208910942078,0.0063741207122802734,0.010117297992110252,0.9928627014160156
1666738953.63829279,496699492,1,0.11905144900083542,0.006249624770134687,0.010273154824972153,0.9928152561187744
1666738953.65835381,496719553,1,0.11913665384054184,0.005879049655050039,0.010545717552304268,0.9928044676780701
1666738953.69834185,496759541,1,0.11921931058168411,0.0052678147330880165,0.010847826488316059,0.9927946925163269
1666738953.73833370,496799533,1,0.11927271634340286,0.004484098870307207,0.01129463966935873,0.9927871823310852
1666738953.77833080,496839530,1,0.11921201646327972,0.0032952013425529003,0.012187988497316837,0.992788553237915
1666738953.81832075,496879520,1,0.1190619245171547,0.002275187289342284,0.011957020498812199,0.9928122162818909
1666738953.83834672,496899546,1,0.11889813840389252,0.002349205780774355,0.012623815797269344,0.9928234219551086
1666738953.85834074,496919540,1,0.11875973641872406,0.0024825662840157747,0.012626941315829754,0.9928396344184875
1666738953.89834070,496959540,1,0.11855489015579224,0.004445565864443779,0.012278017587959766,0.9928616285324097
1666738953.93835092,496999550,1,0.11828568577766418,0.009306015446782112,0.01065874844789505,0.992878794670105
1666738953.97832084,497039520,1,0.11814069747924805,0.015126840211451054,0.009278799407184124,0.9928382635116577
1666738954.01832390,497079523,1,0.11757566034793854,0.020743167027831078,0.007894249632954597,0.9928158521652222
1666738954.03835177,497099551,1,0.11742592602968216,0.023001935333013535,0.0070284041576087475,0.9927903413772583
1666738954.05831671,497119516,1,0.11720144748687744,0.02455863356590271,0.006424892693758011,0.9927836656570435
1666738954.09834576,497159545,1,0.11641079932451248,0.02693704143166542,0.00571958115324378,0.9928193092346191
1666738954.13832283,497199522,1,0.11575248092412949,0.028403742238879204,0.005114392843097448,0.9928587079048157
1666738954.17836189,497239561,1,0.11489201337099075,0.029551587998867035,0.004076051060110331,0.9929299354553223
1666738954.21832776,497279527,1,0.11443774402141571,0.03077763132750988,0.0027692937292158604,0.9929496645927429
1666738954.23833871,497299538,1,0.1140090748667717,0.031614746898412704,0.0029930451419204473,0.9929720163345337
1666738954.25831485,497319514,1,0.11374631524085999,0.03188493847846985,0.0017314380966126919,0.9929965138435364
1666738954.29835176,497359551,1,0.1132742166519165,0.03255903348326683,0.0002456869406159967,0.9930301308631897
1666738954.33834291,497399542,1,0.1124948188662529,0.032161109149456024,-0.0005436628125607967,0.9931315779685974
1666738954.37833786,497439537,1,0.11212102323770523,0.030586767941713333,-0.0017674692207947373,0.9932221174240112
1666738954.41834784,497479547,1,0.11146992444992065,0.028394468128681183,-0.002146576065570116,0.9933597445487976
1666738954.43834186,497499541,1,0.11126615107059479,0.028062237426638603,-0.0007663632277399302,0.9933940768241882
1666738954.45831585,497519515,1,0.11101260036230087,0.026866726577281952,-0.0018309701699763536,0.993454098701477
1666738954.49831676,497559516,1,0.11051378399133682,0.0260560754686594,-0.0018449657363817096,0.9935312867164612
1666738954.53834581,497599545,1,0.11019673198461533,0.025356456637382507,-0.0011983365984633565,0.9935855865478516
1666738954.57833385,497639533,1,0.10979839414358139,0.024310296401381493,-0.0011865911073982716,0.9936558604240417
1666738954.61835289,497679552,1,0.10950358957052231,0.02217881940305233,3.0035183954169042e-05,0.9937389492988586
1666738954.63831687,497699516,1,0.10930871963500977,0.019902344793081284,0.0011694686254486442,0.9938079118728638
1666738954.65830278,497719502,1,0.10900984704494476,0.01822069101035595,0.002236377913504839,0.9938711524009705
1666738954.69831872,497759518,1,0.10861729085445404,0.01387620810419321,0.005043362267315388,0.993973970413208
1666738954.73831892,497799518,1,0.10825811326503754,0.009339346550405025,0.008012138307094574,0.994046688079834
1666738954.77834392,497839543,1,0.10774504393339157,0.0060658701695501804,0.012797902338206768,0.9940776824951172
1666738954.81834888,497879548,1,0.10743531584739685,0.004658685531467199,0.017700737342238426,0.9940435886383057
1666738954.83832669,497899526,1,0.10706724971532822,0.004392641596496105,0.019648078829050064,0.9940479397773743
1666738954.85835576,497919555,1,0.10689878463745117,0.004602978006005287,0.022769594565033913,0.9939984679222107
1666738954.89833283,497959532,1,0.10651116073131561,0.004983238410204649,0.028173306956887245,0.9938998222351074
1666738954.93832970,497999529,1,0.10578133165836334,0.004872612189501524,0.034167878329753876,0.9937902688980103
1666738954.97830391,498039503,1,0.10524418950080872,0.004154609981924295,0.038946643471717834,0.9936747550964355
1666738955.01834989,498079549,1,0.10435294359922409,0.0032708041835576296,0.04349188506603241,0.9935835003852844
1666738955.03833175,498099531,1,0.10408782958984375,0.0032769127283245325,0.046996086835861206,0.993451714515686
1666738955.05835891,498119558,1,0.10363500565290451,0.002689968328922987,0.04775765538215637,0.9934645295143127
1666738955.09836578,498159565,1,0.10281482338905334,0.0024336024653166533,0.04948556050658226,0.9934658408164978
1666738955.13831472,498199514,1,0.10215987265110016,0.0021993350237607956,0.04935627430677414,0.9935404062271118
1666738955.17831588,498239515,1,0.10140304267406464,0.0021994884591549635,0.047298673540353775,0.9937179684638977
1666738955.21834373,498279543,1,0.10069556534290314,0.0023238726425915956,0.04318837821483612,0.9939767718315125
1666738955.23832774,498299527,1,0.10028734058141708,0.0025354139506816864,0.04093749821186066,0.9941127300262451
1666738955.25834179,498319541,1,0.09986864030361176,0.001974673941731453,0.038751985877752304,0.9942437410354614
1666738955.29833984,498359539,1,0.09941043704748154,0.0017937447410076857,0.0316309928894043,0.9945420026779175
1666738955.33833170,498399531,1,0.09837421029806137,0.001373010454699397,0.023746073246002197,0.9948651790618896
1666738955.37832689,498439526,1,0.09777770191431046,0.0014408426359295845,0.016149673610925674,0.9950761795043945
1666738955.41831684,498479516,1,0.09672466665506363,0.0023897357750684023,0.0076665086671710014,0.9952787756919861
1666738955.43835378,498499553,1,0.096337229013443,0.004279353190213442,0.004514762666076422,0.9953293204307556
1666738955.45834875,498519548,1,0.09585297107696533,0.005180560052394867,0.0006302913534455001,0.9953818321228027
1666738955.49833584,498559535,1,0.09476025402545929,0.009418686851859093,-0.0035245646722614765,0.9954493045806885
1666738955.53835487,498599554,1,0.09348875284194946,0.014122881926596165,-0.005376486573368311,0.9955056309700012
1666738955.57831383,498639513,1,0.09249390661716461,0.017973117530345917,-0.006676587741822004,0.9955286383628845
1666738955.61831975,498679519,1,0.09153337776660919,0.020325906574726105,-0.007023250684142113,0.9955697655677795
1666738955.63835478,498699554,1,0.09103294461965561,0.020232344046235085,-0.007900935597717762,0.9956110119819641
1666738955.65831780,498719517,1,0.09048110246658325,0.02132122777402401,-0.006798258051276207,0.9956467151641846
1666738955.69834590,498759545,1,0.08964154124259949,0.020095575600862503,-0.007068635430186987,0.9957462549209595
1666738955.73833370,498799533,1,0.08883990347385406,0.017774084582924843,-0.007607680279761553,0.9958582520484924
1666738955.77835584,498839555,1,0.0879281610250473,0.01589791290462017,-0.007511474657803774,0.9959716200828552
1666738955.81833291,498879532,1,0.08736193180084229,0.015300605446100235,-0.007390911225229502,0.9960317015647888
1666738955.83833671,498899536,1,0.0871652364730835,0.015374449081718922,-0.005996275693178177,0.9960571527481079
1666738955.85829377,498919493,1,0.08671728521585464,0.014897904358804226,-0.006687496323138475,0.9960991144180298
1666738955.89831591,498959515,1,0.08622729778289795,0.014774148352444172,-0.005579336546361446,0.9961503148078918
1666738955.93836570,498999565,1,0.0858352780342102,0.01472296379506588,-0.004360557533800602,0.9961910247802734
1666738955.97835588,499039555,1,0.08542336523532867,0.014228455722332,-0.003215920412912965,0.9962379336357117
1666738956.01836777,499079567,1,0.08510847389698029,0.013207300566136837,-0.003120452631264925,0.996279239654541
1666738956.03833890,499099538,1,0.08466172963380814,0.012185940518975258,-0.0038935928605496883,0.9963276386260986
1666738956.05829287,499119492,1,0.08465497940778732,0.01166512444615364,-0.0030545766931027174,0.996337354183197
1666738956.09831691,499159516,1,0.08409638702869415,0.010948083363473415,-0.0029081779066473246,0.9963932633399963
1666738956.13834572,499199545,1,0.08338794857263565,0.009951078332960606,-0.001965475734323263,0.9964655637741089
1666738956.17834473,499239544,1,0.08292752504348755,0.009385506622493267,-0.0014957315288484097,0.9965102672576904
1666738956.21835685,499279556,1,0.0824790820479393,0.00973548460751772,-0.001540882745757699,0.9965440630912781
1666738956.23832178,499299521,1,0.08233057707548141,0.010237462818622589,-0.0005377769703045487,0.9965523481369019
1666738956.25833988,499319539,1,0.08181614428758621,0.010685427114367485,-0.0013744980096817017,0.996589183807373
1666738956.29832673,499359526,1,0.08145232498645782,0.01106483768671751,-0.0011012270115315914,0.9966152310371399
1666738956.33832383,499399523,1,0.08086603879928589,0.011065489612519741,-0.00038583503919653594,0.9966634511947632
1666738956.37834191,499439541,1,0.08039158582687378,0.010941857472062111,-0.00041342529584653676,0.9967032074928284
1666738956.41833878,499479538,1,0.07977930456399918,0.01016460545361042,-0.0003229058929719031,0.9967606663703918
1666738956.43831873,499499518,1,0.07960042357444763,0.010243437252938747,-0.0005710932891815901,0.9967740774154663
1666738956.45832992,499519529,1,0.07926911115646362,0.009041211567819118,-0.0009014226379804313,0.9968118667602539
1666738956.49833274,499559532,1,0.07855922728776932,0.00822263304144144,-0.0012484443141147494,0.9968747496604919
1666738956.53833675,499599536,1,0.07797310501337051,0.006708347704261541,-0.0009084555204026401,0.9969325065612793
1666738956.57831383,499639513,1,0.07741579413414001,0.004889823962002993,-9.608404070604593e-05,0.9969869256019592
1666738956.61834288,499679542,1,0.0768723264336586,0.0030591057147830725,0.00045846449211239815,0.9970361590385437
1666738956.63833070,499699530,1,0.07648728787899017,0.0023406806867569685,-0.0002223253541160375,0.9970678091049194
1666738956.65833092,499719530,1,0.07640659064054489,0.00165484007447958,0.0008774438174441457,0.9970749616622925
1666738956.69834280,499759542,1,0.0758618712425232,0.0007076553301885724,0.001506066881120205,0.9971169233322144
1666738956.73831677,499799516,1,0.07533254474401474,8.403764695685823e-06,0.0014224558835849166,0.9971574544906616
1666738956.77832675,499839526,1,0.07478593289852142,-0.0006519888411276042,0.0012009957572445273,0.9971987009048462
1666738956.81832075,499879520,1,0.07437937706708908,-0.0007313672103919089,0.000936812546569854,0.9972293376922607
1666738956.83832073,499899520,1,0.07418700307607651,-0.0004684503364842385,0.0008346119429916143,0.9972438812255859
1666738956.85833383,499919533,1,0.07388296723365784,-0.0006800996488891542,0.0005314505542628467,0.9972665309906006
1666738956.89834976,499959549,1,0.07344425469636917,-0.0008415255579166114,0.00043147962423972785,0.9972988963127136
1666738956.93836474,499999564,1,0.0729680061340332,-0.000982819008640945,0.0010561835952103138,0.9973332285881042
1666738956.97832990,500039529,1,0.07271089404821396,-0.0010501935612410307,0.000569853582419455,0.9973523616790771
1666738957.01832080,500079520,1,0.07245836406946182,-0.0008283814531750977,0.0007458626059815288,0.9973708391189575
1666738957.03836274,500099562,1,0.07241660356521606,-0.0006933652912266552,0.0021572262048721313,0.9973719120025635
1666738957.05834389,500119543,1,0.07219035178422928,-0.0005036982474848628,0.0014090242329984903,0.9973897337913513
1666738957.09834170,500159541,1,0.07197254151105881,-0.00021496090630535036,0.0035880671348422766,0.997400164604187
1666738957.13835382,500199553,1,0.0717054232954979,0.00022530119167640805,0.008362852968275547,0.9973907470703125
1666738957.17833471,500239534,1,0.07148456573486328,0.0009597972966730595,0.015831943601369858,0.9973155856132507
1666738957.21829486,500279494,1,0.07126857340335846,0.001181418658234179,0.021734459325671196,0.9972196221351624
1666738957.23834491,500299544,1,0.07123103737831116,0.001742190564982593,0.024600015953183174,0.997154951095581
1666738957.25831485,500319514,1,0.07120155543088913,0.0016320171998813748,0.0273697879165411,0.9970850348472595
1666738957.29834890,500359548,1,0.07094497978687286,0.0021773420739918947,0.03159242123365402,0.9969774484634399
1666738957.33833075,500399530,1,0.07073725759983063,0.0023448404390364885,0.034599851816892624,0.996891975402832
1666738957.37833476,500439534,1,0.07042832672595978,0.002272980287671089,0.03580518811941147,0.9968714714050293
1666738957.41831779,500479517,1,0.07033029198646545,0.0024753969628363848,0.036230139434337616,0.996862530708313
1666738957.43834186,500499541,1,0.0700688362121582,0.002893301425501704,0.03515252470970154,0.9969183802604675
1666738957.45833278,500519532,1,0.07009441405534744,0.002602366730570793,0.035961657762527466,0.9968885183334351
1666738957.49831676,500559516,1,0.07007014006376266,0.0023855536710470915,0.03505583852529526,0.99692302942276
1666738957.53833985,500599539,1,0.06984484195709229,0.0022336714901030064,0.03326473757624626,0.9970005750656128
1666738957.57832170,500639521,1,0.06979122012853622,0.0022270502522587776,0.030759725719690323,0.9970847964286804
1666738957.61835480,500679554,1,0.0695292204618454,0.002624059095978737,0.02744339406490326,0.9971988797187805
1666738957.63834572,500699545,1,0.06943356245756149,0.0025361720472574234,0.024949952960014343,0.9972712993621826
1666738957.65833688,500719536,1,0.06949478387832642,0.0024783494882285595,0.02376978099346161,0.9972960352897644
1666738957.69832993,500759529,1,0.06926615536212921,0.0021744801197201014,0.01983431540429592,0.9973986744880676
1666738957.73834372,500799543,1,0.06924193352460861,0.002090085530653596,0.015669897198677063,0.9974746108055115
1666738957.77834487,500839544,1,0.0690162181854248,0.002140791155397892,0.010675947181880474,0.9975560903549194
1666738957.81835675,500879556,1,0.06894949078559875,0.0018251280998811126,0.006043413653969765,0.9976001977920532
1666738957.83831978,500899519,1,0.06882389634847641,0.0016576902708038688,0.0035458409693092108,0.9976211190223694
1666738957.85832882,500919528,1,0.06871315836906433,0.0013246863381937146,0.0017826119437813759,0.9976339936256409
1666738957.89832878,500959528,1,0.0686744749546051,0.0009552767151035368,-0.0016920279012992978,0.9976372122764587
1666738957.93832088,500999520,1,0.068364217877388,0.0010912404395639896,-0.0028348788619041443,0.9976558089256287
1666738957.97834277,501039542,1,0.06829684972763062,0.0014245205093175173,-0.0030264370143413544,0.99765944480896
1666738958.01834583,501079545,1,0.06830024719238281,0.001669188030064106,-0.0033028600737452507,0.9976579546928406
1666738958.03831887,501099518,1,0.06835022568702698,0.0017499102978035808,-0.0022771949879825115,0.9976572394371033
1666738958.05836678,501119566,1,0.06843192875385284,0.0017001066589727998,-0.003133335616439581,0.9976494312286377
1666738958.09836078,501159560,1,0.0684957280755043,0.001663656672462821,-0.00303297839127481,0.9976454377174377
1666738958.13832974,501199529,1,0.06869275122880936,0.0015371585031971335,-0.0030480362474918365,0.9976320266723633
1666738958.17831779,501239517,1,0.06885872781276703,0.0016320832073688507,-0.002981330966576934,0.9976206421852112
1666738958.21834087,501279540,1,0.06906778365373611,0.0018764211563393474,-0.0027632282581180334,0.9976063966751099
1666738958.23833776,501299537,1,0.06916799396276474,0.001871197484433651,-0.0035598736722022295,0.9975969195365906
1666738958.25834084,501319540,1,0.06937935203313828,0.002301036613062024,-0.002696770243346691,0.9975840449333191
1666738958.29838490,501359584,1,0.06967443227767944,0.002258069347590208,-0.00212637847289443,0.997564971446991
1666738958.33829880,501399498,1,0.07007230073213577,0.0020517194643616676,-0.0012054876424372196,0.9975391030311584
1666738958.37830091,501439500,1,0.0704217329621315,0.001794487820006907,-0.0007314863032661378,0.9975154399871826
1666738958.41832876,501479528,1,0.07095474749803543,0.0018727167043834925,-0.000490648380946368,0.997477650642395
1666738958.43832970,501499529,1,0.07120104879140854,0.0019509581616148353,-0.0011417946079745889,0.9974594116210938
1666738958.45834279,501519542,1,0.07123657315969467,0.002006717026233673,-0.0005703382776118815,0.9974572658538818
1666738958.49835491,501559554,1,0.07173288613557816,0.002179553499445319,-0.0008694772841408849,0.997421145439148
1666738958.53835893,501599558,1,0.07218603789806366,0.0022412820253521204,-0.0004369470989331603,0.9973885416984558
1666738958.57830071,501639500,1,0.07262314110994339,0.0023276738356798887,0.0002685432555153966,0.9973567128181458
1666738958.61831784,501679517,1,0.07300292700529099,0.0021782461553812027,0.0005347303231246769,0.9973291754722595
1666738958.63833284,501699532,1,0.0731755718588829,0.001827769447118044,0.0007452215650118887,0.9973171353340149
1666738958.65835285,501719552,1,0.07343029230833054,0.00196094810962677,0.001146877883002162,0.9972977638244629
1666738958.69833374,501759533,1,0.07397521287202835,0.001459284219890833,0.0014109454350546002,0.9972580075263977
1666738958.73834586,501799545,1,0.07425094395875931,0.0004666726745199412,0.0017435685731470585,0.9972379803657532
1666738958.77832675,501839526,1,0.07464481145143509,0.0002282816858496517,0.0014623078750446439,0.9972090721130371
1666738958.81832480,501879524,1,0.07488036900758743,0.0004968908033333719,0.0012896762927994132,0.9971915483474731
1666738958.83833480,501899534,1,0.07504479587078094,0.001129933400079608,0.001723598688840866,0.9971780180931091
1666738958.85831475,501919514,1,0.07521387934684753,0.0008225421188399196,0.0011240956373512745,0.9971664547920227
1666738958.89834476,501959544,1,0.07550138235092163,0.001004398101940751,0.0006870283978059888,0.9971449375152588
1666738958.93835378,501999553,1,0.07588272541761398,0.0011891919421032071,0.00088551762746647,0.9971156716346741
1666738958.97832990,502039529,1,0.07616378366947174,0.00135856366250664,0.0015349070308730006,0.9970932006835938
1666738959.01831079,502079510,1,0.07630050182342529,0.001370634650811553,0.0021875000093132257,0.9970815181732178
1666738959.03834271,502099542,1,0.07639017701148987,0.0015514271799474955,0.0008837817003950477,0.9970763921737671
1666738959.05832481,502119524,1,0.07651498168706894,0.0013294843956828117,0.0021708104759454727,0.9970651865005493
1666738959.09830976,502159509,1,0.07645362615585327,0.0009764677379280329,0.00211843429133296,0.9970704317092896
1666738959.13835073,502199550,1,0.07667846232652664,-0.00015565857756882906,0.0021095091942697763,0.9970536231994629
1666738959.17834377,502239543,1,0.07670687884092331,-0.0016302114818245173,0.0016639844980090857,0.997050940990448
1666738959.21835375,502279553,1,0.07689366489648819,-0.0022589468862861395,0.0016867504455149174,0.9970353245735168
1666738959.23829770,502299497,1,0.0769265815615654,-0.0024984197225421667,0.001503248349763453,0.9970325231552124
1666738959.25833178,502319531,1,0.07699447870254517,-0.001986528281122446,0.0024124279152601957,0.9970266222953796
1666738959.29833889,502359538,1,0.07689639180898666,-0.0008116727694869041,0.004213205073028803,0.9970298409461975
1666738959.33831477,502399514,1,0.0769578367471695,0.00031975540332496166,0.006747364532202482,0.9970114827156067
1666738959.37833881,502439538,1,0.07682441920042038,0.0012124134227633476,0.009161073714494705,0.9970018267631531
1666738959.41835880,502479558,1,0.07689270377159119,0.0020203660242259502,0.011504486203193665,0.9969709515571594
1666738959.43830776,502499507,1,0.07698705047369003,0.002548741875216365,0.013210664503276348,0.996941328048706
1666738959.45834780,502519547,1,0.07679964601993561,0.0025036754086613655,0.014082050882279873,0.9969439506530762
1666738959.49832582,502559525,1,0.07683076709508896,0.0025876539293676615,0.016255037859082222,0.9969082474708557
1666738959.53831673,502599516,1,0.07667499035596848,0.002376006217673421,0.01594702899456024,0.9969257712364197
1666738959.57834792,502639547,1,0.07658529281616211,0.0023089884780347347,0.015209891833364964,0.9969443678855896
1666738959.61832976,502679529,1,0.07627879828214645,0.0017875671619549394,0.012565935961902142,0.9970057606697083
1666738959.63832092,502699520,1,0.07644685357809067,0.0012480628211051226,0.011384661309421062,0.9970079064369202
1666738959.65838790,502719587,1,0.07632356137037277,0.0006564296199940145,0.009326532483100891,0.997039258480072
1666738959.69832993,502759529,1,0.07618635892868042,-0.0010098404018208385,0.006519129499793053,0.9970717430114746
1666738959.73831677,502799516,1,0.0761367455124855,-0.0027047444600611925,0.004917597398161888,0.9970815777778625
1666738959.77830172,502839501,1,0.07589910924434662,-0.0042933025397360325,0.003773611504584551,0.9970991015434265
1666738959.81834579,502879545,1,0.07566749304533005,-0.006815171334892511,0.0033253866713494062,0.997104287147522
1666738959.83828592,502899485,1,0.07555115967988968,-0.008418559096753597,0.00242506992071867,0.9971034526824951
1666738959.85833478,502919534,1,0.07543251663446426,-0.008942270651459694,0.004901925567537546,0.9970987439155579
1666738959.89833689,502959536,1,0.0751226544380188,-0.010766638442873955,0.006411134731024504,0.9970955848693848
1666738959.93831992,502999519,1,0.0749499499797821,-0.011773070320487022,0.007949368096888065,0.9970861077308655
1666738959.97831893,503039518,1,0.07465881109237671,-0.011991124600172043,0.00966007448732853,0.997090220451355
1666738960.01831675,503079516,1,0.07463879883289337,-0.011526903137564659,0.010723184794187546,0.9970863461494446
1666738960.03833485,503099534,1,0.07447852939367294,-0.010792539454996586,0.01208273135125637,0.9970909953117371
1666738960.05834389,503119543,1,0.07435810565948486,-0.010630711913108826,0.011363739147782326,0.9971101880073547
1666738960.09833479,503159534,1,0.07421211153268814,-0.009830908849835396,0.011574207805097103,0.9971268773078918
1666738960.13836193,503199561,1,0.07402742654085159,-0.00919431447982788,0.011190522462129593,0.9971510171890259
1666738960.17831874,503239518,1,0.0738721713423729,-0.008230334147810936,0.011445083655416965,0.9971680641174316
1666738960.21831584,503279515,1,0.07357706874608994,-0.007122441194951534,0.010684836655855179,0.9972068667411804
1666738960.23834276,503299542,1,0.073568195104599,-0.006335082463920116,0.010466412641108036,0.9972151517868042
1666738960.25832272,503319522,1,0.07350005209445953,-0.005785767454653978,0.01004450861364603,0.9972278475761414
1666738960.29834270,503359542,1,0.07343292236328125,-0.0044807614758610725,0.010349545627832413,0.9972363710403442
1666738960.33834481,503399544,1,0.07325562834739685,-0.003413874190300703,0.011676466092467308,0.9972389936447144
1666738960.37832189,503439521,1,0.07307799160480499,-0.002617351943627,0.012784110382199287,0.9972408413887024
1666738960.41833282,503479532,1,0.07277403771877289,-0.002099568722769618,0.014642049558460712,0.9972387552261353
1666738960.43834782,503499547,1,0.07281530648469925,-0.001993943704292178,0.015221747569739819,0.9972273111343384
1666738960.45833278,503519532,1,0.07267087697982788,-0.001626814715564251,0.016938628628849983,0.9972108006477356
1666738960.49834776,503559547,1,0.07242309302091599,-0.0005842309328727424,0.020169243216514587,0.9971698522567749
1666738960.53833985,503599539,1,0.0722835585474968,0.0012619738699868321,0.025574248284101486,0.9970554113388062
1666738960.57833672,503639536,1,0.07204388082027435,0.0032336378935724497,0.03081771731376648,0.9969199895858765
1666738960.61831570,503679515,1,0.0719611644744873,0.004818187095224857,0.034715380519628525,0.9967914819717407
1666738960.63834381,503699543,1,0.07201971113681793,0.005287539213895798,0.036547478288412094,0.9967193603515625
1666738960.65829682,503719496,1,0.07171953469514847,0.005577609408646822,0.03680182248353958,0.9967300891876221
1666738960.69832778,503759527,1,0.07172273099422455,0.006127113942056894,0.03672690689563751,0.9967293739318848
1666738960.73834276,503799542,1,0.07140157371759415,0.006196705624461174,0.035022757947444916,0.9968133568763733
1666738960.77833891,503839538,1,0.07136189937591553,0.0058393944054841995,0.03354852646589279,0.9968690276145935
1666738960.81832170,503879521,1,0.07102927565574646,0.005736846011132002,0.03215893357992172,0.9969391822814941
1666738960.83835673,503899556,1,0.07116764038801193,0.0051519363187253475,0.03173942491412163,0.9969459772109985
1666738960.85830688,503919506,1,0.07094936817884445,0.006072683725506067,0.03207613155245781,0.9969455599784851
1666738960.89833283,503959532,1,0.070890873670578,0.0061473725363612175,0.03234561160206795,0.996940553188324
1666738960.93831778,503999517,1,0.07084906101226807,0.006000156048685312,0.03218923136591911,0.9969494938850403
1666738960.97833991,504039539,1,0.07074962556362152,0.005657983012497425,0.032232802361249924,0.9969571232795715
1666738961.01832891,504079528,1,0.07047152519226074,0.005266409367322922,0.03190706670284271,0.9969894289970398
1666738961.03831887,504099518,1,0.07044721394777298,0.005600536707788706,0.032488517463207245,0.9969705939292908
1666738961.05835891,504119558,1,0.07028556615114212,0.005079365335404873,0.03171525150537491,0.9970096945762634
1666738961.09829593,504159495,1,0.06999862194061279,0.004899609833955765,0.03288062661886215,0.9969930052757263
1666738961.13830090,504199500,1,0.06989353150129318,0.004939164035022259,0.034446317702531815,0.9969472885131836
1666738961.17831874,504239518,1,0.06966082006692886,0.00507056200876832,0.03588700294494629,0.9969121217727661
1666738961.21834087,504279540,1,0.06944931298494339,0.005099443718791008,0.034956540912389755,0.9969598054885864
1666738961.23831487,504299514,1,0.06944235414266586,0.00461816368624568,0.03462214022874832,0.9969742894172668
1666738961.25834990,504319549,1,0.06912516057491302,0.004846443422138691,0.03288884088397026,0.9970539212226868
1666738961.29832482,504359524,1,0.06916500627994537,0.004383315332233906,0.029056435450911522,0.9971723556518555
1666738961.33832479,504399524,1,0.06906724721193314,0.00391361815854907,0.02287517488002777,0.997342050075531
1666738961.37831378,504439513,1,0.06910264492034912,0.003388643730431795,0.015600191429257393,0.9974818229675293
1666738961.41834378,504479543,1,0.06891138106584549,0.0028912534471601248,0.008719919249415398,0.9975804686546326
1666738961.43833089,504499530,1,0.0691513866186142,0.0030693747103214264,0.006794601678848267,0.9975783228874207
1666738961.45835471,504519554,1,0.06889049708843231,0.0023998632095754147,0.0024880606215447187,0.9976182579994202
1666738961.49834991,504559549,1,0.06903994828462601,0.002399509074166417,-0.0017475386848673224,0.9976094961166382
1666738961.53832984,504599529,1,0.06899818778038025,0.0021488454658538103,-0.0033722862135618925,0.9976087808609009
1666738961.57831478,504639514,1,0.06913045048713684,0.001980879809707403,-0.003813119139522314,0.9975983500480652
1666738961.61831474,504679514,1,0.0691475048661232,0.001912851119413972,-0.004025161266326904,0.9975965023040771
