timestamp,TimeUS,C,Roll,Pitch,Yaw,VN,VE,VD,dPD,PN,PE,PD,GX,GY,GZ,OH
1666738944.13831973,487199519,1,0.67,-0.45,345.29,0.29874953627586365,0.20811569690704346,-0.03532184660434723,-0.021565211936831474,-10.644306182861328,5.788211822509766,1.3071982860565186,0.43,-0.11,-0.2,279.72
1666738944.17831373,487239513,1,0.67,-0.45,345.29,0.2995360493659973,0.2092873752117157,-0.03506988659501076,-0.02342400699853897,-10.633431434631348,5.798188209533691,1.306046485900879,0.43,-0.11,-0.2,279.72
1666738944.21834278,487279542,1,0.67,-0.45,345.29,0.30067187547683716,0.211044043302536,-0.03459153324365616,-0.025540772825479507,-10.622491836547852,5.807914733886719,1.304931640625,0.43,-0.11,-0.2,279.72
1666738944.23828483,487299484,1,0.67,-0.44,345.29,0.3004801869392395,0.21212923526763916,-0.034067027270793915,-0.024330629035830498,-10.615398406982422,5.81581974029541,1.3049726486206055,0.43,-0.11,-0.2,279.72
1666738944.25832677,487319526,1,0.67,-0.44,345.29,0.3011881113052368,0.21309901773929596,-0.03375930339097977,-0.02124442346394062,-10.609036445617676,5.821670055389404,1.304658055305481,0.43,-0.11,-0.2,279.72
1666738944.29833174,487359531,1,0.67,-0.44,345.3,0.30158531665802,0.2150568664073944,-0.03302028030157089,-0.014126487076282501,-10.595101356506348,5.836390495300293,1.3045326471328735,0.44,-0.11,-0.2,279.72
1666738944.33831477,487399514,1,0.67,-0.44,345.29,0.30270153284072876,0.21707738935947418,-0.03285117447376251,-0.010594389401376247,-10.582118034362793,5.848730087280273,1.3039546012878418,0.44,-0.11,-0.2,279.72
1666738944.37832379,487439523,1,0.67,-0.43,345.29,0.3042580187320709,0.21938836574554443,-0.0324057973921299,-0.009995822794735432,-10.569279670715332,5.8606061935424805,1.3032184839248657,0.44,-0.11,-0.2,279.72
1666738944.41831279,487479512,1,0.67,-0.43,345.29,0.3056412935256958,0.22082635760307312,-0.03166656568646431,-0.011713949032127857,-10.556211471557617,5.873012065887451,1.3028374910354614,0.44,-0.11,-0.2,279.72
1666738944.43833184,487499531,1,0.67,-0.43,345.29,0.30528128147125244,0.22101980447769165,-0.031102793291211128,-0.007076683919876814,-10.549223899841309,5.880695343017578,1.3035318851470947,0.44,-0.11,-0.2,279.72
1666738944.45833588,487519535,1,0.67,-0.43,345.29,0.3055127263069153,0.22216589748859406,-0.0307671669870615,-0.0005479407263919711,-10.542732238769531,5.886631011962891,1.3035409450531006,0.44,-0.11,-0.2,279.72
1666738944.49834085,487559540,1,0.66,-0.43,345.3,0.3049057424068451,0.22403931617736816,-0.02970743179321289,0.011244121938943863,-10.529097557067871,5.900940895080566,1.3046220541000366,0.44,-0.11,-0.2,279.72
1666738944.53835177,487599551,1,0.67,-0.43,345.3,0.3054029047489166,0.22547225654125214,-0.02883400395512581,0.018191447481513023,-10.516175270080566,5.913212299346924,1.304988980293274,0.44,-0.11,-0.2,279.72
1666738944.57828784,487639487,1,0.67,-0.43,345.3,0.3061343729496002,0.22698932886123657,-0.028510326519608498,0.019260773435235023,-10.503411293029785,5.925039291381836,1.3052083253860474,0.44,-0.11,-0.2,279.72
1666738944.61831188,487679511,1,0.67,-0.43,345.31,0.30625614523887634,0.22820430994033813,-0.028164446353912354,0.018067387863993645,-10.490453720092773,5.937501430511475,1.3058580160140991,0.44,-0.11,-0.2,279.72
1666738944.63835073,487699550,1,0.67,-0.43,345.31,0.3053843677043915,0.22814562916755676,-0.027249835431575775,0.023206161335110664,-10.483444213867188,5.945394992828369,1.3071280717849731,0.44,-0.11,-0.2,279.72
1666738944.65832472,487719524,1,0.66,-0.43,345.31,0.30529141426086426,0.2283511906862259,-0.026627138257026672,0.02951141446828842,-10.477152824401855,5.9513397216796875,1.307469129562378,0.44,-0.11,-0.2,279.72
1666738944.69833374,487759533,1,0.67,-0.42,345.31,0.30341699719429016,0.22914941608905792,-0.02540282905101776,0.03805113583803177,-10.463951110839844,5.965685844421387,1.3093401193618774,0.44,-0.11,-0.2,279.72
1666738944.73835492,487799554,1,0.66,-0.42,345.32,0.30332356691360474,0.2303696870803833,-0.024588998407125473,0.0396752804517746,-10.451164245605469,5.978181838989258,1.3101913928985596,0.44,-0.11,-0.2,279.72
1666738944.77835393,487839553,1,0.66,-0.42,345.32,0.30299898982048035,0.23138946294784546,-0.024007419124245644,0.03580065816640854,-10.438705444335938,5.990104675292969,1.3107630014419556,0.44,-0.11,-0.2,279.72
1666738944.81830478,487879504,1,0.66,-0.42,345.33,0.3019208014011383,0.2325797826051712,-0.02342851459980011,0.02823895588517189,-10.42607593536377,6.003012657165527,1.3115651607513428,0.44,-0.11,-0.2,279.72
1666738944.83833885,487899538,1,0.66,-0.41000000000000003,345.33,0.29957708716392517,0.23242570459842682,-0.02258000336587429,0.030076542869210243,-10.419918060302734,6.011120319366455,1.3129754066467285,0.44,-0.11,-0.2,279.72
1666738944.85831070,487919510,1,0.66,-0.41000000000000003,345.33,0.2987913191318512,0.23271426558494568,-0.022081397473812103,0.03464128449559212,-10.413651466369629,6.017557144165039,1.313394546508789,0.44,-0.11,-0.2,279.72
1666738944.89834070,487959540,1,0.66,-0.41000000000000003,345.33,0.29494133591651917,0.2329266369342804,-0.02078709937632084,0.04078667238354683,-10.401429176330566,6.032773017883301,1.3154712915420532,0.44,-0.11,-0.2,279.72
1666738944.93833876,487999538,1,0.66,-0.41000000000000003,345.34000000000003,0.29341286420822144,0.23355603218078613,-0.019708169624209404,0.04148469492793083,-10.38963508605957,6.045739650726318,1.3165346384048462,0.44,-0.11,-0.2,279.72
1666738944.97834587,488039545,1,0.66,-0.41000000000000003,345.34000000000003,0.29179272055625916,0.23386229574680328,-0.018754223361611366,0.0378732904791832,-10.377947807312012,6.058264255523682,1.3174304962158203,0.44,-0.11,-0.2,279.72
1666738945.01831269,488079512,1,0.66,-0.41000000000000003,345.34000000000003,0.2897675931453705,0.23389798402786255,-0.017775097861886024,0.03370346873998642,-10.365756034851074,6.071020126342773,1.3187165260314941,0.44,-0.11,-0.2,279.72
1666738945.03833389,488099533,1,0.66,-0.41000000000000003,345.34000000000003,0.2871009409427643,0.23248493671417236,-0.017064779996871948,0.036455921828746796,-10.358689308166504,6.078666687011719,1.3202847242355347,0.44,-0.11,-0.2,279.72
1666738945.05831981,488119519,1,0.66,-0.4,345.34000000000003,0.28607413172721863,0.23237654566764832,-0.016629116609692574,0.04136925935745239,-10.352270126342773,6.084774494171143,1.320845127105713,0.44,-0.11,-0.2,279.72
1666738945.09830976,488159509,1,0.66,-0.4,345.34000000000003,0.282158762216568,0.2305966317653656,-0.01535502728074789,0.047177743166685104,-10.339103698730469,6.09872579574585,1.3230841159820557,0.44,-0.11,-0.2,279.72
1666738945.13833976,488199539,1,0.66,-0.4,345.35,0.2794405221939087,0.22958309948444366,-0.014109538868069649,0.046229250729084015,-10.326927185058594,6.110742568969727,1.3242864608764648,0.44,-0.11,-0.2,279.72
1666738945.17832780,488239527,1,0.66,-0.4,345.35,0.27676036953926086,0.22896750271320343,-0.013573279604315758,0.04065466299653053,-10.315279960632324,6.122104644775391,1.3252030611038208,0.44,-0.11,-0.2,279.72
1666738945.21831989,488279519,1,0.66,-0.4,345.35,0.2738944888114929,0.22825711965560913,-0.012977355159819126,0.03160199150443077,-10.302814483642578,6.134744167327881,1.3261475563049316,0.44,-0.11,-0.2,279.72
1666738945.23830676,488299506,1,0.66,-0.4,345.35,0.2704664468765259,0.22729305922985077,-0.012321964837610722,0.03141424432396889,-10.295884132385254,6.142904281616211,1.3273621797561646,0.44,-0.11,-0.2,279.72
1666738945.25832891,488319528,1,0.66,-0.4,345.35,0.2687978446483612,0.22725848853588104,-0.012090928852558136,0.03289930894970894,-10.289670944213867,6.149245262145996,1.3278038501739502,0.44,-0.11,-0.2,279.72
1666738945.29830980,488359509,1,0.66,-0.4,345.35,0.26311370730400085,0.22544197738170624,-0.010979188606142998,0.035562366247177124,-10.276745796203613,6.164193153381348,1.3297635316848755,0.44,-0.11,-0.2,279.72
1666738945.33830881,488399508,1,0.65,-0.4,345.35,0.25977233052253723,0.22441257536411285,-0.010385424830019474,0.03549875319004059,-10.265050888061523,6.176777362823486,1.3309017419815063,0.44,-0.11,-0.2,279.72
1666738945.37833285,488439532,1,0.66,-0.4,345.35,0.25694260001182556,0.2236548513174057,-0.009920185431838036,0.03279922157526016,-10.253832817077637,6.188723564147949,1.331908106803894,0.44,-0.11,-0.2,279.72
1666738945.41832185,488479521,1,0.66,-0.4,345.35,0.2532917857170105,0.22254084050655365,-0.009197265841066837,0.031247032806277275,-10.24167251586914,6.201452732086182,1.3335020542144775,0.44,-0.11,-0.2,279.72
1666738945.43831086,488499510,1,0.66,-0.4,345.34000000000003,0.25011783838272095,0.22117546200752258,-0.008630265481770039,0.03698817268013954,-10.234196662902832,6.209475994110107,1.3354239463806152,0.44,-0.11,-0.2,279.72
1666738945.45836782,488519567,1,0.66,-0.4,345.34000000000003,0.24836629629135132,0.22042594850063324,-0.008104894310235977,0.04546760767698288,-10.227954864501953,6.215673923492432,1.336240530014038,0.44,-0.11,-0.2,279.72
1666738945.49828291,488559482,1,0.66,-0.4,345.34000000000003,0.2425081431865692,0.21816058456897736,-0.006326273549348116,0.05941027030348778,-10.214251518249512,6.2302961349487305,1.339572548866272,0.44,-0.11,-0.2,279.72
1666738945.53831077,488599510,1,0.66,-0.4,345.33,0.23884795606136322,0.21666935086250305,-0.005152143072336912,0.06647541373968124,-10.202348709106445,6.242554187774658,1.3417096138000488,0.44,-0.11,-0.2,279.72
1666738945.57831383,488639513,1,0.66,-0.41000000000000003,345.33,0.2356448471546173,0.21542713046073914,-0.004278139676898718,0.06584993004798889,-10.191059112548828,6.254143238067627,1.3434786796569824,0.44,-0.11,-0.2,279.72
1666738945.61833692,488679536,1,0.66,-0.41000000000000003,345.33,0.23231662809848785,0.21337822079658508,-0.003611018182709813,0.058304283767938614,-10.178269386291504,6.2665300369262695,1.3452448844909668,0.44,-0.11,-0.2,279.72
1666738945.63830185,488699501,1,0.66,-0.41000000000000003,345.33,0.23056842386722565,0.21211642026901245,-0.0027211515698581934,0.05837681517004967,-10.169013023376465,6.274816036224365,1.3469276428222656,0.44,-0.11,-0.2,279.72
1666738945.65833783,488719537,1,0.66,-0.41000000000000003,345.33,0.22947674989700317,0.21149612963199615,-0.0021488950587809086,0.05989786237478256,-10.162334442138672,6.2808518409729,1.347700834274292,0.44,-0.11,-0.2,279.72
1666738945.69835687,488759556,1,0.66,-0.41000000000000003,345.33,0.22600939869880676,0.20888635516166687,-0.0009053392568603158,0.058596380054950714,-10.145923614501953,6.295518398284912,1.3499375581741333,0.44,-0.11,-0.2,279.72
1666738945.73829269,488799492,1,0.66,-0.41000000000000003,345.32,0.22348304092884064,0.20686091482639313,-0.0001806609216146171,0.05060555413365364,-10.132394790649414,6.3076491355896,1.3512500524520874,0.44,-0.11,-0.2,279.72
1666738945.77830982,488839509,1,0.66,-0.41000000000000003,345.32,0.22154651582241058,0.20545607805252075,0.0005376898334361613,0.04143589735031128,-10.11963176727295,6.319065570831299,1.3523741960525513,0.45,-0.11,-0.2,279.72
1666738945.81834793,488879547,1,0.67,-0.41000000000000003,345.32,0.2183532863855362,0.2039315551519394,0.001641013310290873,0.03393663093447685,-10.106758117675781,6.331399440765381,1.3539398908615112,0.44,-0.11,-0.2,279.72
1666738945.83831477,488899514,1,0.67,-0.41000000000000003,345.32,0.21406444907188416,0.20250281691551208,0.0024349295999854803,0.03773922100663185,-10.099028587341309,6.3398637771606445,1.3557536602020264,0.45,-0.11,-0.2,279.72
1666738945.85833573,488919535,1,0.67,-0.41000000000000003,345.33,0.21177802979946136,0.2018708437681198,0.0027735140174627304,0.043408289551734924,-10.093362808227539,6.345797538757324,1.35663902759552,0.44,-0.11,-0.2,279.72
1666738945.89833784,488959537,1,0.67,-0.41000000000000003,345.32,0.20493432879447937,0.19895301759243011,0.004032685421407223,0.052811700850725174,-10.079771995544434,6.360819339752197,1.359410285949707,0.45,-0.11,-0.2,279.72
1666738945.93832684,488999526,1,0.67,-0.41000000000000003,345.33,0.2001679688692093,0.1970006227493286,0.004570791497826576,0.05479894578456879,-10.068589210510254,6.372989654541016,1.3612037897109985,0.45,-0.11,-0.2,279.72
1666738945.97830081,489039500,1,0.67,-0.41000000000000003,345.33,0.19576776027679443,0.19530946016311646,0.005132785998284817,0.05171274021267891,-10.058084487915039,6.384488582611084,1.3627357482910156,0.45,-0.11,-0.2,279.72
1666738946.01830983,489079509,1,0.67,-0.42,345.33,0.19160842895507812,0.1935255527496338,0.005306752398610115,0.04442241042852402,-10.04621410369873,6.396496772766113,1.3641281127929688,0.45,-0.11,-0.2,279.72
1666738946.03834081,489099540,1,0.68,-0.42,345.33,0.18877598643302917,0.19117915630340576,0.005713028367608786,0.042441364377737045,-10.037358283996582,6.404350757598877,1.3651844263076782,0.45,-0.11,-0.2,279.72
1666738946.05835485,489119554,1,0.68,-0.42,345.33,0.18652458488941193,0.18992964923381805,0.0059648239985108376,0.0411703884601593,-10.031283378601074,6.409995079040527,1.3657455444335938,0.45,-0.11,-0.2,279.72
1666738946.09833980,489159539,1,0.68,-0.42,345.33,0.18173302710056305,0.18653790652751923,0.0069475178606808186,0.03772736340761185,-10.015873908996582,6.423811912536621,1.3672267198562622,0.45,-0.11,-0.2,279.72
1666738946.13833690,489199536,1,0.68,-0.42,345.34000000000003,0.17795388400554657,0.18392693996429443,0.007737996056675911,0.031769197434186935,-10.003486633300781,6.435274600982666,1.3682258129119873,0.45,-0.11,-0.2,279.72
1666738946.17833185,489239531,1,0.68,-0.42,345.34000000000003,0.17414256930351257,0.18133868277072906,0.00801612064242363,0.025616498664021492,-9.9921875,6.445801258087158,1.3690282106399536,0.45,-0.11,-0.2,279.72
1666738946.21839380,489279593,1,0.68,-0.42,345.34000000000003,0.17082709074020386,0.17874747514724731,0.008753194473683834,0.020076965913176537,-9.979294776916504,6.457151889801025,1.3701566457748413,0.45,-0.11,-0.2,279.72
1666738946.23833680,489299536,1,0.68,-0.42,345.34000000000003,0.1687498241662979,0.17638914287090302,0.009367195889353752,0.02387075312435627,-9.969347953796387,6.464972972869873,1.371593952178955,0.45,-0.11,-0.2,279.72
1666738946.25831175,489319511,1,0.68,-0.42,345.34000000000003,0.16757391393184662,0.17538121342658997,0.009922060184180737,0.030208691954612732,-9.962950706481934,6.470448017120361,1.3723764419555664,0.45,-0.11,-0.2,279.72
1666738946.29833984,489359539,1,0.68,-0.43,345.34000000000003,0.16396711766719818,0.17154523730278015,0.010896746069192886,0.03905760124325752,-9.94554615020752,6.484206676483154,1.374321699142456,0.45,-0.11,-0.2,279.72
1666738946.33831978,489399519,1,0.68,-0.43,345.34000000000003,0.16095136106014252,0.16913478076457977,0.011392515152692795,0.03987633436918259,-9.932168006896973,6.495278358459473,1.3756194114685059,0.45,-0.11,-0.2,279.72
1666738946.37834883,489439548,1,0.68,-0.43,345.34000000000003,0.15823744237422943,0.16630177199840546,0.012277437373995781,0.03775438293814659,-9.919903755187988,6.50548791885376,1.3768446445465088,0.45,-0.11,-0.2,279.72
1666738946.41833091,489479530,1,0.68,-0.43,345.34000000000003,0.1549960970878601,0.16459983587265015,0.013297420926392078,0.03710457682609558,-9.906416893005371,6.5173211097717285,1.3787283897399902,0.44,-0.11,-0.2,279.72
1666738946.43834472,489499544,1,0.68,-0.43,345.34000000000003,0.15275375545024872,0.16365426778793335,0.014069272205233574,0.04353712499141693,-9.896431922912598,6.526510715484619,1.3807169198989868,0.45,-0.11,-0.2,279.72
1666738946.45832586,489519525,1,0.68,-0.43,345.34000000000003,0.15124467015266418,0.163278728723526,0.014508786611258984,0.05258933827280998,-9.890085220336914,6.532625675201416,1.3818145990371704,0.45,-0.11,-0.2,279.72
1666738946.49831271,489559512,1,0.6900000000000001,-0.43,345.34000000000003,0.14727778732776642,0.16213318705558777,0.01570860669016838,0.0659758523106575,-9.872601509094238,6.548970699310303,1.3850475549697876,0.45,-0.11,-0.2,279.72
1666738946.53833270,489599532,1,0.6900000000000001,-0.43,345.34000000000003,0.1441786289215088,0.16131095588207245,0.01634037494659424,0.07066120952367783,-9.859492301940918,6.561642169952393,1.387322187423706,0.45,-0.11,-0.2,279.72
1666738946.57835293,489639552,1,0.6900000000000001,-0.43,345.34000000000003,0.14068208634853363,0.16053743660449982,0.017105432227253914,0.06869466602802277,-9.84743595123291,6.573498725891113,1.3891538381576538,0.44,-0.11,-0.2,279.72
1666738946.61834574,489679545,1,0.6900000000000001,-0.44,345.34000000000003,0.1387554556131363,0.1592542827129364,0.01744205877184868,0.0584818571805954,-9.833206176757812,6.586065769195557,1.3909926414489746,0.45,-0.11,-0.2,279.72
1666738946.63834977,489699549,1,0.6900000000000001,-0.44,345.34000000000003,0.1382986307144165,0.15803049504756927,0.018027691170573235,0.05919022113084793,-9.82120132446289,6.594839096069336,1.3928813934326172,0.44,-0.11,-0.2,279.72
1666738946.65833974,489719539,1,0.6900000000000001,-0.44,345.34000000000003,0.13784387707710266,0.1572652906179428,0.018354352563619614,0.06244384124875069,-9.814133644104004,6.600588321685791,1.3939639329910278,0.44,-0.11,-0.2,279.72
1666738946.69831586,489759515,1,0.6900000000000001,-0.44,345.35,0.13665232062339783,0.15500596165657043,0.019322331994771957,0.06662207841873169,-9.793218612670898,6.616029739379883,1.3968491554260254,0.44,-0.11,-0.2,279.72
1666738946.73834586,489799545,1,0.6900000000000001,-0.44,345.35,0.13514159619808197,0.15289951860904694,0.020105356350541115,0.06486095488071442,-9.777901649475098,6.627969741821289,1.3989101648330688,0.44,-0.11,-0.2,279.72
1666738946.77835083,489839550,1,0.7000000000000001,-0.43,345.35,0.13438791036605835,0.15136298537254333,0.020958062261343002,0.06005310267210007,-9.763862609863281,6.639003276824951,1.4006892442703247,0.44,-0.11,-0.2,279.72
1666738946.81835771,489879557,1,0.7000000000000001,-0.44,345.35,0.1335780918598175,0.15016931295394897,0.021367201581597328,0.05080782622098923,-9.747434616088867,6.651477813720703,1.4022941589355469,0.44,-0.11,-0.2,279.72
1666738946.83831787,489899517,1,0.7000000000000001,-0.44,345.35,0.1344698965549469,0.14876973628997803,0.021998330950737,0.04839905723929405,-9.733798027038574,6.660948753356934,1.4034278392791748,0.44,-0.11,-0.2,279.72
1666738946.85831690,489919516,1,0.7000000000000001,-0.44,345.36,0.13420073688030243,0.1484481543302536,0.02234645187854767,0.04693133756518364,-9.725982666015625,6.666933059692383,1.4041996002197266,0.44,-0.11,-0.2,279.72
1666738946.89830089,489959500,1,0.7000000000000001,-0.44,345.35,0.13590124249458313,0.14673784375190735,0.02278914675116539,0.041123248636722565,-9.70208740234375,6.683621883392334,1.405476450920105,0.44,-0.11,-0.2,279.72
1666738946.93831182,489999511,1,0.7000000000000001,-0.44,345.36,0.13593797385692596,0.1475415676832199,0.023748185485601425,0.031897012144327164,-9.68479061126709,6.696246147155762,1.4064428806304932,0.44,-0.11,-0.2,279.72
1666738946.97834182,490039541,1,0.7000000000000001,-0.44,345.35,0.1333906203508377,0.1420050710439682,0.023241335526108742,0.022768903523683548,-9.668941497802734,6.707893371582031,1.4071608781814575,0.44,-0.11,-0.2,279.72
1666738947.01834083,490079540,1,0.7000000000000001,-0.44,345.35,0.13470150530338287,0.144460991024971,0.0233329888433218,0.012336643412709236,-9.651270866394043,6.720263481140137,1.4076493978500366,0.44,-0.11,-0.2,279.72
1666738947.03831792,490099517,1,0.7000000000000001,-0.44,345.35,0.1342853456735611,0.14058071374893188,0.02249804697930813,0.009127842262387276,-9.637128829956055,6.729138374328613,1.4081522226333618,0.44,-0.11,-0.2,279.72
1666738947.05836177,490119561,1,0.7000000000000001,-0.44,345.36,0.13524684309959412,0.14140643179416656,0.024965999647974968,0.01113143190741539,-9.629036903381348,6.734768867492676,1.4086567163467407,0.44,-0.11,-0.2,279.72
1666738947.09832883,490159528,1,0.7000000000000001,-0.44,345.36,0.1357358992099762,0.13794544339179993,0.024067873135209084,0.01117191556841135,-9.6044340133667,6.750185489654541,1.4095087051391602,0.44,-0.11,-0.2,279.72
1666738947.13833070,490199530,1,0.7000000000000001,-0.44,345.36,0.13717591762542725,0.13725042343139648,0.025646191090345383,0.013874713331460953,-9.586661338806152,6.761781215667725,1.4103773832321167,0.44,-0.11,-0.2,279.72
1666738947.17829370,490239493,1,0.7000000000000001,-0.45,345.35,0.13579538464546204,0.13166272640228271,0.02655755914747715,0.015268698334693909,-9.570363998413086,6.772445201873779,1.4108937978744507,0.44,-0.11,-0.2,279.72
1666738947.21834087,490279540,1,0.71,-0.45,345.36,0.136906236410141,0.1345682144165039,0.02626986987888813,0.00793797429651022,-9.552495002746582,6.783830165863037,1.4110982418060303,0.44,-0.11,-0.2,279.72
1666738947.23832774,490299527,1,0.71,-0.45,345.37,0.13465583324432373,0.13102498650550842,0.026539675891399384,0.007689611054956913,-9.538726806640625,6.79197359085083,1.4115668535232544,0.44,-0.11,-0.2,279.72
1666738947.25834990,490319549,1,0.71,-0.45,345.38,0.13363200426101685,0.1305818110704422,0.026227634400129318,0.008784075267612934,-9.530817031860352,6.79718017578125,1.4120687246322632,0.44,-0.11,-0.2,279.72
1666738947.29835081,490359550,1,0.71,-0.45,345.39,0.12963277101516724,0.1215495690703392,0.02505241148173809,0.010310808196663857,-9.507031440734863,6.811264991760254,1.4125556945800781,0.44,-0.11,-0.2,279.72
1666738947.33832669,490399526,1,0.71,-0.45,345.37,0.13663320243358612,0.12392638623714447,0.025624288246035576,0.01091847661882639,-9.489892959594727,6.821633338928223,1.4131156206130981,0.44,-0.11,-0.2,279.72
1666738947.37831879,490439518,1,0.71,-0.45,345.37,0.1317216455936432,0.12458472698926926,0.02637823484838009,0.011529024690389633,-9.474105834960938,6.831542015075684,1.413604974746704,0.44,-0.11,-0.2,279.72
1666738947.41832685,490479526,1,0.7000000000000001,-0.44,345.37,0.12921972572803497,0.11248452961444855,0.03063507191836834,0.01465548574924469,-9.45673942565918,6.841641902923584,1.4146573543548584,0.44,-0.11,-0.2,279.72
1666738947.43831587,490499515,1,0.6900000000000001,-0.45,345.36,0.13874486088752747,0.13187982141971588,0.026757370680570602,0.018357787281274796,-9.442671775817871,6.8493428230285645,1.416239619255066,0.44,-0.11,-0.2,279.72
1666738947.45834374,490519543,1,0.67,-0.44,345.35,0.13813257217407227,0.13381347060203552,0.033488012850284576,0.03518138453364372,-9.434643745422363,6.85438871383667,1.4172430038452148,0.44,-0.11,-0.2,279.72
1666738947.49832582,490559525,1,0.67,-0.45,345.37,0.1197800561785698,0.09188582748174667,0.026478834450244904,0.04378398135304451,-9.410548210144043,6.867119312286377,1.4193638563156128,0.44,-0.11,-0.2,279.72
1666738947.53836775,490599567,1,0.66,-0.46,345.36,0.14864300191402435,0.13110332190990448,0.01843550242483616,0.04001738131046295,-9.393132209777832,6.876920700073242,1.4209967851638794,0.44,-0.11,-0.2,279.72
1666738947.57830477,490639504,1,0.68,-0.45,345.37,0.12217923253774643,0.07896153628826141,0.03240770101547241,0.05264289304614067,-9.377299308776855,6.885621547698975,1.4223289489746094,0.44,-0.11,-0.2,279.72
1666738947.61832285,490679522,1,0.73,-0.46,345.37,0.1317608505487442,0.12316872924566269,0.0302867591381073,0.04273654520511627,-9.35995864868164,6.8950934410095215,1.4236078262329102,0.44,-0.11,-0.2,279.72
1666738947.63833380,490699533,1,0.7000000000000001,-0.46,345.38,0.12597143650054932,0.11879288405179977,0.03873675316572189,0.05076533928513527,-9.346095085144043,6.903074741363525,1.4248242378234863,0.44,-0.11,-0.2,279.72
1666738947.65834570,490719545,1,0.68,-0.45,345.38,0.12238028645515442,0.08815143257379532,0.04061482846736908,0.05411757901310921,-9.338428497314453,6.907643795013428,1.425681710243225,0.44,-0.11,-0.2,279.72
1666738947.69834590,490759545,1,0.6900000000000001,-0.48,345.37,0.1304592788219452,0.10495581477880478,0.017903590574860573,0.03132446110248566,-9.314478874206543,6.920525550842285,1.427146077156067,0.44,-0.11,-0.2,279.72
1666738947.73832583,490799525,1,0.76,-0.48,345.38,0.12609033286571503,0.08927605301141739,0.031748659908771515,0.03902561217546463,-9.2976713180542,6.930459022521973,1.4282982349395752,0.44,-0.11,-0.2,279.72
1666738947.77836776,490839567,1,0.68,-0.47000000000000003,345.37,0.13442832231521606,0.09968956559896469,0.04260621964931488,0.04366793483495712,-9.282036781311035,6.938695430755615,1.4294395446777344,0.44,-0.11,-0.2,279.72
1666738947.81833076,490879530,1,0.7000000000000001,-0.46,345.38,0.11571246385574341,0.0753178596496582,0.027434656396508217,0.019954988732933998,-9.264267921447754,6.949252605438232,1.4299670457839966,0.44,-0.11,-0.2,279.72
1666738947.83835173,490899551,1,0.72,-0.48,345.37,0.13204863667488098,0.07226616144180298,0.02500692568719387,0.01184653677046299,-9.248934745788574,6.957710266113281,1.4299334287643433,0.44,-0.11,-0.2,279.72
1666738947.85831475,490919514,1,0.73,-0.47000000000000003,345.40000000000003,0.13936062157154083,0.0917554572224617,0.029189495369791985,0.010696738958358765,-9.240287780761719,6.96250057220459,1.430318832397461,0.44,-0.11,-0.2,279.72
1666738947.89834070,490959540,1,0.71,-0.45,345.39,0.1194501519203186,0.0975935310125351,0.049382660537958145,0.02009912021458149,-9.21367359161377,6.978353023529053,1.4297617673873901,0.44,-0.11,-0.21,279.72
1666738947.93833780,490999537,1,0.72,-0.47000000000000003,345.41,0.13963381946086884,0.0820360854268074,0.02794838696718216,-0.012129263952374458,-9.194857597351074,6.988637924194336,1.4296954870224,0.44,-0.11,-0.21,279.72
1666738947.97835875,491039558,1,0.7000000000000001,-0.47000000000000003,345.39,0.12780450284481049,0.1044868677854538,0.02828618697822094,-0.017469679936766624,-9.177428245544434,6.999173641204834,1.4293607473373413,0.44,-0.11,-0.21,279.72
1666738948.01833487,491079534,1,0.72,-0.47000000000000003,345.40000000000003,0.12986241281032562,0.06312401592731476,0.04157933592796326,-0.014978166669607162,-9.158503532409668,7.011119842529297,1.428243637084961,0.44,-0.11,-0.21,279.72
1666738948.03834176,491099541,1,0.7000000000000001,-0.47000000000000003,345.40000000000003,0.14701305329799652,0.10351724922657013,0.042626459151506424,-0.020349284633994102,-9.142877578735352,7.022558689117432,1.427100419998169,0.44,-0.11,-0.21,279.72
1666738948.05831790,491119517,1,0.72,-0.48,345.41,0.13308905065059662,0.11019255220890045,0.03881854563951492,-0.030475357547402382,-9.133917808532715,7.029417991638184,1.4269555807113647,0.44,-0.11,-0.21,279.72
1666738948.09831691,491159516,1,0.75,-0.47000000000000003,345.43,0.1186288371682167,0.07179179042577744,0.023485172539949417,-0.05687324330210686,-9.107701301574707,7.049179553985596,1.4239802360534668,0.44,-0.11,-0.21,279.72
1666738948.13834882,491199548,1,0.76,-0.48,345.42,0.14306284487247467,0.11629080027341843,0.0389646477997303,-0.0529533252120018,-9.08812427520752,7.063745975494385,1.4222618341445923,0.44,-0.11,-0.21,279.72
1666738948.17830777,491239507,1,0.68,-0.48,345.43,0.11202168464660645,0.07698792219161987,0.02019082009792328,-0.075383260846138,-9.071245193481445,7.076722621917725,1.420458197593689,0.44,-0.11,-0.21,279.72
1666738948.21832776,491279527,1,0.73,-0.49,345.44,0.15916158258914948,0.12111611664295197,0.03856107220053673,-0.060955341905355453,-9.042902946472168,7.097655296325684,1.4184774160385132,0.44,-0.11,-0.21,279.72
1666738948.23834491,491299544,1,0.72,-0.49,345.43,0.12815429270267487,0.09240680187940598,0.0394899845123291,-0.059543922543525696,-9.026626586914062,7.109867572784424,1.4171613454818726,0.44,-0.11,-0.21,279.72
1666738948.25832891,491319528,1,0.6900000000000001,-0.49,345.42,0.11361218988895416,0.07285783439874649,0.028152121230959892,-0.06939370185136795,-9.017973899841309,7.116245746612549,1.4169403314590454,0.44,-0.11,-0.21,279.72
1666738948.29831982,491359519,1,0.74,-0.5,345.46,0.1634751707315445,0.11371361464262009,0.025440922006964684,-0.06667731702327728,-8.989831924438477,7.137334823608398,1.4142435789108276,0.44,-0.11,-0.21,279.72
1666738948.33834386,491399543,1,0.73,-0.49,345.43,0.12154855579137802,0.08507539331912994,0.03202242776751518,-0.055647216737270355,-8.96976375579834,7.152199745178223,1.412915587425232,0.44,-0.11,-0.21,279.72
1666738948.37834191,491439541,1,0.74,-0.5,345.47,0.15957111120224,0.11885452270507812,0.03457340598106384,-0.04605897143483162,-8.951742172241211,7.166162014007568,1.4115666151046753,0.44,-0.11,-0.21,279.72
1666738948.41836476,491479564,1,0.73,-0.5,345.44,0.134049192070961,0.09796096384525299,0.036872394382953644,-0.03903014585375786,-8.93071174621582,7.181053161621094,1.4104793071746826,0.44,-0.11,-0.21,279.72
1666738948.43831778,491499517,1,0.73,-0.5,345.45,0.12529008090496063,0.12007880210876465,0.034278422594070435,-0.03574923798441887,-8.914213180541992,7.192471027374268,1.4100741147994995,0.44,-0.11,-0.21,279.72
1666738948.45832586,491519525,1,0.72,-0.48,345.49,0.150615394115448,0.11675898730754852,0.03154182806611061,-0.031212646514177322,-8.904969215393066,7.199203014373779,1.4101897478103638,0.44,-0.11,-0.21,279.72
1666738948.49830174,491559501,1,0.71,-0.49,345.45,0.14242315292358398,0.09725888073444366,0.024295195937156677,-0.026519881561398506,-8.87543773651123,7.2185797691345215,1.4091297388076782,0.44,-0.11,-0.21,279.72
1666738948.53832579,491599525,1,0.7000000000000001,-0.47000000000000003,345.45,0.14388978481292725,0.10149011760950089,0.041511762887239456,-0.0037653851322829723,-8.855114936828613,7.233123779296875,1.4086226224899292,0.44,-0.11,-0.21,279.72
1666738948.57834387,491639543,1,0.71,-0.51,345.43,0.1490442007780075,0.1116204708814621,0.024360954761505127,-0.016993826255202293,-8.835871696472168,7.2457051277160645,1.4081686735153198,0.44,-0.11,-0.21,279.72
1666738948.61833572,491679535,1,0.75,-0.5,345.46,0.1479233056306839,0.09106394648551941,0.025928035378456116,-0.016711503267288208,-8.815404891967773,7.260377407073975,1.407615065574646,0.44,-0.11,-0.21,279.72
1666738948.63831687,491699516,1,0.76,-0.5,345.45,0.15599325299263,0.11274135857820511,0.02872193045914173,-0.01237097941339016,-8.799358367919922,7.272069454193115,1.4074366092681885,0.44,-0.11,-0.21,279.72
1666738948.65833783,491719537,1,0.78,-0.48,345.47,0.15691453218460083,0.11503677815198898,0.03063506819307804,-0.007738239597529173,-8.790200233459473,7.278862953186035,1.4076206684112549,0.44,-0.11,-0.21,279.72
1666738948.69830275,491759502,1,0.72,-0.5,345.47,0.14927692711353302,0.11714275926351547,0.019555632025003433,-0.017079532146453857,-8.762592315673828,7.2992119789123535,1.4064676761627197,0.44,-0.11,-0.21,279.72
1666738948.73831582,491799515,1,0.6900000000000001,-0.49,345.49,0.1536235809326172,0.10153535008430481,0.02694614976644516,-0.014926984906196594,-8.742697715759277,7.313763618469238,1.4058181047439575,0.44,-0.11,-0.21,279.72
1666738948.77831984,491839519,1,0.77,-0.49,345.49,0.14484068751335144,0.1076333299279213,0.03364161401987076,-0.011491711251437664,-8.724611282348633,7.327190399169922,1.4048985242843628,0.44,-0.11,-0.21,279.72
1666738948.81834173,491879541,1,0.73,-0.5,345.49,0.15455719828605652,0.10561171919107437,0.0286384429782629,-0.02491537667810917,-8.704571723937988,7.34067440032959,1.404118299484253,0.44,-0.11,-0.21,279.72
1666738948.83832288,491899522,1,0.78,-0.51,345.49,0.14590147137641907,0.10304372757673264,0.03118024580180645,-0.01996592991054058,-8.68871784210205,7.350275039672852,1.4041804075241089,0.44,-0.11,-0.21,279.72
1666738948.85832882,491919528,1,0.71,-0.49,345.48,0.15320193767547607,0.10505351424217224,0.03903462365269661,-0.0065787299536168575,-8.679758071899414,7.355865001678467,1.4046800136566162,0.44,-0.11,-0.21,279.72
1666738948.89836693,491959566,1,0.73,-0.49,345.48,0.15348933637142181,0.1059434786438942,0.03796551376581192,0.0004254104569554329,-8.65235424041748,7.372529983520508,1.403743028640747,0.44,-0.11,-0.21,279.72
1666738948.93832970,491999529,1,0.7000000000000001,-0.5,345.49,0.14721797406673431,0.1117367222905159,0.023378564044833183,-0.015492459759116173,-8.632536888122559,7.384687900543213,1.4033503532409668,0.44,-0.11,-0.21,279.72
1666738948.97832489,492039524,1,0.73,-0.49,345.5,0.1561581939458847,0.11065548658370972,0.02462146244943142,-0.015019634738564491,-8.61458683013916,7.395711421966553,1.4030483961105347,0.44,-0.11,-0.21,279.72
1666738949.01831985,492079519,1,0.75,-0.5,345.52,0.16403107345104218,0.10820414870977402,0.029670173302292824,-0.011444451287388802,-8.59554672241211,7.407731056213379,1.4029018878936768,0.44,-0.11,-0.21,279.72
1666738949.03831387,492099513,1,0.71,-0.5,345.51,0.15101978182792664,0.10879486799240112,0.022663993760943413,-0.014862658455967903,-8.581525802612305,7.4171671867370605,1.4032142162322998,0.44,-0.11,-0.21,279.72
1666738949.05834889,492119548,1,0.68,-0.49,345.51,0.15591922402381897,0.08899863809347153,0.035198621451854706,0.002965205814689398,-8.573473930358887,7.422482490539551,1.4037108421325684,0.44,-0.11,-0.21,279.72
1666738949.09834480,492159544,1,0.76,-0.51,345.52,0.15814638137817383,0.1039624884724617,0.029819633811712265,0.0043403455056250095,-8.549108505249023,7.438666820526123,1.4033284187316895,0.44,-0.11,-0.21,279.72
1666738949.13836980,492199569,1,0.78,-0.5,345.53000000000003,0.14610984921455383,0.08914808928966522,0.04680714011192322,0.01927143894135952,-8.53150749206543,7.450427055358887,1.4033303260803223,0.44,-0.11,-0.21,279.72
1666738949.17832971,492239529,1,0.75,-0.53,345.55,0.14867018163204193,0.1002638190984726,0.01574873924255371,-0.014045029878616333,-8.515552520751953,7.460952281951904,1.403096318244934,0.44,-0.11,-0.21,279.72
1666738949.21832490,492279524,1,0.7000000000000001,-0.53,345.57,0.14625562727451324,0.09107997268438339,0.02784005180001259,-0.010612079873681068,-8.497989654541016,7.472529888153076,1.4024590253829956,0.44,-0.11,-0.21,279.72
1666738949.23835492,492299554,1,0.68,-0.52,345.55,0.15648141503334045,0.09953994303941727,0.031338900327682495,-0.009784548543393612,-8.484336853027344,7.481447219848633,1.402112603187561,0.44,-0.11,-0.21,279.72
1666738949.25834370,492319543,1,0.76,-0.53,345.59000000000003,0.1416214108467102,0.08919008076190948,0.036025624722242355,-0.006200507283210754,-8.476380348205566,7.486721038818359,1.402350664138794,0.44,-0.11,-0.21,279.72
1666738949.29833579,492359535,1,0.76,-0.52,345.61,0.13995809853076935,0.09435047209262848,0.031048588454723358,-0.01271666120737791,-8.452936172485352,7.502167701721191,1.4013080596923828,0.44,-0.11,-0.21,279.72
1666738949.33833790,492399537,1,0.73,-0.52,345.62,0.13994494080543518,0.09619026631116867,0.024364003911614418,-0.022946305572986603,-8.435996055603027,7.513400554656982,1.400904655456543,0.44,-0.11,-0.21,279.72
1666738949.37832785,492439527,1,0.77,-0.5,345.63,0.1453847736120224,0.10277238488197327,0.04319431632757187,-0.005987599026411772,-8.420727729797363,7.5235676765441895,1.3997461795806885,0.44,-0.11,-0.21,279.72
1666738949.41831875,492479518,1,0.79,-0.49,345.63,0.14986646175384521,0.10469786077737808,0.026529572904109955,-0.04137576371431351,-8.403149604797363,7.534283638000488,1.3975757360458374,0.44,-0.11,-0.21,279.72
1666738949.43832779,492499527,1,0.76,-0.5,345.63,0.15207229554653168,0.10058318823575974,0.028066329658031464,-0.047089237719774246,-8.388541221618652,7.542052745819092,1.396368384361267,0.44,-0.11,-0.21,279.72
1666738949.45830679,492519506,1,0.8,-0.49,345.63,0.15320740640163422,0.09163438528776169,0.03793861344456673,-0.04165487363934517,-8.380192756652832,7.54672384262085,1.3961435556411743,0.44,-0.11,-0.21,279.72
1666738949.49834371,492559543,1,0.75,-0.49,345.62,0.1572965681552887,0.09865421801805496,0.03346182778477669,-0.05643981695175171,-8.354918479919434,7.5601277351379395,1.3920704126358032,0.44,-0.11,-0.21,279.72
1666738949.53834271,492599542,1,0.77,-0.48,345.64,0.15435267984867096,0.09446578472852707,0.028558878228068352,-0.07856225222349167,-8.336653709411621,7.5698933601379395,1.3893609046936035,0.44,-0.11,-0.21,279.72
1666738949.57835674,492639556,1,0.76,-0.5,345.64,0.15117178857326508,0.10001777857542038,0.02773883379995823,-0.08768435567617416,-8.320046424865723,7.578782081604004,1.386303186416626,0.44,-0.11,-0.21,279.72
1666738949.61832690,492679526,1,0.73,-0.46,345.67,0.14631302654743195,0.07636777311563492,0.042187198996543884,-0.08300425857305527,-8.294722557067871,7.590806484222412,1.3834015130996704,0.44,-0.11,-0.21,279.72
1666738949.63834691,492699546,1,0.77,-0.47000000000000003,345.65000000000003,0.15309694409370422,0.09733297675848007,0.03596112132072449,-0.08945807069540024,-8.280254364013672,7.597426891326904,1.381502389907837,0.44,-0.11,-0.21,279.72
1666738949.65832686,492719526,1,0.74,-0.49,345.64,0.15141528844833374,0.08878124505281448,0.02924491837620735,-0.09448352456092834,-8.271801948547363,7.6015119552612305,1.3809565305709839,0.44,-0.11,-0.21,279.72
1666738949.69831586,492759515,1,0.76,-0.48,345.66,0.1618049591779709,0.09624336659908295,0.03910202533006668,-0.08270101994276047,-8.246495246887207,7.612921237945557,1.3760778903961182,0.44,-0.11,-0.21,279.72
1666738949.73833990,492799539,1,0.77,-0.46,345.66,0.1507810801267624,0.08487238734960556,0.025597117841243744,-0.10122532397508621,-8.228143692016602,7.621362686157227,1.3729416131973267,0.44,-0.11,-0.21,279.72
1666738949.77832389,492839523,1,0.79,-0.46,345.65000000000003,0.15993717312812805,0.09190929681062698,0.03958475589752197,-0.08660869300365448,-8.211343765258789,7.628993988037109,1.36941397190094,0.44,-0.11,-0.21,279.72
1666738949.81836987,492879569,1,0.8300000000000001,-0.46,345.66,0.1585700511932373,0.08442243188619614,0.00806068442761898,-0.1270318478345871,-8.193048477172852,7.637437343597412,1.3655301332473755,0.44,-0.11,-0.21,279.72
1666738949.83834171,492899541,1,0.75,-0.43,345.63,0.16500280797481537,0.09131307154893875,0.010622560046613216,-0.12149041146039963,-8.179110527038574,7.644072532653809,1.3637861013412476,0.44,-0.11,-0.21,279.72
1666738949.85829377,492919493,1,0.71,-0.48,345.65000000000003,0.1527983546257019,0.0585944764316082,0.020094551146030426,-0.10543905943632126,-8.170913696289062,7.647986888885498,1.3632110357284546,0.44,-0.11,-0.21,279.72
1666738949.89832687,492959526,1,0.6900000000000001,-0.43,345.61,0.15365147590637207,0.06822305917739868,0.029827335849404335,-0.09513313323259354,-8.146808624267578,7.659121513366699,1.3557764291763306,0.44,-0.11,-0.2,279.72
1666738949.93833280,492999532,1,0.67,-0.42,345.59000000000003,0.14512594044208527,0.05759032443165779,-0.02619253471493721,-0.17479367554187775,-8.129443168640137,7.666929721832275,1.349605917930603,0.44,-0.11,-0.2,279.72
1666738949.97834373,493039543,1,0.51,-0.41000000000000003,345.56,0.15931107103824615,0.06996498256921768,-0.0511176623404026,-0.21582327783107758,-8.113883972167969,7.673531532287598,1.341369867324829,0.44,-0.11,-0.2,279.72
1666738950.01836371,493079563,1,0.4,-0.32,345.56,0.13937817513942719,0.050002727657556534,-0.08061032742261887,-0.289274662733078,-8.09634017944336,7.680479049682617,1.329514980316162,0.44,-0.11,-0.21,279.72
1666738950.03831577,493099515,1,0.14,-0.26,345.57,0.14616423845291138,0.049530044198036194,-0.0870877206325531,-0.3098577857017517,-8.082494735717773,7.6857380867004395,1.322791337966919,0.44,-0.11,-0.21,279.72
1666738950.05833077,493119530,1,0.18,-0.22,345.52,0.14249730110168457,0.045145999640226364,-0.09953740984201431,-0.3303097188472748,-8.074371337890625,7.688798904418945,1.3182674646377563,0.44,-0.11,-0.21,279.72
1666738950.09833288,493159532,1,-0.03,-0.1,345.53000000000003,0.13334262371063232,0.03255462273955345,-0.14883510768413544,-0.4028584659099579,-8.050469398498535,7.697556018829346,1.2981208562850952,0.44,-0.11,-0.2,279.72
1666738950.13831973,493199519,1,-0.19,0.0,345.52,0.13082879781723022,0.02326202020049095,-0.15216906368732452,-0.4511077404022217,-8.033330917358398,7.703474044799805,1.2804713249206543,0.44,-0.11,-0.2,279.72
1666738950.17834592,493239545,1,-0.28,0.09,345.53000000000003,0.12554822862148285,0.010867435485124588,-0.2018464356660843,-0.5241912603378296,-8.01789379119873,7.708573818206787,1.259864091873169,0.44,-0.11,-0.2,279.72
1666738950.21834278,493279542,1,-0.42,0.17,345.49,0.12264560163021088,0.015787627547979355,-0.2297980934381485,-0.6094674468040466,-8.000412940979004,7.7141618728637695,1.2344838380813599,0.44,-0.11,-0.2,279.72
1666738950.23831773,493299517,1,-0.33,0.2,345.47,0.13378606736660004,0.03118184767663479,-0.28051501512527466,-0.6787936687469482,-7.986110687255859,7.718949317932129,1.2202661037445068,0.44,-0.11,-0.2,279.72
1666738950.25834870,493319548,1,-0.48,0.25,345.48,0.12305703014135361,0.02014038898050785,-0.2693083584308624,-0.6767336130142212,-7.978071212768555,7.721245288848877,1.2103688716888428,0.44,-0.11,-0.2,279.72
1666738950.29833078,493359530,1,-0.51,0.31,345.45,0.12373709678649902,0.015734313055872917,-0.3230263590812683,-0.7547585368156433,-7.953734874725342,7.728479862213135,1.1745648384094238,0.44,-0.11,-0.2,279.72
1666738950.33832669,493399526,1,-0.56,0.35000000000000003,345.42,0.12323732674121857,0.01546906866133213,-0.3382841944694519,-0.8215965628623962,-7.936676979064941,7.732826232910156,1.1438828706741333,0.44,-0.11,-0.2,279.72
1666738950.37831688,493439516,1,-0.56,0.36,345.38,0.11314575374126434,0.008418144658207893,-0.40255269408226013,-0.9049254059791565,-7.921396732330322,7.736335277557373,1.1111042499542236,0.44,-0.11,-0.2,279.72
1666738950.41835070,493479550,1,-0.62,0.38,345.34000000000003,0.10589470714330673,0.0064491829834878445,-0.4235541522502899,-0.9740194082260132,-7.904820442199707,7.74019718170166,1.074296236038208,0.44,-0.11,-0.2,279.72
1666738950.43832183,493499521,1,-0.71,0.36,345.36,0.11404311656951904,-0.02570885419845581,-0.435774028301239,-0.9951476454734802,-7.891651153564453,7.7438154220581055,1.0540906190872192,0.44,-0.11,-0.2,279.72
1666738950.45834374,493519543,1,-0.61,0.37,345.31,0.09871688485145569,-0.010326540097594261,-0.4523780643939972,-1.008263349533081,-7.884424209594727,7.745395183563232,1.0401945114135742,0.44,-0.11,-0.2,279.72
1666738950.49836588,493559565,1,-0.63,0.37,345.26,0.09496346116065979,-0.02560237981379032,-0.45332658290863037,-0.9997159242630005,-7.862124919891357,7.7510905265808105,0.9958667159080505,0.44,-0.11,-0.2,279.72
1666738950.53830791,493599507,1,-0.66,0.36,345.23,0.08850298076868057,-0.04671669378876686,-0.4728466272354126,-1.028019905090332,-7.846762657165527,7.753991603851318,0.958977997303009,0.44,-0.11,-0.2,279.72
1666738950.57832670,493639526,1,-0.7000000000000001,0.31,345.17,0.08616039901971817,-0.05254516750574112,-0.47241392731666565,-1.0099735260009766,-7.833151817321777,7.755972385406494,0.9210659861564636,0.44,-0.11,-0.2,279.72
1666738950.61831784,493679517,1,-0.61,0.29,345.13,0.08193211257457733,-0.05751759558916092,-0.508241593837738,-1.0626789331436157,-7.814180850982666,7.757966995239258,0.8806129693984985,0.44,-0.11,-0.19,279.72
1666738950.63832784,493699527,1,-0.51,0.25,345.1,0.0903155505657196,-0.052253689616918564,-0.5158921480178833,-1.063480257987976,-7.79424524307251,7.7604146003723145,0.8595073819160461,0.44,-0.11,-0.19,279.72
1666738950.65834284,493719542,1,-0.5,0.23,345.08,0.08756570518016815,-0.05871041491627693,-0.4936262369155884,-1.024194359779358,-7.784036636352539,7.760909557342529,0.8444840312004089,0.44,-0.11,-0.19,279.72
1666738950.69832492,493759524,1,-1.03,0.5700000000000001,166.26,0.08654002845287323,-0.06984274089336395,-0.5161418914794922,-1.1110574007034302,-7.7501044273376465,7.763864994049072,0.7765104174613953,0.44,-0.11,-0.19,279.72
1666738950.73835588,493799555,1,-0.62,0.47000000000000003,166.19,0.10498563945293427,-0.07050187885761261,-0.5326328873634338,-1.3449631929397583,-7.726792335510254,7.764608860015869,0.718462347984314,0.44,-0.11,-0.19,279.72
1666738950.77833271,493839532,1,-0.22,0.36,166.16,0.10890557616949081,-0.06678362935781479,-0.5340873599052429,-1.4924805164337158,-7.705246925354004,7.765152454376221,0.6566975116729736,0.44,-0.11,-0.19,279.72
1666738950.81832385,493879523,1,0.31,0.31,166.17000000000002,0.1211070716381073,-0.05622728168964386,-0.5566120147705078,-1.7229464054107666,-7.682563304901123,7.767345428466797,0.58613121509552,0.44,-0.11,-0.19,279.72
1666738950.83835793,493899557,1,0.52,0.3,166.19,0.1414102166891098,-0.038294147700071335,-0.5195251107215881,-1.7618368864059448,-7.665456295013428,7.77126932144165,0.5462583303451538,0.44,-0.11,-0.19,279.72
1666738950.85832787,493919527,1,0.92,0.26,166.22,0.13378013670444489,-0.051275838166475296,-0.5126562118530273,-1.8009884357452393,-7.65598201751709,7.772695064544678,0.522327184677124,0.44,-0.11,-0.19,279.72
1666738950.89835286,493959552,1,1.5,0.15,166.28,0.1546882688999176,-0.03487371653318405,-0.5189028978347778,-1.8634593486785889,-7.625561237335205,7.77970027923584,0.43472206592559814,0.44,-0.11,-0.19,279.72
1666738950.93834591,493999545,1,1.87,0.08,166.47,0.16901130974292755,-0.024483228102326393,-0.5019410252571106,-1.9300532341003418,-7.602978706359863,7.784387588500977,0.3668694496154785,0.44,-0.11,-0.19,279.72
1666738950.97832179,494039521,1,2.14,0.07,166.61,0.18238478899002075,-0.0300082266330719,-0.491862028837204,-1.9090564250946045,-7.581730365753174,7.788900852203369,0.2999262809753418,0.44,-0.11,-0.19,279.72
1666738951.01833487,494079534,1,2.23,0.13,166.79,0.1969275176525116,-0.005876411683857441,-0.4618135690689087,-1.9040154218673706,-7.559854984283447,7.7947540283203125,0.23043417930603027,0.44,-0.11,-0.19,279.72
1666738951.03833985,494099539,1,2.27,0.15,166.85,0.19814357161521912,-0.024904487654566765,-0.4509381055831909,-1.8746113777160645,-7.544971466064453,7.800498008728027,0.1930389553308487,0.44,-0.11,-0.19,279.72
1666738951.05831480,494119514,1,2.2800000000000002,0.18,166.94,0.20376984775066376,-0.02147509716451168,-0.41405218839645386,-1.7994638681411743,-7.535836219787598,7.803060054779053,0.1710314154624939,0.44,-0.11,-0.19,279.72
1666738951.09834170,494159541,1,2.49,0.16,167.07,0.21217761933803558,-0.01302044466137886,-0.4237258732318878,-1.7133331298828125,-7.509258270263672,7.812697887420654,0.09637642651796341,0.44,-0.11,-0.19,279.72
1666738951.13834381,494199543,1,2.56,0.17,167.15,0.21339330077171326,-0.027087464928627014,-0.370344340801239,-1.5987261533737183,-7.489286422729492,7.8183979988098145,0.041473884135484695,0.44,-0.11,-0.19,279.72
1666738951.17835474,494239554,1,2.6,0.16,167.22,0.2086496502161026,-0.04193872958421707,-0.3580859303474426,-1.4882826805114746,-7.470448970794678,7.822884559631348,-0.009815502911806107,0.44,-0.11,-0.19,279.72
1666738951.21832681,494279526,1,2.5,0.13,167.34,0.21167051792144775,-0.056200090795755386,-0.3161202669143677,-1.3549615144729614,-7.450611114501953,7.828471660614014,-0.057687580585479736,0.44,-0.11,-0.19,279.72
1666738951.23834181,494299541,1,2.45,0.09,167.4,0.219805046916008,-0.040070731192827225,-0.32017895579338074,-1.293082356452942,-7.436625957489014,7.834306240081787,-0.08261863142251968,0.44,-0.11,-0.19,279.72
1666738951.25830889,494319508,1,2.22,0.04,167.45000000000002,0.21823035180568695,-0.057612840086221695,-0.30034971237182617,-1.2002733945846558,-7.427610874176025,7.83650541305542,-0.0974297821521759,0.44,-0.11,-0.19,279.72
1666738951.29831672,494359516,1,1.84,-0.03,167.59,0.228680819272995,-0.05008446052670479,-0.2477339804172516,-0.9689653515815735,-7.4027605056762695,7.845716953277588,-0.13497135043144226,0.44,-0.11,-0.19,279.72
1666738951.33834291,494399542,1,1.3800000000000001,-0.06,167.78,0.227728471159935,-0.05300509184598923,-0.2230931669473648,-0.7538772225379944,-7.383641719818115,7.8506388664245605,-0.16073621809482574,0.44,-0.11,-0.19,279.72
1666738951.37834573,494439545,1,0.96,-0.07,167.98,0.23423603177070618,-0.04942198097705841,-0.24619586765766144,-0.6150102019309998,-7.365640640258789,7.854403972625732,-0.18308357894420624,0.44,-0.11,-0.19,279.72
1666738951.41836381,494479563,1,0.51,-0.01,168.17000000000002,0.23680223524570465,-0.05463319644331932,-0.20481544733047485,-0.4330013692378998,-7.3472490310668945,7.85905647277832,-0.20071941614151,0.44,-0.11,-0.19,279.72
1666738951.43834376,494499543,1,0.39,-0.01,168.26,0.2469933182001114,-0.07468395680189133,-0.21757400035858154,-0.38044464588165283,-7.33522891998291,7.864378452301025,-0.20920440554618835,0.44,-0.11,-0.19,279.72
1666738951.45833087,494519530,1,0.27,0.01,168.35,0.2381729930639267,-0.04722190648317337,-0.23457913100719452,-0.3392506241798401,-7.327060222625732,7.866222381591797,-0.21544133126735687,0.44,-0.11,-0.19,279.72
1666738951.49832773,494559527,1,0.01,-0.09,168.48,0.2364920675754547,-0.05172939598560333,-0.2144005447626114,-0.2128143310546875,-7.305793285369873,7.874593734741211,-0.22639821469783783,0.44,-0.11,-0.19,279.72
1666738951.53831387,494599513,1,-0.07,-0.51,168.61,0.23676851391792297,-0.042279280722141266,-0.24252989888191223,-0.14723162353038788,-7.289060592651367,7.87919282913208,-0.2355116754770279,0.44,-0.11,-0.19,279.72
1666738951.57833576,494639535,1,-0.13,-1.02,168.68,0.23782958090305328,-0.04722990840673447,-0.2363193780183792,-0.08088240027427673,-7.273560523986816,7.883151531219482,-0.24233990907669067,0.44,-0.11,-0.19,279.72
1666738951.61836576,494679565,1,-0.22,-1.41,168.75,0.2368386685848236,-0.023968515917658806,-0.27513355016708374,-0.038449957966804504,-7.25800085067749,7.888003349304199,-0.2457716315984726,0.44,-0.11,-0.19,279.72
1666738951.63831878,494699518,1,-0.19,-1.53,168.76,0.23917226493358612,-0.02419540472328663,-0.2871994078159332,-0.01717996969819069,-7.248687744140625,7.892853736877441,-0.24683204293251038,0.44,-0.11,-0.19,279.72
1666738951.65834689,494719546,1,-0.23,-1.56,168.76,0.23916731774806976,-0.025874318554997444,-0.28155627846717834,0.012135961093008518,-7.241841793060303,7.894878387451172,-0.25038090348243713,0.44,-0.11,-0.19,279.72
1666738951.69833088,494759530,1,-0.34,-1.35,168.76,0.23970863223075867,-0.002904806286096573,-0.3129207193851471,0.029152221977710724,-7.225180625915527,7.903186321258545,-0.24756348133087158,0.44,-0.11,-0.19,279.72
1666738951.73831582,494799515,1,-0.33,-1.02,168.72,0.237973153591156,0.0008922735578380525,-0.32061299681663513,0.08149784058332443,-7.211506366729736,7.90841007232666,-0.24875161051750183,0.44,-0.11,-0.19,279.72
1666738951.77835178,494839551,1,-0.31,-0.71,168.69,0.2290029078722,0.004970867652446032,-0.3448287546634674,0.08600950241088867,-7.198791980743408,7.9132609367370605,-0.24922609329223633,0.44,-0.11,-0.19,279.72
1666738951.81834078,494879540,1,-0.15,-0.56,168.53,0.22592584788799286,-0.00013432839477900416,-0.37759917974472046,0.11239724606275558,-7.185529708862305,7.9179205894470215,-0.24666327238082886,0.44,-0.11,-0.19,279.72
1666738951.83831477,494899514,1,-0.01,-0.51,168.43,0.2227053940296173,0.021557645872235298,-0.40821537375450134,0.1053619235754013,-7.176788806915283,7.921109676361084,-0.24414508044719696,0.44,-0.11,-0.19,279.72
1666738951.85836077,494919560,1,0.1,-0.5,168.34,0.21574583649635315,0.00042024944559670985,-0.4135073125362396,0.1148335188627243,-7.170487880706787,7.922717094421387,-0.24750211834907532,0.44,-0.11,-0.19,279.72
1666738951.89833570,494959535,1,0.32,-0.51,168.13,0.2229488641023636,0.013178612105548382,-0.4731697738170624,0.07086799293756485,-7.155216217041016,7.928186416625977,-0.2420077919960022,0.44,-0.11,-0.19,279.72
1666738951.93828773,494999487,1,0.55,-0.43,167.86,0.2236434817314148,0.014075351879000664,-0.5191497802734375,0.044021353125572205,-7.142869472503662,7.9319353103637695,-0.2447620928287506,0.44,-0.11,-0.19,279.72
1666738951.97833776,495039537,1,0.79,-0.23,167.62,0.2179427593946457,0.031998906284570694,-0.5628221035003662,-0.012783894315361977,-7.13104772567749,7.935398578643799,-0.24981847405433655,0.44,-0.11,-0.19,279.72
1666738952.01834774,495079547,1,0.9400000000000001,-0.06,167.37,0.2173762321472168,0.029057161882519722,-0.5935679078102112,-0.046792443841695786,-7.1176958084106445,7.936988353729248,-0.2549073100090027,0.44,-0.11,-0.19,279.72
1666738952.03831291,495099512,1,1.12,0.02,167.25,0.21895773708820343,0.012330247089266777,-0.6143718361854553,-0.07636871188879013,-7.1077961921691895,7.935929298400879,-0.25656551122665405,0.44,-0.11,-0.19,279.72
1666738952.05834675,495119546,1,1.1300000000000001,0.14,167.15,0.2162196785211563,0.017283756285905838,-0.6402686238288879,-0.11661923676729202,-7.100958824157715,7.935632705688477,-0.2639613151550293,0.44,-0.11,-0.19,279.72
1666738952.09832573,495159525,1,1.1300000000000001,0.19,166.89000000000001,0.2166273295879364,0.002566359471529722,-0.6895374655723572,-0.19078664481639862,-7.083200454711914,7.933592319488525,-0.26762157678604126,0.44,-0.11,-0.19,279.72
1666738952.13832974,495199529,1,1.28,0.27,166.63,0.22228075563907623,-0.00798584334552288,-0.7326213717460632,-0.23606674373149872,-7.06904411315918,7.932069778442383,-0.27951398491859436,0.44,-0.11,-0.19,279.72
1666738952.17834187,495239541,1,1.44,0.37,166.4,0.23302853107452393,-0.0010321656009182334,-0.7881584763526917,-0.30966389179229736,-7.0556769371032715,7.930283546447754,-0.293272465467453,0.44,-0.11,-0.19,279.72
1666738952.21832085,495279520,1,1.45,0.42,166.20000000000002,0.23484471440315247,-0.006692938040941954,-0.7889811992645264,-0.30912312865257263,-7.042010307312012,7.926245212554932,-0.3064256012439728,0.44,-0.11,-0.19,279.72
1666738952.23834682,495299546,1,1.53,0.39,166.12,0.22355452179908752,-0.020492440089583397,-0.8217042684555054,-0.33664095401763916,-7.0336384773254395,7.921028137207031,-0.3105004131793976,0.44,-0.11,-0.19,279.72
1666738952.25834775,495319547,1,1.53,0.45,166.03,0.2295067459344864,-0.02715184912085533,-0.8560790419578552,-0.3676736652851105,-7.027321815490723,7.91835880279541,-0.32129812240600586,0.44,-0.11,-0.19,279.72
1666738952.29833579,495359535,1,1.74,0.46,165.88,0.2287846952676773,-0.028324663639068604,-0.854250967502594,-0.36105072498321533,-7.012295722961426,7.908570766448975,-0.33002349734306335,0.44,-0.11,-0.19,279.72
1666738952.33836484,495399564,1,1.72,0.4,165.79,0.2289416790008545,-0.04162311926484108,-0.8553058505058289,-0.3485986292362213,-6.999777793884277,7.901322841644287,-0.3467610478401184,0.44,-0.11,-0.19,279.72
1666738952.37832975,495439529,1,1.71,0.29,165.69,0.2285315990447998,-0.04680204391479492,-0.8579562306404114,-0.3651379942893982,-6.98805570602417,7.894182205200195,-0.36444807052612305,0.44,-0.11,-0.19,279.72
1666738952.41831970,495479519,1,1.6600000000000001,0.16,165.64000000000001,0.23368054628372192,-0.0635157898068428,-0.8488849997520447,-0.3655534088611603,-6.975774765014648,7.885364055633545,-0.3807877004146576,0.44,-0.11,-0.19,279.72
1666738952.43834877,495499548,1,1.6500000000000001,0.09,165.62,0.23594053089618683,-0.05739839747548103,-0.8366290926933289,-0.3551759421825409,-6.9679131507873535,7.87766695022583,-0.3861010670661926,0.44,-0.11,-0.19,279.72
1666738952.45831680,495519516,1,1.6400000000000001,0.04,165.6,0.23400172591209412,-0.06340165436267853,-0.8413001894950867,-0.3615729510784149,-6.962011814117432,7.873360633850098,-0.39690732955932617,0.44,-0.11,-0.19,279.72
1666738952.49834585,495559545,1,1.58,0.0,165.58,0.2259015589952469,-0.07329155504703522,-0.8254727721214294,-0.3477571904659271,-6.948230266571045,7.859334468841553,-0.40501102805137634,0.44,-0.11,-0.19,279.72
1666738952.53836679,495599566,1,1.6300000000000001,-0.03,165.6,0.22985371947288513,-0.08099642395973206,-0.8263737559318542,-0.337068110704422,-6.936376571655273,7.848729610443115,-0.42085760831832886,0.44,-0.11,-0.19,279.72
1666738952.57835484,495639554,1,1.59,-0.06,165.63,0.22993694245815277,-0.08764016628265381,-0.8034521341323853,-0.3283160328865051,-6.925276756286621,7.838649272918701,-0.4370940327644348,0.44,-0.11,-0.19,279.72
1666738952.61832690,495679526,1,1.56,-0.1,165.68,0.23508304357528687,-0.09484165161848068,-0.8185468912124634,-0.35178226232528687,-6.913336753845215,7.826144218444824,-0.45122116804122925,0.44,-0.11,-0.19,279.72
1666738952.63833880,495699538,1,1.54,-0.13,165.70000000000002,0.2264157086610794,-0.10258585959672928,-0.79848313331604,-0.32703596353530884,-6.905684947967529,7.815247535705566,-0.4538598954677582,0.44,-0.11,-0.19,279.72
1666738952.65833092,495719530,1,1.48,-0.19,165.71,0.2282181680202484,-0.09963472187519073,-0.7895324230194092,-0.30711284279823303,-6.8996171951293945,7.808981895446777,-0.46399882435798645,0.44,-0.11,-0.19,279.72
1666738952.69834590,495759545,1,1.44,-0.32,165.77,0.22793573141098022,-0.10312892496585846,-0.7841068506240845,-0.28580790758132935,-6.885859966278076,7.789512634277344,-0.46926525235176086,0.44,-0.11,-0.19,279.72
1666738952.73834181,495799541,1,1.32,-0.44,165.82,0.22082871198654175,-0.10795356333255768,-0.7597193717956543,-0.24334445595741272,-6.874560356140137,7.775265693664551,-0.4814591705799103,0.44,-0.11,-0.19,279.72
1666738952.77835989,495839559,1,1.21,-0.53,165.87,0.21708515286445618,-0.11270242184400558,-0.756640613079071,-0.2527047097682953,-6.863827705383301,7.761828422546387,-0.49501779675483704,0.44,-0.11,-0.19,279.72
1666738952.81832480,495879524,1,1.1500000000000001,-0.53,165.93,0.2089763581752777,-0.12153726816177368,-0.7307087182998657,-0.2379038780927658,-6.852263450622559,7.746380805969238,-0.5048571228981018,0.44,-0.11,-0.19,279.72
1666738952.83834577,495899545,1,1.1400000000000001,-0.49,165.96,0.21267783641815186,-0.12789127230644226,-0.7365109920501709,-0.2282433807849884,-6.844480514526367,7.733917236328125,-0.5037637948989868,0.44,-0.11,-0.19,279.72
1666738952.85830283,495919502,1,1.07,-0.5,166.0,0.2034844011068344,-0.12660452723503113,-0.7258116006851196,-0.19156749546527863,-6.838684558868408,7.726805686950684,-0.5108434557914734,0.44,-0.11,-0.19,279.72
1666738952.89831877,495959518,1,0.99,-0.53,166.05,0.19771510362625122,-0.12903814017772675,-0.7094643712043762,-0.1426096111536026,-6.825061798095703,7.704896926879883,-0.5111461281776428,0.44,-0.11,-0.19,279.72
1666738952.93834281,495999542,1,0.87,-0.71,166.13,0.18929502367973328,-0.1354641616344452,-0.6971080303192139,-0.12130003422498703,-6.814089298248291,7.689124584197998,-0.5203066468238831,0.44,-0.11,-0.19,279.72
1666738952.97834373,496039543,1,0.72,-1.1300000000000001,166.17000000000002,0.17671643197536469,-0.12891362607479095,-0.6805709600448608,-0.13424336910247803,-6.804349422454834,7.674792289733887,-0.5303387641906738,0.44,-0.11,-0.19,279.72
1666738953.01835680,496079556,1,0.46,-1.69,166.23,0.1712070256471634,-0.12879592180252075,-0.6715723276138306,-0.16771462559700012,-6.794430732727051,7.658220291137695,-0.5407750606536865,0.44,-0.11,-0.19,279.72
1666738953.03835893,496099558,1,0.37,-1.93,166.24,0.16099976003170013,-0.10564592480659485,-0.694835901260376,-0.20576781034469604,-6.788606643676758,7.644469261169434,-0.5417081713676453,0.44,-0.11,-0.19,279.72
1666738953.05830479,496119504,1,0.25,-2.21,166.26,0.1574772298336029,-0.12018178403377533,-0.6754425764083862,-0.19539478421211243,-6.7842326164245605,7.636748313903809,-0.5494577884674072,0.44,-0.11,-0.19,279.72
1666738953.09830785,496159507,1,0.03,-2.5100000000000002,166.31,0.14551284909248352,-0.12108450382947922,-0.6381533741950989,-0.1829296499490738,-6.774412155151367,7.612888336181641,-0.5536510348320007,0.44,-0.11,-0.19,279.72
1666738953.13831377,496199513,1,-0.06,-2.5100000000000002,166.36,0.13704927265644073,-0.1153818815946579,-0.6510855555534363,-0.22099089622497559,-6.766683101654053,7.596014022827148,-0.564814567565918,0.44,-0.11,-0.19,279.72
1666738953.17834473,496239544,1,-0.13,-2.29,166.4,0.12498477846384048,-0.11762601882219315,-0.6244499683380127,-0.2312840074300766,-6.75995397567749,7.580931663513184,-0.576314389705658,0.44,-0.11,-0.19,279.72
1666738953.21833181,496279531,1,-0.17,-2.07,166.43,0.11433590948581696,-0.09778804332017899,-0.6288297176361084,-0.25807759165763855,-6.75233268737793,7.565664291381836,-0.5863348841667175,0.44,-0.11,-0.19,279.72
1666738953.23831487,496299514,1,-0.3,-2.0,166.45000000000002,0.09787403047084808,-0.07983875274658203,-0.5990724563598633,-0.22958704829216003,-6.746363639831543,7.55495023727417,-0.5876460671424866,0.44,-0.11,-0.19,279.72
1666738953.25835371,496319553,1,-0.24,-2.05,166.46,0.097611203789711,-0.0831969752907753,-0.6070460081100464,-0.23473282158374786,-6.742642402648926,7.549006938934326,-0.5950348377227783,0.44,-0.11,-0.19,279.72
1666738953.29832792,496359527,1,-0.2,-2.25,166.46,0.07876482605934143,-0.06745388358831406,-0.6013282537460327,-0.23318929970264435,-6.733323097229004,7.530984878540039,-0.5996382236480713,0.44,-0.11,-0.19,279.72
