timestamp,TimeUS,DesRoll,Roll,DesPitch,Pitch,DesYaw,Yaw,ErrRP,ErrYaw,AEKF
90.82281500,90822815,0.0,0.54,0.0,-0.89,358.99,359.0,0.0,0.05,0
90.92279000,90922790,0.0,0.54,0.0,-0.88,358.99,359.0,0.0,0.04,0
91.02278600,91022786,0.0,0.54,0.0,-0.88,358.96,358.97,0.0,0.04,0
91.12283100,91122831,0.0,0.54,0.0,-0.88,358.99,359.0,0.0,0.04,0
91.22278200,91222782,0.0,0.54,0.0,-0.88,359.02,359.03000000000003,0.0,0.04,0
91.32276400,91322764,0.0,0.54,0.0,-0.88,359.0,359.01,0.0,0.04,0
91.42311700,91423117,0.0,0.54,0.0,-0.88,358.93,358.94,0.0,0.05,0
91.52277600,91522776,0.0,0.54,0.0,-0.88,358.95,358.96,0.0,0.05,0
91.62277400,91622774,0.0,0.54,0.0,-0.88,358.98,358.99,0.0,0.05,0
91.72280000,91722800,0.0,0.54,0.0,-0.87,358.97,358.98,0.0,0.04,0
91.82280200,91822802,0.0,0.54,0.0,-0.87,358.92,358.93,0.0,0.05,0
91.92277000,91922770,0.0,0.54,0.0,-0.87,358.93,358.94,0.0,0.04,0
92.02278200,92022782,0.0,0.54,0.0,-0.87,358.98,358.99,0.0,0.05,0
92.12278400,92122784,0.0,0.54,0.0,-0.87,358.96,358.97,0.0,0.05,0
92.22279000,92222790,0.0,0.54,0.0,-0.86,358.93,358.94,0.0,0.04,0
92.32277400,92322774,0.0,0.54,0.0,-0.86,358.87,358.88,0.0,0.06,0
97.22278400,97222784,0.0,0.55,0.0,-0.86,358.87,358.88,0.0,0.05,0
97.32277100,97322771,0.0,0.54,0.0,-0.86,358.87,358.88,0.0,0.04,0
97.42318300,97423183,0.0,0.54,0.0,-0.86,358.98,358.99,0.0,0.07,0
97.52273800,97522738,0.0,0.54,0.0,-0.86,358.94,358.95,0.0,0.07,0
97.62278300,97622783,0.0,0.54,0.0,-0.86,358.93,358.94,0.0,0.05,0
97.72277900,97722779,0.0,0.54,0.0,-0.86,358.86,358.87,0.0,0.06,0
97.82278400,97822784,0.0,0.54,0.0,-0.86,358.89,358.90000000000003,0.0,0.06,0
97.92278800,97922788,0.0,0.54,0.0,-0.86,358.86,358.87,0.0,0.05,0
98.02276200,98022762,0.0,0.54,0.0,-0.86,358.89,358.90000000000003,0.0,0.05,0
98.12279900,98122799,0.0,0.54,0.0,-0.86,358.85,358.86,0.0,0.05,0
98.22278200,98222782,0.0,0.54,0.0,-0.86,358.84000000000003,358.85,0.0,0.04,0
98.32278300,98322783,0.0,0.54,0.0,-0.86,358.82,358.83,0.0,0.04,0
98.42303000,98423030,0.0,0.54,0.0,-0.86,358.81,358.82,0.0,0.04,0
98.52281900,98522819,0.0,0.53,0.0,-0.86,358.84000000000003,358.85,0.0,0.04,0
98.62278200,98622782,0.0,0.54,0.0,-0.86,358.76,358.77,0.0,0.06,0
98.72279400,98722794,0.0,0.54,0.0,-0.86,358.75,358.76,0.0,0.05,0
98.82278800,98822788,0.0,0.53,0.0,-0.86,358.8,358.81,0.0,0.05,0
98.92282200,98922822,0.0,0.53,0.0,-0.86,358.82,358.83,0.0,0.05,0
99.02278500,99022785,0.0,0.53,0.0,-0.86,358.82,358.83,0.0,0.04,0
99.12277800,99122778,0.0,0.53,0.0,-0.86,358.82,358.83,0.0,0.03,0
99.22279500,99222795,0.0,0.53,0.0,-0.86,358.83,358.84000000000003,0.0,0.03,0
99.32277600,99322776,0.0,0.54,0.0,-0.86,358.79,358.8,0.0,0.04,0
99.42298700,99422987,0.0,0.54,0.0,-0.86,358.75,358.76,0.0,0.04,0
99.52280400,99522804,0.0,0.54,0.0,-0.86,358.82,358.83,0.0,0.05,0
99.62281600,99622816,0.0,0.54,0.0,-0.86,358.85,358.86,0.0,0.05,0
99.72280500,99722805,0.0,0.54,0.0,-0.86,358.86,358.87,0.0,0.04,0
99.82277500,99822775,0.0,0.54,0.0,-0.86,358.85,358.86,0.0,0.04,0
99.92278300,99922783,0.0,0.54,0.0,-0.86,358.84000000000003,358.85,0.0,0.03,0
100.02286000,100022860,0.0,0.54,0.0,-0.86,358.82,358.83,0.0,0.03,0
100.12283300,100122833,0.0,0.54,0.0,-0.86,358.83,358.84000000000003,0.0,0.03,0
100.22278500,100222785,0.0,0.54,0.0,-0.86,358.89,358.90000000000003,0.0,0.04,0
100.32277500,100322775,0.0,0.54,0.0,-0.86,358.94,358.95,0.0,0.05,0
100.42308300,100423083,0.0,0.54,0.0,-0.86,358.91,358.92,0.0,0.05,0
100.52277200,100522772,0.0,0.54,0.0,-0.86,358.92,358.93,0.0,0.04,0
100.62276100,100622761,0.0,0.54,0.0,-0.86,358.90000000000003,358.91,0.0,0.04,0
100.72277700,100722777,0.0,0.54,0.0,-0.86,358.91,358.92,0.0,0.03,0
100.82277500,100822775,0.0,0.54,0.0,-0.86,358.87,358.88,0.0,0.04,0
100.92279600,100922796,0.0,0.54,0.0,-0.86,358.85,358.86,0.0,0.04,0
101.02279400,101022794,0.0,0.54,0.0,-0.86,358.86,358.87,0.0,0.03,0
101.12279700,101122797,0.0,0.54,0.0,-0.86,358.88,358.89,0.0,0.03,0
101.22281100,101222811,0.0,0.54,0.0,-0.86,358.83,358.84000000000003,0.0,0.04,0
101.32277300,101322773,0.0,0.54,0.0,-0.86,358.76,358.77,0.0,0.05,0
101.42302500,101423025,0.0,0.54,0.0,-0.86,358.76,358.77,0.0,0.04,0
101.52277900,101522779,0.0,0.54,0.0,-0.85,358.75,358.76,0.0,0.04,0
101.62289600,101622896,0.0,0.54,0.0,-0.85,358.77,358.78000000000003,0.0,0.04,0
101.72276700,101722767,0.0,0.54,0.0,-0.85,358.8,358.81,0.0,0.04,0
101.82278200,101822782,0.0,0.54,0.0,-0.85,358.82,358.83,0.0,0.04,0
101.92281300,101922813,0.0,0.54,0.0,-0.85,358.83,358.84000000000003,0.0,0.03,0
102.02281500,102022815,0.0,0.54,0.0,-0.85,358.85,358.86,0.0,0.03,0
102.12276800,102122768,0.0,0.53,0.0,-0.84,358.90000000000003,358.91,0.0,0.04,0
102.22276400,102222764,0.0,0.53,0.0,-0.86,358.94,358.95,0.0,0.05,0
102.32280500,102322805,0.0,0.53,0.0,-0.85,359.0,359.01,0.0,0.05,0
102.42303000,102423030,0.0,0.53,0.0,-0.85,358.99,359.0,0.0,0.04,0
102.52279400,102522794,0.0,0.53,0.0,-0.85,358.95,358.96,0.0,0.05,0
102.62279900,102622799,0.0,0.53,0.0,-0.84,358.99,359.0,0.0,0.05,0
102.72281200,102722812,0.0,0.53,0.0,-0.85,358.99,359.0,0.0,0.04,0
102.82279800,102822798,0.0,0.53,0.0,-0.84,359.03000000000003,359.04,0.0,0.04,0
102.92278400,102922784,0.0,0.54,0.0,-0.85,358.92,358.93,0.0,0.07,0
103.02274100,103022741,0.0,0.55,0.0,-0.85,358.92,358.93,0.0,0.06,0
103.12278700,103122787,0.0,0.59,0.0,-0.85,358.89,358.90000000000003,0.0,0.05,0
103.22281200,103222812,0.0,0.55,0.0,-0.84,358.90000000000003,358.91,0.0,0.05,0
103.32278200,103322782,0.0,0.55,0.0,-0.8300000000000001,358.92,358.93,0.0,0.04,0
103.42306900,103423069,0.0,0.56,0.0,-0.85,358.96,358.97,0.0,0.04,0
103.52281900,103522819,0.0,0.54,0.0,-0.85,358.92,358.93,0.0,0.05,0
103.62274700,103622747,0.0,0.51,0.0,-0.85,358.94,358.95,0.0,0.04,0
103.72278200,103722782,0.0,0.49,0.0,-0.84,358.90000000000003,358.91,0.0,0.05,0
103.82277500,103822775,0.0,0.49,0.0,-0.84,358.92,358.93,0.0,0.04,0
103.92278200,103922782,0.0,0.49,0.0,-0.8300000000000001,358.93,358.94,0.0,0.04,0
104.02278200,104022782,0.0,0.48,0.0,-0.84,358.97,358.98,0.0,0.04,0
104.12277300,104122773,0.0,0.48,0.0,-0.8300000000000001,358.98,358.99,0.0,0.04,0
104.22280400,104222804,0.0,0.47000000000000003,0.0,-0.84,359.04,359.05,0.0,0.05,0
104.32279800,104322798,0.0,0.45,0.0,-0.85,359.09000000000003,359.1,0.0,0.05,0
104.42301600,104423016,0.0,0.46,0.0,-0.85,359.06,359.07,0.0,0.05,0
104.52276900,104522769,0.0,0.44,0.0,-0.84,359.07,359.08,0.0,0.04,0
104.62283100,104622831,0.0,0.43,0.0,-0.86,359.1,359.11,0.0,0.04,0
104.72274700,104722747,0.0,0.44,0.0,-0.85,359.05,359.06,0.0,0.05,0
104.82277700,104822777,0.0,0.46,0.0,-0.8300000000000001,359.06,359.07,0.0,0.04,0
104.92279400,104922794,0.0,0.46,0.0,-0.86,358.99,359.0,0.0,0.03,0
105.02278700,105022787,0.0,0.49,0.0,-0.85,359.0,359.01,0.0,0.03,0
105.12278100,105122781,0.0,0.52,0.0,-0.86,358.94,358.95,0.0,0.04,0
105.22276700,105222767,0.0,0.53,0.0,-0.86,358.91,358.92,0.0,0.04,0
105.32276700,105322767,0.0,0.54,0.0,-0.85,358.86,358.87,0.0,0.05,0
105.42315300,105423153,0.0,0.54,0.0,-0.86,358.82,358.83,0.0,0.05,0
105.52279000,105522790,0.0,0.54,0.0,-0.86,358.85,358.86,0.0,0.05,0
105.62277600,105622776,0.0,0.55,0.0,-0.86,358.83,358.84000000000003,0.0,0.04,0
105.72277500,105722775,0.0,0.55,0.0,-0.84,358.79,358.8,0.0,0.05,0
105.82289500,105822895,0.0,0.55,0.0,-0.85,358.79,358.8,0.0,0.04,0
105.92280000,105922800,0.0,0.55,0.0,-0.84,358.76,358.77,0.0,0.04,0
106.02276200,106022762,0.0,0.55,0.0,-0.84,358.74,358.75,0.0,0.04,0
106.12277300,106122773,0.0,0.55,0.0,-0.84,358.73,358.74,0.0,0.03,0
106.22278200,106222782,0.0,0.55,0.0,-0.84,358.76,358.77,0.0,0.03,0
106.32280000,106322800,0.0,0.55,0.0,-0.85,358.81,358.82,0.0,0.05,0
106.42312400,106423124,0.0,0.54,0.0,-0.84,358.83,358.84000000000003,0.0,0.04,0
106.52277700,106522777,0.0,0.55,0.0,-0.85,358.78000000000003,358.79,0.0,0.05,0
106.62280300,106622803,0.0,0.55,0.0,-0.85,358.75,358.76,0.0,0.04,0
106.72276600,106722766,0.0,0.55,0.0,-0.85,358.77,358.78000000000003,0.0,0.04,0
106.82278100,106822781,0.0,0.55,0.0,-0.85,358.78000000000003,358.79,0.0,0.03,0
106.92278800,106922788,0.0,0.55,0.0,-0.85,358.79,358.8,0.0,0.03,0
107.02277700,107022777,0.0,0.54,0.0,-0.85,358.83,358.84000000000003,0.0,0.04,0
107.12276800,107122768,0.0,0.54,0.0,-0.85,358.86,358.87,0.0,0.04,0
107.22276900,107222769,0.0,0.54,0.0,-0.85,358.87,358.88,0.0,0.04,0
107.32281300,107322813,0.0,0.54,0.0,-0.85,358.85,358.86,0.0,0.03,0
107.42302400,107423024,0.0,0.54,0.0,-0.85,358.85,358.86,0.0,0.03,0
107.52280700,107522807,0.0,0.54,0.0,-0.85,358.88,358.89,0.0,0.03,0
107.62277200,107622772,0.0,0.54,0.0,-0.85,358.89,358.90000000000003,0.0,0.03,0
107.72278600,107722786,0.0,0.54,0.0,-0.86,358.94,358.95,0.0,0.04,0
107.82279700,107822797,0.0,0.54,0.0,-0.86,358.93,358.94,0.0,0.04,0
107.92284100,107922841,0.0,0.54,0.0,-0.86,358.92,358.93,0.0,0.03,0
108.02277900,108022779,0.0,0.54,0.0,-0.86,358.89,358.90000000000003,0.0,0.03,0
108.12277100,108122771,0.0,0.54,0.0,-0.86,358.89,358.90000000000003,0.0,0.03,0
108.22282700,108222827,0.0,0.54,0.0,-0.86,358.86,358.87,0.0,0.03,0
108.32278700,108322787,0.0,0.54,0.0,-0.86,358.82,358.83,0.0,0.04,0
108.42309000,108423090,0.0,0.54,0.0,-0.86,358.87,358.88,0.0,0.05,0
108.52277100,108522771,0.0,0.54,0.0,-0.86,358.93,358.94,0.0,0.06,0
108.62278800,108622788,0.0,0.55,0.0,-0.86,358.93,358.94,0.0,0.05,0
108.72279900,108722799,0.0,0.55,0.0,-0.86,358.87,358.88,0.0,0.06,0
108.82282600,108822826,0.0,0.54,0.0,-0.86,358.89,358.90000000000003,0.0,0.05,0
108.92277100,108922771,0.0,0.54,0.0,-0.86,358.89,358.90000000000003,0.0,0.04,0
109.02276200,109022762,0.0,0.54,0.0,-0.86,358.91,358.92,0.0,0.04,0
109.12278000,109122780,0.0,0.54,0.0,-0.86,358.90000000000003,358.91,0.0,0.03,0
109.22278100,109222781,0.0,0.54,0.0,-0.86,358.89,358.90000000000003,0.0,0.03,0
114.62290600,114622906,0.0,0.52,0.0,-0.85,358.89,358.90000000000003,0.0,0.03,0
114.72276200,114722762,0.0,0.52,0.0,-0.85,358.87,358.88,0.0,0.03,0
114.82277600,114822776,0.0,0.52,0.0,-0.84,358.88,358.89,0.0,0.03,0
114.92277800,114922778,0.0,0.52,0.0,-0.84,358.88,358.89,0.0,0.02,0
115.02278300,115022783,0.0,0.52,0.0,-0.84,358.90000000000003,358.91,0.0,0.02,0
115.12280700,115122807,0.0,0.52,0.0,-0.84,358.86,358.87,0.0,0.03,0
115.22279700,115222797,0.0,0.51,0.0,-0.84,358.99,359.0,0.0,0.07,0
115.32280800,115322808,0.0,0.51,0.0,-0.84,359.01,359.02,0.0,0.06,0
115.42328200,115423282,0.0,0.51,0.0,-0.84,359.06,359.07,0.0,0.06,0
115.52280600,115522806,0.0,0.51,0.0,-0.84,359.05,359.06,0.0,0.05,0
115.62278900,115622789,0.0,0.51,0.0,-0.84,359.07,359.08,0.0,0.05,0
115.72282100,115722821,0.0,0.51,0.0,-0.84,359.11,359.12,0.0,0.05,0
115.82278300,115822783,0.0,0.51,0.0,-0.8300000000000001,359.14,359.15000000000003,0.0,0.05,0
115.92278800,115922788,0.0,0.51,0.0,-0.8300000000000001,359.14,359.15000000000003,0.0,0.04,0
116.02280600,116022806,0.0,0.51,0.0,-0.8300000000000001,359.12,359.13,0.0,0.04,0
116.12277800,116122778,0.0,0.51,0.0,-0.8300000000000001,359.17,359.18,0.0,0.04,0
116.22273100,116222731,0.0,0.51,0.0,-0.8300000000000001,359.13,359.14,0.0,0.05,0
116.32280700,116322807,0.0,0.51,0.0,-0.8300000000000001,359.12,359.13,0.0,0.04,0
116.42305900,116423059,0.0,0.51,0.0,-0.8300000000000001,359.15000000000003,359.16,0.0,0.04,0
116.52278500,116522785,0.0,0.51,0.0,-0.8300000000000001,359.14,359.15000000000003,0.0,0.03,0
116.62278100,116622781,0.0,0.51,0.0,-0.8300000000000001,359.14,359.15000000000003,0.0,0.03,0
116.72276700,116722767,0.0,0.51,0.0,-0.8300000000000001,359.08,359.09000000000003,0.0,0.04,0
116.82281400,116822814,0.0,0.51,0.0,-0.8300000000000001,359.15000000000003,359.16,0.0,0.06,0
116.92278500,116922785,0.0,0.51,0.0,-0.8300000000000001,359.16,359.17,0.0,0.05,0
117.02277800,117022778,0.0,0.51,0.0,-0.8300000000000001,359.17,359.18,0.0,0.04,0
117.12277900,117122779,0.0,0.51,0.0,-0.8300000000000001,359.19,359.2,0.0,0.03,0
117.22285200,117222852,0.0,0.5,0.0,-0.8300000000000001,359.21,359.22,0.0,0.03,0
117.32277300,117322773,0.0,0.51,0.0,-0.8300000000000001,359.19,359.2,0.0,0.03,0
117.42306700,117423067,0.0,0.5,0.0,-0.8300000000000001,359.22,359.23,0.0,0.03,0
117.52280500,117522805,0.0,0.5,0.0,-0.8300000000000001,359.27,359.28000000000003,0.0,0.04,0
117.62276900,117622769,0.0,0.51,0.0,-0.8300000000000001,359.26,359.27,0.0,0.04,0
117.72278200,117722782,0.0,0.51,0.0,-0.8300000000000001,359.3,359.31,0.0,0.04,0
117.82275800,117822758,0.0,0.51,0.0,-0.8300000000000001,359.27,359.28000000000003,0.0,0.04,0
117.92278100,117922781,0.0,0.51,0.0,-0.8300000000000001,359.25,359.26,0.0,0.04,0
118.02280100,118022801,0.0,0.51,0.0,-0.8300000000000001,359.22,359.23,0.0,0.04,0
118.12281200,118122812,0.0,0.51,0.0,-0.8300000000000001,359.17,359.18,0.0,0.05,0
118.22280800,118222808,0.0,0.51,0.0,-0.8300000000000001,359.19,359.2,0.0,0.04,0
118.32279700,118322797,0.0,0.51,0.0,-0.8300000000000001,359.15000000000003,359.16,0.0,0.05,0
118.42319900,118423199,0.0,0.5,0.0,-0.8300000000000001,359.15000000000003,359.16,0.0,0.04,0
118.52278700,118522787,0.0,0.5,0.0,-0.8300000000000001,359.14,359.15000000000003,0.0,0.03,0
118.62278100,118622781,0.0,0.5,0.0,-0.8300000000000001,359.13,359.14,0.0,0.03,0
118.72274800,118722748,0.0,0.5,0.0,-0.8300000000000001,359.09000000000003,359.1,0.0,0.04,0
118.82283200,118822832,0.0,0.5,0.0,-0.8300000000000001,359.08,359.09000000000003,0.0,0.03,0
118.92277600,118922776,0.0,0.5,0.0,-0.8300000000000001,359.07,359.08,0.0,0.03,0
119.02281300,119022813,0.0,0.5,0.0,-0.8300000000000001,359.05,359.06,0.0,0.03,0
119.12279900,119122799,0.0,0.5,0.0,-0.8300000000000001,359.05,359.06,0.0,0.02,0
119.22280300,119222803,0.0,0.5,0.0,-0.8300000000000001,359.07,359.08,0.0,0.03,0
119.32276400,119322764,0.0,0.5,0.0,-0.8300000000000001,359.05,359.06,0.0,0.03,0
119.42305900,119423059,0.0,0.5,0.0,-0.8300000000000001,359.04,359.05,0.0,0.02,0
119.52277700,119522777,0.0,0.5,0.0,-0.8300000000000001,359.02,359.03000000000003,0.0,0.03,0
119.62277400,119622774,0.0,0.5,0.0,-0.84,359.04,359.05,0.0,0.03,0
119.72277400,119722774,0.0,0.5,0.0,-0.8300000000000001,359.06,359.07,0.0,0.03,0
119.82279800,119822798,0.0,0.5,0.0,-0.84,359.11,359.12,0.0,0.04,0
119.92283700,119922837,0.0,0.5,0.0,-0.84,359.06,359.07,0.0,0.04,0
120.02277600,120022776,0.0,0.5,0.0,-0.84,359.05,359.06,0.0,0.04,0
120.12277200,120122772,0.0,0.5,0.0,-0.84,359.04,359.05,0.0,0.03,0
120.22277800,120222778,0.0,0.5,0.0,-0.84,359.04,359.05,0.0,0.03,0
120.32281800,120322818,0.0,0.5,0.0,-0.8300000000000001,359.08,359.09000000000003,0.0,0.04,0
120.42304500,120423045,0.0,0.49,0.0,-0.84,359.16,359.17,0.0,0.06,0
120.52281500,120522815,0.0,0.5,0.0,-0.8300000000000001,359.16,359.17,0.0,0.05,0
120.62277900,120622779,0.0,0.49,0.0,-0.8300000000000001,359.14,359.15000000000003,0.0,0.05,0
120.72280200,120722802,0.0,0.48,0.0,-0.8200000000000001,359.12,359.13,0.0,0.05,0
120.82278900,120822789,0.0,0.48,0.0,-0.8200000000000001,359.14,359.15000000000003,0.0,0.04,0
120.92278700,120922787,0.0,0.5,0.0,-0.8300000000000001,359.11,359.12,0.0,0.04,0
121.02279300,121022793,0.0,0.5,0.0,-0.84,359.09000000000003,359.1,0.0,0.03,0
121.12277500,121122775,0.0,0.51,0.0,-0.84,359.09000000000003,359.1,0.0,0.03,0
121.22277900,121222779,0.0,0.5,0.0,-0.85,359.11,359.12,0.0,0.03,0
121.32280600,121322806,0.0,0.49,0.0,-0.84,359.1,359.11,0.0,0.03,0
121.42303400,121423034,0.0,0.49,0.0,-0.8300000000000001,359.1,359.11,0.0,0.03,0
121.52280100,121522801,0.0,0.49,0.0,-0.8300000000000001,359.13,359.14,0.0,0.03,0
121.62278000,121622780,0.0,0.5,0.0,-0.8200000000000001,359.14,359.15000000000003,0.0,0.02,0
121.72282300,121722823,0.0,0.5,0.0,-0.8200000000000001,359.15000000000003,359.16,0.0,0.03,0
121.82278300,121822783,0.0,0.52,0.0,-0.8200000000000001,359.17,359.18,0.0,0.03,0
121.92282900,121922829,0.0,0.52,0.0,-0.84,359.17,359.18,0.0,0.03,0
122.02278000,122022780,0.0,0.51,0.0,-0.8300000000000001,359.21,359.22,0.0,0.04,0
122.12278800,122122788,0.0,0.52,0.0,-0.85,359.16,359.17,0.0,0.04,0
122.22279300,122222793,0.0,0.52,0.0,-0.84,359.14,359.15000000000003,0.0,0.04,0
122.32282700,122322827,0.0,0.51,0.0,-0.85,359.12,359.13,0.0,0.03,0
122.42304900,122423049,0.0,0.5,0.0,-0.8300000000000001,359.11,359.12,0.0,0.04,0
122.52276200,122522762,0.0,0.5,0.0,-0.84,359.08,359.09000000000003,0.0,0.04,0
122.62279800,122622798,0.0,0.5,0.0,-0.84,359.03000000000003,359.04,0.0,0.04,0
122.72277500,122722775,0.0,0.5,0.0,-0.84,359.04,359.05,0.0,0.03,0
122.82278000,122822780,0.0,0.51,0.0,-0.86,359.08,359.09000000000003,0.0,0.05,0
122.92275800,122922758,0.0,0.51,0.0,-0.86,359.08,359.09000000000003,0.0,0.04,0
123.02280300,123022803,0.0,0.5,0.0,-0.86,359.04,359.05,0.0,0.04,0
123.12280200,123122802,0.0,0.5,0.0,-0.86,359.07,359.08,0.0,0.04,0
123.22277000,123222770,0.0,0.5,0.0,-0.85,359.04,359.05,0.0,0.04,0
123.32278600,123322786,0.0,0.5,0.0,-0.85,359.03000000000003,359.04,0.0,0.04,0
123.42305400,123423054,0.0,0.5,0.0,-0.86,359.05,359.06,0.0,0.04,0
123.52284400,123522844,0.0,0.5,0.0,-0.85,359.06,359.07,0.0,0.03,0
123.62278300,123622783,0.0,0.5,0.0,-0.86,359.07,359.08,0.0,0.03,0
123.72276700,123722767,0.0,0.5,0.0,-0.85,359.1,359.11,0.0,0.03,0
123.82274800,123822748,0.0,0.49,0.0,-0.85,359.1,359.11,0.0,0.03,0
123.92277800,123922778,0.0,0.49,0.0,-0.85,359.11,359.12,0.0,0.02,0
124.02278900,124022789,0.0,0.49,0.0,-0.85,359.15000000000003,359.16,0.0,0.03,0
124.12278300,124122783,0.0,0.49,0.0,-0.85,359.15000000000003,359.16,0.0,0.02,0
124.22278700,124222787,0.0,0.49,0.0,-0.85,359.13,359.14,0.0,0.03,0
124.32279500,124322795,0.0,0.49,0.0,-0.85,359.17,359.18,0.0,0.03,0
124.42320400,124423204,0.0,0.49,0.0,-0.85,359.16,359.17,0.0,0.03,0
124.52275900,124522759,0.0,0.49,0.0,-0.85,359.16,359.17,0.0,0.02,0
124.62280800,124622808,0.0,0.49,0.0,-0.85,359.22,359.23,0.0,0.03,0
124.72280200,124722802,0.0,0.49,0.0,-0.84,359.2,359.21,0.0,0.03,0
124.82279100,124822791,0.0,0.49,0.0,-0.84,359.22,359.23,0.0,0.03,0
124.92277500,124922775,0.0,0.49,0.0,-0.85,359.21,359.22,0.0,0.03,0
125.02280400,125022804,0.0,0.49,0.0,-0.85,359.22,359.23,0.0,0.02,0
125.12277800,125122778,0.0,0.49,0.0,-0.84,359.16,359.17,0.0,0.04,0
125.22280100,125222801,0.0,0.49,0.0,-0.85,359.16,359.17,0.0,0.03,0
125.32279200,125322792,0.0,0.49,0.0,-0.84,359.23,359.24,0.0,0.05,0
125.42308800,125423088,0.0,0.49,0.0,-0.84,359.23,359.24,0.0,0.04,0
125.52277900,125522779,0.0,0.49,0.0,-0.84,359.19,359.2,0.0,0.04,0
125.62276500,125622765,0.0,0.49,0.0,-0.84,359.14,359.15000000000003,0.0,0.05,0
125.72283900,125722839,0.0,0.5,0.0,-0.84,359.12,359.13,0.0,0.04,0
125.82278300,125822783,0.0,0.5,0.0,-0.84,359.09000000000003,359.1,0.0,0.04,0
125.92278000,125922780,0.0,0.5,0.0,-0.84,359.05,359.06,0.0,0.05,0
126.02281000,126022810,0.0,0.49,0.0,-0.8300000000000001,359.04,359.05,0.0,0.04,0
126.12281000,126122810,0.0,0.49,0.0,-0.84,359.03000000000003,359.04,0.0,0.03,0
126.22280400,126222804,0.0,0.49,0.0,-0.8300000000000001,359.08,359.09000000000003,0.0,0.04,0
126.32275400,126322754,0.0,0.49,0.0,-0.8200000000000001,359.07,359.08,0.0,0.04,0
126.42302000,126423020,0.0,0.46,0.0,-0.81,359.1,359.11,0.0,0.04,0
126.52279600,126522796,0.0,0.47000000000000003,0.0,-0.79,359.14,359.15000000000003,0.0,0.04,0
126.62284500,126622845,0.0,0.49,0.0,-0.81,359.18,359.19,0.0,0.05,0
126.72278000,126722780,0.0,0.49,0.0,-0.8,359.06,359.07,0.0,0.08,0
126.82279700,126822797,0.0,0.49,0.0,-0.8200000000000001,359.07,359.08,0.0,0.07,0
126.92280300,126922803,0.0,0.5,0.0,-0.81,359.11,359.12,0.0,0.07,0
127.02277900,127022779,0.0,0.49,0.0,-0.81,359.17,359.18,0.0,0.07,0
127.12275900,127122759,0.0,0.48,0.0,-0.8,359.18,359.19,0.0,0.06,0
127.22278000,127222780,0.0,0.48,0.0,-0.8,359.21,359.22,0.0,0.05,0
127.32278600,127322786,0.0,0.48,0.0,-0.8,359.22,359.23,0.0,0.05,0
127.42304200,127423042,0.0,0.48,0.0,-0.78,359.27,359.28000000000003,0.0,0.05,0
127.52276200,127522762,0.0,0.48,0.0,-0.8,359.23,359.24,0.0,0.04,0
127.62278100,127622781,0.0,0.47000000000000003,0.0,-0.8,359.26,359.27,0.0,0.05,0
127.72282800,127722828,0.0,0.49,0.0,-0.8200000000000001,359.24,359.25,0.0,0.04,0
127.82276000,127822760,0.0,0.49,0.0,-0.84,359.18,359.19,0.0,0.04,0
127.92277700,127922777,0.0,0.49,0.0,-0.8200000000000001,359.19,359.2,0.0,0.04,0
128.02282800,128022828,0.0,0.49,0.0,-0.85,359.21,359.22,0.0,0.04,0
128.12284000,128122840,0.0,0.5,0.0,-0.8300000000000001,359.31,359.32,0.0,0.06,0
128.22281200,128222812,0.0,0.51,0.0,-0.84,359.32,359.33,0.0,0.05,0
128.32280100,128322801,0.0,0.52,0.0,-0.8300000000000001,359.28000000000003,359.29,0.0,0.05,0
128.42306200,128423062,0.0,0.53,0.0,-0.8300000000000001,359.24,359.25,0.0,0.05,0
128.52278800,128522788,0.0,0.54,0.0,-0.8300000000000001,359.24,359.25,0.0,0.04,0
128.62278300,128622783,0.0,0.55,0.0,-0.8300000000000001,359.24,359.25,0.0,0.03,0
128.72277600,128722776,0.0,0.56,0.0,-0.8300000000000001,359.26,359.27,0.0,0.04,0
128.82277200,128822772,0.0,0.56,0.0,-0.8300000000000001,359.33,359.34000000000003,0.0,0.05,0
128.92280100,128922801,0.0,0.56,0.0,-0.84,359.29,359.3,0.0,0.05,0
129.02279000,129022790,0.0,0.56,0.0,-0.84,359.33,359.34000000000003,0.0,0.05,0
129.12280600,129122806,0.0,0.5700000000000001,0.0,-0.8300000000000001,359.34000000000003,359.35,0.0,0.04,0
129.22279100,129222791,0.0,0.56,0.0,-0.8300000000000001,359.42,359.43,0.0,0.06,0
129.32277600,129322776,0.0,0.5700000000000001,0.0,-0.8300000000000001,359.40000000000003,359.41,0.0,0.05,0
129.42301300,129423013,0.0,0.56,0.0,-0.8300000000000001,359.39,359.40000000000003,0.0,0.05,0
129.52277000,129522770,0.0,0.56,0.0,-0.8300000000000001,359.37,359.38,0.0,0.04,0
536.12277900,536122779,0.0,0.5700000000000001,0.0,-0.85,1.19,1.19,0.0,0.01,0
536.22277300,536222773,0.0,0.5700000000000001,0.0,-0.85,1.2,1.2,0.0,0.01,0
536.32278800,536322788,0.0,0.5700000000000001,0.0,-0.85,1.19,1.19,0.0,0.01,0
536.42313200,536423132,0.0,0.5700000000000001,0.0,-0.86,1.19,1.19,0.0,0.01,0
536.52279100,536522791,0.0,0.5700000000000001,0.0,-0.85,1.2,1.2,0.0,0.01,0
536.62281900,536622819,0.0,0.58,0.0,-0.85,1.19,1.19,0.0,0.01,0
536.72280400,536722804,0.0,0.58,0.0,-0.85,1.17,1.17,0.0,0.01,0
536.82281700,536822817,0.0,0.5700000000000001,0.0,-0.85,1.17,1.17,0.0,0.01,0
536.92277300,536922773,0.0,0.58,0.0,-0.85,1.1500000000000001,1.1500000000000001,0.0,0.01,0
537.02278700,537022787,0.0,0.58,0.0,-0.86,1.1300000000000001,1.1300000000000001,0.0,0.01,0
537.12280700,537122807,0.0,0.58,0.0,-0.86,1.1300000000000001,1.1300000000000001,0.0,0.01,0
537.22278300,537222783,0.0,0.5700000000000001,0.0,-0.86,1.12,1.12,0.0,0.01,0
537.32277900,537322779,0.0,0.5700000000000001,0.0,-0.86,1.1300000000000001,1.1300000000000001,0.0,0.01,0
537.42305800,537423058,0.0,0.5700000000000001,0.0,-0.86,1.12,1.12,0.0,0.01,0
537.52281700,537522817,0.0,0.5700000000000001,0.0,-0.86,1.11,1.11,0.0,0.01,0
537.62279300,537622793,0.0,0.5700000000000001,0.0,-0.86,1.11,1.11,0.0,0.01,0
537.72276800,537722768,0.0,0.5700000000000001,0.0,-0.86,1.1,1.1,0.0,0.01,0
537.82278200,537822782,0.0,0.5700000000000001,0.0,-0.86,1.09,1.09,0.0,0.01,0
537.92279400,537922794,0.0,0.5700000000000001,0.0,-0.86,1.08,1.08,0.0,0.01,0
538.02277500,538022775,0.0,0.5700000000000001,0.0,-0.86,1.08,1.08,0.0,0.0,0
538.12280800,538122808,0.0,0.5700000000000001,0.0,-0.86,1.08,1.08,0.0,0.0,0
538.22277800,538222778,0.0,0.5700000000000001,0.0,-0.86,1.09,1.09,0.0,0.0,0
538.32280500,538322805,0.0,0.56,0.0,-0.86,1.08,1.08,0.0,0.01,0
538.42310200,538423102,0.0,0.56,0.0,-0.86,1.1,1.1,0.0,0.01,0
538.52279500,538522795,0.0,0.56,0.0,-0.86,1.1,1.1,0.0,0.01,0
538.62278100,538622781,0.0,0.56,0.0,-0.86,1.08,1.08,0.0,0.01,0
538.72283200,538722832,0.0,0.56,0.0,-0.86,1.08,1.08,0.0,0.01,0
538.82277900,538822779,0.0,0.56,0.0,-0.86,1.09,1.09,0.0,0.01,0
538.92276500,538922765,0.0,0.56,0.0,-0.86,1.08,1.08,0.0,0.01,0
539.02279300,539022793,0.0,0.56,0.0,-0.86,1.07,1.07,0.0,0.01,0
539.12275600,539122756,0.0,0.56,0.0,-0.86,1.08,1.08,0.0,0.01,0
539.22278900,539222789,0.0,0.56,0.0,-0.86,1.09,1.09,0.0,0.01,0
539.32278000,539322780,0.0,0.56,0.0,-0.87,1.09,1.09,0.0,0.01,0
539.42305400,539423054,0.0,0.56,0.0,-0.86,1.09,1.09,0.0,0.01,0
539.52278800,539522788,0.0,0.56,0.0,-0.87,1.08,1.08,0.0,0.01,0
539.62279200,539622792,0.0,0.5700000000000001,0.0,-0.86,1.09,1.09,0.0,0.01,0
539.72280400,539722804,0.0,0.5700000000000001,0.0,-0.86,1.06,1.06,0.0,0.01,0
539.82282500,539822825,0.0,0.5700000000000001,0.0,-0.86,1.06,1.06,0.0,0.01,0
539.92281900,539922819,0.0,0.5700000000000001,0.0,-0.87,1.03,1.03,0.0,0.01,0
540.02277100,540022771,0.0,0.5700000000000001,0.0,-0.86,1.03,1.03,0.0,0.01,0
540.12277300,540122773,0.0,0.5700000000000001,0.0,-0.86,1.02,1.02,0.0,0.01,0
540.22285000,540222850,0.0,0.5700000000000001,0.0,-0.86,1.03,1.03,0.0,0.01,0
540.32278400,540322784,0.0,0.5700000000000001,0.0,-0.86,1.03,1.03,0.0,0.01,0
540.42303600,540423036,0.0,0.5700000000000001,0.0,-0.86,1.02,1.02,0.0,0.01,0
540.52278800,540522788,0.0,0.5700000000000001,0.0,-0.86,0.99,0.99,0.0,0.01,0
540.62280100,540622801,0.0,0.5700000000000001,0.0,-0.86,0.98,0.98,0.0,0.01,0
540.72277100,540722771,0.0,0.5700000000000001,0.0,-0.86,0.97,0.97,0.0,0.01,0
540.82273200,540822732,0.0,0.5700000000000001,0.0,-0.86,0.96,0.96,0.0,0.01,0
540.92277600,540922776,0.0,0.58,0.0,-0.86,0.9500000000000001,0.9500000000000001,0.0,0.01,0
541.02278900,541022789,0.0,0.58,0.0,-0.86,0.93,0.93,0.0,0.01,0
541.12278500,541122785,0.0,0.5700000000000001,0.0,-0.86,0.9400000000000001,0.9400000000000001,0.0,0.01,0
541.22277900,541222779,0.0,0.5700000000000001,0.0,-0.86,0.9500000000000001,0.9500000000000001,0.0,0.01,0
541.32279700,541322797,0.0,0.5700000000000001,0.0,-0.86,0.9500000000000001,0.9500000000000001,0.0,0.01,0
541.42305700,541423057,0.0,0.5700000000000001,0.0,-0.86,0.9500000000000001,0.9500000000000001,0.0,0.01,0
541.52278200,541522782,0.0,0.5700000000000001,0.0,-0.86,0.9400000000000001,0.9400000000000001,0.0,0.01,0
541.62277200,541622772,0.0,0.5700000000000001,0.0,-0.86,0.9400000000000001,0.9400000000000001,0.0,0.01,0
541.72279600,541722796,0.0,0.5700000000000001,0.0,-0.86,0.93,0.93,0.0,0.01,0
541.82283000,541822830,0.0,0.5700000000000001,0.0,-0.86,0.93,0.93,0.0,0.01,0
541.92277700,541922777,0.0,0.5700000000000001,0.0,-0.86,0.91,0.91,0.0,0.01,0
542.02280200,542022802,0.0,0.5700000000000001,0.0,-0.86,0.93,0.93,0.0,0.01,0
542.12277600,542122776,0.0,0.5700000000000001,0.0,-0.86,0.93,0.93,0.0,0.01,0
542.22274200,542222742,0.0,0.5700000000000001,0.0,-0.86,0.92,0.92,0.0,0.01,0
542.32285000,542322850,0.0,0.5700000000000001,0.0,-0.86,0.92,0.92,0.0,0.01,0
542.42309100,542423091,0.0,0.56,0.0,-0.86,0.92,0.92,0.0,0.01,0
542.52278600,542522786,0.0,0.5700000000000001,0.0,-0.86,0.91,0.91,0.0,0.01,0
542.62279500,542622795,0.0,0.5700000000000001,0.0,-0.86,0.91,0.91,0.0,0.01,0
542.72278500,542722785,0.0,0.56,0.0,-0.86,0.91,0.91,0.0,0.01,0
542.82278100,542822781,0.0,0.56,0.0,-0.86,0.91,0.91,0.0,0.01,0
542.92281600,542922816,0.0,0.56,0.0,-0.86,0.9,0.9,0.0,0.0,0
543.02281000,543022810,0.0,0.56,0.0,-0.85,0.9,0.9,0.0,0.0,0
543.12275500,543122755,0.0,0.56,0.0,-0.85,0.89,0.89,0.0,0.0,0
543.22277600,543222776,0.0,0.56,0.0,-0.85,0.88,0.88,0.0,0.0,0
543.32279100,543322791,0.0,0.56,0.0,-0.85,0.87,0.87,0.0,0.0,0
543.42308700,543423087,0.0,0.56,0.0,-0.85,0.89,0.89,0.0,0.01,0
543.52278300,543522783,0.0,0.56,0.0,-0.86,0.9,0.9,0.0,0.01,0
543.62277900,543622779,0.0,0.56,0.0,-0.85,0.91,0.91,0.0,0.01,0
543.72278900,543722789,0.0,0.56,0.0,-0.85,0.89,0.89,0.0,0.01,0
543.82287100,543822871,0.0,0.5700000000000001,0.0,-0.85,0.88,0.88,0.0,0.01,0
543.92276800,543922768,0.0,0.5700000000000001,0.0,-0.85,0.86,0.86,0.0,0.01,0
544.02277000,544022770,0.0,0.56,0.0,-0.85,0.85,0.85,0.0,0.01,0
544.12278800,544122788,0.0,0.56,0.0,-0.85,0.86,0.86,0.0,0.01,0
544.22279400,544222794,0.0,0.56,0.0,-0.85,0.88,0.88,0.0,0.01,0
544.32277000,544322770,0.0,0.56,0.0,-0.85,0.88,0.88,0.0,0.01,0
544.42303200,544423032,0.0,0.5700000000000001,0.0,-0.85,0.88,0.88,0.0,0.01,0
544.52279800,544522798,0.0,0.5700000000000001,0.0,-0.85,0.86,0.86,0.0,0.01,0
544.62277100,544622771,0.0,0.56,0.0,-0.84,0.86,0.86,0.0,0.01,0
544.72279500,544722795,0.0,0.56,0.0,-0.84,0.87,0.87,0.0,0.01,0
544.82277000,544822770,0.0,0.56,0.0,-0.84,0.88,0.88,0.0,0.01,0
544.92278400,544922784,0.0,0.5700000000000001,0.0,-0.84,0.87,0.87,0.0,0.01,0
545.02281900,545022819,0.0,0.5700000000000001,0.0,-0.84,0.88,0.88,0.0,0.01,0
545.12278500,545122785,0.0,0.5700000000000001,0.0,-0.84,0.87,0.87,0.0,0.01,0
545.22277700,545222777,0.0,0.5700000000000001,0.0,-0.84,0.87,0.87,0.0,0.01,0
545.32282800,545322828,0.0,0.5700000000000001,0.0,-0.84,0.87,0.87,0.0,0.01,0
545.42309800,545423098,0.0,0.5700000000000001,0.0,-0.84,0.86,0.86,0.0,0.01,0
545.52275100,545522751,0.0,0.5700000000000001,0.0,-0.84,0.86,0.86,0.0,0.01,0
545.62280200,545622802,0.0,0.5700000000000001,0.0,-0.84,0.86,0.86,0.0,0.01,0
545.72279300,545722793,0.0,0.5700000000000001,0.0,-0.84,0.86,0.86,0.0,0.01,0
545.82278600,545822786,0.0,0.5700000000000001,0.0,-0.84,0.86,0.86,0.0,0.0,0
545.92277500,545922775,0.0,0.5700000000000001,0.0,-0.84,0.84,0.84,0.0,0.01,0
546.02281000,546022810,0.0,0.5700000000000001,0.0,-0.84,0.86,0.86,0.0,0.01,0
546.12276400,546122764,0.0,0.5700000000000001,0.0,-0.84,0.86,0.86,0.0,0.01,0
546.22275000,546222750,0.0,0.5700000000000001,0.0,-0.84,0.88,0.88,0.0,0.01,0
546.32279300,546322793,0.0,0.5700000000000001,0.0,-0.85,0.88,0.88,0.0,0.01,0
546.42302400,546423024,0.0,0.5700000000000001,0.0,-0.84,0.88,0.88,0.0,0.01,0
546.52282600,546522826,0.0,0.5700000000000001,0.0,-0.85,0.89,0.89,0.0,0.01,0
546.62278200,546622782,0.0,0.5700000000000001,0.0,-0.85,0.9,0.9,0.0,0.01,0
546.72279700,546722797,0.0,0.5700000000000001,0.0,-0.85,0.88,0.88,0.0,0.01,0
546.82280400,546822804,0.0,0.5700000000000001,0.0,-0.84,0.9,0.9,0.0,0.02,0
546.92277600,546922776,0.0,0.5700000000000001,0.0,-0.84,0.91,0.91,0.0,0.01,0
547.02276000,547022760,0.0,0.5700000000000001,0.0,-0.84,0.9,0.9,0.0,0.01,0
547.12276700,547122767,0.0,0.5700000000000001,0.0,-0.84,0.89,0.89,0.0,0.01,0
547.22282900,547222829,0.0,0.58,0.0,-0.84,0.89,0.89,0.0,0.01,0
547.32277600,547322776,0.0,0.58,0.0,-0.84,0.89,0.89,0.0,0.01,0
547.42306900,547423069,0.0,0.58,0.0,-0.84,0.9,0.9,0.0,0.01,0
547.52279100,547522791,0.0,0.58,0.0,-0.84,0.9,0.9,0.0,0.01,0
547.62281000,547622810,0.0,0.58,0.0,-0.84,0.9,0.9,0.0,0.01,0
547.72277700,547722777,0.0,0.58,0.0,-0.84,0.89,0.89,0.0,0.01,0
547.82278000,547822780,0.0,0.58,0.0,-0.84,0.88,0.88,0.0,0.01,0
547.92278700,547922787,0.0,0.58,0.0,-0.84,0.88,0.88,0.0,0.01,0
548.02278300,548022783,0.0,0.58,0.0,-0.84,0.89,0.89,0.0,0.01,0
548.12276200,548122762,0.0,0.58,0.0,-0.84,0.89,0.89,0.0,0.01,0
548.22279500,548222795,0.0,0.58,0.0,-0.84,0.88,0.88,0.0,0.01,0
548.32280800,548322808,0.0,0.58,0.0,-0.84,0.89,0.89,0.0,0.0,0
548.42307100,548423071,0.0,0.58,0.0,-0.84,0.91,0.91,0.0,0.01,0
548.52278300,548522783,0.0,0.58,0.0,-0.84,0.91,0.91,0.0,0.01,0
548.62275300,548622753,0.0,0.58,0.0,-0.84,0.87,0.87,0.0,0.02,0
548.72276400,548722764,0.0,0.58,0.0,-0.84,0.86,0.86,0.0,0.02,0
548.82280000,548822800,0.0,0.58,0.0,-0.84,0.86,0.86,0.0,0.01,0
548.92279200,548922792,0.0,0.5700000000000001,0.0,-0.84,0.87,0.87,0.0,0.01,0
549.02278200,549022782,0.0,0.5700000000000001,0.0,-0.84,0.9,0.9,0.0,0.02,0
549.12282000,549122820,0.0,0.5700000000000001,0.0,-0.84,0.9,0.9,0.0,0.02,0
549.22283400,549222834,0.0,0.5700000000000001,0.0,-0.84,0.9,0.9,0.0,0.01,0
549.32281300,549322813,0.0,0.5700000000000001,0.0,-0.84,0.89,0.89,0.0,0.01,0
549.42302100,549423021,0.0,0.5700000000000001,0.0,-0.84,0.89,0.89,0.0,0.01,0
549.52278100,549522781,0.0,0.5700000000000001,0.0,-0.84,0.89,0.89,0.0,0.01,0
549.62282300,549622823,0.0,0.5700000000000001,0.0,-0.84,0.88,0.88,0.0,0.01,0
549.72278200,549722782,0.0,0.5700000000000001,0.0,-0.84,0.88,0.88,0.0,0.01,0
549.82278500,549822785,0.0,0.5700000000000001,0.0,-0.84,0.87,0.87,0.0,0.01,0
549.92278100,549922781,0.0,0.5700000000000001,0.0,-0.84,0.87,0.87,0.0,0.0,0
550.02280700,550022807,0.0,0.5700000000000001,0.0,-0.84,0.86,0.86,0.0,0.0,0
550.12287800,550122878,0.0,0.5700000000000001,0.0,-0.84,0.87,0.87,0.0,0.01,0
550.22277400,550222774,0.0,0.5700000000000001,0.0,-0.84,0.88,0.88,0.0,0.01,0
550.32280100,550322801,0.0,0.5700000000000001,0.0,-0.84,0.87,0.87,0.0,0.01,0
550.42310100,550423101,0.0,0.5700000000000001,0.0,-0.84,0.85,0.85,0.0,0.01,0
550.52276900,550522769,0.0,0.5700000000000001,0.0,-0.84,0.86,0.86,0.0,0.01,0
550.62278900,550622789,0.0,0.5700000000000001,0.0,-0.85,0.84,0.84,0.0,0.01,0
550.72279800,550722798,0.0,0.5700000000000001,0.0,-0.85,0.8300000000000001,0.8300000000000001,0.0,0.01,0
550.82276400,550822764,0.0,0.5700000000000001,0.0,-0.85,0.85,0.85,0.0,0.01,0
550.92279000,550922790,0.0,0.5700000000000001,0.0,-0.85,0.85,0.85,0.0,0.01,0
551.02278300,551022783,0.0,0.5700000000000001,0.0,-0.85,0.84,0.84,0.0,0.01,0
