timestamp,TimeUS,I,Status,GMS,GWk,NSats,HDop,Lat,Lng,Alt,Spd,GCrs,VZ,Yaw,U
1666652965.99900007,232567232,0,3,169783999,2233,12,1.03,42.730754999999995,-84.49056329999999,230.99,0.18943336606025696,235.97439575195312,-0.007000000216066837,0.0,1
1666652966.21869326,232786925,0,3,169784199,2233,12,1.03,42.7307547,-84.4905655,230.98000000000002,0.13081666827201843,315.3096923828125,-0.017000000923871994,0.0,1
1666652966.39914417,232967376,0,3,169784399,2233,12,1.0,42.7307547,-84.4905677,230.89000000000001,0.02420743741095066,141.7098388671875,-0.024000000208616257,0.0,1
1666652966.59905815,233167290,0,3,169784599,2233,12,1.0,42.7307548,-84.4905697,230.81,0.10806017369031906,348.7940673828125,0.09300000220537186,0.0,1
1666652966.81864715,233386879,0,3,169784799,2233,12,1.0,42.7307549,-84.4905718,230.69,0.10890363156795502,187.38604736328125,-0.020000001415610313,0.0,1
1666652967.01871228,233586944,0,3,169784999,2233,11,1.0,42.7307548,-84.490574,230.59,0.12920139729976654,37.13597106933594,0.06000000238418579,0.0,1
1666652967.21863317,233786865,0,3,169785199,2233,11,1.0,42.7307548,-84.4905759,230.5,0.06726811826229095,311.9872131347656,-0.058000002056360245,0.0,1
1666652967.41866016,233986892,0,3,169785399,2233,11,1.0,42.7307547,-84.4905781,230.4,0.022203603759407997,144.16233825683594,0.0650000050663948,0.0,1
1666652967.59903526,234167267,0,3,169785599,2233,11,1.0,42.7307546,-84.4905804,230.26,0.04332435876131058,161.14683532714844,-0.017000000923871994,0.0,1
1666652967.79899621,234367228,0,3,169785799,2233,12,1.0,42.7307565,-84.49057959999999,230.56,0.11045361310243607,31.675464630126953,0.00800000037997961,0.0,1
1666652967.99906611,234567298,0,3,169785999,2233,12,1.0,42.7307584,-84.490579,230.84,0.0786447748541832,318.60845947265625,-0.09000000357627869,0.0,1
1666652968.19903016,234767262,0,3,169786199,2233,12,1.0,42.7307602,-84.49057839999999,231.11,0.06935416907072067,42.662689208984375,-0.05100000277161598,0.0,1
1666652968.39905810,234967290,0,3,169786399,2233,12,0.91,42.730761799999996,-84.4905783,231.29,0.12103719264268875,231.70985412597656,0.07000000029802322,0.0,1
1666652968.59900117,235167233,0,3,169786599,2233,12,0.91,42.730763499999995,-84.4905773,231.62,0.07574298977851868,47.67542266845703,0.014000000432133675,0.0,1
1666652968.79891229,235367144,0,3,169786799,2233,12,0.91,42.7307652,-84.4905765,231.92000000000002,0.09512623399496078,282.1368408203125,0.02500000037252903,0.0,1
1666652968.99899411,235567226,0,3,169786999,2233,12,0.91,42.7307669,-84.4905761,232.14000000000001,0.04365776106715202,110.09522247314453,0.023000001907348633,0.0,1
1666652969.21867418,235786906,0,3,169787199,2233,12,0.91,42.7307686,-84.4905753,232.36,0.07823043316602707,4.398704528808594,0.04700000211596489,0.0,1
1666652969.41872716,235986959,0,3,169787399,2233,12,0.91,42.73077,-84.4905745,232.62,0.06545991450548172,108.71173095703125,0.02200000174343586,0.0,1
1666652969.61871719,236186949,0,3,169787599,2233,12,0.91,42.7307717,-84.4905732,232.99,0.20647519826889038,3.887909173965454,-0.08400000631809235,0.0,1
1666652969.81867313,236386905,0,3,169787799,2233,11,0.91,42.7307737,-84.49057189999999,233.34,0.015652475878596306,153.43495178222656,-0.03700000047683716,0.0,1
1666652970.01908708,236587319,0,3,169787999,2233,11,0.91,42.7307752,-84.4905706,233.67000000000002,0.04531004652380943,112.03622436523438,-0.07500000298023224,0.0,1
1666652970.21905017,236787282,0,3,169788199,2233,11,0.91,42.7307766,-84.49056929999999,234.0,0.022472206503152847,20.854454040527344,-0.0430000014603138,0.0,1
1666652970.39871716,236966949,0,3,169788399,2233,11,0.9500000000000001,42.7307783,-84.4905684,234.22,0.06652819365262985,47.4366455078125,-0.11300000548362732,0.0,1
1666652970.61901212,237187244,0,3,169788599,2233,11,0.9500000000000001,42.7307802,-84.4905667,234.62,0.07324616611003876,141.09585571289062,-0.17000000178813934,0.0,1
1666652970.79872823,237366960,0,3,169788799,2233,11,0.9500000000000001,42.730782,-84.4905654,234.94,0.0720069482922554,99.59312438964844,-0.2200000137090683,0.0,1
1666652970.99864912,237566881,0,3,169788999,2233,11,0.9500000000000001,42.730784,-84.4905641,235.19,0.17904749512672424,121.29302978515625,-0.1469999998807907,0.0,1
1666652971.19870019,237766932,0,3,169789199,2233,10,0.9500000000000001,42.7307862,-84.4905623,235.6,0.13980701565742493,127.44364929199219,-0.2110000103712082,0.0,1
1666652971.39871716,237966949,0,3,169789399,2233,10,0.97,42.730788499999996,-84.4905607,236.03,0.0518844909965992,242.44720458984375,-0.25699999928474426,0.0,1
1666652971.59872508,238166957,0,3,169789599,2233,10,0.97,42.7307908,-84.4905591,236.42000000000002,0.08902247250080109,51.842769622802734,-0.12700000405311584,0.0,1
1666652971.79874110,238366973,0,3,169789799,2233,10,0.97,42.730792799999996,-84.4905579,236.81,0.11591808497905731,190.43748474121094,-0.22200001776218414,0.0,1
1666652971.99875712,238566989,0,3,169789999,2233,10,0.97,42.7307947,-84.49055659999999,237.27,0.07940403372049332,185.7823944091797,-0.203000009059906,0.0,1
1666652972.21869206,238786924,0,3,169790199,2233,10,0.97,42.7307967,-84.4905553,237.74,0.038897302001714706,162.03085327148438,-0.26100000739097595,0.0,1
1666652972.39871216,238966944,0,3,169790399,2233,10,0.97,42.7307985,-84.4905538,238.19,0.025612497702240944,38.65980529785156,-0.17100000381469727,0.0,1
1666652972.59866810,239166900,0,3,169790599,2233,10,0.97,42.730800099999996,-84.49055229999999,238.66,0.16843396425247192,211.897216796875,-0.1940000057220459,0.0,1
1666652972.81860709,239386839,0,3,169790799,2233,10,0.97,42.7308015,-84.490551,239.14000000000001,0.13306014239788055,231.40745544433594,-0.12300000339746475,0.0,1
1666652972.99866629,239566898,0,3,169790999,2233,9,0.97,42.7308029,-84.4905496,239.48000000000002,0.27435195446014404,245.67703247070312,-0.34700000286102295,0.0,1
1666652973.21868825,239786920,0,3,169791199,2233,10,0.97,42.730806799999996,-84.4905514,239.13,0.27825888991355896,244.90847778320312,-0.48000001907348633,0.0,1
1666652973.39873528,239966967,0,3,169791399,2233,10,0.97,42.7308123,-84.4905509,238.95000000000002,0.24129028618335724,51.56269454956055,-0.7040000557899475,0.0,1
1666652973.59874916,240166981,0,3,169791599,2233,9,0.97,42.7308138,-84.4905453,239.77,0.04805205762386322,167.98851013183594,-0.6030000448226929,0.0,1
1666652973.79879808,240367030,0,3,169791799,2233,9,0.97,42.7308143,-84.49054369999999,240.22,0.8272442817687988,240.92523193359375,-0.1550000011920929,0.0,1
1666652973.99872613,240566958,0,3,169791999,2233,11,0.97,42.7308142,-84.4905441,240.41,0.11412712931632996,261.94091796875,-0.4240000247955322,0.0,1
1666652974.19867516,240766907,0,3,169792199,2233,9,0.97,42.7308137,-84.4905452,240.28,0.3339461088180542,6.188615798950195,-0.08500000089406967,0.0,1
1666652974.39869714,240966929,0,3,169792399,2233,9,1.19,42.730813,-84.4905442,240.18,0.32521992921829224,29.87598991394043,-0.08500000089406967,0.0,1
1666652974.61858225,241186814,0,3,169792599,2233,10,1.19,42.7308133,-84.490543,239.96,0.33640751242637634,13.5818510055542,0.16200000047683716,0.0,1
1666652974.79871511,241366947,0,3,169792799,2233,11,1.19,42.7308126,-84.49054389999999,239.4,0.33470138907432556,256.1713562011719,-0.6330000162124634,0.0,1
1666652975.01870418,241586936,0,3,169792999,2233,11,1.19,42.7308102,-84.4905397,239.69,0.35355624556541443,44.770816802978516,-0.5490000247955322,0.0,1
1666652975.19875908,241766991,0,3,169793199,2233,10,1.19,42.7308096,-84.49053909999999,239.45000000000002,0.14705441892147064,197.81890869140625,-0.5139999985694885,0.0,1
1666652975.39878726,241967019,0,3,169793399,2233,12,0.91,42.7308102,-84.4905387,238.99,0.3089142441749573,51.571922302246094,-0.320000022649765,0.0,1
1666652975.59871507,242166947,0,3,169793599,2233,11,0.91,42.7308117,-84.4905368,238.36,0.30000168085098267,0.19098521769046783,-0.15000000596046448,0.0,1
1666652975.79874015,242366972,0,3,169793799,2233,12,0.91,42.7308127,-84.4905356,237.47,0.23194827139377594,7.431407451629639,-0.3160000145435333,0.0,1
1666652976.01864624,242586878,0,3,169793999,2233,12,0.91,42.7308151,-84.49052979999999,236.79,0.502677857875824,21.716745376586914,-0.1210000067949295,0.0,1
1666652976.19870710,242766939,0,3,169794199,2233,10,0.91,42.730815,-84.4905273,236.73000000000002,0.12841340899467468,33.56631851196289,-0.15600000321865082,0.0,1
1666652976.39871907,242966951,0,3,169794399,2233,12,0.91,42.730815799999995,-84.4905229,236.68,0.25264203548431396,4.085616588592529,-0.14100000262260437,0.0,1
1666652976.59869528,243166927,0,3,169794599,2233,13,0.91,42.730815899999996,-84.490521,236.62,0.15590061247348785,288.3187255859375,-0.1550000011920929,0.0,1
1666652976.79874015,243366972,0,3,169794799,2233,12,0.91,42.7308174,-84.49051899999999,236.25,0.3204262852668762,346.8311462402344,-0.12600000202655792,0.0,1
1666652977.01870918,243586941,0,3,169794999,2233,13,0.91,42.730819,-84.49051349999999,235.96,0.152161106467247,2.636758327484131,-0.09800000488758087,0.0,1
1666652977.19871116,243766943,0,3,169795199,2233,11,0.91,42.7308187,-84.4905107,235.88,0.37446096539497375,29.782833099365234,0.04000000283122063,0.0,1
1666652977.39872813,243966960,0,3,169795399,2233,11,1.08,42.7308191,-84.49051039999999,235.57,0.25049152970314026,327.3884582519531,0.1770000010728836,0.0,1
1666652977.61860919,244186841,0,3,169795599,2233,11,1.08,42.7308197,-84.4905089,235.26,0.30140507221221924,187.242919921875,0.1120000034570694,0.0,1
1666652977.81863308,244386865,0,3,169795799,2233,12,1.08,42.7308192,-84.4905071,235.0,0.1530555635690689,18.67170524597168,0.2240000069141388,0.0,1
1666652978.01869011,244586922,0,3,169795999,2233,12,1.08,42.730819499999996,-84.4905051,234.65,0.19536888599395752,356.4785461425781,0.6650000214576721,0.0,1
1666652978.21865416,244786886,0,3,169796199,2233,13,1.08,42.7308209,-84.4904993,234.51,0.2807169556617737,186.34019470214844,0.1550000011920929,0.0,1
1666652978.41871524,244986947,0,3,169796399,2233,13,0.87,42.7308216,-84.4904957,234.45000000000002,0.04468780755996704,319.53778076171875,0.39000001549720764,0.0,1
1666652978.59878922,245167021,0,3,169796599,2233,13,0.87,42.7308229,-84.4904938,234.39000000000001,0.09773945063352585,352.94769287109375,0.1940000057220459,0.0,1
1666652978.81874824,245386980,0,3,169796799,2233,13,0.87,42.730824299999995,-84.4904925,234.26,0.12010412663221359,219.25584411621094,0.15600000321865082,0.0,1
1666652979.01868916,245586921,0,3,169796999,2233,12,0.87,42.7308251,-84.4904925,234.07,0.08521150797605515,215.9285125732422,0.10900000482797623,0.0,1
1666652979.21862626,245786858,0,3,169797199,2233,11,0.87,42.730825599999996,-84.49049289999999,233.93,0.1086830347776413,282.7575378417969,0.1340000033378601,0.0,1
1666652979.41875911,245986991,0,3,169797399,2233,11,1.07,42.7308264,-84.4904931,233.73000000000002,0.08860022574663162,216.74057006835938,0.25200000405311584,0.0,1
1666652979.61864424,246186876,0,3,169797599,2233,12,1.07,42.7308275,-84.490493,233.53,0.23070544004440308,240.10110473632812,0.25300002098083496,0.0,1
1666652979.81868529,246386917,0,3,169797799,2233,12,1.07,42.7308285,-84.4904928,233.42000000000002,0.21280978620052338,229.5739288330078,0.11800000816583633,0.0,1
1666652979.99866319,246566895,0,3,169797999,2233,13,1.07,42.7308294,-84.4904924,233.43,0.18997369706630707,254.42745971679688,-0.020000001415610313,0.0,1
1666652980.21870613,246786938,0,3,169798199,2233,13,1.07,42.730830399999995,-84.4904912,233.45000000000002,0.27444854378700256,226.47637939453125,0.15900000929832458,0.0,1
1666652980.41871309,246986945,0,3,169798399,2233,13,0.87,42.730831099999996,-84.4904904,233.43,0.1117720901966095,236.3099365234375,0.036000002175569534,0.0,1
1666652980.61873913,247186971,0,3,169798599,2233,12,0.87,42.7308314,-84.49049,233.45000000000002,0.2425716519355774,289.256591796875,0.13100001215934753,0.0,1
1666652980.81874323,247386975,0,3,169798799,2233,13,0.87,42.7308324,-84.4904893,233.44,0.4316677153110504,266.81280517578125,-0.09400000423192978,0.0,1
1666652981.01877213,247587004,0,3,169798999,2233,13,0.87,42.7308331,-84.4904895,233.45000000000002,0.5172321200370789,275.3248291015625,-0.004000000189989805,0.0,1
1666652981.21862507,247786857,0,3,169799199,2233,12,0.87,42.7308326,-84.4904909,233.34,0.7797281742095947,249.4267578125,-0.27000001072883606,0.0,1
1666652981.41870117,247986933,0,3,169799399,2233,13,0.87,42.730832,-84.49049029999999,233.41,0.5083935856819153,272.25457763671875,-0.26500001549720764,0.0,1
1666652981.61868906,248186921,0,3,169799599,2233,13,0.87,42.730830399999995,-84.49049029999999,233.34,0.805014967918396,245.40879821777344,-0.3290000259876251,0.0,1
1666652981.81870008,248386932,0,3,169799799,2233,11,0.87,42.7308281,-84.49049099999999,233.02,0.4364917278289795,333.0240173339844,0.07300000637769699,0.0,1
1666652982.01870728,248586939,0,3,169799999,2233,12,0.87,42.7308258,-84.4904914,232.71,0.3775976896286011,277.91552734375,-0.04400000348687172,0.0,1
1666652982.21874309,248786975,0,3,169800199,2233,12,0.87,42.730823799999996,-84.4904921,232.59,0.6032993197441101,259.3978576660156,-0.23900000751018524,0.0,1
1666652982.41874218,248986974,0,3,169800399,2233,13,0.87,42.7308211,-84.4904935,232.24,0.7304279804229736,271.96142578125,-0.1980000138282776,0.0,1
1666652982.59872818,249166960,0,3,169800599,2233,13,0.87,42.7308184,-84.4904952,231.58,0.39138856530189514,290.33331298828125,0.049000002443790436,0.0,1
1666652982.81863928,249386871,0,3,169800799,2233,13,0.87,42.730815199999995,-84.4904956,231.15,0.2971683144569397,268.07159423828125,-0.01900000125169754,0.0,1
1666652983.01869321,249586925,0,3,169800999,2233,13,0.87,42.730812,-84.4904955,230.73000000000002,0.11951988190412521,9.147080421447754,-0.2160000056028366,0.0,1
1666652983.21869707,249786929,0,3,169801199,2233,13,0.87,42.7308082,-84.4904961,230.41,0.20562346279621124,274.46282958984375,-0.15300001204013824,0.0,1
1666652983.39869428,249966926,0,3,169801399,2233,12,0.89,42.7308057,-84.4904971,230.21,0.07310951501131058,3.1363582611083984,-0.15000000596046448,0.0,1
1666652983.61870813,250186940,0,3,169801599,2233,13,0.89,42.7308032,-84.4904979,230.06,0.034539833664894104,292.10943603515625,-0.2150000035762787,0.0,1
1666652983.79868913,250366921,0,3,169801799,2233,13,0.89,42.7308005,-84.49049839999999,230.0,0.14360013604164124,36.790096282958984,-0.20600001513957977,0.0,1
1666652983.99871325,250566945,0,3,169801999,2233,13,0.89,42.7307981,-84.490498,229.89000000000001,0.08920201659202576,356.1431884765625,-0.1340000033378601,0.0,1
1666652984.21870208,250786934,0,3,169802199,2233,11,0.89,42.7307957,-84.4904972,229.71,0.10987721383571625,40.94065475463867,-0.17500001192092896,0.0,1
1666652984.41872811,250986960,0,3,169802399,2233,12,0.89,42.730793299999995,-84.49049579999999,229.64000000000001,0.21493256092071533,5.339236736297607,-0.15700000524520874,0.0,1
1666652984.61867809,251186910,0,3,169802599,2233,12,0.89,42.7307908,-84.4904938,229.70000000000002,0.08570297807455063,325.9390869140625,-0.18400001525878906,0.0,1
1666652984.81867123,251386903,0,3,169802799,2233,13,0.89,42.730789,-84.4904919,229.83,0.35426121950149536,45.11436462402344,-0.18800000846385956,0.0,1
1666652985.01861906,251586851,0,3,169802999,2233,13,0.89,42.7307881,-84.4904901,229.87,0.1078239381313324,28.228775024414062,-0.12200000882148743,0.0,1
1666652985.21871328,251786945,0,3,169803199,2233,13,0.89,42.730787,-84.490489,229.85,0.17066049575805664,48.087646484375,-0.05900000408291817,0.0,1
1666652985.39868927,251966921,0,3,169803399,2233,12,0.91,42.7307857,-84.4904885,229.85,0.1569235622882843,59.349327087402344,-0.15800000727176666,0.0,1
1666652985.61875725,252186989,0,3,169803599,2233,12,0.91,42.7307853,-84.490488,229.9,0.2292117029428482,43.23217010498047,-0.0430000014603138,0.0,1
1666652985.81872225,252386954,0,3,169803799,2233,12,0.91,42.7307852,-84.4904875,230.01,0.40093517303466797,45.30315017700195,-0.08000000566244125,0.0,1
1666652986.01872611,252586958,0,3,169803999,2233,12,0.91,42.730785499999996,-84.4904869,229.99,0.18495406210422516,21.571306228637695,0.07400000095367432,0.0,1
1666652986.21872020,252786952,0,3,169804199,2233,12,0.91,42.7307857,-84.49048619999999,229.77,0.07433034479618073,33.47627639770508,0.04800000041723251,0.0,1
1666652986.41870117,252986933,0,3,169804399,2233,12,0.91,42.7307851,-84.4904861,229.56,0.2012014091014862,69.94390106201172,-0.04400000348687172,0.0,1
1666652986.61869907,253186931,0,3,169804599,2233,13,0.91,42.730784799999995,-84.4904857,229.47,0.1308625340461731,96.58193969726562,-0.1730000078678131,0.0,1
1666652986.81871414,253386946,0,3,169804799,2233,13,0.91,42.7307847,-84.4904849,229.4,0.1490134298801422,90.76901245117188,-0.04400000348687172,0.0,1
1666652987.01859808,253586830,0,3,169804999,2233,13,0.91,42.7307847,-84.4904844,229.23000000000002,0.20260800421237946,52.62106704711914,0.1420000046491623,0.0,1
1666652987.21865726,253786889,0,3,169805199,2233,13,0.91,42.7307851,-84.490484,229.07,0.1830519139766693,56.13630676269531,-0.21000000834465027,0.0,1
1666652987.41870213,253986934,0,3,169805399,2233,13,0.87,42.7307856,-84.4904835,228.84,0.364347368478775,76.99359130859375,-0.07300000637769699,0.0,1
1666652987.61873317,254186965,0,3,169805599,2233,13,0.87,42.7307852,-84.4904821,228.85,0.1884489357471466,24.11684226989746,0.030000001192092896,0.0,1
1666652987.81872225,254386954,0,3,169805799,2233,13,0.87,42.730785,-84.4904797,228.83,0.43083757162094116,43.21302795410156,-0.03400000184774399,0.0,1
1666652988.01871228,254586944,0,3,169805999,2233,13,0.87,42.7307862,-84.4904784,228.34,0.09128527343273163,24.599788665771484,0.009000000543892384,0.0,1
1666652988.21872330,254786955,0,3,169806199,2233,12,0.87,42.730787,-84.4904772,228.22,0.4939635992050171,31.759479522705078,0.1080000028014183,0.0,1
1666652988.41870022,254986932,0,3,169806399,2233,12,0.9500000000000001,42.7307877,-84.4904761,228.13,0.2381953001022339,70.11964416503906,-0.09600000083446503,0.0,1
1666652988.61860418,255186836,0,3,169806599,2233,12,0.9500000000000001,42.7307898,-84.49047449999999,227.79,0.14029255509376526,59.59657287597656,-0.027000000700354576,0.0,1
1666652988.81867123,255386903,0,3,169806799,2233,12,0.9500000000000001,42.730790999999996,-84.4904744,227.18,0.16405487060546875,44.506080627441406,0.055000003427267075,0.0,1
1666652988.99878621,255567018,0,3,169806999,2233,13,0.9500000000000001,42.7307924,-84.4904742,226.6,0.01649242267012596,14.036242485046387,-0.030000001192092896,0.0,1
1666652989.19865823,255766890,0,3,169807199,2233,13,0.9500000000000001,42.730793399999996,-84.4904748,225.96,0.03982461616396904,298.4956359863281,0.07100000232458115,0.0,1
1666652989.39878416,255967016,0,3,169807399,2233,13,0.87,42.7307944,-84.4904754,225.31,0.028844410553574562,236.3099365234375,0.09400000423192978,0.0,1
1666652989.59874010,256166972,0,3,169807599,2233,13,0.87,42.730795,-84.4904761,224.83,0.07823043316602707,265.601318359375,0.04500000178813934,0.0,1
1666652989.79875922,256366991,0,3,169807799,2233,12,0.87,42.730796,-84.490477,224.13,0.046324942260980606,13.736268997192383,0.05900000408291817,0.0,1
1666652990.01861024,256586842,0,3,169807999,2233,13,0.87,42.7307973,-84.490478,223.31,0.13483694195747375,96.38711547851562,0.04500000178813934,0.0,1
1666652990.21863127,256786863,0,3,169808199,2233,13,0.87,42.7307984,-84.4904787,222.65,0.12965339422225952,71.56504821777344,0.03200000151991844,0.0,1
1666652990.41877413,256987006,0,3,169808399,2233,13,0.87,42.730799,-84.4904792,222.19,0.06140032783150673,120.32360076904297,0.07100000232458115,0.0,1
1666652990.61863923,257186871,0,3,169808599,2233,13,0.87,42.7307996,-84.4904803,221.54,0.035014282912015915,88.36341857910156,0.046000003814697266,0.0,1
1666652990.79873610,257366968,0,3,169808799,2233,13,0.87,42.730800599999995,-84.49048169999999,220.83,0.13970327377319336,84.24859619140625,0.046000003814697266,0.0,1
1666652991.01874924,257586981,0,3,169808999,2233,13,0.87,42.730801,-84.4904822,220.77,0.09492102265357971,168.45330810546875,0.1550000011920929,0.0,1
1666652991.21874928,257786981,0,3,169809199,2233,13,0.87,42.7308003,-84.4904835,220.67000000000002,0.30870214104652405,203.0767364501953,0.1210000067949295,0.0,1
1666652991.41875911,257986991,0,3,169809399,2233,13,0.87,42.7307996,-84.4904847,220.54,0.09078545868396759,26.847293853759766,0.024000000208616257,0.0,1
1666652991.61871815,258186950,0,3,169809599,2233,12,0.87,42.730799399999995,-84.4904851,220.36,0.11421471834182739,93.51374053955078,-0.03400000184774399,0.0,1
1666652991.81875920,258386991,0,3,169809799,2233,13,0.87,42.7307992,-84.4904853,220.05,0.12124768644571304,65.12584686279297,-0.08800000697374344,0.0,1
1666652992.01866126,258586893,0,3,169809999,2233,13,0.87,42.7307993,-84.4904856,219.83,0.03448187932372093,73.14159393310547,-0.0020000000949949026,0.0,1
1666652992.19872808,258766960,0,3,169810199,2233,13,0.87,42.730799499999996,-84.4904858,219.51,0.0259422454982996,27.552806854248047,0.006000000052154064,0.0,1
1666652992.41870022,258986932,0,3,169810399,2233,13,0.87,42.7307993,-84.4904856,219.20000000000002,0.12531960010528564,227.9108428955078,0.14100000262260437,0.0,1
1666652992.59870028,259166932,0,3,169810599,2233,12,0.87,42.730799499999996,-84.49048619999999,218.84,0.04830114170908928,297.0955505371094,0.06700000166893005,0.0,1
1666652992.81870317,259386935,0,3,169810799,2233,12,0.87,42.730801,-84.4904888,217.65,0.2500600218772888,256.352783203125,0.1510000079870224,0.0,1
1666652993.01865125,259586883,0,3,169810999,2233,13,0.87,42.730802,-84.49048979999999,217.33,0.15654394030570984,292.1412353515625,0.2290000170469284,0.0,1
1666652993.21875620,259786988,0,3,169811199,2233,13,0.87,42.7308032,-84.490489,217.27,0.11510864645242691,309.3594665527344,0.24900001287460327,0.0,1
1666652993.41874528,259986977,0,3,169811399,2233,12,0.89,42.7308041,-84.4904885,217.23000000000002,0.16006562113761902,327.5013427734375,0.30400002002716064,0.0,1
1666652993.61869407,260186926,0,3,169811599,2233,13,0.89,42.7308054,-84.49048739999999,217.26,0.08590693026781082,12.094756126403809,0.16300000250339508,0.0,1
1666652993.81867027,260386902,0,3,169811799,2233,13,0.89,42.7308069,-84.4904854,217.36,0.05001000314950943,78.46537017822266,0.15000000596046448,0.0,1
1666652994.01871109,260586943,0,3,169811999,2233,13,0.89,42.730807999999996,-84.49048409999999,217.56,0.04687216877937317,33.690067291259766,0.06599999964237213,0.0,1
1666652994.21868730,260786919,0,3,169812199,2233,13,0.89,42.7308081,-84.4904844,217.6,0.5272817611694336,185.33216857910156,-0.10500000417232513,0.0,1
1666652994.41870618,260986938,0,3,169812399,2233,13,0.89,42.7308078,-84.4904844,217.64000000000001,0.27888351678848267,98.2463150024414,-0.27000001072883606,0.0,1
1666652994.61870527,261186937,0,3,169812599,2233,12,0.89,42.7308075,-84.4904834,217.68,0.755032479763031,90.53119659423828,-0.5330000519752502,0.0,1
1666652994.81870723,261386939,0,3,169812799,2233,13,0.89,42.7308063,-84.4904823,217.75,0.7159246206283569,148.13034057617188,-0.7500000596046448,0.0,1
1666652995.01877713,261587009,0,3,169812999,2233,13,0.89,42.730806099999995,-84.4904803,217.67000000000002,1.4916974306106567,72.03874969482422,-0.8520000576972961,0.0,1
1666652995.21872115,261786953,0,3,169813199,2233,13,0.89,42.730806,-84.4904775,217.93,0.8843919038772583,94.21485137939453,-0.8100000619888306,0.0,1
1666652995.41874528,261986977,0,3,169813399,2233,13,0.89,42.730806199999996,-84.4904751,218.20000000000002,1.1388788223266602,74.4139404296875,-1.1340000629425049,0.0,1
1666652995.61868119,262186913,0,3,169813599,2233,12,0.89,42.730806199999996,-84.49047329999999,218.38,0.6577613353729248,108.15949249267578,-0.6020000576972961,0.0,1
1666652995.81870008,262386932,0,3,169813799,2233,12,0.89,42.7308059,-84.4904715,218.34,1.1033631563186646,101.02477264404297,0.5480000376701355,0.0,1
1666652996.01871729,262586949,0,3,169813999,2233,12,0.89,42.730804899999995,-84.4904703,218.4,0.5139309763908386,123.8137435913086,0.003000000026077032,0.0,1
1666652996.19871616,262766948,0,3,169814199,2233,11,0.89,42.7308045,-84.4904698,218.48000000000002,0.5396453142166138,76.16976165771484,0.0690000057220459,0.0,1
1666652996.41870522,262986937,0,3,169814399,2233,11,1.07,42.7308048,-84.49046829999999,218.56,0.6691980361938477,76.60749816894531,-0.23900000751018524,0.0,1
1666652996.61875725,263186989,0,3,169814599,2233,12,1.07,42.7308056,-84.4904663,218.42000000000002,0.6427947282791138,57.645023345947266,-0.06000000238418579,0.0,1
1666652996.81870413,263386936,0,3,169814799,2233,13,1.07,42.7308072,-84.49046299999999,218.43,0.1784040331840515,86.14319610595703,-0.3320000171661377,0.0,1
1666652997.01876211,263586994,0,3,169814999,2233,11,1.07,42.7308087,-84.4904605,218.46,0.3814249634742737,50.42522048950195,-0.44200003147125244,0.0,1
1666652997.21868110,263786913,0,3,169815199,2233,12,1.07,42.7308102,-84.4904581,218.47,0.1624961644411087,7.781045913696289,-0.7260000109672546,0.0,1
1666652997.41869116,263986923,0,3,169815399,2233,11,1.0,42.7308114,-84.490456,218.59,0.22366046905517578,35.53767776489258,-0.6460000276565552,0.0,1
1666652997.59866810,264166900,0,3,169815599,2233,12,1.0,42.7308133,-84.4904545,218.42000000000002,0.24850957095623016,304.0097961425781,-0.7750000357627869,0.0,1
1666652997.81872416,264386956,0,3,169815799,2233,13,1.0,42.7308151,-84.4904523,218.6,0.33621424436569214,357.95458984375,-0.289000004529953,0.0,1
1666652998.01862121,264586853,0,3,169815999,2233,11,1.0,42.730816499999996,-84.49045129999999,218.71,0.11601724475622177,54.11785888671875,-0.51500004529953,0.0,1
1666652998.21878028,264787012,0,3,169816199,2233,12,1.0,42.7308174,-84.4904507,218.88,0.2634710669517517,7.8533124923706055,-0.37700000405311584,0.0,1
1666652998.41870522,264986937,0,3,169816399,2233,13,0.89,42.7308188,-84.490449,218.91,0.20905981957912445,246.00970458984375,-0.46800002455711365,0.0,1
1666652998.61872220,265186954,0,3,169816599,2233,11,0.89,42.7308193,-84.4904485,218.88,0.3037647306919098,208.08360290527344,-0.289000004529953,0.0,1
1666652998.81871009,265386942,0,3,169816799,2233,11,0.89,42.7308192,-84.4904487,218.8,0.5423329472541809,204.62757873535156,-0.14500001072883606,0.0,1
1666652998.99870920,265566941,0,3,169816999,2233,11,0.89,42.7308194,-84.4904475,218.81,0.33496418595314026,206.41207885742188,-0.2939999997615814,0.0,1
1666652999.21869421,265786926,0,3,169817199,2233,11,0.89,42.7308186,-84.49044789999999,218.99,0.8123601675033569,213.8074493408203,-0.20100000500679016,0.0,1
1666652999.41869617,265986928,0,3,169817399,2233,12,0.9500000000000001,42.7308178,-84.4904481,219.16,0.4861152470111847,237.94464111328125,-0.4360000193119049,0.0,1
1666652999.61860013,266186832,0,3,169817599,2233,13,0.9500000000000001,42.7308179,-84.4904498,219.07,0.3965514004230499,229.60244750976562,-0.34200000762939453,0.0,1
1666652999.81865215,266386884,0,3,169817799,2233,9,0.9500000000000001,42.7308175,-84.4904509,219.03,0.24960970878601074,196.7652130126953,-0.1730000078678131,0.0,1
1666653000.01869512,266586927,0,3,169817999,2233,9,0.9500000000000001,42.7308168,-84.49045129999999,219.18,0.526157796382904,231.01707458496094,-0.1990000158548355,0.0,1
1666653000.21870708,266786939,0,3,169818199,2233,9,0.9500000000000001,42.7308162,-84.4904519,219.35,0.09682974964380264,321.7098388671875,-0.09000000357627869,0.0,1
1666653000.41871309,266986945,0,3,169818399,2233,10,1.16,42.730815899999996,-84.4904529,219.19,0.41372576355934143,215.4571990966797,0.0020000000949949026,0.0,1
1666653000.61870122,267186933,0,3,169818599,2233,10,1.16,42.730815299999996,-84.4904545,218.93,0.23901882767677307,233.84927368164062,-0.02200000174343586,0.0,1
1666653000.81870723,267386939,0,3,169818799,2233,11,1.16,42.7308155,-84.4904562,218.8,0.42306503653526306,265.9336853027344,0.032999999821186066,0.0,1
1666653001.01870513,267586937,0,3,169818999,2233,10,1.16,42.7308155,-84.49045679999999,218.74,0.1292942464351654,241.8493194580078,-0.19600000977516174,0.0,1
1666653001.19870830,267766940,0,3,169819199,2233,10,1.16,42.7308154,-84.49045799999999,218.53,0.500792384147644,259.8793640136719,-0.4230000078678131,0.0,1
1666653001.41868711,267986919,0,3,169819399,2233,10,1.16,42.7308145,-84.49045869999999,218.82,0.05948109179735184,253.39303588867188,0.18900001049041748,0.0,1
1666653001.59872723,268166959,0,3,169819599,2233,11,1.16,42.7308138,-84.490459,218.61,0.15328732132911682,193.5829620361328,-0.07200000435113907,0.0,1
1666653001.79871106,268366943,0,3,169819799,2233,10,1.16,42.7308135,-84.49045939999999,218.4,0.4254703223705292,253.05569458007812,0.1900000125169754,0.0,1
1666653002.01871324,268586945,0,3,169819999,2233,11,1.16,42.7308137,-84.49046009999999,217.62,0.21711288392543793,69.22773742675781,0.0950000062584877,0.0,1
1666653002.21871710,268786949,0,3,169820199,2233,11,1.16,42.7308137,-84.4904597,217.5,0.42648449540138245,226.23504638671875,0.052000001072883606,0.0,1
1666653002.41873407,268986966,0,3,169820399,2233,11,0.99,42.7308133,-84.4904598,217.45000000000002,0.17927075922489166,254.8009490966797,-0.03500000014901161,0.0,1
1666653002.61861515,269186847,0,3,169820599,2233,11,0.99,42.7308133,-84.4904597,217.46,0.10288343578577042,254.20761108398438,0.18200001120567322,0.0,1
1666653002.81866908,269386901,0,3,169820799,2233,11,0.99,42.7308139,-84.4904591,217.63,0.15616019070148468,327.02227783203125,0.013000000268220901,0.0,1
1666653002.99873328,269566965,0,3,169820999,2233,13,0.99,42.730814599999995,-84.4904593,217.71,0.16571059823036194,240.3408966064453,-0.010000000707805157,0.0,1
1666653003.21865916,269786891,0,3,169821199,2233,11,0.99,42.7308143,-84.4904608,217.77,0.23566927015781403,239.95358276367188,-0.036000002175569534,0.0,1
1666653003.41869116,269986923,0,3,169821399,2233,11,0.99,42.7308137,-84.4904624,217.62,0.5066142678260803,232.70033264160156,-0.0560000017285347,0.0,1
1666653003.61873126,270186963,0,3,169821599,2233,11,0.99,42.7308113,-84.490466,217.1,0.10748954117298126,225.7538604736328,-0.09600000083446503,0.0,1
1666653003.81870914,270386941,0,3,169821799,2233,11,0.99,42.7308105,-84.4904682,216.6,0.20400001108646393,28.072484970092773,0.07800000160932541,0.0,1
1666653004.01872420,270586956,0,3,169821999,2233,10,0.99,42.7308102,-84.4904686,216.52,0.19541239738464355,227.90382385253906,-0.018000001087784767,0.0,1
1666653004.19872212,270766954,0,3,169822199,2233,10,0.99,42.730809699999995,-84.49046899999999,216.48000000000002,0.18471871316432953,242.60263061523438,0.03800000250339508,0.0,1
1666653004.39871621,270966948,0,3,169822399,2233,10,1.16,42.7308093,-84.49046899999999,216.48000000000002,0.19942419230937958,224.18734741210938,0.015000000596046448,0.0,1
1666653004.59872317,271166955,0,3,169822599,2233,11,1.16,42.7308089,-84.4904691,216.53,0.34441980719566345,223.94126892089844,-0.09600000083446503,0.0,1
1666653004.79872918,271366961,0,3,169822799,2233,10,1.16,42.7308083,-84.4904695,216.47,0.24196074903011322,250.44175720214844,0.029000001028180122,0.0,1
1666653004.99864221,271566874,0,3,169822999,2233,11,1.16,42.7308084,-84.4904701,216.44,0.2592778503894806,256.3925476074219,-0.01600000075995922,0.0,1
1666653005.19869518,271766927,0,3,169823199,2233,11,1.16,42.730808499999995,-84.4904708,216.39000000000001,0.11045361310243607,317.9356689453125,-0.04100000113248825,0.0,1
1666653005.41870117,271986933,0,3,169823399,2233,12,0.91,42.7308089,-84.4904708,216.42000000000002,0.26286500692367554,230.55723571777344,-0.04200000315904617,0.0,1
1666653005.61870408,272186936,0,3,169823599,2233,12,0.91,42.730808499999995,-84.49047089999999,216.36,0.1631103903055191,235.23818969726562,-0.029000001028180122,0.0,1
1666653005.79868817,272366920,0,3,169823799,2233,12,0.91,42.730807999999996,-84.4904707,216.38,0.12301626801490784,252.00692749023438,0.0430000014603138,0.0,1
1666653006.01876807,272587000,0,3,169823999,2233,11,0.91,42.7308075,-84.4904705,216.39000000000001,0.1060660183429718,261.8699035644531,-0.006000000052154064,0.0,1
1666653006.21871018,272786942,0,3,169824199,2233,11,0.91,42.730806199999996,-84.49047159999999,216.32,0.31814777851104736,212.94081115722656,-0.11300000548362732,0.0,1
1666653006.41870213,272986934,0,3,169824399,2233,12,0.91,42.7308047,-84.49047279999999,216.1,0.16956710815429688,172.2043914794922,-0.032999999821186066,0.0,1
1666653006.59864926,273166881,0,3,169824599,2233,10,0.91,42.7308022,-84.49047399999999,215.95000000000002,0.5143277645111084,210.7536163330078,-0.06100000441074371,0.0,1
1666653006.81865525,273386887,0,3,169824799,2233,12,0.91,42.7307998,-84.4904754,215.77,0.7541120648384094,215.88214111328125,0.06300000101327896,0.0,1
1666653007.01869011,273586922,0,3,169824999,2233,12,0.91,42.7307968,-84.4904766,215.71,0.615818977355957,197.2874298095703,-0.3330000042915344,0.0,1
1666653007.19869709,273766929,0,3,169825199,2233,12,0.91,42.730795099999995,-84.4904772,215.61,0.6954775452613831,211.6560821533203,-0.0430000014603138,0.0,1
1666653007.41875219,273986984,0,3,169825399,2233,12,0.91,42.730793999999996,-84.4904767,215.54,0.44565683603286743,209.72894287109375,0.08100000023841858,0.0,1
1666653007.59874725,274166979,0,3,169825599,2233,12,0.91,42.730792199999996,-84.49047829999999,215.23000000000002,0.7846222519874573,228.09963989257812,0.30300000309944153,0.0,1
1666653007.81872606,274386958,0,3,169825799,2233,10,0.91,42.7307907,-84.49047929999999,215.16,0.6556591987609863,207.2294464111328,0.01600000075995922,0.0,1
1666653007.99873424,274566966,0,3,169825999,2233,12,0.91,42.730789099999996,-84.49047929999999,215.06,0.3130814731121063,138.366455078125,0.18300001323223114,0.0,1
1666653008.19878125,274767013,0,3,169826199,2233,12,0.91,42.7307875,-84.49047929999999,214.84,0.4586949050426483,202.42770385742188,0.4790000319480896,0.0,1
1666653008.41868210,274986914,0,3,169826399,2233,11,0.93,42.7307862,-84.49047949999999,214.71,0.32267168164253235,218.07745361328125,0.0690000057220459,0.0,1
1666653008.61873627,275186968,0,3,169826599,2233,11,0.93,42.7307858,-84.4904797,214.61,0.24556873738765717,192.22512817382812,0.11500000208616257,0.0,1
1666653008.81871009,275386942,0,3,169826799,2233,9,0.93,42.730785499999996,-84.49047949999999,214.48000000000002,0.17623281478881836,215.7644500732422,0.17600001394748688,0.0,1
1666653009.01874614,275586978,0,3,169826999,2233,10,0.93,42.730785399999995,-84.4904792,214.38,0.055542778223752975,293.33404541015625,0.15400001406669617,0.0,1
1666653009.21870613,275786938,0,3,169827199,2233,10,0.93,42.7307857,-84.4904789,214.28,0.1784628927707672,337.6024169921875,0.22600001096725464,0.0,1
1666653009.41873026,275986962,0,3,169827399,2233,9,0.93,42.730786099999996,-84.4904784,214.25,0.306780070066452,6.1751933097839355,0.11600000411272049,0.0,1
1666653009.59873724,276166969,0,3,169827599,2233,8,0.93,42.7307863,-84.4904782,214.26,0.2835577726364136,21.951496124267578,0.0990000069141388,0.0,1
1666653009.79881430,276367046,0,3,169827799,2233,11,0.93,42.730787199999995,-84.4904774,214.3,0.12037026137113571,303.82208251953125,-0.055000003427267075,0.0,1
1666653010.01868129,276586913,0,3,169827999,2233,12,0.93,42.7307876,-84.4904777,214.38,0.14066271483898163,234.84112548828125,-0.026000000536441803,0.0,1
1666653010.19868112,276766913,0,3,169828199,2233,11,0.93,42.7307877,-84.4904786,214.17000000000002,0.19140011072158813,329.54962158203125,0.07800000160932541,0.0,1
1666653010.39871120,276966943,0,3,169828399,2233,11,1.04,42.730787899999996,-84.4904794,214.01,0.16600000858306885,0.0,0.06000000238418579,0.0,1
1666653010.59868217,277166914,0,3,169828599,2233,11,1.04,42.7307882,-84.4904789,213.85,0.21760976314544678,19.600690841674805,0.023000001907348633,0.0,1
1666653010.79869628,277366928,0,3,169828799,2233,10,1.04,42.7307882,-84.4904782,213.68,0.5211238265037537,42.04441452026367,-0.018000001087784767,0.0,1
1666653010.99875307,277566985,0,3,169828999,2233,10,1.04,42.7307882,-84.49047689999999,213.52,0.172122061252594,73.46016693115234,0.1080000028014183,0.0,1
1666653011.19876719,277766999,0,3,169829199,2233,10,1.04,42.7307875,-84.4904768,213.25,0.17664654552936554,74.2328109741211,0.2070000171661377,0.0,1
1666653011.41870213,277986934,0,3,169829399,2233,11,0.93,42.730787,-84.4904761,213.12,0.2093895971775055,162.77655029296875,0.203000009059906,0.0,1
1666653011.61873412,278186966,0,3,169829599,2233,12,0.93,42.730786099999996,-84.4904753,213.04,0.4310823678970337,124.7960205078125,0.3410000205039978,0.0,1
1666653011.81870127,278386933,0,3,169829799,2233,13,0.93,42.730786099999996,-84.4904734,213.08,0.7578192949295044,74.14806365966797,0.009000000543892384,0.0,1
1666653012.01860809,278586840,0,3,169829999,2233,11,0.93,42.7307859,-84.4904715,213.03,0.21633538603782654,83.63055419921875,0.3620000183582306,0.0,1
1666653012.21873522,278786967,0,3,169830199,2233,11,0.93,42.7307858,-84.4904707,212.73000000000002,0.7280948162078857,61.35813903808594,0.07300000637769699,0.0,1
1666653012.41868615,278986918,0,3,169830399,2233,12,0.89,42.7307862,-84.4904699,212.75,0.25415942072868347,24.649179458618164,0.2160000056028366,0.0,1
1666653012.59865808,279166890,0,3,169830599,2233,10,0.89,42.7307864,-84.4904693,212.88,0.6237964630126953,49.030086517333984,0.35100001096725464,0.0,1
1666653012.79877210,279367004,0,3,169830799,2233,9,0.89,42.7307874,-84.4904686,212.93,0.8410428762435913,19.662988662719727,0.3370000123977661,0.0,1
1666653012.99871707,279566949,0,3,169830999,2233,9,0.89,42.730788499999996,-84.4904684,213.0,0.5384496450424194,357.6583557128906,0.10700000822544098,0.0,1
1666653013.21873021,279786962,0,3,169831199,2233,11,0.89,42.730789,-84.4904681,213.06,0.712797999382019,51.779563903808594,0.2800000011920929,0.0,1
1666653013.39873719,279966969,0,3,169831399,2233,11,0.89,42.7307899,-84.4904677,213.18,0.8237293362617493,4.665443420410156,0.08000000566244125,0.0,1
1666653013.61865330,280186885,0,3,169831599,2233,11,0.99,42.7307906,-84.4904672,213.32,0.7264248728752136,41.14882278442383,0.20600001513957977,0.0,1
1666653013.81865215,280386884,0,3,169831799,2233,11,0.99,42.730791599999996,-84.4904668,213.56,0.7225843071937561,16.72962188720703,0.2110000103712082,0.0,1
1666653013.99870014,280566932,0,3,169831999,2233,11,0.99,42.7307926,-84.4904667,213.91,0.5936977863311768,22.37488555908203,0.0560000017285347,0.0,1
1666653014.19860125,280766833,0,3,169832199,2233,11,0.99,42.7307942,-84.4904667,214.09,0.5651841163635254,340.57122802734375,0.19200000166893005,0.0,1
1666653014.39877915,280967011,0,3,169832399,2233,10,0.99,42.7307959,-84.4904669,213.91,0.29398131370544434,348.4225158691406,0.1600000113248825,0.0,1
1666653014.61870527,281186937,0,3,169832599,2233,10,0.9500000000000001,42.7307965,-84.4904677,213.67000000000002,0.40859395265579224,339.21417236328125,0.42100003361701965,0.0,1
1666653014.79875016,281366982,0,3,169832799,2233,11,0.9500000000000001,42.730797599999995,-84.4904682,213.49,0.26636067032814026,349.6181945800781,0.27300000190734863,0.0,1
1666653015.01869321,281586925,0,3,169832999,2233,10,0.9500000000000001,42.730798,-84.4904695,212.96,0.06700746715068817,0.8550973534584045,0.2540000081062317,0.0,1
1666653015.21870613,281786938,0,3,169833199,2233,10,0.9500000000000001,42.7307987,-84.49047019999999,212.52,0.33526110649108887,305.7760925292969,0.2600000202655792,0.0,1
1666653015.39873815,281966970,0,3,169833399,2233,10,0.9500000000000001,42.7307993,-84.4904707,212.24,0.29166078567504883,343.05615234375,0.2540000081062317,0.0,1
1666653015.59871626,282166948,0,3,169833599,2233,9,1.05,42.7307997,-84.4904711,212.12,0.34838199615478516,349.9158020019531,0.3070000112056732,0.0,1
1666653015.81869817,282386930,0,3,169833799,2233,9,1.05,42.7308002,-84.4904715,211.87,0.3219720721244812,355.54669189453125,0.1990000158548355,0.0,1
1666653016.01866412,282586896,0,3,169833999,2233,9,1.05,42.7308009,-84.49047209999999,211.57,0.1884516030550003,346.1849670410156,0.23500001430511475,0.0,1
1666653016.21871710,282786949,0,3,169834199,2233,9,1.05,42.7308016,-84.49047379999999,210.99,0.12165525555610657,279.46234130859375,0.16900001466274261,0.0,1
1666653016.41871309,282986945,0,3,169834399,2233,9,1.19,42.7308029,-84.4904754,210.47,0.2895582914352417,354.0531311035156,0.11600000411272049,0.0,1
1666653016.59872127,283166953,0,3,169834599,2233,9,1.19,42.7308034,-84.49047689999999,210.38,0.1308625340461731,300.2879638671875,0.23800000548362732,0.0,1
1666653016.81875110,283386983,0,3,169834799,2233,10,1.19,42.7308047,-84.4904766,210.58,0.14345034956932068,305.3519592285156,0.11600000411272049,0.0,1
1666653017.01870918,283586941,0,3,169834999,2233,10,1.19,42.730805499999995,-84.4904763,210.78,0.18008054792881012,253.87979125976562,0.04500000178813934,0.0,1
1666653017.21866608,283786898,0,3,169835199,2233,10,1.19,42.730806199999996,-84.490476,210.8,0.31111735105514526,211.59544372558594,0.12400000542402267,0.0,1
1666653017.41870427,283986936,0,3,169835399,2233,10,1.01,42.7308066,-84.4904773,210.24,0.2742499113082886,199.8224639892578,0.07300000637769699,0.0,1
1666653017.61866117,284186893,0,3,169835599,2233,10,1.01,42.730807399999996,-84.49047809999999,209.65,0.18651005625724792,256.03826904296875,0.14900000393390656,0.0,1
1666653017.81870413,284386936,0,3,169835799,2233,9,1.01,42.730807999999996,-84.4904803,208.9,0.5796447396278381,216.15818786621094,0.2240000069141388,0.0,1
1666653017.99866819,284566900,0,3,169835999,2233,10,1.01,42.7308082,-84.49048239999999,208.21,0.3442281484603882,233.86248779296875,0.30300000309944153,0.0,1
1666653018.19873023,284766962,0,3,169836199,2233,9,1.01,42.730808499999995,-84.4904839,207.9,0.2943331301212311,272.726318359375,0.36100003123283386,0.0,1
1666653018.41875219,284986984,0,3,169836399,2233,10,1.05,42.730809,-84.4904852,207.79,0.31045934557914734,258.29193115234375,0.27900001406669617,0.0,1
1666653018.61871815,285186950,0,3,169836599,2233,10,1.05,42.7308095,-84.4904861,207.77,0.15572412312030792,275.52752685546875,0.18900001049041748,0.0,1
1666653018.81868720,285386919,0,3,169836799,2233,10,1.05,42.7308101,-84.4904868,207.62,0.18298907577991486,281.98541259765625,0.2540000081062317,0.0,1
1666653019.01868320,285586915,0,3,169836999,2233,10,1.05,42.7308102,-84.4904871,207.57,0.15879547595977783,319.08563232421875,0.2330000102519989,0.0,1
1666653019.21869016,285786922,0,3,169837199,2233,11,1.05,42.7308111,-84.4904861,207.59,0.17223531007766724,331.94708251953125,0.2070000171661377,0.0,1
1666653019.39871311,285966945,0,3,169837399,2233,11,0.93,42.7308114,-84.4904847,207.75,0.16807736456394196,345.8810729980469,0.1980000138282776,0.0,1
1666653019.61867118,286186903,0,3,169837599,2233,10,0.93,42.7308106,-84.4904851,207.67000000000002,0.16013120114803314,353.1856384277344,0.10000000149011612,0.0,1
1666653019.81865907,286386891,0,3,169837799,2233,10,0.93,42.7308106,-84.49048599999999,207.51,0.27776968479156494,286.73876953125,0.23600001633167267,0.0,1
1666653019.99873614,286566968,0,3,169837999,2233,10,0.93,42.7308108,-84.49048789999999,207.35,0.9576915502548218,281.9317932128906,0.26500001549720764,0.0,1
1666653020.21876121,286786993,0,3,169838199,2233,11,0.93,42.730812199999995,-84.4904897,207.1,0.9022444486618042,332.1852722167969,0.3750000298023224,0.0,1
1666653020.41875410,286986986,0,3,169838399,2233,9,0.93,42.7308144,-84.49049269999999,205.92000000000002,0.6698806285858154,329.30029296875,0.7100000381469727,0.0,1
1666653020.59867430,287166906,0,3,169838599,2233,9,0.93,42.7308163,-84.49049579999999,204.76,0.6457933187484741,308.2718505859375,0.4820000231266022,0.0,1
1666653020.79870319,287366935,0,3,169838799,2233,10,0.93,42.7308169,-84.4904999,203.78,1.161318302154541,260.6836853027344,0.41700002551078796,0.0,1
1666653021.01868510,287586917,0,3,169838999,2233,10,0.93,42.7308162,-84.4905024,203.16,0.42776864767074585,318.22186279296875,0.48900002241134644,0.0,1
1666653021.21870923,287786941,0,3,169839199,2233,11,0.93,42.7308161,-84.4905026,202.98000000000002,0.4903682768344879,303.268798828125,0.597000002861023,0.0,1
1666653021.41861916,287986851,0,3,169839399,2233,11,0.93,42.730816399999995,-84.4905026,202.96,0.513638973236084,274.578369140625,0.2990000247955322,0.0,1
1666653021.61878014,288187012,0,3,169839599,2233,11,0.93,42.730815899999996,-84.4905026,202.96,0.5517246127128601,276.66131591796875,0.593000054359436,0.0,1
1666653021.81872225,288386954,0,3,169839799,2233,11,0.93,42.7308163,-84.4905027,203.06,0.5733315348625183,341.9126892089844,0.41100001335144043,0.0,1
1666653021.99866128,288566893,0,3,169839999,2233,11,0.93,42.7308163,-84.4905029,202.9,0.1243261843919754,309.4515380859375,0.17500001192092896,0.0,1
1666653022.19877911,288767011,0,3,169840199,2233,10,0.93,42.7308167,-84.4905033,202.91,0.473118394613266,315.9419860839844,0.13500000536441803,0.0,1
1666653022.39871907,288966951,0,3,169840399,2233,10,0.9500000000000001,42.730817099999996,-84.4905034,202.79,0.07373601943254471,20.646987915039062,0.11400000751018524,0.0,1
1666653022.59871912,289166951,0,3,169840599,2233,9,0.9500000000000001,42.7308167,-84.4905041,202.71,0.17459096014499664,31.41400909423828,0.13100001215934753,0.0,1
1666653022.79871106,289366943,0,3,169840799,2233,8,0.9500000000000001,42.730816499999996,-84.4905045,202.59,0.1264357566833496,98.64279174804688,0.13600000739097595,0.0,1
1666653022.99868727,289566919,0,3,169840999,2233,9,0.9500000000000001,42.730816,-84.49050539999999,202.45000000000002,0.11494782567024231,158.56881713867188,0.18400001525878906,0.0,1
1666653023.21872330,289786955,0,3,169841199,2233,9,0.9500000000000001,42.7308154,-84.4905078,202.23000000000002,0.16228987276554108,212.41705322265625,0.28700000047683716,0.0,1
1666653023.39874506,289966977,0,3,169841399,2233,9,1.19,42.7308143,-84.4905095,202.05,0.2725234031677246,195.9742889404297,0.14800000190734863,0.0,1
1666653023.61870623,290186938,0,3,169841599,2233,10,1.19,42.7308132,-84.4905101,202.20000000000002,0.19144190847873688,130.7635955810547,0.058000002056360245,0.0,1
1666653023.81871223,290386944,0,3,169841799,2233,11,1.19,42.730812199999995,-84.49050919999999,202.4,0.4080502688884735,170.97625732421875,-0.11300000548362732,0.0,1
1666653024.01872325,290586955,0,3,169841999,2233,10,1.19,42.730810999999996,-84.4905083,202.44,0.3192882835865021,122.59506225585938,0.31300002336502075,0.0,1
1666653024.21870112,290786933,0,3,169842199,2233,10,1.19,42.7308093,-84.490507,202.64000000000001,0.896403968334198,199.688232421875,-0.05700000375509262,0.0,1
1666653024.41859913,290986831,0,3,169842399,2233,9,1.19,42.7308064,-84.4905059,203.06,0.5664671659469604,97.20027923583984,-0.01900000125169754,0.0,1
1666653024.61875629,291186988,0,3,169842599,2233,11,1.19,42.730804299999996,-84.49050539999999,203.11,1.2146440744400024,206.81820678710938,-0.00800000037997961,0.0,1
1666653024.79871106,291366943,0,3,169842799,2233,12,1.19,42.7308027,-84.4905067,203.17000000000002,0.6641393303871155,223.71884155273438,0.12400000542402267,0.0,1
1666653024.99872518,291566957,0,3,169842999,2233,9,1.19,42.7308017,-84.4905065,203.19,0.6006463766098022,151.1306915283203,-0.03500000014901161,0.0,1
1666653025.19862819,291766860,0,3,169843199,2233,10,1.19,42.7308002,-84.4905064,203.45000000000002,0.4121759533882141,214.422607421875,0.10200000554323196,0.0,1
1666653025.39867926,291966911,0,3,169843399,2233,11,1.04,42.730798899999996,-84.49050749999999,203.42000000000002,0.7803102731704712,184.4099884033203,0.20400001108646393,0.0,1
1666653025.59871817,292166950,0,3,169843599,2233,10,1.04,42.7307966,-84.4905081,203.46,0.9055103659629822,193.08473205566406,-0.09300000220537186,0.0,1
1666653025.79875827,292366990,0,3,169843799,2233,10,1.04,42.7307943,-84.4905107,203.25,0.36004725098609924,163.376953125,0.9260000586509705,0.0,1
1666653026.01875424,292586986,0,3,169843999,2233,11,1.04,42.730793399999996,-84.4905096,203.11,0.49785542488098145,130.60128784179688,0.5139999985694885,0.0,1
1666653026.19872212,292766954,0,3,169844199,2233,11,1.04,42.7307925,-84.4905083,203.19,0.762758195400238,198.81503295898438,0.25,0.0,1
1666653026.41868711,292986919,0,3,169844399,2233,11,0.93,42.7307917,-84.4905071,203.14000000000001,0.4566333591938019,111.45189666748047,0.25699999928474426,0.0,1
1666653026.61865425,293186886,0,3,169844599,2233,11,0.93,42.730791599999996,-84.49050629999999,203.06,0.6722157597541809,205.84078979492188,0.31700000166893005,0.0,1
1666653026.81869221,293386924,0,3,169844799,2233,10,0.93,42.7307906,-84.49050659999999,203.04,0.7648477554321289,182.69781494140625,0.2680000066757202,0.0,1
1666653026.99871421,293566946,0,3,169844999,2233,8,0.93,42.730789099999996,-84.4905064,203.11,0.553913414478302,175.23634338378906,0.07200000435113907,0.0,1
1666653027.21870208,293786934,0,3,169845199,2233,9,0.93,42.7307876,-84.49050659999999,203.17000000000002,0.3595024645328522,176.97044372558594,0.18800000846385956,0.0,1
1666653027.39873409,293966966,0,3,169845399,2233,9,1.19,42.730786599999995,-84.4905069,203.18,0.3730268180370331,211.51693725585938,0.15200001001358032,0.0,1
1666653027.59871221,294166944,0,3,169845599,2233,9,1.19,42.730785999999995,-84.4905067,203.19,0.6412815451622009,181.6978302001953,0.04400000348687172,0.0,1
1666653027.81877208,294387004,0,3,169845799,2233,11,1.19,42.7307859,-84.4905053,203.34,0.18000000715255737,126.8698959350586,-0.09100000560283661,0.0,1
1666653028.01861906,294586851,0,3,169845999,2233,11,1.19,42.7307864,-84.4905039,203.61,0.43931880593299866,164.82493591308594,-0.11000000685453415,0.0,1
1666653028.19860315,294766835,0,3,169846199,2233,11,1.19,42.7307869,-84.4905016,203.77,0.22276671230793,189.03948974609375,-0.017000000923871994,0.0,1
1666653028.39874911,294966981,0,3,169846399,2233,10,1.01,42.7307862,-84.4905007,203.91,0.3830835521221161,181.1966094970703,0.07600000500679016,0.0,1
1666653028.59868622,295166918,0,3,169846599,2233,10,1.01,42.7307853,-84.4905002,203.93,0.3553730547428131,149.7551727294922,0.27900001406669617,0.0,1
1666653028.79873419,295366966,0,3,169846799,2233,11,1.01,42.730785,-84.490499,204.11,0.32876285910606384,174.06396484375,0.26200002431869507,0.0,1
1666653029.01875925,295586991,0,3,169846999,2233,9,1.01,42.730784299999996,-84.4904974,204.36,0.272209495306015,191.22738647460938,0.10400000214576721,0.0,1
1666653029.21868014,295786912,0,3,169847199,2233,10,1.01,42.730784,-84.4904968,205.23000000000002,0.41394808888435364,183.87852478027344,0.04200000315904617,0.0,1
1666653029.41877508,295987007,0,3,169847399,2233,10,1.01,42.730784199999995,-84.49049529999999,205.85,0.03280244022607803,217.568603515625,0.03200000151991844,0.0,1
1666653029.61869621,296186928,0,3,169847599,2233,10,1.01,42.730784,-84.4904933,206.37,0.1328495442867279,205.40773010253906,0.08100000023841858,0.0,1
1666653029.81871128,296386943,0,3,169847799,2233,10,1.01,42.7307838,-84.4904909,207.04,0.10335376858711243,208.30076599121094,0.03100000135600567,0.0,1
1666653030.01868820,296586920,0,3,169847999,2233,10,1.01,42.7307834,-84.4904902,207.52,0.2711844742298126,182.11329650878906,0.005000000353902578,0.0,1
1666653030.19862819,296766860,0,3,169848199,2233,9,1.01,42.7307826,-84.4904912,207.99,0.09602604806423187,8.383247375488281,0.07000000029802322,0.0,1
1666653030.41868424,296986916,0,3,169848399,2233,10,1.01,42.7307816,-84.4904925,208.21,0.16099689900875092,206.56504821777344,0.052000001072883606,0.0,1
1666653030.61871219,297186944,0,3,169848599,2233,9,1.01,42.730780599999996,-84.49049219999999,208.34,0.06539113074541092,156.57130432128906,0.21700000762939453,0.0,1
1666653030.81871414,297386946,0,3,169848799,2233,9,1.01,42.7307795,-84.49049,208.57,0.04753946140408516,67.75096893310547,0.22300000488758087,0.0,1
1666653031.01877618,297587008,0,3,169848999,2233,9,1.01,42.7307785,-84.4904885,208.74,0.226991206407547,209.27525329589844,0.1900000125169754,0.0,1
1666653031.21870923,297786941,0,3,169849199,2233,10,1.01,42.7307792,-84.49048719999999,208.66,0.40925300121307373,184.48460388183594,0.23400001227855682,0.0,1
1666653031.41869521,297986927,0,3,169849399,2233,10,1.01,42.7307802,-84.4904856,208.61,0.16434720158576965,191.58343505859375,0.006000000052154064,0.0,1
1666653031.59877229,298167004,0,3,169849599,2233,10,1.01,42.7307809,-84.49048359999999,208.66,0.03201562166213989,88.2100830078125,0.01100000087171793,0.0,1
1666653031.79869413,298366926,0,3,169849799,2233,9,1.01,42.7307817,-84.4904808,208.87,0.08692526072263718,66.9745101928711,-0.05100000277161598,0.0,1
1666653032.01868320,298586915,0,3,169849999,2233,10,1.01,42.730782,-84.4904785,208.81,0.17500287294387817,0.3274008631706238,0.453000009059906,0.0,1
1666653032.21872926,298786961,0,3,169850199,2233,9,1.01,42.7307822,-84.49047519999999,209.0,0.06207254156470299,182.7702178955078,0.12000000476837158,0.0,1
1666653032.41867328,298986905,0,3,169850399,2233,10,1.01,42.7307823,-84.4904735,208.94,0.020099753513932228,185.71060180664062,0.08100000023841858,0.0,1
1666653032.61876321,299186995,0,3,169850599,2233,10,1.01,42.7307829,-84.4904711,208.8,0.13535140454769135,214.15969848632812,0.1770000010728836,0.0,1
1666653032.79871321,299366945,0,3,169850799,2233,11,1.01,42.7307834,-84.4904689,208.63,0.035805027931928635,54.090274810791016,0.24900001287460327,0.0,1
1666653032.99875426,299566986,0,3,169850999,2233,11,1.01,42.7307838,-84.4904668,208.52,0.12986531853675842,336.3958740234375,0.1940000057220459,0.0,1
1666653033.21871710,299786949,0,3,169851199,2233,10,1.01,42.730783599999995,-84.4904653,208.51,0.13380956649780273,343.0546875,0.0010000000474974513,0.0,1
1666653033.41863513,299986867,0,3,169851399,2233,10,1.05,42.730783599999995,-84.4904644,208.45000000000002,0.19801011681556702,23.19858741760254,0.15700000524520874,0.0,1
1666653033.59870315,300166935,0,3,169851599,2233,9,1.05,42.730784,-84.4904643,208.35,0.3238055109977722,13.392496109008789,0.04500000178813934,0.0,1
1666653033.81871819,300386950,0,3,169851799,2233,10,1.05,42.7307844,-84.4904638,208.27,0.23715397715568542,67.43588256835938,0.3660000264644623,0.0,1
1666653034.01866412,300586896,0,3,169851999,2233,9,1.05,42.7307857,-84.4904628,208.19,0.21844223141670227,29.029129028320312,0.0430000014603138,0.0,1
1666653034.19868612,300766918,0,3,169852199,2233,9,1.05,42.7307862,-84.490462,208.17000000000002,0.437906414270401,41.29669952392578,0.05700000375509262,0.0,1
1666653034.39871907,300966951,0,3,169852399,2233,10,1.05,42.7307862,-84.49046109999999,208.19,0.22676201164722443,19.313892364501953,0.023000001907348633,0.0,1
1666653034.59872913,301166961,0,3,169852599,2233,11,1.05,42.7307862,-84.4904608,208.13,0.04123105853796005,247.16635131835938,-0.11000000685453415,0.0,1
1666653034.79877114,301367003,0,3,169852799,2233,9,1.05,42.7307862,-84.4904609,208.13,0.12101653218269348,10.474234580993652,-0.03800000250339508,0.0,1
1666653034.99872518,301566957,0,3,169852999,2233,9,1.05,42.730787199999995,-84.4904603,208.12,0.1670479029417038,88.62789916992188,-0.1550000011920929,0.0,1
1666653035.19871926,301766951,0,3,169853199,2233,9,1.05,42.7307874,-84.49046,208.14000000000001,0.11085576564073563,193.0333709716797,0.19500000774860382,0.0,1
1666653035.39869308,301966925,0,3,169853399,2233,8,1.11,42.7307876,-84.4904595,208.17000000000002,0.09638464450836182,67.42586517333984,0.030000001192092896,0.0,1
1666653035.59870529,302166937,0,3,169853599,2233,10,1.11,42.7307875,-84.49045869999999,208.23000000000002,0.08323460817337036,215.21759033203125,0.032999999821186066,0.0,1
1666653035.79869413,302366926,0,3,169853799,2233,10,1.11,42.7307875,-84.4904584,208.29,0.1534438133239746,200.2064208984375,-0.07200000435113907,0.0,1
1666653035.99870920,302566941,0,3,169853999,2233,10,1.11,42.7307877,-84.4904583,208.26,0.10554619878530502,207.05059814453125,0.04200000315904617,0.0,1
1666653036.21873116,302786963,0,3,169854199,2233,9,1.11,42.730787899999996,-84.49045869999999,208.21,0.027313001453876495,66.25049591064453,0.11600000411272049,0.0,1
1666653036.41869211,302986924,0,3,169854399,2233,8,1.11,42.730788,-84.4904586,208.20000000000002,0.08645230531692505,60.17291259765625,0.23000000417232513,0.0,1
1666653036.61870623,303186938,0,3,169854599,2233,11,1.11,42.730788,-84.490459,208.11,0.12879830598831177,238.65480041503906,0.013000000268220901,0.0,1
1666653036.79874325,303366975,0,3,169854799,2233,11,1.11,42.730787899999996,-84.4904598,208.14000000000001,0.17761194705963135,245.0220947265625,-0.1730000078678131,0.0,1
1666653036.99869919,303566931,0,3,169854999,2233,9,1.11,42.730787799999995,-84.49046009999999,208.24,0.17390228807926178,76.36329650878906,-0.10100000351667404,0.0,1
1666653037.19868922,303766921,0,3,169855199,2233,10,1.11,42.7307877,-84.4904602,208.35,0.15118201076984406,62.41796875,-0.07100000232458115,0.0,1
1666653037.41862011,303986852,0,3,169855399,2233,10,0.99,42.730787899999996,-84.49046039999999,208.49,0.303026407957077,37.62622833251953,-0.06200000271201134,0.0,1
1666653037.59865427,304166886,0,3,169855599,2233,10,0.99,42.7307883,-84.49046059999999,208.63,0.42596012353897095,23.37520980834961,-0.0560000017285347,0.0,1
1666653037.81870317,304386935,0,3,169855799,2233,11,0.99,42.7307884,-84.49046129999999,208.68,0.018384777009487152,247.619873046875,-0.23100000619888306,0.0,1
1666653038.01869726,304586929,0,3,169855999,2233,11,0.99,42.7307882,-84.4904619,208.85,0.1860349476337433,75.36615753173828,-0.08400000631809235,0.0,1
1666653038.19871426,304766946,0,3,169856199,2233,11,0.99,42.730788,-84.4904624,208.95000000000002,0.14105673134326935,91.62496948242188,-0.17500001192092896,0.0,1
1666653038.39868808,304966920,0,3,169856399,2233,11,0.9500000000000001,42.730787899999996,-84.4904631,209.04,0.08723532408475876,61.96614456176758,-0.04500000178813934,0.0,1
1666653038.59868217,305166914,0,3,169856599,2233,11,0.9500000000000001,42.7307877,-84.4904639,209.13,0.10410091280937195,58.75306701660156,-0.1770000010728836,0.0,1
1666653038.79870129,305366933,0,3,169856799,2233,11,0.9500000000000001,42.7307874,-84.49046489999999,209.20000000000002,0.13319535553455353,102.57545471191406,-0.15900000929832458,0.0,1
1666653038.99866724,305566899,0,3,169856999,2233,10,0.9500000000000001,42.730787,-84.4904658,209.21,0.02640075795352459,65.37642669677734,-0.10100000351667404,0.0,1
1666653039.21867514,305786907,0,3,169857199,2233,10,0.9500000000000001,42.7307868,-84.49046659999999,209.27,0.05660388618707657,57.99461364746094,-0.08700000494718552,0.0,1
1666653039.39874411,305966976,0,3,169857399,2233,10,0.9500000000000001,42.730786599999995,-84.4904675,209.29,0.06700000166893005,90.0,-0.0820000022649765,0.0,1
1666653039.59861422,306166846,0,3,169857599,2233,10,0.9500000000000001,42.7307864,-84.49046829999999,209.35,0.12151132524013519,76.19247436523438,-0.04800000041723251,0.0,1
1666653039.79871225,306366944,0,3,169857799,2233,10,0.9500000000000001,42.730785999999995,-84.4904693,209.32,0.12601587176322937,180.90939331054688,-0.0950000062584877,0.0,1
1666653040.01869607,306586928,0,3,169857999,2233,10,0.9500000000000001,42.7307858,-84.4904703,209.38,0.10688779503107071,26.085599899291992,-0.04100000113248825,0.0,1
1666653040.21868730,306786919,0,3,169858199,2233,10,0.9500000000000001,42.730785499999996,-84.4904713,209.39000000000001,0.14682303369045258,215.855224609375,-0.014000000432133675,0.0,1
1666653040.41865110,306986883,0,3,169858399,2233,10,0.97,42.7307853,-84.4904724,209.42000000000002,0.0487544909119606,334.48614501953125,0.01100000087171793,0.0,1
1666653040.61860418,307186836,0,3,169858599,2233,10,0.97,42.730784899999996,-84.4904736,209.44,0.17976930737495422,202.5708465576172,-0.12000000476837158,0.0,1
1666653040.81866717,307386899,0,3,169858799,2233,10,0.97,42.7307844,-84.4904749,209.52,0.20600971579551697,216.3136444091797,-0.013000000268220901,0.0,1
1666653040.99864125,307566873,0,3,169858999,2233,10,0.97,42.7307841,-84.490476,209.59,0.08766413480043411,25.688142776489258,-0.021000001579523087,0.0,1
1666653041.19862509,307766857,0,3,169859199,2233,10,0.97,42.730783699999996,-84.4904772,209.59,0.1336338222026825,185.58261108398438,-0.007000000216066837,0.0,1
1666653041.41872621,307986958,0,3,169859399,2233,10,0.97,42.7307833,-84.4904782,209.67000000000002,0.05742821842432022,35.07374954223633,0.11500000208616257,0.0,1
1666653041.61864328,308186875,0,3,169859599,2233,10,0.97,42.7307831,-84.49047929999999,209.79,0.1014149934053421,257.47119140625,-0.08100000023841858,0.0,1
1666653041.79863524,308366867,0,3,169859799,2233,10,0.97,42.7307827,-84.4904806,209.85,0.12609916925430298,182.2724609375,-0.07800000160932541,0.0,1
