timestamp,TimeUS,Lat,Lng,Alt,RelHomeAlt,RelOriginAlt
1666652965.93926024,232507492,42.7307608,-84.49053909999999,213.88999938964844,0.01178865134716034,-0.38821133971214294
1666652965.97899914,232547231,42.7307607,-84.4905393,213.88999938964844,0.014382705092430115,-0.38561728596687317
1666652965.99954724,232567779,42.7307607,-84.4905394,213.88999938964844,0.015714868903160095,-0.3842851221561432
1666652966.01904416,232587276,42.7307607,-84.4905395,213.88999938964844,0.016898736357688904,-0.3831012547016144
1666652966.05901718,232627249,42.730760599999996,-84.4905399,213.88999938964844,0.019480779767036438,-0.38051921129226685
1666652966.09951329,232667745,42.730760499999995,-84.49054029999999,213.89999389648438,0.022158131003379822,-0.37784186005592346
1666652966.09964013,232667872,42.730760499999995,-84.49054029999999,213.89999389648438,0.022158131003379822,-0.37784186005592346
1666652966.13945508,232707687,42.7307604,-84.4905405,213.89999389648438,0.024724498391151428,-0.37527549266815186
1666652966.17895818,232747190,42.7307604,-84.49054079999999,213.89999389648438,0.027325764298439026,-0.37267422676086426
1666652966.19956517,232767797,42.7307603,-84.4905409,213.89999389648438,0.028657004237174988,-0.3713429868221283
1666652966.21909714,232787329,42.7307603,-84.490541,213.89999389648438,0.02983991801738739,-0.3701600730419159
1666652966.25904608,232827278,42.7307602,-84.4905414,213.9099884033203,0.031830742955207825,-0.36816924810409546
1666652966.29950714,232867739,42.7307602,-84.4905418,213.9099884033203,0.03373117744922638,-0.3662688136100769
1666652966.29962111,232867853,42.7307602,-84.4905418,213.9099884033203,0.03373117744922638,-0.3662688136100769
1666652966.33956528,232907797,42.7307601,-84.4905421,213.9099884033203,0.03573088347911835,-0.36426910758018494
1666652966.37904716,232947279,42.7307601,-84.4905423,213.9099884033203,0.03777574002742767,-0.3622242510318756
1666652966.39967513,232967907,42.7307601,-84.49054249999999,213.9099884033203,0.03884132206439972,-0.36115866899490356
1666652966.41901112,232987243,42.73076,-84.4905426,213.9099884033203,0.039765700697898865,-0.3602342903614044
1666652966.45896220,233027194,42.73076,-84.4905429,213.9199981689453,0.04139561951160431,-0.358604371547699
1666652966.49954128,233067773,42.730759899999995,-84.4905433,213.9199981689453,0.04291979968547821,-0.3570801913738251
1666652966.49966216,233067894,42.730759899999995,-84.4905433,213.9199981689453,0.04291979968547821,-0.3570801913738251
1666652966.53958726,233107819,42.730759899999995,-84.4905436,213.9199981689453,0.044607385993003845,-0.35539260506629944
1666652966.57900715,233147239,42.7307598,-84.4905438,213.9199981689453,0.04628385603427887,-0.3537161350250244
1666652966.59957314,233167805,42.7307598,-84.49054389999999,213.9199981689453,0.04710344970226288,-0.3528965413570404
1666652966.61900616,233187238,42.7307598,-84.4905441,213.9199981689453,0.047499075531959534,-0.35250091552734375
1666652966.65901518,233227247,42.7307597,-84.49054439999999,213.9199981689453,0.047790393233299255,-0.35220959782600403
1666652966.69946408,233267696,42.7307597,-84.4905448,213.9199981689453,0.04778505861759186,-0.3522149324417114
1666652966.69960213,233267834,42.7307597,-84.4905448,213.9199981689453,0.04778505861759186,-0.3522149324417114
1666652966.73965406,233307886,42.7307596,-84.490545,213.9199981689453,0.04835610091686249,-0.3516438901424408
1666652966.77900815,233347240,42.7307596,-84.4905453,213.9199981689453,0.04898811876773834,-0.35101187229156494
1666652966.79956913,233367801,42.7307596,-84.4905454,213.9199981689453,0.0491703599691391,-0.3508296310901642
1666652966.81902719,233387259,42.7307596,-84.4905455,213.9199981689453,0.04972060024738312,-0.35027939081192017
1666652966.85889506,233427127,42.7307595,-84.49054579999999,213.92999267578125,0.0503375381231308,-0.3496624529361725
1666652966.89951825,233467750,42.7307594,-84.4905462,213.92999267578125,0.050701603293418884,-0.3492983877658844
1666652966.89966011,233467892,42.7307594,-84.4905462,213.92999267578125,0.050701603293418884,-0.3492983877658844
1666652966.93962908,233507861,42.7307594,-84.4905465,213.92999267578125,0.05143718421459198,-0.3485628068447113
1666652966.97908926,233547321,42.730759299999995,-84.4905467,213.92999267578125,0.05202542245388031,-0.347974568605423
1666652966.99956512,233567797,42.730759299999995,-84.4905469,213.92999267578125,0.05219338834285736,-0.3478066027164459
1666652967.01902127,233587253,42.730759299999995,-84.4905469,213.92999267578125,0.052714064717292786,-0.3472859263420105
1666652967.05890918,233627141,42.7307592,-84.4905473,213.92999267578125,0.05239076912403107,-0.3476092219352722
1666652967.09960914,233667841,42.7307592,-84.4905476,213.92999267578125,0.05166114866733551,-0.3483388423919678
1666652967.09975719,233667989,42.7307592,-84.4905476,213.92999267578125,0.05166114866733551,-0.3483388423919678
1666652967.13967228,233707904,42.7307592,-84.4905479,213.92999267578125,0.051781490445137024,-0.34821850061416626
1666652967.17899418,233747226,42.7307591,-84.4905481,213.92999267578125,0.05204389989376068,-0.3479560911655426
1666652967.19948721,233767719,42.7307591,-84.49054819999999,213.92999267578125,0.05206204950809479,-0.3479379415512085
1666652967.21899414,233787226,42.7307591,-84.4905483,213.92999267578125,0.052470073103904724,-0.34752991795539856
1666652967.25899911,233827231,42.7307591,-84.49054869999999,213.92999267578125,0.05314601957798004,-0.34685397148132324
1666652967.29948425,233867716,42.730759,-84.490549,213.92999267578125,0.053656771779060364,-0.3463432192802429
1666652967.29956222,233867794,42.730759,-84.490549,213.92999267578125,0.053656771779060364,-0.3463432192802429
1666652967.33960629,233907838,42.730759,-84.4905493,213.92999267578125,0.054663047194480896,-0.3453369438648224
1666652967.37897015,233947202,42.730759,-84.4905495,213.92999267578125,0.055950626730918884,-0.3440493643283844
1666652967.39952207,233967754,42.730759,-84.4905497,213.92999267578125,0.05656035244464874,-0.34343963861465454
1666652967.41898322,233987215,42.730759,-84.4905498,213.92999267578125,0.057289496064186096,-0.3427104949951172
1666652967.45899820,234027230,42.7307589,-84.4905501,213.92999267578125,0.05706290900707245,-0.34293708205223083
1666652967.49953723,234067769,42.7307589,-84.4905505,213.92999267578125,0.05644683539867401,-0.3435531556606293
1666652967.49963927,234067871,42.7307589,-84.4905505,213.92999267578125,0.05644683539867401,-0.3435531556606293
1666652967.53952026,234107752,42.7307589,-84.4905507,213.92999267578125,0.056530579924583435,-0.34346941113471985
1666652967.57895517,234147187,42.7307588,-84.4905509,213.92999267578125,0.05674438178539276,-0.3432556092739105
1666652967.59951019,234167742,42.7307588,-84.49055109999999,213.92999267578125,0.05669344961643219,-0.3433065414428711
1666652967.61901116,234187243,42.7307588,-84.4905512,213.92999267578125,0.05696903169155121,-0.3430309593677521
1666652967.65911126,234227343,42.7307588,-84.4905515,213.92999267578125,0.057195261120796204,-0.3428047299385071
1666652967.69952917,234267761,42.730758699999996,-84.4905519,213.92999267578125,0.057240501046180725,-0.34275949001312256
1666652967.69964123,234267873,42.730758699999996,-84.4905519,213.92999267578125,0.057240501046180725,-0.34275949001312256
1666652967.73952723,234307759,42.730758699999996,-84.4905521,213.92999267578125,0.057657524943351746,-0.34234246611595154
1666652967.77893710,234347169,42.7307586,-84.4905524,213.92999267578125,0.05805613100528717,-0.3419438600540161
1666652967.79950118,234367733,42.7307586,-84.49055249999999,213.92999267578125,0.058160558342933655,-0.34183943271636963
1666652967.81900120,234387233,42.7307586,-84.4905526,213.92999267578125,0.0583445280790329,-0.3416554629802704
1666652967.85905409,234427286,42.7307586,-84.4905529,213.92999267578125,0.05850134789943695,-0.34149864315986633
1666652967.89951420,234467746,42.7307586,-84.4905532,213.92999267578125,0.05857910215854645,-0.34142088890075684
1666652967.89963627,234467868,42.7307586,-84.4905532,213.92999267578125,0.05857910215854645,-0.34142088890075684
1666652967.93955612,234507788,42.7307586,-84.4905534,213.92999267578125,0.059102579951286316,-0.34089741110801697
1666652967.97894216,234547174,42.7307586,-84.4905536,213.92999267578125,0.059797659516334534,-0.34020233154296875
1666652967.99958420,234567816,42.7307586,-84.49055369999999,213.94000244140625,0.060092851519584656,-0.33990713953971863
1666652968.01902008,234587252,42.7307586,-84.4905539,213.94000244140625,0.0608895868062973,-0.339110404253006
1666652968.05902314,234627255,42.730758699999996,-84.4905541,213.94000244140625,0.06257836520671844,-0.33742162585258484
1666652968.09960318,234667835,42.730758699999996,-84.4905545,213.94000244140625,0.06425730884075165,-0.33574268221855164
1666652968.09971619,234667948,42.730758699999996,-84.4905545,213.94000244140625,0.06425730884075165,-0.33574268221855164
1666652968.13950014,234707732,42.730758699999996,-84.49055469999999,213.94000244140625,0.06567506492137909,-0.3343249261379242
1666652968.17901206,234747244,42.730758699999996,-84.49055489999999,213.94000244140625,0.06679920852184296,-0.3332007825374603
1666652968.19960427,234767836,42.730758699999996,-84.490555,213.94000244140625,0.06735561788082123,-0.33264437317848206
1666652968.21893907,234787171,42.7307588,-84.4905551,213.94000244140625,0.06805960834026337,-0.3319403827190399
1666652968.25911713,234827349,42.7307588,-84.4905553,213.94000244140625,0.06920121610164642,-0.33079877495765686
1666652968.29949427,234867726,42.7307589,-84.4905556,213.9499969482422,0.07017214596271515,-0.32982784509658813
1666652968.29967618,234867908,42.7307589,-84.4905556,213.9499969482422,0.07017214596271515,-0.32982784509658813
1666652968.33969808,234907930,42.7307589,-84.4905558,213.9499969482422,0.0712427943944931,-0.3287571966648102
1666652968.37902808,234947260,42.730759,-84.490556,213.9499969482422,0.07235224545001984,-0.32764774560928345
1666652968.39963508,234967867,42.730759,-84.49055609999999,213.9499969482422,0.07290209829807281,-0.32709789276123047
1666652968.41902328,234987255,42.730759,-84.4905562,213.9499969482422,0.07290579378604889,-0.3270941972732544
1666652968.45891118,235027143,42.730759,-84.4905564,213.9499969482422,0.07241927087306976,-0.3275807201862335
1666652968.49958825,235067820,42.7307591,-84.4905567,213.9499969482422,0.07159127295017242,-0.32840871810913086
1666652968.49973106,235067963,42.7307591,-84.4905567,213.9499969482422,0.07159127295017242,-0.32840871810913086
1666652968.53962326,235107855,42.7307591,-84.4905569,213.9499969482422,0.0714757889509201,-0.3285242021083832
1666652968.57904220,235147274,42.7307591,-84.49055709999999,213.9499969482422,0.07149799168109894,-0.32850199937820435
1666652968.59961009,235167842,42.7307591,-84.4905572,213.9499969482422,0.07139410078525543,-0.32860589027404785
1666652968.61902022,235187252,42.7307591,-84.49055729999999,213.9499969482422,0.07139326632022858,-0.3286067247390747
1666652968.65896606,235227198,42.7307591,-84.4905575,213.9499969482422,0.07089857757091522,-0.32910141348838806
1666652968.69948912,235267721,42.7307592,-84.4905577,213.9499969482422,0.07013793289661407,-0.3298620581626892
1666652968.69964409,235267876,42.7307592,-84.4905577,213.9499969482422,0.07013793289661407,-0.3298620581626892
1666652968.73961020,235307842,42.730759299999995,-84.4905579,213.9499969482422,0.07005621492862701,-0.32994377613067627
1666652968.77906227,235347294,42.730759299999995,-84.490558,213.9499969482422,0.07018645107746124,-0.32981353998184204
1666652968.79947829,235367710,42.730759299999995,-84.4905581,213.9499969482422,0.07018040120601654,-0.32981958985328674
1666652968.81896520,235387197,42.7307594,-84.4905582,213.9499969482422,0.07011063396930695,-0.32988935708999634
1666652968.85900116,235427233,42.7307595,-84.4905584,213.94000244140625,0.06938110291957855,-0.33061888813972473
1666652968.89948726,235467719,42.7307595,-84.4905586,213.94000244140625,0.06830929219722748,-0.3316906988620758
1666652968.89958906,235467821,42.7307595,-84.4905586,213.94000244140625,0.06830929219722748,-0.3316906988620758
1666652968.93959618,235507828,42.7307596,-84.4905588,213.94000244140625,0.06797514855861664,-0.33202484250068665
1666652968.97902226,235547254,42.7307597,-84.4905589,213.94000244140625,0.0678437203168869,-0.3321562707424164
1666652968.99947715,235567709,42.7307597,-84.49055899999999,213.94000244140625,0.06767056882381439,-0.3323294222354889
1666652969.01899123,235587223,42.7307597,-84.49055899999999,213.94000244140625,0.06753496825695038,-0.3324650228023529
1666652969.05900812,235627240,42.7307598,-84.49055919999999,213.94000244140625,0.06681446731090546,-0.3331855237483978
1666652969.09965730,235667889,42.73076,-84.4905594,213.94000244140625,0.06587152183055878,-0.3341284692287445
1666652969.09979129,235668023,42.73076,-84.4905594,213.94000244140625,0.06587152183055878,-0.3341284692287445
1666652969.13963008,235707862,42.7307601,-84.49055949999999,213.94000244140625,0.06560982763767242,-0.33439016342163086
1666652969.17903209,235747264,42.7307601,-84.4905596,213.94000244140625,0.06552673876285553,-0.33447325229644775
1666652969.19958210,235767814,42.7307601,-84.4905596,213.94000244140625,0.0653838962316513,-0.334616094827652
1666652969.21904826,235787280,42.7307602,-84.49055969999999,213.94000244140625,0.06552855670452118,-0.3344714343547821
1666652969.25902009,235827252,42.7307602,-84.4905598,213.94000244140625,0.06438519060611725,-0.33561480045318604
1666652969.29961824,235867850,42.7307603,-84.49056,213.94000244140625,0.06290601193904877,-0.3370939791202545
1666652969.29972625,235867958,42.7307603,-84.49056,213.94000244140625,0.06290601193904877,-0.3370939791202545
1666652969.33959723,235907829,42.7307604,-84.4905601,213.94000244140625,0.06220035254955292,-0.33779963850975037
1666652969.37890124,235947133,42.730760499999995,-84.49056019999999,213.94000244140625,0.061729028820991516,-0.33827096223831177
1666652969.39956427,235967796,42.730760499999995,-84.49056019999999,213.94000244140625,0.06136299669742584,-0.33863699436187744
1666652969.41906214,235987294,42.730760499999995,-84.49056019999999,213.94000244140625,0.06135620176792145,-0.33864378929138184
1666652969.45906329,236027295,42.730760599999996,-84.4905603,213.94000244140625,0.06022845208644867,-0.3397715389728546
1666652969.49963307,236067865,42.7307608,-84.4905605,213.92999267578125,0.05864463746547699,-0.3413553535938263
1666652969.49973321,236067965,42.7307608,-84.4905605,213.92999267578125,0.05864463746547699,-0.3413553535938263
1666652969.53952026,236107752,42.7307608,-84.4905605,213.92999267578125,0.057812705636024475,-0.3421872854232788
1666652969.57893324,236147165,42.7307609,-84.4905606,213.92999267578125,0.057125821709632874,-0.3428741693496704
1666652969.59967828,236167910,42.7307609,-84.4905606,213.92999267578125,0.05665753781795502,-0.34334245324134827
1666652969.61900806,236187240,42.730761,-84.4905606,213.92999267578125,0.05660237371921539,-0.3433976173400879
1666652969.65907216,236227304,42.730761099999995,-84.4905607,213.92999267578125,0.05718795955181122,-0.34281203150749207
1666652969.69946718,236267699,42.7307613,-84.4905608,213.92999267578125,0.05772058665752411,-0.3422794044017792
1666652969.69960427,236267836,42.7307613,-84.4905608,213.92999267578125,0.05772058665752411,-0.3422794044017792
1666652969.73958421,236307816,42.7307615,-84.49056089999999,213.92999267578125,0.05825115740299225,-0.34174883365631104
1666652969.77904510,236347277,42.7307616,-84.490561,213.92999267578125,0.05880998075008392,-0.34119001030921936
1666652969.79923725,236367469,42.7307616,-84.490561,213.92999267578125,0.05912064015865326,-0.34087935090065
1666652969.81896830,236387200,42.730761699999995,-84.490561,213.92999267578125,0.05941347777843475,-0.34058651328086853
1666652969.85936308,236427595,42.7307619,-84.4905611,213.94000244140625,0.06100092828273773,-0.33899906277656555
1666652969.89920521,236467437,42.730762,-84.4905612,213.94000244140625,0.06239767372608185,-0.33760231733322144
1666652969.89931607,236467548,42.730762,-84.4905612,213.94000244140625,0.06239767372608185,-0.33760231733322144
1666652969.93964314,236507875,42.7307621,-84.4905612,213.94000244140625,0.06366555392742157,-0.3363344371318817
1666652969.97900915,236547241,42.7307622,-84.4905613,213.94000244140625,0.06484274566173553,-0.33515724539756775
1666652969.99925208,236567484,42.730762299999995,-84.4905613,213.94000244140625,0.06553219258785248,-0.3344677984714508
1666652970.01942110,236587653,42.730762299999995,-84.4905613,213.94000244140625,0.06616760790348053,-0.33383238315582275
1666652970.05890512,236627137,42.7307625,-84.49056139999999,213.94000244140625,0.06842516362667084,-0.33157482743263245
1666652970.09930110,236667533,42.7307627,-84.49056139999999,213.9499969482422,0.07052277028560638,-0.3294772207736969
1666652970.09940219,236667634,42.7307627,-84.49056139999999,213.9499969482422,0.07052277028560638,-0.3294772207736969
1666652970.13962126,236707853,42.7307628,-84.4905615,213.9499969482422,0.0724073201417923,-0.327592670917511
1666652970.17911530,236747347,42.7307628,-84.4905615,213.9499969482422,0.07412652671337128,-0.325873464345932
1666652970.19926524,236767497,42.730762899999995,-84.4905615,213.9499969482422,0.07510055601596832,-0.32489943504333496
1666652970.21941519,236787647,42.730762899999995,-84.4905615,213.9499969482422,0.07600493729114532,-0.32399505376815796
1666652970.25896716,236827199,42.7307631,-84.49056159999999,213.9499969482422,0.07781673967838287,-0.3221832513809204
1666652970.29919815,236867430,42.7307632,-84.49056159999999,213.9499969482422,0.0794847160577774,-0.3205152750015259
1666652970.29928207,236867514,42.7307632,-84.49056159999999,213.9499969482422,0.0794847160577774,-0.3205152750015259
1666652970.33962107,236907853,42.7307633,-84.49056159999999,213.95999145507812,0.08106495440006256,-0.3189350366592407
1666652970.37904310,236947275,42.7307634,-84.4905617,213.95999145507812,0.08259452879428864,-0.31740546226501465
1666652970.39923429,236967466,42.730763499999995,-84.4905617,213.95999145507812,0.0834759920835495,-0.3165239989757538
1666652970.41934824,236987580,42.730763599999996,-84.4905617,213.95999145507812,0.08543066680431366,-0.3145693242549896
1666652970.45901728,237027249,42.7307637,-84.4905618,213.95999145507812,0.08835949003696442,-0.31164050102233887
1666652970.49914908,237067381,42.7307639,-84.4905618,213.97000122070312,0.09110327064990997,-0.3088967204093933
1666652970.49930716,237067539,42.7307639,-84.4905618,213.97000122070312,0.09110327064990997,-0.3088967204093933
1666652970.53950620,237107738,42.730764,-84.4905618,213.97000122070312,0.09361089766025543,-0.30638909339904785
1666652970.57906127,237147293,42.730764099999995,-84.4905618,213.97000122070312,0.09586380422115326,-0.30413618683815
1666652970.59930515,237167537,42.730764199999996,-84.4905618,213.97000122070312,0.09715713560581207,-0.3028428554534912
1666652970.61929107,237187523,42.7307643,-84.4905618,213.97000122070312,0.09839509427547455,-0.30160489678382874
1666652970.65899825,237227230,42.7307644,-84.4905618,213.97999572753906,0.10330943763256073,-0.29669055342674255
1666652970.69923925,237267471,42.7307645,-84.4905618,213.97999572753906,0.10794056951999664,-0.29205942153930664
1666652970.69937325,237267605,42.7307645,-84.4905618,213.97999572753906,0.10794056951999664,-0.29205942153930664
1666652970.73958921,237307821,42.7307646,-84.4905619,213.989990234375,0.11214779317378998,-0.2878521978855133
1666652970.77898526,237347217,42.730764699999995,-84.4905618,213.989990234375,0.11574728786945343,-0.28425270318984985
1666652970.79925609,237367488,42.730764799999996,-84.4905618,213.989990234375,0.11783339083194733,-0.28216660022735596
1666652970.81938624,237387618,42.7307649,-84.4905619,214.0,0.12216587364673615,-0.27783411741256714
1666652970.85909224,237427324,42.7307651,-84.4905619,214.0,0.12812034785747528,-0.271879643201828
1666652970.89918518,237467417,42.7307652,-84.4905618,214.00999450683594,0.13340087234973907,-0.2665991187095642
1666652970.89931321,237467545,42.7307652,-84.4905618,214.00999450683594,0.13340087234973907,-0.2665991187095642
1666652970.93962121,237507853,42.7307653,-84.4905618,214.00999450683594,0.13821400701999664,-0.26178598403930664
1666652970.97892022,237547152,42.730765399999996,-84.4905618,214.01998901367188,0.14253561198711395,-0.25746437907218933
1666652970.99921012,237567442,42.7307655,-84.4905618,214.01998901367188,0.1450406163930893,-0.254959374666214
1666652971.01935530,237587587,42.7307656,-84.4905618,214.01998901367188,0.14873971045017242,-0.25126028060913086
1666652971.05908728,237627319,42.7307657,-84.4905617,214.02999877929688,0.1537456214427948,-0.24625436961650848
1666652971.09935212,237667584,42.7307658,-84.4905617,214.02999877929688,0.15826202929019928,-0.241737961769104
1666652971.09950423,237667736,42.7307658,-84.4905617,214.02999877929688,0.15826202929019928,-0.241737961769104
1666652971.13952708,237707759,42.7307659,-84.49056159999999,214.0399932861328,0.16241216659545898,-0.2375878244638443
1666652971.17921615,237747448,42.7307661,-84.49056159999999,214.0399932861328,0.16693195700645447,-0.23306803405284882
1666652971.19920516,237767437,42.7307661,-84.4905615,214.0399932861328,0.16827701032161713,-0.23172298073768616
1666652971.21899414,237787226,42.7307662,-84.4905615,214.04998779296875,0.17224042117595673,-0.22775956988334656
1666652971.25904608,237827278,42.7307663,-84.4905615,214.04998779296875,0.1778600513935089,-0.22213993966579437
1666652971.29928613,237867518,42.7307664,-84.49056139999999,214.05999755859375,0.1829274594783783,-0.217072531580925
1666652971.29942513,237867657,42.7307664,-84.49056139999999,214.05999755859375,0.1829274594783783,-0.217072531580925
1666652971.33956027,237907792,42.730766599999995,-84.4905613,214.05999755859375,0.18759988248348236,-0.21240010857582092
1666652971.37937117,237947603,42.7307667,-84.4905613,214.0699920654297,0.19268906116485596,-0.20731092989444733
1666652971.39923811,237967470,42.7307667,-84.4905613,214.0699920654297,0.1942487210035324,-0.20575127005577087
1666652971.41897416,237987206,42.7307668,-84.4905613,214.0699920654297,0.19914864003658295,-0.20085135102272034
1666652971.45899916,238027231,42.730767,-84.4905613,214.0800018310547,0.20624881982803345,-0.19375117123126984
1666652971.49921322,238067445,42.7307671,-84.4905612,214.08999633789062,0.2127656191587448,-0.18723437190055847
1666652971.49932027,238067552,42.7307671,-84.4905612,214.08999633789062,0.2127656191587448,-0.18723437190055847
1666652971.53960228,238107834,42.730767199999995,-84.4905612,214.08999633789062,0.21875296533107758,-0.1812470257282257
1666652971.57931113,238147543,42.7307673,-84.4905612,214.09999084472656,0.22460609674453735,-0.17539389431476593
1666652971.59921026,238167442,42.7307674,-84.4905611,214.09999084472656,0.22642385959625244,-0.17357613146305084
1666652971.61903620,238187268,42.7307675,-84.4905611,214.09999084472656,0.22995217144489288,-0.1700478196144104
1666652971.65901017,238227242,42.7307677,-84.4905611,214.11000061035156,0.2354528307914734,-0.1645471602678299
1666652971.69923925,238267471,42.730767799999995,-84.490561,214.1199951171875,0.24055974185466766,-0.15944024920463562
1666652971.69931126,238267543,42.730767799999995,-84.490561,214.1199951171875,0.24055974185466766,-0.15944024920463562
1666652971.73956418,238307796,42.730768,-84.490561,214.1199951171875,0.24528291821479797,-0.1547170728445053
1666652971.77938128,238347613,42.7307681,-84.49056089999999,214.12998962402344,0.2512138783931732,-0.14878611266613007
1666652971.79926229,238367494,42.7307682,-84.49056089999999,214.12998962402344,0.2530938982963562,-0.14690609276294708
1666652971.81903720,238387269,42.7307683,-84.49056089999999,214.12998962402344,0.25785934925079346,-0.14214062690734863
1666652971.85902429,238427256,42.730768499999996,-84.4905608,214.13999938964844,0.2651912271976471,-0.1348087638616562
1666652971.89921021,238467442,42.7307686,-84.4905608,214.14999389648438,0.27206844091415405,-0.12793156504631042
1666652971.89928722,238467519,42.7307686,-84.4905608,214.14999389648438,0.27206844091415405,-0.12793156504631042
1666652971.93967509,238507907,42.7307687,-84.4905607,214.14999389648438,0.2784000337123871,-0.1215999647974968
1666652971.97936320,238547595,42.7307689,-84.4905607,214.1599884033203,0.2863941490650177,-0.11360584944486618
1666652971.99929309,238567525,42.7307689,-84.4905607,214.1599884033203,0.2887706756591797,-0.1112293228507042
1666652972.01904607,238587278,42.730768999999995,-84.4905607,214.1699981689453,0.2941364049911499,-0.10586359351873398
1666652972.05897617,238627208,42.7307692,-84.4905607,214.17999267578125,0.3022381365299225,-0.0977618619799614
1666652972.09931326,238667545,42.7307693,-84.4905606,214.17999267578125,0.3097335696220398,-0.09026641398668289
1666652972.09942126,238667653,42.7307693,-84.4905606,214.17999267578125,0.3097335696220398,-0.09026641398668289
1666652972.13960624,238707838,42.7307695,-84.4905606,214.19000244140625,0.3167117238044739,-0.08328825980424881
1666652972.17934728,238747579,42.730769599999995,-84.4905605,214.1999969482422,0.32454878091812134,-0.07545122504234314
1666652972.19925523,238767487,42.730769599999995,-84.4905605,214.1999969482422,0.3269460201263428,-0.07305395603179932
1666652972.21907616,238787308,42.730769699999996,-84.4905605,214.20999145507812,0.3304905891418457,-0.06950940191745758
1666652972.25903320,238827265,42.7307699,-84.4905605,214.22000122070312,0.34015554189682007,-0.05984443798661232
1666652972.29930425,238867536,42.73077,-84.49056039999999,214.22000122070312,0.3490825891494751,-0.05091739818453789
1666652972.29938126,238867613,42.73077,-84.49056039999999,214.22000122070312,0.3490825891494751,-0.05091739818453789
1666652972.33955717,238907789,42.730770199999995,-84.49056039999999,214.22999572753906,0.35730433464050293,-0.04269566759467125
1666652972.37936521,238947597,42.7307704,-84.4905603,214.239990234375,0.36753013730049133,-0.03246985003352165
1666652972.39924312,238967475,42.7307704,-84.4905603,214.25,0.3705962896347046,-0.029403693974018097
1666652972.41907716,238987309,42.7307705,-84.4905603,214.25,0.3764928877353668,-0.023507094010710716
1666652972.45902109,239027253,42.730770799999995,-84.49056019999999,214.25999450683594,0.386719286441803,-0.013280700892210007
1666652972.49916220,239067394,42.730771,-84.49056019999999,214.26998901367188,0.39661353826522827,-0.0033864520955830812
1666652972.49932814,239067560,42.730771,-84.49056019999999,214.26998901367188,0.39661353826522827,-0.0033864520955830812
1666652972.53971910,239107951,42.7307711,-84.4905601,214.27999877929688,0.40585723519325256,0.005857243202626705
1666652972.57932425,239147556,42.7307713,-84.4905601,214.2899932861328,0.41986921429634094,0.01986921764910221
1666652972.59918714,239167419,42.730771399999995,-84.49056,214.29998779296875,0.42459985613822937,0.02459985762834549
1666652972.61902118,239187253,42.730771499999996,-84.49056,214.30999755859375,0.43291085958480835,0.03291088342666626
1666652972.65907907,239227311,42.7307717,-84.49056,214.3199920654297,0.44845056533813477,0.04845057800412178
1666652972.69927621,239267508,42.7307719,-84.49056,214.33999633789062,0.4651798605918884,0.06517986953258514
1666652972.69940829,239267640,42.7307719,-84.49056,214.33999633789062,0.4651798605918884,0.06517986953258514
1666652972.73965120,239307883,42.730771999999995,-84.4905599,214.36000061035156,0.48244327306747437,0.08244327455759048
1666652972.77929616,239347528,42.7307722,-84.4905599,214.37998962402344,0.5061953663825989,0.10619539022445679
1666652972.79920721,239367439,42.7307723,-84.4905599,214.38999938964844,0.5152917504310608,0.1152917742729187
1666652972.81897211,239387204,42.7307723,-84.4905598,214.39999389648438,0.5273452401161194,0.1273452341556549
1666652972.85902715,239427259,42.730772599999995,-84.4905598,214.42999267578125,0.5510812997817993,0.15108132362365723
1666652972.89921117,239467443,42.7307728,-84.4905598,214.4499969482422,0.5766008496284485,0.1766008734703064
1666652972.89931607,239467548,42.7307728,-84.4905598,214.4499969482422,0.5766008496284485,0.1766008734703064
1666652972.93962526,239507857,42.7307729,-84.4905598,214.47999572753906,0.6027076244354248,0.20270761847496033
1666652972.97936821,239547600,42.7307731,-84.4905598,214.52999877929688,0.6540066003799438,0.25400659441947937
1666652972.99921012,239567442,42.7307732,-84.4905598,214.54998779296875,0.6717184782028198,0.27171850204467773
1666652973.01896715,239587199,42.730773299999996,-84.4905598,214.5699920654297,0.6955283284187317,0.2955283522605896
1666652973.05902815,239627260,42.7307735,-84.4905598,214.6199951171875,0.7430405616760254,0.3430405855178833
1666652973.09931421,239667546,42.7307737,-84.4905599,214.6699981689453,0.7927535176277161,0.3927535116672516
1666652973.09940219,239667634,42.7307737,-84.4905599,214.6699981689453,0.7927535176277161,0.3927535116672516
1666652973.13960218,239707834,42.7307738,-84.4905599,214.72000122070312,0.8405807614326477,0.4405807852745056
1666652973.17934322,239747575,42.730774,-84.49056,214.77999877929688,0.9066343903541565,0.5066344141960144
1666652973.19924712,239767479,42.730774,-84.49056,214.79998779296875,0.9293922781944275,0.5293923020362854
1666652973.21904206,239787274,42.730774,-84.49056,214.8300018310547,0.9595993161201477,0.5595993399620056
1666652973.25900722,239827239,42.7307742,-84.49056,214.88999938964844,1.015280842781067,0.6152808666229248
1666652973.29917216,239867404,42.7307744,-84.4905601,214.9499969482422,1.07200288772583,0.6720028519630432
1666652973.29929709,239867529,42.7307744,-84.4905601,214.9499969482422,1.07200288772583,0.6720028519630432
1666652973.33954525,239907777,42.730774499999995,-84.49056019999999,215.0,1.1250941753387451,0.725094199180603
1666652973.37951517,239947747,42.7307746,-84.4905603,215.0699920654297,1.1938687562942505,0.7938687801361084
1666652973.39925122,239967483,42.7307746,-84.4905603,215.08999633789062,1.2177598476409912,0.8177598714828491
1666652973.41902423,239987256,42.7307748,-84.49056019999999,215.1199951171875,1.248872995376587,0.8488730192184448
1666652973.45903015,240027262,42.730775099999995,-84.49056019999999,215.17999267578125,1.305514931678772,0.9055148959159851
1666652973.49913406,240067366,42.7307753,-84.49056019999999,215.239990234375,1.3614399433135986,0.9614399671554565
1666652973.49929428,240067526,42.7307753,-84.49056019999999,215.239990234375,1.3614399433135986,0.9614399671554565
1666652973.53970408,240107936,42.7307755,-84.4905601,215.2899932861328,1.4139107465744019,1.0139107704162598
1666652973.57931924,240147551,42.730775699999995,-84.4905601,215.36000061035156,1.4801628589630127,1.0801628828048706
1666652973.59924626,240167478,42.730775699999995,-84.4905601,215.37998962402344,1.5024174451828003,1.1024174690246582
1666652973.61902022,240187252,42.7307759,-84.49056,215.4099884033203,1.5307570695877075,1.1307570934295654
1666652973.65898514,240227217,42.7307762,-84.4905599,215.4499969482422,1.5793370008468628,1.1793370246887207
1666652973.69915009,240267382,42.7307765,-84.4905598,215.5,1.6249018907546997,1.2249019145965576
1666652973.69922209,240267454,42.7307765,-84.4905598,215.5,1.6249018907546997,1.2249019145965576
1666652973.73953629,240307768,42.7307767,-84.49055969999999,215.5399932861328,1.6663970947265625,1.2663971185684204
1666652973.77932310,240347555,42.730776999999996,-84.4905596,215.5800018310547,1.7059077024459839,1.3059077262878418
1666652973.79934216,240367574,42.730776999999996,-84.49055949999999,215.59999084472656,1.7204785346984863,1.3204785585403442
1666652973.81907010,240387302,42.7307773,-84.49055949999999,215.61000061035156,1.7365219593048096,1.3365219831466675
1666652973.85903406,240427266,42.730777599999996,-84.4905594,215.62998962402344,1.7590841054916382,1.359084129333496
1666652973.89923906,240467471,42.7307778,-84.4905593,215.64999389648438,1.7775828838348389,1.3775829076766968
1666652973.89931512,240467547,42.7307778,-84.4905593,215.64999389648438,1.7775828838348389,1.3775829076766968
1666652973.93952227,240507754,42.730778099999995,-84.49055919999999,215.6699981689453,1.7951023578643799,1.3951023817062378
1666652973.97938323,240547615,42.7307783,-84.49055899999999,215.6699981689453,1.7985996007919312,1.398599624633789
1666652973.99929810,240567530,42.7307784,-84.49055899999999,215.67999267578125,1.8040703535079956,1.4040703773498535
1666652974.01900506,240587237,42.730778699999995,-84.4905589,215.67999267578125,1.805904746055603,1.405904769897461
1666652974.05902219,240627254,42.730779,-84.4905587,215.67999267578125,1.8064870834350586,1.4064871072769165
1666652974.09931922,240667551,42.730779299999995,-84.4905586,215.67999267578125,1.805375099182129,1.4053751230239868
1666652974.09945512,240667687,42.730779299999995,-84.4905586,215.67999267578125,1.805375099182129,1.4053751230239868
1666652974.13962626,240707858,42.7307797,-84.49055829999999,215.67999267578125,1.8053669929504395,1.4053670167922974
1666652974.17942619,240747658,42.730779999999996,-84.4905582,215.6699981689453,1.7915430068969727,1.3915430307388306
1666652974.19921422,240767446,42.7307801,-84.4905582,215.6699981689453,1.7920947074890137,1.3920947313308716
1666652974.21903920,240787271,42.7307803,-84.4905581,215.6599884033203,1.785876750946045,1.3858767747879028
1666652974.25906730,240827299,42.7307807,-84.4905579,215.64999389648438,1.7766828536987305,1.3766828775405884
1666652974.29923916,240867471,42.7307811,-84.4905577,215.63999938964844,1.7675777673721313,1.3675777912139893
1666652974.29937911,240867611,42.7307811,-84.4905577,215.63999938964844,1.7675777673721313,1.3675777912139893
1666652974.33958316,240907815,42.7307814,-84.4905575,215.63999938964844,1.7607380151748657,1.3607380390167236
1666652974.37940621,240947638,42.730781799999995,-84.49055729999999,215.6199951171875,1.744012475013733,1.3440124988555908
1666652974.39921522,240967447,42.730781799999995,-84.4905572,215.6199951171875,1.7440112829208374,1.3440113067626953
1666652974.41898322,240987215,42.7307822,-84.49055709999999,215.61000061035156,1.736934781074524,1.3369348049163818
1666652974.45902419,241027256,42.7307826,-84.4905569,215.59999084472656,1.7292006015777588,1.3292006254196167
1666652974.49922919,241067461,42.730782999999995,-84.4905567,215.59999084472656,1.7225594520568848,1.3225594758987427
1666652974.49934030,241067572,42.730782999999995,-84.4905567,215.59999084472656,1.7225594520568848,1.3225594758987427
1666652974.53969121,241107923,42.7307833,-84.4905565,215.58999633789062,1.718752145767212,1.3187521696090698
1666652974.57937217,241147604,42.730783699999996,-84.4905563,215.5800018310547,1.7080069780349731,1.308007001876831
1666652974.59925818,241167490,42.7307838,-84.4905562,215.5800018310547,1.7096078395843506,1.3096078634262085
1666652974.61894226,241187174,42.7307839,-84.49055609999999,215.5800018310547,1.706407070159912,1.30640709400177
1666652974.65897608,241227208,42.7307844,-84.49055589999999,215.5800018310547,1.7007577419281006,1.3007577657699585
1666652974.69921207,241267444,42.730784799999995,-84.4905557,215.5699920654297,1.6963552236557007,1.2963552474975586
1666652974.69929409,241267526,42.730784799999995,-84.4905557,215.5699920654297,1.6963552236557007,1.2963552474975586
1666652974.73959708,241307829,42.7307852,-84.4905555,215.5699920654297,1.6947693824768066,1.2947694063186646
1666652974.77932906,241347561,42.7307856,-84.4905553,215.55999755859375,1.6847869157791138,1.2847869396209717
1666652974.79928327,241367515,42.7307857,-84.4905552,215.55999755859375,1.6872128248214722,1.28721284866333
1666652974.81904507,241387277,42.730785999999995,-84.4905551,215.55999755859375,1.6858158111572266,1.2858158349990845
1666652974.85898209,241427214,42.7307865,-84.490555,215.55999755859375,1.6873635053634644,1.2873635292053223
1666652974.89934921,241467581,42.7307868,-84.49055489999999,215.55999755859375,1.6898038387298584,1.2898038625717163
1666652974.89945126,241467683,42.7307868,-84.49055489999999,215.55999755859375,1.6898038387298584,1.2898038625717163
1666652974.93953824,241507770,42.730787199999995,-84.49055469999999,215.5699920654297,1.6945767402648926,1.2945767641067505
1666652974.97928429,241547516,42.7307875,-84.4905546,215.5699920654297,1.6953909397125244,1.2953909635543823
1666652974.99926019,241567492,42.7307876,-84.4905546,215.5800018310547,1.7003675699234009,1.3003675937652588
1666652975.01907611,241587308,42.730787799999995,-84.4905545,215.5800018310547,1.7026067972183228,1.3026068210601807
1666652975.05908012,241627312,42.7307882,-84.4905543,215.5800018310547,1.7093451023101807,1.3093451261520386
1666652975.09928226,241667514,42.7307886,-84.4905541,215.58999633789062,1.7166234254837036,1.3166234493255615
1666652975.09936428,241667596,42.7307886,-84.4905541,215.58999633789062,1.7166234254837036,1.3166234493255615
1666652975.13957715,241707809,42.730789099999996,-84.4905538,215.59999084472656,1.7256308794021606,1.3256309032440186
1666652975.17932320,241747555,42.7307893,-84.4905536,215.59999084472656,1.728455901145935,1.328455924987793
1666652975.19928408,241767516,42.7307894,-84.49055349999999,215.61000061035156,1.7343121767044067,1.3343122005462646
1666652975.21912718,241787359,42.730789699999995,-84.4905534,215.61000061035156,1.7375319004058838,1.3375319242477417
1666652975.25904107,241827273,42.73079,-84.4905532,215.6199951171875,1.7456872463226318,1.3456872701644897
1666652975.29916120,241867393,42.730790299999995,-84.4905531,215.62998962402344,1.7538166046142578,1.3538166284561157
1666652975.29931521,241867547,42.730790299999995,-84.4905531,215.62998962402344,1.7538166046142578,1.3538166284561157
1666652975.33959913,241907831,42.7307906,-84.4905529,215.63999938964844,1.7637913227081299,1.3637913465499878
1666652975.37937808,241947610,42.730790899999995,-84.4905527,215.63999938964844,1.7665599584579468,1.3665599822998047
1666652975.39923906,241967471,42.730790999999996,-84.4905526,215.64999389648438,1.7722657918930054,1.3722658157348633
1666652975.41908121,241987313,42.7307913,-84.4905524,215.64999389648438,1.7743279933929443,1.3743280172348022
1666652975.45906329,242027295,42.730791599999996,-84.4905522,215.6599884033203,1.7804582118988037,1.3804582357406616
1666652975.49918509,242067417,42.7307919,-84.4905519,215.6599884033203,1.7863731384277344,1.3863731622695923
1666652975.49937129,242067603,42.7307919,-84.4905519,215.6599884033203,1.7863731384277344,1.3863731622695923
1666652975.53958726,242107819,42.730792199999996,-84.4905517,215.6699981689453,1.7937366962432861,1.393736720085144
1666652975.57931018,242147542,42.7307925,-84.4905515,215.6699981689453,1.7958065271377563,1.3958065509796143
1666652975.59918118,242167413,42.7307926,-84.4905514,215.67999267578125,1.801139235496521,1.401139259338379
1666652975.61912322,242187355,42.730792799999996,-84.4905512,215.67999267578125,1.801659345626831,1.401659369468689
1666652975.65903211,242227264,42.7307932,-84.490551,215.67999267578125,1.8058950901031494,1.4058951139450073
1666652975.69916129,242267393,42.7307935,-84.4905507,215.69000244140625,1.8105850219726562,1.4105850458145142
1666652975.69930029,242267532,42.7307935,-84.4905507,215.69000244140625,1.8105850219726562,1.4105850458145142
1666652975.73962617,242307858,42.7307938,-84.4905505,215.69000244140625,1.8158682584762573,1.4158682823181152
1666652975.77932525,242347557,42.7307941,-84.4905503,215.69000244140625,1.8178213834762573,1.4178214073181152
1666652975.79931808,242367550,42.7307942,-84.4905502,215.6999969482422,1.8221131563186646,1.4221131801605225
1666652975.81894422,242387176,42.7307944,-84.49055,215.6999969482422,1.8234150409698486,1.4234150648117065
1666652975.85902214,242427254,42.7307948,-84.4905497,215.6999969482422,1.828512191772461,1.4285122156143188
1666652975.89932823,242467560,42.730795099999995,-84.4905495,215.70999145507812,1.8339629173278809,1.4339629411697388
1666652975.89944625,242467678,42.730795099999995,-84.4905495,215.70999145507812,1.8339629173278809,1.4339629411697388
1666652975.93961811,242507850,42.7307953,-84.4905493,215.72000122070312,1.840055227279663,1.440055251121521
1666652975.97940016,242547632,42.7307957,-84.490549,215.72000122070312,1.8404443264007568,1.4404443502426147
1666652975.99921727,242567449,42.7307957,-84.490549,215.72000122070312,1.8444281816482544,1.4444282054901123
1666652976.01894617,242587178,42.7307959,-84.4905489,215.72000122070312,1.845615267753601,1.445615291595459
1666652976.05903220,242627264,42.7307963,-84.4905485,215.72000122070312,1.8476136922836304,1.4476137161254883
1666652976.09931111,242667543,42.7307967,-84.49054819999999,215.72000122070312,1.849550724029541,1.449550747871399
1666652976.09945226,242667684,42.7307967,-84.49054819999999,215.72000122070312,1.849550724029541,1.449550747871399
1666652976.13962126,242707853,42.730796999999995,-84.4905478,215.72999572753906,1.8524125814437866,1.4524126052856445
1666652976.17929411,242747526,42.7307974,-84.4905474,215.72999572753906,1.8529002666473389,1.4529002904891968
1666652976.19921422,242767446,42.7307975,-84.4905473,215.72999572753906,1.8560292720794678,1.4560292959213257
1666652976.21892214,242787154,42.7307977,-84.4905472,215.72999572753906,1.8559573888778687,1.4559574127197266
1666652976.25897408,242827206,42.7307981,-84.49054679999999,215.72999572753906,1.8585808277130127,1.4585808515548706
1666652976.29923916,242867471,42.7307984,-84.4905465,215.739990234375,1.8618555068969727,1.4618555307388306
1666652976.29931712,242867549,42.7307984,-84.4905465,215.739990234375,1.8618555068969727,1.4618555307388306
1666652976.33965325,242907885,42.7307987,-84.4905462,215.739990234375,1.8656870126724243,1.4656870365142822
1666652976.37937927,242947611,42.730799,-84.4905459,215.739990234375,1.8673497438430786,1.4673497676849365
1666652976.39923906,242967471,42.7307991,-84.49054579999999,215.75,1.8703415393829346,1.4703415632247925
1666652976.41902208,242987254,42.730799399999995,-84.49054559999999,215.75,1.870711088180542,1.4707111120224
1666652976.45900416,243027236,42.7307997,-84.4905452,215.75,1.8735072612762451,1.473507285118103
1666652976.49923420,243067466,42.730799999999995,-84.4905449,215.75,1.8766697645187378,1.4766697883605957
1666652976.49931216,243067544,42.730799999999995,-84.4905449,215.75,1.8766697645187378,1.4766697883605957
1666652976.53952527,243107757,42.7308003,-84.4905447,215.75,1.8799301385879517,1.4799301624298096
1666652976.57928324,243147515,42.730800599999995,-84.4905443,215.75999450683594,1.8814640045166016,1.4814640283584595
1666652976.59921622,243167448,42.730800699999996,-84.4905443,215.75999450683594,1.8837367296218872,1.4837367534637451
1666652976.61908317,243187315,42.7308009,-84.490544,215.75999450683594,1.8842543363571167,1.4842543601989746
1666652976.65902019,243227252,42.730801199999995,-84.49054369999999,215.75999450683594,1.8863391876220703,1.4863392114639282
1666652976.69917512,243267407,42.7308015,-84.4905435,215.75999450683594,1.8885139226913452,1.4885139465332031
1666652976.69933414,243267566,42.7308015,-84.4905435,215.75999450683594,1.8885139226913452,1.4885139465332031
1666652976.73960829,243307840,42.7308017,-84.49054319999999,215.76998901367188,1.8909251689910889,1.4909251928329468
1666652976.77928829,243347520,42.730802,-84.490543,215.76998901367188,1.8920031785964966,1.4920032024383545
1666652976.79927707,243367509,42.7308021,-84.4905429,215.76998901367188,1.8938417434692383,1.4938417673110962
1666652976.81908417,243387316,42.7308023,-84.49054269999999,215.76998901367188,1.8939790725708008,1.4939790964126587
1666652976.85902619,243427258,42.7308026,-84.4905424,215.76998901367188,1.8956584930419922,1.49565851688385
1666652976.89922619,243467458,42.7308029,-84.4905422,215.76998901367188,1.8973675966262817,1.4973676204681396
1666652976.89940715,243467639,42.7308029,-84.4905422,215.76998901367188,1.8973675966262817,1.4973676204681396
1666652976.93949127,243507723,42.730803099999996,-84.4905419,215.76998901367188,1.8991013765335083,1.4991014003753662
1666652976.97934508,243547577,42.7308034,-84.4905417,215.76998901367188,1.8995012044906616,1.4995012283325195
1666652976.99923229,243567464,42.7308035,-84.4905416,215.77999877929688,1.9006000757217407,1.5006000995635986
1666652977.01909924,243587331,42.7308036,-84.49054149999999,215.77999877929688,1.9009034633636475,1.5009034872055054
1666652977.05911326,243627345,42.7308039,-84.4905412,215.77999877929688,1.9012473821640015,1.5012474060058594
1666652977.09930611,243667538,42.7308042,-84.49054079999999,215.77999877929688,1.9012380838394165,1.5012381076812744
1666652977.09944010,243667672,42.7308042,-84.49054079999999,215.77999877929688,1.9012380838394165,1.5012381076812744
1666652977.13952112,243707753,42.7308044,-84.4905405,215.77999877929688,1.9012091159820557,1.5012091398239136
1666652977.17930508,243747537,42.7308047,-84.4905402,215.76998901367188,1.899596929550171,1.4995969533920288
1666652977.19918728,243767419,42.7308047,-84.4905402,215.76998901367188,1.8997459411621094,1.4997459650039673
1666652977.21905923,243787291,42.730804899999995,-84.4905399,215.76998901367188,1.8984200954437256,1.4984201192855835
1666652977.25908613,243827318,42.7308052,-84.4905394,215.76998901367188,1.8964234590530396,1.4964234828948975
1666652977.29918408,243867416,42.730805499999995,-84.49053909999999,215.76998901367188,1.894364595413208,1.494364619255066
1666652977.29931617,243867548,42.730805499999995,-84.49053909999999,215.76998901367188,1.894364595413208,1.494364619255066
1666652977.33956814,243907800,42.7308057,-84.4905387,215.76998901367188,1.8924319744110107,1.4924319982528687
1666652977.37931824,243947550,42.730806,-84.49053839999999,215.75999450683594,1.8892873525619507,1.4892873764038086
1666652977.39925408,243967486,42.730806099999995,-84.4905383,215.75999450683594,1.8885395526885986,1.4885395765304565
1666652977.41909122,243987323,42.7308063,-84.490538,215.75999450683594,1.8860069513320923,1.4860069751739502
1666652977.45904422,244027276,42.7308065,-84.4905376,215.75999450683594,1.882112741470337,1.4821127653121948
1666652977.49921322,244067445,42.730806799999996,-84.49053719999999,215.75,1.8785202503204346,1.4785202741622925
1666652977.49928522,244067517,42.730806799999996,-84.49053719999999,215.75,1.8785202503204346,1.4785202741622925
1666652977.53961515,244107847,42.730807,-84.4905369,215.75,1.8753304481506348,1.4753304719924927
1666652977.57943416,244147666,42.730807299999995,-84.4905366,215.75,1.871152639389038,1.471152663230896
1666652977.59929323,244167525,42.730807399999996,-84.49053649999999,215.739990234375,1.8699597120285034,1.4699597358703613
1666652977.61894226,244187174,42.7308075,-84.4905364,215.739990234375,1.8679848909378052,1.467984914779663
1666652977.65896726,244227199,42.7308077,-84.49053599999999,215.739990234375,1.864261269569397,1.4642612934112549
1666652977.69925022,244267482,42.730807999999996,-84.4905356,215.739990234375,1.8606480360031128,1.4606480598449707
1666652977.69935513,244267587,42.730807999999996,-84.4905356,215.739990234375,1.8606480360031128,1.4606480598449707
1666652977.73968530,244307917,42.7308082,-84.49053529999999,215.72999572753906,1.8572580814361572,1.4572581052780151
1666652977.77935529,244347587,42.7308084,-84.4905349,215.72999572753906,1.853786826133728,1.453786849975586
1666652977.79919529,244367427,42.730808499999995,-84.4905349,215.72999572753906,1.8524494171142578,1.4524494409561157
1666652977.81899929,244387231,42.730808599999996,-84.4905347,215.72999572753906,1.8507767915725708,1.4507768154144287
1666652977.85891914,244427151,42.7308088,-84.4905343,215.72000122070312,1.846205234527588,1.4462052583694458
1666652977.89919329,244467425,42.730809099999995,-84.4905339,215.72000122070312,1.8416937589645386,1.4416937828063965
1666652977.89932513,244467557,42.730809099999995,-84.4905339,215.72000122070312,1.8416937589645386,1.4416937828063965
1666652977.93963623,244507868,42.7308093,-84.49053359999999,215.70999145507812,1.8374907970428467,1.4374908208847046
1666652977.97938418,244547616,42.7308096,-84.4905332,215.70999145507812,1.8316705226898193,1.4316705465316772
1666652977.99928713,244567519,42.730809699999995,-84.4905332,215.6999969482422,1.8296260833740234,1.4296261072158813
1666652978.01900315,244587235,42.730809799999996,-84.490533,215.6999969482422,1.8269226551055908,1.4269226789474487
1666652978.05899715,244627229,42.73081,-84.4905326,215.69000244140625,1.8175652027130127,1.4175652265548706
1666652978.09931922,244667551,42.730810299999995,-84.49053219999999,215.67999267578125,1.808682918548584,1.408682942390442
1666652978.09944630,244667678,42.730810299999995,-84.49053219999999,215.67999267578125,1.808682918548584,1.408682942390442
1666652978.13968515,244707917,42.7308105,-84.4905318,215.67999267578125,1.8004934787750244,1.4004935026168823
1666652978.17959619,244747828,42.7308108,-84.4905314,215.6699981689453,1.7900725603103638,1.3900725841522217
1666652978.19918418,244767416,42.7308109,-84.4905313,215.6599884033203,1.7867372035980225,1.3867372274398804
1666652978.21901917,244787251,42.730810999999996,-84.49053119999999,215.6599884033203,1.782156229019165,1.382156252861023
1666652978.25905919,244827291,42.7308112,-84.4905308,215.64999389648438,1.773713231086731,1.3737132549285889
1666652978.29922915,244867461,42.7308115,-84.4905304,215.63999938964844,1.7658631801605225,1.3658632040023804
1666652978.29930425,244867536,42.7308115,-84.4905304,215.63999938964844,1.7658631801605225,1.3658632040023804
1666652978.33961511,244907847,42.7308117,-84.4905301,215.62998962402344,1.7587379217147827,1.3587379455566406
1666652978.37933016,244947562,42.7308119,-84.4905297,215.6199951171875,1.749582052230835,1.3495820760726929
1666652978.39916420,244967396,42.730812,-84.4905296,215.6199951171875,1.7467319965362549,1.3467320203781128
1666652978.41915822,244987390,42.7308121,-84.4905294,215.6199951171875,1.742801308631897,1.3428013324737549
1666652978.45902228,245027254,42.7308123,-84.4905289,215.61000061035156,1.734033465385437,1.334033489227295
1666652978.49925017,245067482,42.7308125,-84.4905284,215.59999084472656,1.7261816263198853,1.3261816501617432
1666652978.49938822,245067620,42.7308125,-84.4905284,215.59999084472656,1.7261816263198853,1.3261816501617432
1666652978.53952122,245107753,42.7308127,-84.490528,215.58999633789062,1.7188626527786255,1.3188626766204834
1666652978.57936621,245147598,42.7308129,-84.4905276,215.58999633789062,1.7105193138122559,1.3105193376541138
1666652978.59926224,245167494,42.730813,-84.4905275,215.5800018310547,1.7080105543136597,1.3080105781555176
1666652978.61909723,245187329,42.7308131,-84.4905271,215.5800018310547,1.703574299812317,1.3035743236541748
1666652978.65907812,245227310,42.730813399999995,-84.4905266,215.5699920654297,1.6965532302856445,1.2965532541275024
1666652978.69915414,245267386,42.7308136,-84.4905261,215.5699920654297,1.6900417804718018,1.2900418043136597
1666652978.69928026,245267512,42.7308136,-84.4905261,215.5699920654297,1.6900417804718018,1.2900418043136597
1666652978.73954010,245307772,42.7308138,-84.49052569999999,215.55999755859375,1.684053659439087,1.2840536832809448
1666652978.77932310,245347555,42.730813999999995,-84.4905252,215.54998779296875,1.6774883270263672,1.277488350868225
1666652978.79922009,245367452,42.730814099999996,-84.4905251,215.54998779296875,1.6753944158554077,1.2753944396972656
1666652978.81909919,245387331,42.7308142,-84.4905249,215.54998779296875,1.672499179840088,1.2724992036819458
1666652978.85912013,245427352,42.7308144,-84.4905244,215.5399932861328,1.6672799587249756,1.2672799825668335
1666652978.89920712,245467439,42.730814599999995,-84.490524,215.5399932861328,1.6626940965652466,1.2626941204071045
1666652978.89934111,245467573,42.730814599999995,-84.490524,215.5399932861328,1.6626940965652466,1.2626941204071045
1666652978.93957925,245507811,42.7308148,-84.4905236,215.52999877929688,1.6586651802062988,1.2586652040481567
1666652978.97938609,245547618,42.730815,-84.49052309999999,215.52999877929688,1.6538581848144531,1.253858208656311
1666652978.99936819,245567600,42.7308151,-84.490523,215.52999877929688,1.6523209810256958,1.2523210048675537
1666652979.01897407,245587206,42.730815199999995,-84.4905228,215.52999877929688,1.6501280069351196,1.2501280307769775
1666652979.05896211,245627194,42.7308154,-84.4905223,215.51998901367188,1.6462483406066895,1.2462483644485474
1666652979.09926724,245667499,42.7308155,-84.49052189999999,215.51998901367188,1.6428145170211792,1.242814540863037
1666652979.09941411,245667646,42.7308155,-84.49052189999999,215.51998901367188,1.6428145170211792,1.242814540863037
1666652979.13959217,245707824,42.7308157,-84.49052139999999,215.50999450683594,1.639784574508667,1.239784598350525
1666652979.17937922,245747611,42.730815899999996,-84.490521,215.50999450683594,1.6362181901931763,1.2362182140350342
1666652979.19925809,245767490,42.730816,-84.490521,215.50999450683594,1.6350111961364746,1.2350112199783325
1666652979.21904421,245787276,42.730816,-84.4905208,215.50999450683594,1.6333520412445068,1.2333520650863647
1666652979.25905514,245827287,42.7308162,-84.4905204,215.5,1.6298491954803467,1.2298492193222046
1666652979.29921412,245867446,42.730816399999995,-84.49051999999999,215.5,1.626589298248291,1.226589322090149
1666652979.29932022,245867552,42.730816399999995,-84.49051999999999,215.5,1.626589298248291,1.226589322090149
1666652979.33964825,245907880,42.7308166,-84.4905196,215.5,1.6235620975494385,1.2235621213912964
1666652979.37932920,245947561,42.7308167,-84.4905192,215.5,1.6201726198196411,1.220172643661499
1666652979.39931417,245967546,42.7308168,-84.4905192,215.489990234375,1.6188902854919434,1.2188903093338013
1666652979.41909218,245987324,42.7308169,-84.49051899999999,215.489990234375,1.6175386905670166,1.2175387144088745
1666652979.45891309,246027145,42.730816999999995,-84.4905186,215.489990234375,1.6118590831756592,1.211859107017517
1666652979.49925327,246067485,42.7308172,-84.4905182,215.47999572753906,1.6062984466552734,1.2062984704971313
1666652979.49933219,246067564,42.7308172,-84.4905182,215.47999572753906,1.6062984466552734,1.2062984704971313
1666652979.53960514,246107837,42.7308173,-84.4905179,215.47999572753906,1.601077914237976,1.201077938079834
1666652979.57940221,246147634,42.7308174,-84.4905175,215.47000122070312,1.594813585281372,1.19481360912323
1666652979.59926319,246167495,42.7308175,-84.4905174,215.47000122070312,1.5927667617797852,1.192766785621643
1666652979.61901808,246187250,42.730817599999995,-84.4905173,215.47000122070312,1.5900641679763794,1.1900641918182373
1666652979.65897107,246227203,42.730817699999996,-84.4905169,215.45999145507812,1.5821715593338013,1.1821715831756592
1666652979.69920921,246267441,42.7308178,-84.49051659999999,215.4499969482422,1.5749260187149048,1.1749260425567627
1666652979.69928527,246267517,42.7308178,-84.49051659999999,215.4499969482422,1.5749260187149048,1.1749260425567627
1666652979.73957109,246307803,42.7308179,-84.4905163,215.44000244140625,1.5681734085083008,1.1681734323501587
1666652979.77937627,246347608,42.730818,-84.490516,215.44000244140625,1.5610640048980713,1.1610640287399292
1666652979.79925609,246367488,42.7308181,-84.49051589999999,215.42999267578125,1.558746337890625,1.158746361732483
1666652979.81904507,246387277,42.7308181,-84.4905158,215.42999267578125,1.5555630922317505,1.1555631160736084
1666652979.85902309,246427255,42.730818199999995,-84.49051539999999,215.4199981689453,1.5494489669799805,1.1494489908218384
1666652979.89924312,246467475,42.730818299999996,-84.4905151,215.4199981689453,1.5438859462738037,1.1438859701156616
1666652979.89932323,246467555,42.730818299999996,-84.4905151,215.4199981689453,1.5438859462738037,1.1438859701156616
1666652979.93965220,246507884,42.7308184,-84.4905149,215.4099884033203,1.5387674570083618,1.1387674808502197
1666652979.97930908,246547541,42.7308184,-84.4905146,215.4099884033203,1.532698392868042,1.1326984167099
1666652979.99920607,246567438,42.7308185,-84.49051449999999,215.4099884033203,1.5308117866516113,1.1308118104934692
1666652980.01905608,246587288,42.7308185,-84.4905143,215.39999389648438,1.528929352760315,1.1289293766021729
1666652980.05901718,246627249,42.7308186,-84.49051399999999,215.39999389648438,1.52582585811615,1.1258258819580078
1666652980.09942007,246667652,42.7308186,-84.4905137,215.39999389648438,1.5229711532592773,1.1229711771011353
1666652980.09953213,246667764,42.7308186,-84.4905137,215.39999389648438,1.5229711532592773,1.1229711771011353
1666652980.13953829,246707770,42.7308187,-84.49051349999999,215.39999389648438,1.520375370979309,1.120375394821167
1666652980.17933106,246747563,42.7308188,-84.4905132,215.38999938964844,1.5187729597091675,1.1187729835510254
1666652980.19916129,246767393,42.7308188,-84.4905131,215.38999938964844,1.517910361289978,1.117910385131836
1666652980.21909714,246787329,42.7308188,-84.49051299999999,215.38999938964844,1.516990303993225,1.116990327835083
1666652980.25910425,246827336,42.730818899999996,-84.4905127,215.38999938964844,1.5138046741485596,1.1138046979904175
1666652980.29928327,246867515,42.730818899999996,-84.4905125,215.38999938964844,1.5107126235961914,1.1107126474380493
1666652980.29941916,246867651,42.730818899999996,-84.4905125,215.38999938964844,1.5107126235961914,1.1107126474380493
1666652980.33959222,246907824,42.730819,-84.4905122,215.37998962402344,1.5076630115509033,1.1076630353927612
1666652980.37932515,246947557,42.730819,-84.4905119,215.37998962402344,1.504539132118225,1.104539155960083
1666652980.39923906,246967471,42.7308191,-84.4905118,215.37998962402344,1.5031501054763794,1.1031501293182373
1666652980.41902924,246987261,42.7308191,-84.4905117,215.37998962402344,1.5016478300094604,1.1016478538513184
1666652980.45908618,247027318,42.7308192,-84.4905114,215.3699951171875,1.4998430013656616,1.0998430252075195
1666652980.49919009,247067422,42.7308193,-84.490511,215.3699951171875,1.497997760772705,1.097997784614563
1666652980.49928212,247067514,42.7308193,-84.490511,215.3699951171875,1.497997760772705,1.097997784614563
1666652980.53960729,247107839,42.7308194,-84.4905107,215.3699951171875,1.4960806369781494,1.0960806608200073
1666652980.57935214,247147584,42.7308194,-84.4905103,215.3699951171875,1.493605613708496,1.093605637550354
1666652980.59923029,247167462,42.730819499999996,-84.4905102,215.3699951171875,1.4921882152557373,1.0921882390975952
1666652980.61905718,247187289,42.730819499999996,-84.4905101,215.3699951171875,1.4910118579864502,1.091011881828308
1666652980.65909624,247227328,42.7308197,-84.49050969999999,215.36000061035156,1.4867079257965088,1.0867079496383667
1666652980.69922328,247267455,42.7308198,-84.4905094,215.36000061035156,1.4825981855392456,1.0825982093811035
1666652980.69930029,247267532,42.7308198,-84.4905094,215.36000061035156,1.4825981855392456,1.0825982093811035
1666652980.73960924,247307841,42.7308199,-84.4905091,215.34999084472656,1.4785114526748657,1.0785114765167236
1666652980.77926922,247347501,42.730820099999995,-84.4905088,215.34999084472656,1.4743058681488037,1.0743058919906616
1666652980.79925323,247367485,42.730820099999995,-84.4905086,215.34999084472656,1.4723923206329346,1.0723923444747925
1666652980.81904221,247387274,42.7308202,-84.49050849999999,215.34999084472656,1.4702740907669067,1.0702741146087646
1666652980.85893321,247427165,42.7308203,-84.4905082,215.33999633789062,1.4697784185409546,1.0697784423828125
1666652980.89922523,247467457,42.7308205,-84.49050799999999,215.33999633789062,1.4692106246948242,1.0692106485366821
1666652980.89933228,247467564,42.7308205,-84.49050799999999,215.33999633789062,1.4692106246948242,1.0692106485366821
1666652980.93969107,247507923,42.7308206,-84.4905078,215.33999633789062,1.4684208631515503,1.0684208869934082
1666652980.97935009,247547582,42.730820699999995,-84.4905076,215.33999633789062,1.4676083326339722,1.06760835647583
1666652980.99923325,247567465,42.7308208,-84.49050749999999,215.33999633789062,1.4664490222930908,1.0664490461349487
