timestamp,TimeUS,C,Roll,Pitch,Yaw,VN,VE,VD,dPD,PN,PE,PD,GX,GY,GZ,OH
1666652965.93827319,232506505,1,0.16,0.37,357.21,-0.06926458328962326,-0.16703101992607117,-0.05885796621441841,-0.06704532355070114,-10.046175956726074,-22.209857940673828,0.38471177220344543,0.08,-0.02,0.02,214.29
1666652965.97826529,232546497,1,0.16,0.37,357.21,-0.07179171591997147,-0.16777895390987396,-0.05894996598362923,-0.062472451478242874,-10.051626205444336,-22.228055953979492,0.38190779089927673,0.08,-0.02,0.02,214.29
1666652965.99831128,232566543,1,0.16,0.37,357.21,-0.07283271104097366,-0.16828510165214539,-0.059190522879362106,-0.06243476644158363,-10.053854942321777,-22.234838485717773,0.38058966398239136,0.08,-0.02,0.02,214.29
1666652966.01829910,232586531,1,0.16,0.37,357.21,-0.07354485988616943,-0.16873300075531006,-0.05946308746933937,-0.06299258023500443,-10.056756973266602,-22.244497299194336,0.37914180755615234,0.08,-0.02,0.02,214.29
1666652966.05829906,232626531,1,0.17,0.37,357.22,-0.07653413712978363,-0.17125937342643738,-0.05977757275104523,-0.06420785188674927,-10.066329956054688,-22.27375030517578,0.3764022886753082,0.08,-0.02,0.02,214.29
1666652966.09827423,232666506,1,0.17,0.37,357.22,-0.07953561097383499,-0.17341916263103485,-0.06014670431613922,-0.06526953727006912,-10.075164794921875,-22.30001449584961,0.3736514747142792,0.08,-0.02,0.02,214.29
1666652966.13826108,232706493,1,0.17,0.37,357.22,-0.08328155428171158,-0.17644435167312622,-0.06005840376019478,-0.06555749475955963,-10.08481502532959,-22.328567504882812,0.3707893192768097,0.08,-0.02,0.02,214.29
1666652966.17827225,232746504,1,0.16,0.38,357.22,-0.0863877460360527,-0.17866653203964233,-0.06003778800368309,-0.0669984519481659,-10.09223747253418,-22.349140167236328,0.36797812581062317,0.08,-0.02,0.02,214.29
1666652966.19832826,232766560,1,0.16,0.37,357.22,-0.08744224160909653,-0.1794288158416748,-0.06024710088968277,-0.06783922761678696,-10.095154762268066,-22.356685638427734,0.3666764497756958,0.08,-0.02,0.02,214.29
1666652966.21826124,232786493,1,0.16,0.37,357.22,-0.08904890716075897,-0.1804114729166031,-0.060749318450689316,-0.06884446740150452,-10.099225044250488,-22.367839813232422,0.3652009665966034,0.08,-0.02,0.02,214.29
1666652966.25830007,232826532,1,0.16,0.38,357.22,-0.0900011956691742,-0.18326623737812042,-0.06070615351200104,-0.06565170735120773,-10.10543155670166,-22.39752769470215,0.3630324900150299,0.08,-0.02,0.02,214.29
1666652966.29832029,232866552,1,0.17,0.38,357.22,-0.09107476472854614,-0.18555456399917603,-0.060724422335624695,-0.059347327798604965,-10.111252784729004,-22.424211502075195,0.36087796092033386,0.08,-0.02,0.02,214.29
1666652966.33830929,232906541,1,0.17,0.38,357.22,-0.09188828617334366,-0.18779627978801727,-0.0604780912399292,-0.054347530007362366,-10.117319107055664,-22.453351974487305,0.3586982786655426,0.08,-0.02,0.02,214.29
1666652966.37828422,232946516,1,0.17,0.38,357.21,-0.09352994710206985,-0.18931704759597778,-0.060412075370550156,-0.052658144384622574,-10.122432708740234,-22.474407196044922,0.3563889265060425,0.08,-0.02,0.02,214.29
1666652966.39828515,232966517,1,0.16,0.37,357.21,-0.09462597966194153,-0.18997614085674286,-0.06058245897293091,-0.05282960832118988,-10.124711990356445,-22.48225975036621,0.35521188378334045,0.08,-0.02,0.02,214.29
1666652966.41827226,232986504,1,0.16,0.38,357.21,-0.09496049582958221,-0.19126379489898682,-0.06067958101630211,-0.052182652056217194,-10.128859519958496,-22.5008544921875,0.3543216586112976,0.08,-0.02,0.02,214.29
1666652966.45828915,233026521,1,0.17,0.38,357.21,-0.09643831849098206,-0.19237001240253448,-0.06040250509977341,-0.048502787947654724,-10.135601043701172,-22.528076171875,0.3524664342403412,0.08,-0.02,0.02,214.29
1666652966.49830818,233066540,1,0.17,0.38,357.21,-0.09794458746910095,-0.1932957023382187,-0.06065916642546654,-0.04511556774377823,-10.141916275024414,-22.55256462097168,0.35060977935791016,0.08,-0.02,0.02,214.29
1666652966.53831625,233106548,1,0.17,0.37,357.21,-0.09895181655883789,-0.19419898092746735,-0.06054897606372833,-0.043436285108327866,-10.148470878601074,-22.578981399536133,0.34884127974510193,0.08,-0.02,0.02,214.29
1666652966.57829213,233146524,1,0.17,0.37,357.21,-0.10041379183530807,-0.1944764256477356,-0.06051065772771835,-0.04325168579816818,-10.154060363769531,-22.598451614379883,0.34684547781944275,0.08,-0.02,0.02,214.29
1666652966.59830618,233166538,1,0.17,0.37,357.21,-0.10129204392433167,-0.1945977658033371,-0.0605674646794796,-0.043730478733778,-10.156526565551758,-22.605802536010742,0.3457746207714081,0.08,-0.02,0.02,214.29
1666652966.61827517,233186507,1,0.17,0.37,357.21,-0.10063518583774567,-0.1947701871395111,-0.06019771844148636,-0.03976433351635933,-10.15899658203125,-22.624237060546875,0.3459063470363617,0.08,-0.02,0.02,214.29
1666652966.65827107,233226503,1,0.18,0.37,357.21,-0.10020729899406433,-0.1949276626110077,-0.05970412492752075,-0.025794286280870438,-10.16348648071289,-22.651235580444336,0.34533923864364624,0.08,-0.02,0.02,214.29
1666652966.69830823,233266540,1,0.17,0.37,357.21,-0.09982479363679886,-0.19520945847034454,-0.059344857931137085,-0.01500247698277235,-10.167739868164062,-22.67548942565918,0.34457942843437195,0.08,-0.02,0.02,214.29
1666652966.73830724,233306539,1,0.17,0.37,357.21,-0.09948214143514633,-0.19546057283878326,-0.05879531428217888,-0.010994844138622284,-10.171792984008789,-22.70157814025879,0.344146192073822,0.08,-0.02,0.02,214.29
1666652966.77831721,233346549,1,0.17,0.37,357.21,-0.09965108335018158,-0.19579143822193146,-0.058488450944423676,-0.010515976697206497,-10.175651550292969,-22.72073745727539,0.34315913915634155,0.08,-0.02,0.02,214.29
1666652966.79827309,233366505,1,0.18,0.37,357.21,-0.1000901535153389,-0.19552075862884521,-0.05837472155690193,-0.011474019847810268,-10.177616119384766,-22.728113174438477,0.3423832654953003,0.08,-0.02,0.02,214.29
1666652966.81828809,233386520,1,0.18,0.37,357.21,-0.10003781318664551,-0.19553080201148987,-0.058272913098335266,-0.013163232244551182,-10.179429054260254,-22.738248825073242,0.3420049548149109,0.08,-0.02,0.02,214.29
1666652966.85824919,233426481,1,0.18,0.37,357.21,-0.10134149342775345,-0.1948181688785553,-0.05771149694919586,-0.015002651140093803,-10.186574935913086,-22.766361236572266,0.34114205837249756,0.08,-0.02,0.02,214.29
1666652966.89825726,233466489,1,0.17,0.37,357.21,-0.1025984063744545,-0.19379226863384247,-0.057496290653944016,-0.016826309263706207,-10.193272590637207,-22.791545867919922,0.340126097202301,0.08,-0.02,0.02,214.29
1666652966.93828011,233506512,1,0.17,0.37,357.21,-0.10398883372545242,-0.19325865805149078,-0.056948743760585785,-0.019771026447415352,-10.200254440307617,-22.818626403808594,0.3394603133201599,0.08,-0.02,0.02,214.29
1666652966.97829413,233546526,1,0.17,0.37,357.21,-0.10584120452404022,-0.19245430827140808,-0.05650635436177254,-0.020085999742150307,-10.206231117248535,-22.83842658996582,0.33851778507232666,0.08,-0.02,0.02,214.29
1666652966.99828124,233566513,1,0.17,0.37,357.21,-0.1066073477268219,-0.19227448105812073,-0.05651756376028061,-0.020420214161276817,-10.208866119384766,-22.845853805541992,0.337802529335022,0.08,-0.02,0.02,214.29
1666652967.01831126,233586543,1,0.17,0.37,357.21,-0.10734093934297562,-0.19219665229320526,-0.05648242309689522,-0.021023031324148178,-10.211942672729492,-22.856287002563477,0.337449312210083,0.08,-0.02,0.02,214.29
1666652967.05825520,233626487,1,0.17,0.37,357.22,-0.10611464083194733,-0.18955521285533905,-0.05583969131112099,-0.014803333207964897,-10.216289520263672,-22.883337020874023,0.33755820989608765,0.08,-0.02,0.02,214.29
1666652967.09827113,233666503,1,0.17,0.37,357.22,-0.10477715730667114,-0.1863635629415512,-0.05559275299310684,-0.005691979080438614,-10.220423698425293,-22.907424926757812,0.3374323546886444,0.08,-0.02,0.02,214.29
1666652967.13827324,233706505,1,0.17,0.38,357.22,-0.10309230536222458,-0.1826448142528534,-0.05481323227286339,-0.0010009100660681725,-10.224267959594727,-22.933094024658203,0.3376433849334717,0.08,-0.02,0.02,214.29
1666652967.17830229,233746534,1,0.17,0.38,357.21,-0.1019195169210434,-0.17976725101470947,-0.05416036769747734,-0.0009368439787067473,-10.228043556213379,-22.951688766479492,0.3370167911052704,0.08,-0.02,0.02,214.29
1666652967.19825506,233766487,1,0.17,0.38,357.21,-0.1020679622888565,-0.1787646859884262,-0.05435482785105705,-0.0029551417101174593,-10.22992992401123,-22.95861053466797,0.33641517162323,0.08,-0.02,0.02,214.29
1666652967.21832228,233786554,1,0.17,0.38,357.21,-0.10149780660867691,-0.1774054914712906,-0.054051537066698074,-0.00509867025539279,-10.231585502624512,-22.968215942382812,0.3362616002559662,0.08,-0.02,0.02,214.29
1666652967.25830221,233826534,1,0.17,0.37,357.21,-0.09893780946731567,-0.17560863494873047,-0.054103784263134,-0.011335128918290138,-10.235005378723145,-22.9969425201416,0.3353160321712494,0.08,-0.02,0.02,214.29
1666652967.29824615,233866478,1,0.18,0.37,357.21,-0.09690708667039871,-0.17358961701393127,-0.054179541766643524,-0.01759991981089115,-10.238186836242676,-23.022497177124023,0.3342624008655548,0.08,-0.02,0.02,214.29
1666652967.33824706,233906479,1,0.17,0.37,357.21,-0.09473622590303421,-0.17193879187107086,-0.054200898855924606,-0.023502515628933907,-10.240853309631348,-23.04991912841797,0.3332709074020386,0.08,-0.02,0.02,214.29
1666652967.37828207,233946514,1,0.17,0.37,357.2,-0.09331031143665314,-0.1700076013803482,-0.0538189597427845,-0.031083928421139717,-10.243664741516113,-23.06949234008789,0.3316130042076111,0.08,-0.02,0.02,214.29
1666652967.39829016,233966522,1,0.17,0.37,357.2,-0.09314605593681335,-0.16917484998703003,-0.053788233548402786,-0.03519022837281227,-10.245195388793945,-23.076684951782227,0.3306907117366791,0.08,-0.02,0.02,214.29
1666652967.41828609,233986518,1,0.17,0.37,357.2,-0.09239815175533295,-0.16803117096424103,-0.053667791187763214,-0.03880654647946358,-10.246366500854492,-23.087059020996094,0.32990193367004395,0.08,-0.02,0.02,214.29
1666652967.45832825,234026560,1,0.17,0.37,357.21,-0.09068387746810913,-0.16529202461242676,-0.053106650710105896,-0.03351328521966934,-10.250274658203125,-23.11515998840332,0.32994091510772705,0.08,-0.02,0.02,214.29
1666652967.49827409,234066506,1,0.17,0.37,357.2,-0.089449442923069,-0.1622181385755539,-0.05275612697005272,-0.01937340758740902,-10.25402545928955,-23.14026641845703,0.3297470211982727,0.08,-0.02,0.02,214.29
1666652967.53828907,234106521,1,0.17,0.37,357.2,-0.08766207098960876,-0.1587447226047516,-0.051886387169361115,-0.009708444587886333,-10.257417678833008,-23.1671142578125,0.3299374282360077,0.08,-0.02,0.02,214.29
1666652967.57827020,234146502,1,0.17,0.37,357.2,-0.08666325360536575,-0.1554558128118515,-0.05163637921214104,-0.0055470881052315235,-10.260645866394043,-23.186059951782227,0.3293968439102173,0.08,-0.02,0.02,214.29
1666652967.59832621,234166558,1,0.17,0.37,357.2,-0.08642929792404175,-0.15363149344921112,-0.05150545760989189,-0.005273003131151199,-10.2622652053833,-23.192922592163086,0.32883602380752563,0.08,-0.02,0.02,214.29
1666652967.61830115,234186533,1,0.17,0.37,357.2,-0.08607543259859085,-0.15164606273174286,-0.05106145516037941,-0.004561950918287039,-10.264981269836426,-23.211875915527344,0.3289923667907715,0.08,-0.02,0.02,214.29
1666652967.65831327,234226545,1,0.17,0.37,357.2,-0.08561450988054276,-0.14797955751419067,-0.05026621371507645,-0.0034406851045787334,-10.269640922546387,-23.23882293701172,0.3285427391529083,0.08,-0.02,0.02,214.29
1666652967.69830608,234266538,1,0.17,0.37,357.2,-0.08493664860725403,-0.14483505487442017,-0.049865320324897766,-0.005386906675994396,-10.273998260498047,-23.26260757446289,0.32791668176651,0.08,-0.02,0.02,214.29
1666652967.73827219,234306504,1,0.17,0.37,357.2,-0.08402235805988312,-0.1418958306312561,-0.04952995106577873,-0.009726855903863907,-10.278347969055176,-23.288272857666016,0.32757002115249634,0.08,-0.02,0.02,214.29
1666652967.77827024,234346502,1,0.17,0.37,357.19,-0.08391381800174713,-0.13823485374450684,-0.04953910782933235,-0.013017113320529461,-10.282206535339355,-23.306180953979492,0.32682090997695923,0.08,-0.02,0.02,214.29
1666652967.79832125,234366553,1,0.17,0.37,357.19,-0.08369682729244232,-0.1368102729320526,-0.04953346401453018,-0.014636624604463577,-10.283974647521973,-23.312536239624023,0.32622912526130676,0.08,-0.02,0.02,214.29
1666652967.81826711,234386499,1,0.17,0.37,357.19,-0.08063706755638123,-0.13416631519794464,-0.04918702319264412,-0.013801892288029194,-10.283695220947266,-23.32943344116211,0.3264996409416199,0.08,-0.02,0.02,214.29
1666652967.85830021,234426532,1,0.16,0.37,357.19,-0.07651648670434952,-0.12890781462192535,-0.0487913079559803,-0.009925576858222485,-10.284052848815918,-23.353275299072266,0.32611459493637085,0.08,-0.02,0.02,214.29
1666652967.89829707,234466529,1,0.17,0.37,357.19,-0.07301372289657593,-0.12387625873088837,-0.04866677150130272,-0.009793451055884361,-10.284403800964355,-23.37412452697754,0.3254832923412323,0.08,-0.02,0.02,214.29
1666652967.93831110,234506543,1,0.16,0.37,357.19,-0.06883200258016586,-0.11895212531089783,-0.0489608496427536,-0.013162857852876186,-10.28398609161377,-23.39642906188965,0.3249806761741638,0.08,-0.02,0.02,214.29
1666652967.97824621,234546478,1,0.16,0.37,357.19,-0.06625813245773315,-0.11476612836122513,-0.04898616299033165,-0.017976265400648117,-10.284379959106445,-23.411787033081055,0.32390710711479187,0.08,-0.02,0.02,214.29
1666652967.99830413,234566536,1,0.16,0.37,357.19,-0.06530854851007462,-0.11279893666505814,-0.048836227506399155,-0.020572897046804428,-10.28494644165039,-23.417221069335938,0.3231992721557617,0.08,-0.02,0.02,214.29
1666652968.01829028,234586522,1,0.16,0.37,357.19,-0.06142265722155571,-0.11112095415592194,-0.04904519394040108,-0.025479091331362724,-10.282508850097656,-23.4340763092041,0.3222423195838928,0.08,-0.02,0.02,214.29
1666652968.05826807,234626500,1,0.17,0.37,357.19,-0.056469209492206573,-0.10810666531324387,-0.049402765929698944,-0.037213560193777084,-10.27968692779541,-23.457744598388672,0.32041090726852417,0.08,-0.02,0.02,214.29
1666652968.09831119,234666543,1,0.16,0.36,357.19,-0.0522143691778183,-0.10487116873264313,-0.049734536558389664,-0.0457625612616539,-10.277094841003418,-23.478496551513672,0.31859296560287476,0.08,-0.02,0.02,214.29
1666652968.13831806,234706550,1,0.16,0.36,357.19,-0.04669376462697983,-0.10149452835321426,-0.04993857443332672,-0.050982218235731125,-10.27332592010498,-23.50092887878418,0.3169194161891937,0.08,-0.02,0.02,214.29
1666652968.17828417,234746516,1,0.16,0.36,357.19,-0.042948897927999496,-0.09817422926425934,-0.0503544844686985,-0.05013318359851837,-10.271231651306152,-23.516332626342773,0.3154333233833313,0.08,-0.02,0.02,214.29
1666652968.19829917,234766531,1,0.16,0.36,357.19,-0.041967153549194336,-0.0965961441397667,-0.0504005029797554,-0.04855760931968689,-10.270843505859375,-23.521671295166016,0.3145870268344879,0.08,-0.02,0.02,214.29
1666652968.21824527,234786477,1,0.16,0.36,357.18,-0.03863086551427841,-0.09411448985338211,-0.05067555978894234,-0.04733859747648239,-10.266712188720703,-23.536256790161133,0.31385472416877747,0.08,-0.02,0.02,214.29
1666652968.25827909,234826511,1,0.16,0.36,357.18,-0.033504240214824677,-0.08976263552904129,-0.05068625882267952,-0.04377136752009392,-10.26134967803955,-23.5566349029541,0.3125220239162445,0.08,-0.02,0.02,214.29
1666652968.29827714,234866509,1,0.16,0.36,357.18,-0.02868843637406826,-0.08565681427717209,-0.050528787076473236,-0.03826509043574333,-10.256418228149414,-23.574378967285156,0.31124815344810486,0.08,-0.02,0.02,214.29
1666652968.33831716,234906549,1,0.16,0.36,357.18,-0.023862872272729874,-0.0806574746966362,-0.05042370781302452,-0.03499298170208931,-10.250162124633789,-23.593414306640625,0.31008055806159973,0.08,-0.02,0.02,214.29
1666652968.37834024,234946572,1,0.16,0.36,357.18,-0.020228782668709755,-0.07571965456008911,-0.05028015002608299,-0.03371517360210419,-10.246183395385742,-23.6062068939209,0.3086307644844055,0.08,-0.02,0.02,214.29
1666652968.39825821,234966490,1,0.16,0.36,357.18,-0.019541289657354355,-0.07352614402770996,-0.05025416612625122,-0.03383640944957733,-10.245070457458496,-23.610597610473633,0.3077700436115265,0.08,-0.02,0.02,214.29
1666652968.41829419,234986526,1,0.16,0.36,357.18,-0.018507087603211403,-0.07315883040428162,-0.049856606870889664,-0.028653744608163834,-10.241766929626465,-23.626176834106445,0.3083815574645996,0.08,-0.02,0.02,214.29
1666652968.45828128,235026513,1,0.15,0.36,357.18,-0.01703852042555809,-0.07117477059364319,-0.049405526369810104,-0.011131254956126213,-10.237466812133789,-23.647764205932617,0.30865615606307983,0.08,-0.02,0.02,214.29
1666652968.49827027,235066502,1,0.15,0.36,357.18,-0.015898292884230614,-0.0695214793086052,-0.04875525087118149,0.0030046296305954456,-10.233672142028809,-23.666685104370117,0.30871614813804626,0.08,-0.02,0.02,214.29
1666652968.53831625,235106548,1,0.15,0.36,357.18,-0.014370033517479897,-0.06860527396202087,-0.047872863709926605,0.009150021709501743,-10.229146003723145,-23.687448501586914,0.30910980701446533,0.08,-0.02,0.02,214.29
1666652968.57831812,235146550,1,0.15,0.36,357.18,-0.0134819895029068,-0.06646471470594406,-0.04774579778313637,0.008640916086733341,-10.2263822555542,-23.701425552368164,0.30871522426605225,0.08,-0.02,0.02,214.29
1666652968.59826016,235166492,1,0.15,0.36,357.18,-0.013148430734872818,-0.06512261927127838,-0.04800914600491524,0.0063447607681155205,-10.225641250610352,-23.70615577697754,0.30820131301879883,0.08,-0.02,0.02,214.29
1666652968.61832619,235186558,1,0.15,0.36,357.18,-0.010805844329297543,-0.06308344751596451,-0.04779570922255516,0.006582165136933327,-10.220386505126953,-23.718311309814453,0.308832585811615,0.08,-0.02,0.02,214.29
1666652968.65829706,235226529,1,0.14,0.36,357.18,-0.008213091641664505,-0.05897145718336105,-0.04708151891827583,0.010755549184978008,-10.213361740112305,-23.735193252563477,0.3090580403804779,0.08,-0.02,0.02,214.29
1666652968.69827628,235266508,1,0.14,0.36,357.18,-0.004995110910385847,-0.05548914894461632,-0.047053445130586624,0.011880272999405861,-10.2070894241333,-23.749784469604492,0.3091038763523102,0.08,-0.02,0.02,214.29
1666652968.73828912,235306521,1,0.14,0.36,357.19,-0.0028744975570589304,-0.0514674037694931,-0.04652121290564537,0.00938450451940298,-10.199699401855469,-23.765525817871094,0.3093988299369812,0.08,-0.02,0.02,214.29
1666652968.77830815,235346540,1,0.14,0.36,357.18,0.0014726582448929548,-0.04950876161456108,-0.04580358788371086,0.003921003546565771,-10.194842338562012,-23.77592658996582,0.308849036693573,0.08,-0.02,0.02,214.29
1666652968.79827809,235366510,1,0.14,0.37,357.17,0.0006241725059226155,-0.04725446552038193,-0.04637254402041435,-0.0005144597962498665,-10.193324089050293,-23.779373168945312,0.30832353234291077,0.08,-0.02,0.02,214.29
1666652968.81829524,235386527,1,0.14,0.37,357.17,0.0028574627358466387,-0.04641246423125267,-0.045220665633678436,0.00018316955538466573,-10.18726634979248,-23.791643142700195,0.3089864253997803,0.08,-0.02,0.02,214.29
1666652968.85831928,235426551,1,0.14,0.36,357.17,0.0072385771200060844,-0.04555324465036392,-0.04502258449792862,0.005255343858152628,-10.178894996643066,-23.808534622192383,0.3094668686389923,0.08,-0.02,0.02,214.29
1666652968.89825010,235466482,1,0.14,0.36,357.18,0.009897558949887753,-0.04315952956676483,-0.04497509449720383,0.010144869796931744,-10.171403884887695,-23.823261260986328,0.3097996115684509,0.08,-0.02,0.02,214.29
1666652968.93828607,235506518,1,0.13,0.36,357.19,0.011888974346220493,-0.04164062440395355,-0.04386173561215401,0.011530443094670773,-10.162723541259766,-23.83943748474121,0.3104385435581207,0.08,-0.02,0.02,214.29
1666652968.97827506,235546507,1,0.13,0.36,357.21,0.014454260468482971,-0.04028262570500374,-0.04303758218884468,0.00853421539068222,-10.156904220581055,-23.850126266479492,0.3101932406425476,0.08,-0.02,0.02,214.29
1666652968.99829721,235566529,1,0.13,0.36,357.21,0.014995657838881016,-0.0383402444422245,-0.04365077242255211,0.004844217095524073,-10.154986381530762,-23.853635787963867,0.30978262424468994,0.08,-0.02,0.02,214.29
1666652969.01831126,235586543,1,0.13,0.36,357.21,0.01609150879085064,-0.036084242165088654,-0.04245505481958389,0.006055914331227541,-10.14881706237793,-23.863012313842773,0.31061479449272156,0.08,-0.02,0.02,214.29
1666652969.05832720,235626559,1,0.13,0.36,357.2,0.01850181259214878,-0.035479046404361725,-0.04275558516383171,0.010462319478392601,-10.140276908874512,-23.875818252563477,0.3111909329891205,0.08,-0.02,0.02,214.29
1666652969.09829021,235666522,1,0.13,0.36,357.19,0.01953069679439068,-0.031217921525239944,-0.04146062210202217,0.01382913626730442,-10.132636070251465,-23.886844635009766,0.3114318251609802,0.08,-0.02,0.02,214.29
1666652969.13826227,235706494,1,0.12,0.36,357.18,0.020624466240406036,-0.028500983491539955,-0.04141473397612572,0.011428534053266048,-10.124029159545898,-23.898761749267578,0.3119705617427826,0.08,-0.02,0.02,214.29
1666652969.17827916,235746511,1,0.12,0.36,357.18,0.0246716495603323,-0.024994900450110435,-0.040562327951192856,0.007046354003250599,-10.118152618408203,-23.90636444091797,0.3116876780986786,0.08,-0.02,0.02,214.29
1666652969.19833827,235766570,1,0.12,0.35000000000000003,357.19,0.024586979299783707,-0.02193540707230568,-0.04046137258410454,0.0035679813008755445,-10.1161470413208,-23.908781051635742,0.31128665804862976,0.08,-0.02,0.02,214.29
1666652969.21830821,235786540,1,0.13,0.34,357.2,0.02459118142724037,-0.01761743426322937,-0.04041879624128342,-5.352379594114609e-05,-10.112841606140137,-23.91272735595703,0.3112502694129944,0.08,-0.02,0.02,214.29
1666652969.25830626,235826538,1,0.12,0.34,357.22,0.03526627644896507,-0.02356957457959652,-0.040276069194078445,0.00238985032774508,-10.10074520111084,-23.924488067626953,0.3122767508029938,0.08,-0.02,0.02,214.29
1666652969.29833627,235866568,1,0.15,0.34,357.23,0.031280677765607834,-0.01332373172044754,-0.039218366146087646,0.01239028200507164,-10.089811325073242,-23.9345703125,0.31306663155555725,0.08,-0.02,0.02,214.29
1666652969.33829117,235906523,1,0.14,0.33,357.22,0.03668705374002457,-0.010454537346959114,-0.03282078355550766,0.023055635392665863,-10.07748794555664,-23.945425033569336,0.31421568989753723,0.08,-0.02,0.02,214.29
1666652969.37827826,235946510,1,0.12,0.32,357.22,0.03445721045136452,-0.001474894816055894,-0.03825826942920685,0.01678663119673729,-10.069010734558105,-23.952199935913086,0.31440114974975586,0.08,-0.02,0.02,214.29
1666652969.39834023,235966572,1,0.13,0.33,357.21,0.03555075824260712,-0.010171626694500446,-0.03608820587396622,0.016824541613459587,-10.066203117370605,-23.954172134399414,0.3141818046569824,0.08,-0.02,0.02,214.29
1666652969.41827106,235986503,1,0.11,0.34,357.21,0.035343799740076065,-0.007116622757166624,-0.029818415641784668,0.02020948939025402,-10.061448097229004,-23.957773208618164,0.31438931822776794,0.08,-0.02,0.02,214.29
1666652969.45830607,236026538,1,0.14,0.34,357.21,0.03294874727725983,-0.0018716244958341122,-0.02913149632513523,0.02203734964132309,-10.049748420715332,-23.967063903808594,0.31547653675079346,0.08,-0.02,0.02,214.29
1666652969.49831128,236066543,1,0.13,0.35000000000000003,357.22,0.034088484942913055,-0.010327223688364029,-0.034565966576337814,0.022883564233779907,-10.039473533630371,-23.974794387817383,0.3164215385913849,0.08,-0.02,0.02,214.29
1666652969.53828716,236106519,1,0.15,0.33,357.24,0.04585324227809906,-0.0017468531150370836,-0.03340446203947067,0.026125624775886536,-10.027666091918945,-23.983131408691406,0.3177415132522583,0.08,-0.02,0.02,214.29
1666652969.57824922,236146481,1,0.15,0.34,357.26,0.044159866869449615,0.01007218286395073,-0.03368127718567848,0.024541174992918968,-10.019533157348633,-23.987895965576172,0.318166583776474,0.08,-0.02,0.02,214.29
1666652969.59831619,236166548,1,0.09,0.35000000000000003,357.28000000000003,0.05412233620882034,0.016683995723724365,-0.027766713872551918,0.02842121757566929,-10.016677856445312,-23.989238739013672,0.3180379271507263,0.08,-0.02,0.02,214.29
1666652969.61827111,236186503,1,0.14,0.34,357.28000000000003,0.05101693794131279,0.021191366016864777,-0.03336111083626747,0.0200810544192791,-10.012065887451172,-23.9916934967041,0.31838157773017883,0.08,-0.02,0.02,214.29
1666652969.65828419,236226516,1,0.11,0.34,357.27,0.053742729127407074,0.019292423501610756,-0.03148775175213814,0.009210905060172081,-9.99390697479248,-23.999807357788086,0.3174619972705841,0.08,-0.02,0.02,214.29
1666652969.69830418,236266536,1,0.13,0.34,357.28000000000003,0.06330359727144241,0.018553998321294785,-0.030296044424176216,-0.005360317882150412,-9.97734546661377,-24.006595611572266,0.316502183675766,0.08,-0.02,0.02,214.29
1666652969.73829412,236306526,1,0.14,0.34,357.26,0.057706162333488464,0.023546552285552025,-0.03611551597714424,-0.023361116647720337,-9.958516120910645,-24.01387596130371,0.31565120816230774,0.08,-0.02,0.02,214.29
1666652969.77833009,236346562,1,0.15,0.33,357.27,0.06870809942483902,0.0194103941321373,-0.036359794437885284,-0.030825600028038025,-9.94530963897705,-24.01800537109375,0.31461358070373535,0.08,-0.02,0.02,214.29
1666652969.79828811,236366520,1,0.13,0.33,357.28000000000003,0.06943191587924957,0.03474806249141693,-0.03838855400681496,-0.03515387326478958,-9.940644264221191,-24.018943786621094,0.3140197694301605,0.08,-0.02,0.02,214.29
1666652969.81825614,236386488,1,0.15,0.33,357.28000000000003,0.06753265857696533,0.02971503883600235,-0.04071049019694328,-0.03923545777797699,-9.933176040649414,-24.02094268798828,0.31348925828933716,0.08,-0.02,0.02,214.29
1666652969.85827708,236426509,1,0.13,0.34,357.31,0.07434549927711487,0.031091831624507904,-0.032287728041410446,-0.03513145074248314,-9.916952133178711,-24.028467178344727,0.31193873286247253,0.08,-0.02,0.02,214.29
1666652969.89827728,236466509,1,0.14,0.33,357.31,0.07610747218132019,0.0422963909804821,-0.03882518410682678,-0.04819192364811897,-9.902185440063477,-24.034570693969727,0.31021034717559814,0.08,-0.02,0.02,214.29
1666652969.93831921,236506551,1,0.12,0.33,357.32,0.08512618392705917,0.04061286151409149,-0.04029179364442825,-0.054337017238140106,-9.885738372802734,-24.04146385192871,0.308453768491745,0.08,-0.02,0.02,214.29
1666652969.97833419,236546566,1,0.09,0.33,357.31,0.08714096993207932,0.04318719357252121,-0.033941950649023056,-0.049311552196741104,-9.873873710632324,-24.04509162902832,0.3068958818912506,0.08,-0.02,0.02,214.29
1666652969.99826217,236566494,1,0.13,0.34,357.31,0.08582963794469833,0.03869690001010895,-0.03926005959510803,-0.054365236312150955,-9.869587898254395,-24.045804977416992,0.30610257387161255,0.08,-0.02,0.02,214.29
1666652970.01829720,236586529,1,0.1,0.34,357.31,0.08922618627548218,0.04477563127875328,-0.02878750115633011,-0.043389707803726196,-9.86308765411377,-24.047809600830078,0.3052809536457062,0.08,-0.02,0.02,214.29
1666652970.05827117,236626503,1,0.11,0.34,357.31,0.09039098769426346,0.04026247560977936,-0.031472381204366684,-0.04974580183625221,-9.847400665283203,-24.053653717041016,0.30288174748420715,0.08,-0.02,0.02,214.29
1666652970.09827828,236666510,1,0.12,0.34,357.32,0.08726026862859726,0.042924463748931885,-0.03147478774189949,-0.056756652891635895,-9.833353042602539,-24.05835723876953,0.30048641562461853,0.08,-0.02,0.02,214.29
1666652970.13831425,236706546,1,0.14,0.34,357.33,0.09075303375720978,0.04748116061091423,-0.03846670687198639,-0.0680597573518753,-9.817893028259277,-24.06355857849121,0.29795515537261963,0.08,-0.02,0.02,214.29
1666652970.17831612,236746548,1,0.14,0.33,357.35,0.08683886379003525,0.054999127984046936,-0.04148548096418381,-0.07148206979036331,-9.806836128234863,-24.065990447998047,0.2958470284938812,0.08,-0.02,0.02,214.29
1666652970.19828010,236766512,1,0.13,0.33,357.36,0.08904582262039185,0.05352301150560379,-0.03757583349943161,-0.06655202060937881,-9.802823066711426,-24.06618881225586,0.29494744539260864,0.08,-0.02,0.02,214.29
1666652970.21832418,236786556,1,0.13,0.33,357.36,0.09273400902748108,0.05474838614463806,-0.03823314234614372,-0.06583070009946823,-9.796843528747559,-24.06753158569336,0.2938670814037323,0.08,-0.02,0.02,214.29
1666652970.25828910,236826521,1,0.11,0.33,357.36,0.08927711099386215,0.059155527502298355,-0.03630293160676956,-0.06063214689493179,-9.780532836914062,-24.072755813598633,0.2918145954608917,0.08,-0.02,0.02,214.29
1666652970.29828715,236866519,1,0.13,0.33,357.35,0.09609519690275192,0.05537303537130356,-0.03404490277171135,-0.05482533946633339,-9.765933990478516,-24.07674217224121,0.2899087071418762,0.08,-0.02,0.02,214.29
1666652970.33828020,236906512,1,0.13,0.33,357.34000000000003,0.09347850829362869,0.058710336685180664,-0.036006294190883636,-0.05340071767568588,-9.749889373779297,-24.08145523071289,0.2878636419773102,0.08,-0.02,0.02,214.29
1666652970.37828612,236946518,1,0.14,0.32,357.35,0.10210225731134415,0.060875535011291504,-0.03568796440958977,-0.05066212639212608,-9.738317489624023,-24.08335304260254,0.2860179543495178,0.08,-0.02,0.02,214.29
1666652970.39824915,236966481,1,0.12,0.33,357.36,0.09829902648925781,0.06762509793043137,-0.03550819680094719,-0.0494619645178318,-9.73401165008545,-24.08342933654785,0.2851623594760895,0.08,-0.02,0.02,214.29
1666652970.41829729,236986529,1,0.13,0.32,357.36,0.09675055742263794,0.07040835171937943,-0.03850781172513962,-0.05537721887230873,-9.722192764282227,-24.08650779724121,0.2832529842853546,0.08,-0.02,0.02,214.29
1666652970.45832419,237026556,1,0.12,0.32,357.38,0.10385067015886307,0.06685692071914673,-0.03399011492729187,-0.06270337849855423,-9.705049514770508,-24.089704513549805,0.28013521432876587,0.08,-0.02,0.01,214.29
1666652970.49824929,237066481,1,0.12,0.32,357.39,0.09752107411623001,0.07439331710338593,-0.03440782427787781,-0.0726289227604866,-9.689637184143066,-24.091936111450195,0.27714166045188904,0.08,-0.02,0.01,214.29
1666652970.53825617,237106488,1,0.14,0.33,357.39,0.10393591225147247,0.0684460774064064,-0.036995552480220795,-0.07917428016662598,-9.67277717590332,-24.094566345214844,0.2739439606666565,0.08,-0.02,0.01,214.29
1666652970.57829309,237146525,1,0.14,0.33,357.38,0.09961790591478348,0.07634004205465317,-0.0392472967505455,-0.08010723441839218,-9.66058349609375,-24.094951629638672,0.27142074704170227,0.08,-0.02,0.01,214.29
1666652970.59829021,237166522,1,0.14,0.33,357.38,0.10218524932861328,0.07681583613157272,-0.03819642588496208,-0.07712671160697937,-9.656115531921387,-24.094398498535156,0.2703579068183899,0.08,-0.02,0.01,214.29
1666652970.61830926,237186541,1,0.14,0.33,357.38,0.1051606610417366,0.07608924061059952,-0.038529980927705765,-0.07513724267482758,-9.649463653564453,-24.094690322875977,0.26899823546409607,0.08,-0.02,0.01,214.29
1666652970.65830326,237226535,1,0.13,0.33,357.38,0.10278278589248657,0.08127853274345398,-0.03951400890946388,-0.08700840175151825,-9.633243560791016,-24.09654426574707,0.2640253007411957,0.08,-0.02,0.01,214.29
1666652970.69831228,237266544,1,0.13,0.33,357.38,0.10725703835487366,0.0824785828590393,-0.038554247468709946,-0.10740242153406143,-9.618642807006836,-24.097572326660156,0.25924381613731384,0.08,-0.02,0.01,214.29
1666652970.73828912,237306521,1,0.12,0.32,357.39,0.10622871667146683,0.09126012772321701,-0.03982004150748253,-0.12135753780603409,-9.602900505065918,-24.098859786987305,0.2540763318538666,0.08,-0.02,0.01,214.29
1666652970.77827907,237346511,1,0.11,0.32,357.40000000000003,0.10973761230707169,0.09287580847740173,-0.039097242057323456,-0.12120570987462997,-9.591458320617676,-24.098257064819336,0.2503945529460907,0.08,-0.02,0.01,214.29
1666652970.79832506,237366557,1,0.12,0.34,357.41,0.10613948106765747,0.0917072668671608,-0.03986544907093048,-0.11870457231998444,-9.587248802185059,-24.097341537475586,0.2489641308784485,0.08,-0.02,0.01,214.29
1666652970.81831312,237386545,1,0.11,0.32,357.41,0.10549933463335037,0.09664329886436462,-0.03918471932411194,-0.12179408967494965,-9.575857162475586,-24.098058700561523,0.24491100013256073,0.08,-0.02,0.01,214.29
1666652970.85830808,237426540,1,0.1,0.32,357.41,0.1051856130361557,0.091081902384758,-0.04101482406258583,-0.14003266394138336,-9.559382438659668,-24.09778594970703,0.23913609981536865,0.08,-0.02,0.01,214.29
1666652970.89832616,237466558,1,0.11,0.33,357.41,0.1041024774312973,0.09431163221597672,-0.04017665609717369,-0.1468888223171234,-9.544692039489746,-24.09676170349121,0.23392590880393982,0.08,-0.02,0.01,214.29
1666652970.93831015,237506542,1,0.12,0.33,357.40000000000003,0.10475984960794449,0.09892664849758148,-0.04414166510105133,-0.14795039594173431,-9.528653144836426,-24.095867156982422,0.22811152040958405,0.08,-0.02,0.01,214.29
1666652970.97827911,237546511,1,0.13,0.33,357.41,0.10517710447311401,0.09969154745340347,-0.0514165535569191,-0.1459936648607254,-9.517093658447266,-24.09354591369629,0.22377347946166992,0.08,-0.02,0.01,214.29
1666652970.99829006,237566522,1,0.11,0.33,357.41,0.10544727742671967,0.10555136948823929,-0.04590905085206032,-0.1341833472251892,-9.512750625610352,-24.09203338623047,0.22205416858196259,0.08,-0.02,0.01,214.29
1666652971.01828718,237586519,1,0.14,0.32,357.42,0.09925909340381622,0.10778600722551346,-0.04721120744943619,-0.13341526687145233,-9.50233268737793,-24.090539932250977,0.2185269594192505,0.08,-0.02,0.01,214.29
1666652971.05832028,237626552,1,0.13,0.33,357.43,0.10210543125867844,0.10411592572927475,-0.04843605309724808,-0.13534913957118988,-9.487160682678223,-24.08686637878418,0.21348504722118378,0.08,-0.02,0.01,214.29
1666652971.09831429,237666546,1,0.16,0.32,357.44,0.10103493183851242,0.11518335342407227,-0.05364932864904404,-0.13600043952465057,-9.473592758178711,-24.082868576049805,0.20888496935367584,0.08,-0.02,0.01,214.29
1666652971.13832927,237706561,1,0.16,0.31,357.45,0.10210272669792175,0.10975151509046555,-0.0519082136452198,-0.12542399764060974,-9.459047317504883,-24.078454971313477,0.203941211104393,0.08,-0.02,0.01,214.29
1666652971.17826915,237746501,1,0.13,0.33,357.46,0.09760875254869461,0.12179846316576004,-0.047623034566640854,-0.11010172963142395,-9.448517799377441,-24.073528289794922,0.2000761330127716,0.08,-0.02,0.01,214.29
1666652971.19831014,237766542,1,0.16,0.31,357.46,0.09873771667480469,0.13012294471263885,-0.049545902758836746,-0.10632939636707306,-9.44456958770752,-24.070955276489258,0.1985088288784027,0.08,-0.02,0.01,214.29
1666652971.21827626,237786508,1,0.12,0.3,357.46,0.10380487143993378,0.1244785413146019,-0.052408989518880844,-0.1108778789639473,-9.434122085571289,-24.06878662109375,0.1946256309747696,0.08,-0.02,0.01,214.29
1666652971.25827718,237826509,1,0.16,0.31,357.45,0.09517896920442581,0.13976746797561646,-0.054710302501916885,-0.12767696380615234,-9.419218063354492,-24.063701629638672,0.18888765573501587,0.08,-0.02,0.01,214.29
1666652971.29831028,237866542,1,0.11,0.31,357.47,0.09891362488269806,0.12793491780757904,-0.054065149277448654,-0.13608193397521973,-9.405791282653809,-24.058544158935547,0.18361282348632812,0.08,-0.02,0.01,214.29
1666652971.33831429,237906546,1,0.16,0.3,357.46,0.09559840708971024,0.1423472911119461,-0.061185840517282486,-0.1434997022151947,-9.391555786132812,-24.052797317504883,0.1778780221939087,0.08,-0.02,0.01,214.29
1666652971.37833309,237946565,1,0.11,0.3,357.48,0.09607571363449097,0.14553453028202057,-0.05467655882239342,-0.130928173661232,-9.381196022033691,-24.04698371887207,0.17345713078975677,0.08,-0.02,0.01,214.29
1666652971.39830828,237966540,1,0.14,0.29,357.49,0.09142602980136871,0.1472610980272293,-0.06041313335299492,-0.13196271657943726,-9.37739086151123,-24.043956756591797,0.17166566848754883,0.08,-0.02,0.01,214.29
1666652971.41825318,237986485,1,0.16,0.3,357.49,0.09475541114807129,0.13849155604839325,-0.05300995707511902,-0.12900759279727936,-9.36605453491211,-24.04383659362793,0.16687099635601044,0.08,-0.02,0.01,214.29
1666652971.45827723,238026509,1,0.16,0.3,357.5,0.09290498495101929,0.15137916803359985,-0.06849055737257004,-0.16763128340244293,-9.3496675491333,-24.041601181030273,0.1596771478652954,0.08,-0.02,0.01,214.29
1666652971.49827623,238066508,1,0.14,0.29,357.51,0.09535730630159378,0.15216413140296936,-0.05784815549850464,-0.1735440194606781,-9.335108757019043,-24.038942337036133,0.15298402309417725,0.08,-0.02,0.01,214.29
1666652971.53831029,238106542,1,0.1,0.3,357.51,0.09439623355865479,0.15535332262516022,-0.05912905931472778,-0.17776240408420563,-9.319255828857422,-24.03643798828125,0.1458015888929367,0.08,-0.02,0.01,214.29
1666652971.57831907,238146551,1,0.11,0.31,357.52,0.09616570919752121,0.15475307404994965,-0.06212649494409561,-0.16963084042072296,-9.308025360107422,-24.032756805419922,0.14080889523029327,0.08,-0.02,0.01,214.29
1666652971.59827113,238166503,1,0.12,0.3,357.53000000000003,0.09433963894844055,0.14362475275993347,-0.05803883448243141,-0.1565682291984558,-9.303818702697754,-24.03034210205078,0.13873359560966492,0.08,-0.02,0.01,214.29
1666652971.61831117,238186543,1,0.18,0.28,357.54,0.09281955659389496,0.15153376758098602,-0.06126334145665169,-0.15298840403556824,-9.28978157043457,-24.02907943725586,0.13535122573375702,0.08,-0.02,0.01,214.29
1666652971.65825319,238226485,1,0.18,0.3,357.56,0.09668682515621185,0.153135746717453,-0.05681424215435982,-0.1398109346628189,-9.26974868774414,-24.02542495727539,0.12991192936897278,0.08,-0.02,0.01,214.29
1666652971.69827819,238266510,1,0.13,0.26,357.58,0.10400626808404922,0.15539602935314178,-0.0595383457839489,-0.1344139724969864,-9.25173568725586,-24.021244049072266,0.12474574893712997,0.08,-0.02,0.01,214.29
1666652971.73825526,238306487,1,0.15,0.29,357.6,0.0936715304851532,0.16134394705295563,-0.06320492178201675,-0.12914828956127167,-9.231966018676758,-24.017173767089844,0.11901295185089111,0.08,-0.02,0.01,214.29
1666652971.77831817,238346550,1,0.09,0.29,357.62,0.10449055582284927,0.1620674729347229,-0.0716330036520958,-0.13268764317035675,-9.217977523803711,-24.012205123901367,0.11400727927684784,0.08,-0.02,0.01,214.29
1666652971.79828811,238366520,1,0.08,0.28,357.63,0.09480614215135574,0.1512030065059662,-0.05697229504585266,-0.11575337499380112,-9.21292495727539,-24.009408950805664,0.11193396896123886,0.08,-0.02,0.01,214.29
1666652971.81832814,238386560,1,0.12,0.28,357.65000000000003,0.10238341242074966,0.15236841142177582,-0.06385575979948044,-0.12795524299144745,-9.2003755569458,-24.009187698364258,0.10732246935367584,0.08,-0.02,0.01,214.29
1666652971.85828710,238426519,1,0.17,0.28,357.67,0.10381603986024857,0.1609705090522766,-0.07405118644237518,-0.16102765500545502,-9.18223762512207,-24.006555557250977,0.09991366416215897,0.08,-0.02,0.0,214.29
1666652971.89828730,238466519,1,0.16,0.28,357.71,0.10220709443092346,0.153847798705101,-0.07166517525911331,-0.1754482388496399,-9.166129112243652,-24.00359344482422,0.09295699745416641,0.08,-0.02,0.0,214.29
1666652971.93828321,238506515,1,0.17,0.29,357.74,0.09935175627470016,0.15596260130405426,-0.0800585076212883,-0.1881764978170395,-9.148679733276367,-24.001068115234375,0.08510567247867584,0.08,-0.02,0.0,214.29
1666652971.97831106,238546543,1,0.11,0.29,357.78000000000003,0.10030212253332138,0.16107337176799774,-0.07217305153608322,-0.18179044127464294,-9.136210441589355,-23.996973037719727,0.07838566601276398,0.08,-0.02,0.0,214.29
1666652971.99828815,238566520,1,0.1,0.29,357.79,0.10128724575042725,0.16497257351875305,-0.07673705369234085,-0.18529494106769562,-9.131678581237793,-23.994461059570312,0.07578123360872269,0.08,-0.02,0.0,214.29
1666652972.01832628,238586558,1,0.13,0.3,357.81,0.10045226663351059,0.1679391860961914,-0.07778596878051758,-0.1906159520149231,-9.118941307067871,-23.99441146850586,0.07052523642778397,0.08,-0.02,0.0,214.29
1666652972.05831313,238626545,1,0.15,0.29,357.84000000000003,0.09908302128314972,0.16190288960933685,-0.07256831973791122,-0.19903583824634552,-9.100794792175293,-23.992271423339844,0.06234290450811386,0.08,-0.02,0.0,214.29
1666652972.09829617,238666528,1,0.17,0.29,357.89,0.09557095915079117,0.16060973703861237,-0.08781088143587112,-0.22109614312648773,-9.084611892700195,-23.989591598510742,0.05458984151482582,0.08,-0.02,0.0,214.29
1666652972.13827729,238706509,1,0.16,0.26,357.93,0.09668966382741928,0.1662977933883667,-0.07285753637552261,-0.20195356011390686,-9.067007064819336,-23.987506866455078,0.046044956892728806,0.08,-0.02,0.0,214.29
1666652972.17828608,238746518,1,0.17,0.26,357.98,0.10461590439081192,0.16672225296497345,-0.08467143774032593,-0.20410485565662384,-9.054443359375,-23.983713150024414,0.03931073099374771,0.08,-0.02,0.0,214.29
1666652972.19827509,238766507,1,0.17,0.26,358.0,0.10330133140087128,0.16300137341022491,-0.08100331574678421,-0.1940220296382904,-9.04985237121582,-23.98123550415039,0.03661266341805458,0.08,-0.02,0.0,214.29
1666652972.21831226,238786544,1,0.19,0.25,358.02,0.10326550155878067,0.16896319389343262,-0.0844709649682045,-0.19053447246551514,-9.043091773986816,-23.979467391967773,0.0329291857779026,0.08,-0.02,0.0,214.29
1666652972.25827026,238826502,1,0.18,0.25,358.05,0.10146638005971909,0.17423532903194427,-0.08307208120822906,-0.19587045907974243,-9.022245407104492,-23.976667404174805,0.023276329040527344,0.08,-0.02,0.0,214.29
1666652972.29832506,238866557,1,0.17,0.22,358.1,0.10247520357370377,0.16933360695838928,-0.09360409528017044,-0.22572310268878937,-9.003569602966309,-23.973350524902344,0.014228216372430325,0.08,-0.02,0.0,214.29
1666652972.33824921,238906481,1,0.19,0.22,358.12,0.10467641800642014,0.16728410124778748,-0.09983287006616592,-0.23957271873950958,-8.983172416687012,-23.970556259155273,0.004078177269548178,0.08,-0.02,0.0,214.29
1666652972.37828708,238946519,1,0.19,0.17,358.15000000000003,0.1044905036687851,0.17663255333900452,-0.10104714334011078,-0.2440037727355957,-8.968794822692871,-23.96636962890625,-0.004312127362936735,0.08,-0.02,0.0,214.29
1666652972.39834118,238966573,1,0.18,0.15,358.17,0.10657566785812378,0.17810019850730896,-0.09196911752223969,-0.2328060269355774,-8.963645935058594,-23.96379852294922,-0.007544298656284809,0.08,-0.02,0.0,214.29
1666652972.41828418,238986516,1,0.16,0.16,358.18,0.11429455876350403,0.16072764992713928,-0.09220268577337265,-0.23311929404735565,-8.94715690612793,-23.96245574951172,-0.013272654265165329,0.08,-0.02,0.0,214.29
1666652972.45831418,239026546,1,0.23,0.08,358.21,0.11238692700862885,0.1643446981906891,-0.11107780039310455,-0.2598915994167328,-8.923580169677734,-23.958383560180664,-0.023382488638162613,0.08,-0.02,0.0,214.29
1666652972.49831223,239066544,1,0.17,0.04,358.24,0.12468443810939789,0.18720078468322754,-0.0979430302977562,-0.25793907046318054,-8.902383804321289,-23.953948974609375,-0.033232420682907104,0.08,-0.02,0.0,214.29
1666652972.53833318,239106565,1,0.2,0.0,358.26,0.1314145177602768,0.19522303342819214,-0.1354944407939911,-0.2947596311569214,-8.87893295288086,-23.949827194213867,-0.045115500688552856,0.08,-0.01,0.0,214.29
1666652972.57827425,239146506,1,0.1,-0.11,358.29,0.13632580637931824,0.19528131186962128,-0.1505681872367859,-0.320659339427948,-8.862062454223633,-23.94464683532715,-0.056644510477781296,0.08,-0.02,0.0,214.29
1666652972.59829926,239166531,1,0.23,-0.25,358.32,0.13874535262584686,0.16061098873615265,-0.123493991792202,-0.29751384258270264,-8.855718612670898,-23.94162368774414,-0.0615590363740921,0.08,-0.01,0.0,214.29
1666652972.61827826,239186510,1,0.14,-0.3,358.33,0.14100711047649384,0.19801990687847137,-0.16887019574642181,-0.34852761030197144,-8.84073257446289,-23.941734313964844,-0.06934170424938202,0.08,-0.02,0.0,214.29
1666652972.65831113,239226543,1,0.16,-0.46,358.34000000000003,0.1428096443414688,0.19006448984146118,-0.21094030141830444,-0.40505677461624146,-8.818784713745117,-23.939462661743164,-0.08429798483848572,0.08,-0.02,0.0,214.29
1666652972.69831109,239266543,1,0.28,-0.67,358.35,0.15550993382930756,0.19603846967220306,-0.26704806089401245,-0.475615531206131,-8.798860549926758,-23.936609268188477,-0.10057280212640762,0.08,-0.02,0.0,214.29
1666652972.73832512,239306557,1,0.36,-0.8,358.36,0.16276080906391144,0.18136781454086304,-0.30922260880470276,-0.5152953267097473,-8.777063369750977,-23.934406280517578,-0.12062182277441025,0.08,-0.02,0.0,214.29
1666652972.77826810,239346500,1,0.56,-0.87,358.38,0.16621215641498566,0.18091550469398499,-0.350035160779953,-0.5643429160118103,-8.760737419128418,-23.930198669433594,-0.14106370508670807,0.08,-0.02,0.0,214.29
1666652972.79831314,239366545,1,0.42,-0.86,358.37,0.17920835316181183,0.1854928880929947,-0.3429599106311798,-0.5598292946815491,-8.754496574401855,-23.92757225036621,-0.1502038687467575,0.08,-0.02,0.0,214.29
1666652972.81826019,239386492,1,0.7000000000000001,-0.87,358.38,0.16600307822227478,0.1883760541677475,-0.39346733689308167,-0.6092479228973389,-8.745702743530273,-23.92564582824707,-0.1619846373796463,0.08,-0.02,0.0,214.29
1666652972.85826921,239426501,1,0.11,-0.04,148.85,0.15605731308460236,0.13745054602622986,-0.41773685812950134,-0.6283587217330933,-8.721961975097656,-23.925249099731445,-0.18537184596061707,0.08,-0.02,0.0,214.29
1666652972.89831614,239466548,1,0.13,-0.04,148.83,0.15027926862239838,0.13338884711265564,-0.44956040382385254,-0.6664420962333679,-8.700987815856934,-23.925140380859375,-0.21073082089424133,0.08,-0.02,0.0,214.29
1666652972.93832111,239506553,1,0.25,-0.08,148.8,0.1448572427034378,0.1393946260213852,-0.5007269382476807,-0.7146835923194885,-8.678812980651855,-23.92647361755371,-0.24074095487594604,0.08,-0.02,0.0,214.29
1666652972.97832918,239546561,1,0.31,-0.12,148.78,0.13851585984230042,0.12423981726169586,-0.5456860661506653,-0.7836573719978333,-8.663393020629883,-23.92611312866211,-0.27190256118774414,0.08,-0.02,0.0,214.29
1666652972.99825811,239566490,1,0.29,-0.12,148.73,0.11387617886066437,0.0962308794260025,-0.5612724423408508,-0.811913013458252,-8.6578369140625,-23.925249099731445,-0.2863231897354126,0.08,-0.02,0.0,214.29
1666652973.01824927,239586481,1,0.33,-0.14,148.72,0.13738380372524261,0.12108606100082397,-0.5829846858978271,-0.8403264880180359,-8.64327621459961,-23.928987503051758,-0.30364182591438293,0.09,-0.02,0.0,214.29
1666652973.05828428,239626516,1,0.41000000000000003,-0.15,148.68,0.11701851338148117,0.10262996703386307,-0.6261568665504456,-0.9189890027046204,-8.62311840057373,-23.933263778686523,-0.34352755546569824,0.09,-0.02,0.0,214.29
1666652973.09826326,239666495,1,0.55,-0.18,148.66,0.09807073324918747,0.09549329429864883,-0.6525489091873169,-1.038317084312439,-8.606088638305664,-23.936918258666992,-0.38660019636154175,0.09,-0.02,0.0,214.29
1666652973.13830423,239706536,1,0.74,-0.24,148.63,0.06421184539794922,0.07223152369260788,-0.674505889415741,-1.1134682893753052,-8.58857536315918,-23.9419002532959,-0.4377342164516449,0.09,-0.02,0.0,214.29
1666652973.17829013,239746522,1,0.89,-0.3,148.63,0.04418391361832619,0.0660262256860733,-0.6862835884094238,-1.2338457107543945,-8.577568054199219,-23.944272994995117,-0.48973503708839417,0.09,-0.02,0.0,214.29
1666652973.19827628,239766508,1,1.0,-0.33,148.63,0.06367579102516174,0.07521706074476242,-0.738175094127655,-1.3330695629119873,-8.574108123779297,-23.944570541381836,-0.5113480687141418,0.09,-0.02,0.0,214.29
1666652973.21832013,239786552,1,0.93,-0.35000000000000003,148.62,0.02435987815260887,0.06473270058631897,-0.7019667029380798,-1.3295148611068726,-8.568954467773438,-23.946319580078125,-0.5396569967269897,0.09,-0.02,0.0,214.29
1666652973.25828314,239826515,1,0.96,-0.42,148.69,0.007419882342219353,0.051253192126750946,-0.7182260751724243,-1.3822438716888428,-8.548393249511719,-23.95262908935547,-0.5931689143180847,0.09,-0.02,0.0,214.29
1666652973.29828906,239866521,1,0.96,-0.49,148.84,-0.0031642073299735785,0.04317209869623184,-0.7529518008232117,-1.4581559896469116,-8.531586647033691,-23.958412170410156,-0.6474997997283936,0.09,-0.02,0.0,214.29
1666652973.33827424,239906506,1,0.8200000000000001,-0.52,148.99,-0.01859362982213497,0.03647151216864586,-0.7620965838432312,-1.457119345664978,-8.513960838317871,-23.965702056884766,-0.7089759707450867,0.09,-0.02,0.0,214.29
1666652973.37834024,239946572,1,0.44,-0.48,149.19,-0.027724983170628548,0.04198703542351723,-0.7742791771888733,-1.5012273788452148,-8.503761291503906,-23.969982147216797,-0.7666819095611572,0.09,-0.02,0.0,214.29
1666652973.39827919,239966511,1,0.34,-0.44,149.26,-0.012647529132664204,0.03274079039692879,-0.7854185104370117,-1.5239936113357544,-8.501043319702148,-23.971067428588867,-0.790351927280426,0.09,-0.02,0.0,214.29
1666652973.41831708,239986549,1,-0.06,-0.37,149.38,-0.02277800254523754,0.04612323269248009,-0.7838572859764099,-1.52183198928833,-8.479618072509766,-23.9691162109375,-0.8206575512886047,0.09,-0.01,0.0,214.29
1666652973.45830011,240026532,1,-0.61,-0.17,149.53,-0.019610602408647537,0.04762928560376167,-0.772060215473175,-1.497525930404663,-8.451604843139648,-23.96596336364746,-0.878261148929596,0.09,-0.01,0.0,214.29
1666652973.49826121,240066493,1,-1.16,-0.04,149.68,-0.026014644652605057,0.04722699522972107,-0.7679427862167358,-1.4965773820877075,-8.427664756774902,-23.96300506591797,-0.934442937374115,0.09,-0.01,0.0,214.29
1666652973.53827929,240106511,1,-1.52,0.03,149.8,-0.032376695424318314,0.051701970398426056,-0.7451464533805847,-1.4409719705581665,-8.400755882263184,-23.95969581604004,-0.9971046447753906,0.09,-0.01,0.0,214.29
1666652973.57831526,240146547,1,-1.8900000000000001,0.1,149.86,-0.021739009767770767,0.06263268738985062,-0.731482207775116,-1.4449224472045898,-8.384352684020996,-23.95670509338379,-1.0542391538619995,0.09,-0.01,0.0,214.29
1666652973.59829307,240166525,1,-1.99,0.09,149.85,-0.03807549178600311,0.03851517289876938,-0.7314945459365845,-1.448033332824707,-8.379656791687012,-23.955276489257812,-1.0771009922027588,0.09,-0.01,0.0,214.29
1666652973.61828208,240186514,1,-2.19,0.07,149.89000000000001,-0.01615750417113304,0.08329285681247711,-0.706280529499054,-1.4149398803710938,-8.355592727661133,-23.949146270751953,-1.1055852174758911,0.09,-0.01,0.0,214.29
1666652973.65831017,240226542,1,-2.45,0.05,149.89000000000001,-0.0024383394047617912,0.09478450566530228,-0.6853451132774353,-1.3431119918823242,-8.323600769042969,-23.939777374267578,-1.1547235250473022,0.09,-0.01,0.0,214.29
1666652973.69826627,240266498,1,-2.67,0.0,149.89000000000001,0.0062714917585253716,0.09656888246536255,-0.6452993154525757,-1.2456998825073242,-8.295724868774414,-23.93076515197754,-1.2012051343917847,0.09,-0.01,0.0,214.29
1666652973.73827720,240306509,1,-2.83,-0.08,149.88,0.0004561145033221692,0.11079468578100204,-0.6092204451560974,-1.1392138004302979,-8.26392650604248,-23.92034912109375,-1.2479194402694702,0.09,-0.01,0.0,214.29
1666652973.77826619,240346498,1,-2.85,-0.17,149.77,0.003659418784081936,0.11477772891521454,-0.5797882676124573,-1.019755244255066,-8.243592262268066,-23.9117488861084,-1.2839572429656982,0.09,-0.01,0.0,214.29
1666652973.79830623,240366538,1,-2.83,-0.17,149.69,0.001131996395997703,0.10631303489208221,-0.5672204494476318,-0.9591846466064453,-8.237318992614746,-23.90810203552246,-1.299085259437561,0.09,-0.01,0.0,214.29
1666652973.81829810,240386530,1,-2.74,-0.22,149.62,0.007384808734059334,0.12134958803653717,-0.5541147589683533,-0.8921778798103333,-8.212076187133789,-23.90273666381836,-1.315106987953186,0.09,-0.01,0.0,214.29
1666652973.85830712,240426539,1,-2.56,-0.24,149.44,0.01595580391585827,0.13288012146949768,-0.5153687596321106,-0.7162773013114929,-8.177939414978027,-23.893651962280273,-1.3380496501922607,0.09,-0.01,0.0,214.29
1666652973.89832926,240466561,1,-2.35,-0.25,149.20000000000002,0.023813078179955482,0.1467173993587494,-0.4894384741783142,-0.525631844997406,-8.14795970916748,-23.88455581665039,-1.3573397397994995,0.09,-0.01,0.0,214.29
1666652973.93824911,240506481,1,-2.09,-0.27,148.92000000000002,0.03308947756886482,0.1559450328350067,-0.4582926034927368,-0.37728193402290344,-8.113844871520996,-23.874385833740234,-1.371443748474121,0.09,-0.01,0.0,214.29
1666652973.97829413,240546526,1,-1.72,-0.32,148.56,0.02631714940071106,0.16647306084632874,-0.4396340847015381,-0.2155712991952896,-8.09168529510498,-23.865264892578125,-1.379141092300415,0.09,-0.01,0.0,214.29
1666652973.99833107,240566563,1,-1.49,-0.38,148.38,0.030572010204195976,0.1578352004289627,-0.4198512136936188,-0.1345607489347458,-8.0847749710083,-23.861221313476562,-1.3843600749969482,0.09,-0.01,0.0,214.29
1666652974.01827812,240586510,1,-1.26,-0.38,148.20000000000002,0.028067151084542274,0.16850395500659943,-0.42689722776412964,-0.09059188514947891,-8.055623054504395,-23.852128982543945,-1.3864704370498657,0.09,-0.01,0.0,214.29
1666652974.05830717,240626539,1,-0.73,-0.45,147.81,0.0335506834089756,0.17784211039543152,-0.40527239441871643,0.01813766546547413,-8.016169548034668,-23.837656021118164,-1.3874640464782715,0.09,-0.01,0.0,214.29
1666652974.09831429,240666546,1,-0.29,-0.52,147.41,0.043770093470811844,0.1786523461341858,-0.39355432987213135,0.1229204460978508,-7.981503009796143,-23.823862075805664,-1.3865516185760498,0.09,-0.01,0.0,214.29
1666652974.13831425,240706546,1,0.05,-0.52,147.02,0.03856484591960907,0.17820726335048676,-0.3706883192062378,0.18221887946128845,-7.942174911499023,-23.80879783630371,-1.3796290159225464,0.09,-0.01,0.0,214.29
1666652974.17828822,240746520,1,0.35000000000000003,-0.47000000000000003,146.69,0.033120978623628616,0.1858498901128769,-0.3585854172706604,0.2535320818424225,-7.916585922241211,-23.796459197998047,-1.3734302520751953,0.09,-0.01,0.0,214.29
1666652974.19831014,240766542,1,0.39,-0.38,146.54,0.03699154406785965,0.17123554646968842,-0.3399147093296051,0.2927868664264679,-7.908502578735352,-23.7912540435791,-1.3741375207901,0.09,-0.01,0.0,214.29
1666652974.21827626,240786508,1,0.6,-0.42,146.39000000000001,0.02058238349854946,0.1895723193883896,-0.34317874908447266,0.30408045649528503,-7.875062465667725,-23.780641555786133,-1.3679594993591309,0.09,-0.01,0.0,214.29
1666652974.25832915,240826561,1,0.78,-0.42,146.11,0.025126853957772255,0.1886577159166336,-0.3404141068458557,0.3305909335613251,-7.829661846160889,-23.763940811157227,-1.3588687181472778,0.09,-0.01,0.0,214.29
1666652974.29831219,240866544,1,0.93,-0.41000000000000003,145.86,0.03301963582634926,0.17780259251594543,-0.33959877490997314,0.3612481951713562,-7.78993034362793,-23.748491287231445,-1.349928379058838,0.09,-0.01,0.0,214.29
1666652974.33832622,240906558,1,1.12,-0.41000000000000003,145.67000000000002,0.03832344710826874,0.1725163459777832,-0.3321518898010254,0.35195139050483704,-7.744905471801758,-23.73188018798828,-1.335708737373352,0.09,-0.01,0.0,214.29
1666652974.37829828,240946530,1,1.1300000000000001,-0.33,145.55,0.02954477071762085,0.1739312708377838,-0.32515767216682434,0.3507896065711975,-7.715721130371094,-23.718759536743164,-1.3275119066238403,0.09,-0.01,0.0,214.29
1666652974.39831018,240966542,1,1.29,-0.23,145.49,0.029495567083358765,0.1530226171016693,-0.3354613184928894,0.3300076723098755,-7.706698417663574,-23.713624954223633,-1.327553153038025,0.09,-0.01,0.0,214.29
1666652974.41827512,240986507,1,1.2,-0.2,145.47,0.026769066229462624,0.15694785118103027,-0.34160393476486206,0.3095651865005493,-7.671362400054932,-23.701332092285156,-1.3207979202270508,0.09,-0.01,0.0,214.29
1666652974.45828128,241026513,1,1.32,0.08,145.43,0.022928543388843536,0.13720715045928955,-0.3466719090938568,0.27553460001945496,-7.6235432624816895,-23.68301773071289,-1.3132174015045166,0.09,-0.01,0.0,214.29
1666652974.49831414,241066546,1,1.41,0.29,145.46,0.028324628248810768,0.13415950536727905,-0.36095401644706726,0.23995167016983032,-7.581611156463623,-23.666414260864258,-1.3071205615997314,0.09,-0.01,0.0,214.29
1666652974.53831530,241106547,1,1.41,0.46,145.53,0.02833671309053898,0.1331891268491745,-0.3764513432979584,0.1811559498310089,-7.533939838409424,-23.648521423339844,-1.2971980571746826,0.09,-0.01,0.0,214.29
1666652974.57833028,241146562,1,1.5,0.59,145.68,0.02916637435555458,0.14026333391666412,-0.37669092416763306,0.15265724062919617,-7.502970218658447,-23.63517951965332,-1.2936328649520874,0.09,-0.01,0.0,214.29
1666652974.59829807,241166530,1,1.37,0.61,145.76,0.022944403812289238,0.10852120071649551,-0.36992135643959045,0.1437119096517563,-7.493331432342529,-23.63009262084961,-1.2956421375274658,0.09,-0.01,0.0,214.29
1666652974.61825514,241186487,1,1.3900000000000001,0.65,145.85,0.037659674882888794,0.13366997241973877,-0.3781868517398834,0.11605606973171234,-7.475838661193848,-23.622968673706055,-1.2927219867706299,0.09,-0.01,0.0,214.29
1666652974.65827608,241226508,1,1.2,0.7000000000000001,146.07,0.025131067261099815,0.10342910140752792,-0.37463581562042236,0.10453483462333679,-7.423099994659424,-23.604385375976562,-1.2876641750335693,0.09,-0.01,0.0,214.29
1666652974.69825912,241266491,1,1.1500000000000001,0.73,146.34,0.028203727677464485,0.09613797068595886,-0.4022805690765381,0.09218524396419525,-7.376651287078857,-23.58779525756836,-1.2837200164794922,0.09,-0.01,0.0,214.29
1666652974.73833513,241306567,1,1.11,0.75,146.62,0.057616811245679855,0.09768644720315933,-0.42339184880256653,0.061727795749902725,-7.323770046234131,-23.569690704345703,-1.2760233879089355,0.09,-0.01,0.0,214.29
1666652974.77835917,241346591,1,0.88,0.74,146.98,0.05659215897321701,0.09778104722499847,-0.4132448136806488,0.07946747541427612,-7.289231777191162,-23.556947708129883,-1.2737607955932617,0.09,-0.01,0.0,214.29
1666652974.79827809,241366510,1,0.88,0.7000000000000001,147.15,0.04185963049530983,0.07387059181928635,-0.4429275691509247,0.04860971122980118,-7.278377532958984,-23.552513122558594,-1.2764753103256226,0.09,-0.01,0.0,214.29
1666652974.81828427,241386516,1,0.72,0.72,147.33,0.051827896386384964,0.07792281359434128,-0.43037140369415283,0.048989810049533844,-7.2437028884887695,-23.54423713684082,-1.275607705116272,0.09,-0.01,0.0,214.29
1666652974.85826325,241426495,1,0.8,0.7000000000000001,147.68,0.04506361857056618,0.05100283399224281,-0.4474572539329529,-0.007090046536177397,-7.196596622467041,-23.532644271850586,-1.2775490283966064,0.09,-0.01,0.0,214.29
1666652974.89829016,241466522,1,0.8200000000000001,0.71,148.05,0.06098003685474396,0.04408255219459534,-0.4585475027561188,-0.049941807985305786,-7.154907703399658,-23.522563934326172,-1.2807589769363403,0.09,-0.01,0.0,214.29
1666652974.93828011,241506512,1,0.75,0.75,148.39000000000001,0.07616331428289413,0.04933806508779526,-0.4638383388519287,-0.0970899686217308,-7.107635498046875,-23.511869430541992,-1.2818701267242432,0.09,-0.01,0.0,214.29
1666652974.97830629,241546538,1,0.63,0.78,148.76,0.08350946009159088,0.05039115995168686,-0.46119457483291626,-0.12419064342975616,-7.076251983642578,-23.5046329498291,-1.287909984588623,0.09,-0.01,0.0,214.29
1666652974.99829817,241566530,1,0.52,0.77,148.92000000000002,0.06828933209180832,0.016265880316495895,-0.47405776381492615,-0.15221598744392395,-7.0660929679870605,-23.502225875854492,-1.2934105396270752,0.09,-0.01,0.0,214.29
1666652975.01831508,241586547,1,0.5,0.8,149.08,0.08912859112024307,0.04827846959233284,-0.46420711278915405,-0.15810801088809967,-7.048450946807861,-23.49850082397461,-1.2956115007400513,0.09,-0.01,0.0,214.29
1666652975.05830407,241626536,1,0.37,0.8,149.38,0.07952267676591873,0.03338947892189026,-0.4558999240398407,-0.1783076375722885,-7.000241279602051,-23.479799270629883,-1.3035334348678589,0.09,-0.01,0.0,214.29
1666652975.09824920,241666481,1,0.32,0.75,149.66,0.08198705315589905,0.014696252532303333,-0.4666999876499176,-0.19567275047302246,-6.95754861831665,-23.463375091552734,-1.31141197681427,0.09,-0.01,0.0,214.29
1666652975.13827825,241706510,1,0.28,0.71,149.89000000000001,0.09253130108118057,0.00508923688903451,-0.4933411180973053,-0.23566921055316925,-6.909274578094482,-23.444759368896484,-1.316604733467102,0.09,-0.01,0.0,214.29
1666652975.17826319,241746495,1,0.23,0.67,150.12,0.09833170473575592,0.004033593460917473,-0.5144586563110352,-0.24555827677249908,-6.876853942871094,-23.4325008392334,-1.3245142698287964,0.09,-0.01,0.0,214.29
1666652975.19830108,241766533,1,0.1,0.65,150.24,0.11758420616388321,0.029820816591382027,-0.48624733090400696,-0.21276989579200745,-6.866069793701172,-23.428579330444336,-1.3309139013290405,0.09,-0.01,0.0,214.29
