timestamp,TimeUS,C,Q1,Q2,Q3,Q4
1666652965.93827319,232506505,1,0.9996989369392395,0.0015287664718925953,0.0032372234854847193,-0.0242739450186491
1666652965.97826529,232546497,1,0.9996991157531738,0.0015289406292140484,0.0032181497663259506,-0.024269314482808113
1666652965.99831128,232566543,1,0.9996992349624634,0.0015464441385120153,0.003211616538465023,-0.024264095351099968
1666652966.01829910,232586531,1,0.9996992349624634,0.0015611479757353663,0.0032155076041817665,-0.02426322177052498
1666652966.05829906,232626531,1,0.9996992349624634,0.0015789594035595655,0.003244250314310193,-0.024256668984889984
1666652966.09827423,232666506,1,0.9997000694274902,0.0015839207917451859,0.003259800374507904,-0.024220963940024376
1666652966.13826108,232706493,1,0.9997002482414246,0.0015892765950411558,0.0032695492263883352,-0.024212079122662544
1666652966.17827225,232746504,1,0.9997005462646484,0.001557838637381792,0.003282613819465041,-0.024199925363063812
1666652966.19832826,232766560,1,0.9997007846832275,0.0015429743798449636,0.003267979947850108,-0.024191828444600105
1666652966.21826124,232786493,1,0.9997005462646484,0.0015536592109128833,0.0032692644745111465,-0.024202171713113785
1666652966.25830007,232826532,1,0.9997006058692932,0.0015587402740493417,0.003284853184595704,-0.02419579215347767
1666652966.29832029,232866552,1,0.9997001886367798,0.0015670022694393992,0.0032818897161632776,-0.024212589487433434
1666652966.33830929,232906541,1,0.999699592590332,0.0015727314166724682,0.003281541168689728,-0.024238871410489082
1666652966.37828422,232946516,1,0.99969881772995,0.001580973737873137,0.003282151883468032,-0.024269433692097664
1666652966.39828515,232966517,1,0.9996987581253052,0.001555470167659223,0.003276694566011429,-0.024273807182908058
1666652966.41827226,232986504,1,0.9996984004974365,0.0015561871696263552,0.003293844638392329,-0.02428746037185192
1666652966.45828915,233026521,1,0.9996976852416992,0.0015691667795181274,0.003303244011476636,-0.02431497350335121
1666652966.49830818,233066540,1,0.9996976852416992,0.0015796053921803832,0.0032797488383948803,-0.024316739290952682
1666652966.53831625,233106548,1,0.9996979832649231,0.0015947935171425343,0.00327407568693161,-0.02430475316941738
1666652966.57829213,233146524,1,0.9996981620788574,0.0016261101700365543,0.0032692819368094206,-0.024296175688505173
1666652966.59830618,233166538,1,0.9996979236602783,0.001627449062652886,0.0032644078601151705,-0.024305664002895355
1666652966.61827517,233186507,1,0.9996979832649231,0.0016358508728444576,0.0032635126262903214,-0.024302493780851364
1666652966.65827107,233226503,1,0.9996978640556335,0.0016528838314116001,0.0032625237945467234,-0.02430587075650692
1666652966.69830823,233266540,1,0.9996975064277649,0.001647801254875958,0.0032522953115403652,-0.02432306483387947
1666652966.73830724,233306539,1,0.9996973872184753,0.0016495395684614778,0.0032388539984822273,-0.02432836778461933
1666652966.77831721,233346549,1,0.9996982216835022,0.0016457162564620376,0.0032250178046524525,-0.024296395480632782
1666652966.79827309,233366505,1,0.9996985793113708,0.0016526879044249654,0.0032139241229742765,-0.024283913895487785
1666652966.81828809,233386520,1,0.9996984601020813,0.0016583051765337586,0.0032001398503780365,-0.024289537221193314
1666652966.85824919,233426481,1,0.99969881772995,0.0016550254076719284,0.0032029501162469387,-0.024274257943034172
1666652966.89825726,233466489,1,0.9996984004974365,0.0016426786314696074,0.003213751595467329,-0.0242925975471735
1666652966.93828011,233506512,1,0.9996979832649231,0.0016235782532021403,0.003211325965821743,-0.024309566244482994
1666652966.97829413,233546526,1,0.9996984601020813,0.0016222327249124646,0.0032413750886917114,-0.024286748841404915
1666652966.99828124,233566513,1,0.9996984004974365,0.0016315578250214458,0.0032430842984467745,-0.024288732558488846
1666652967.01831126,233586543,1,0.9996986985206604,0.0016432780539616942,0.003255189396440983,-0.02427436038851738
1666652967.05825520,233626487,1,0.9996992349624634,0.001634970074519515,0.00326436385512352,-0.02425023354589939
1666652967.09827113,233666503,1,0.9996992945671082,0.0016351189697161317,0.0032633233349770308,-0.024247601628303528
1666652967.13827324,233706505,1,0.9996992349624634,0.001645358745008707,0.0032806256785988808,-0.024247756227850914
1666652967.17830229,233746534,1,0.9996987581253052,0.0016431791009381413,0.0032866881228983402,-0.024267416447401047
1666652967.19825506,233766487,1,0.9996986985206604,0.0016445721266791224,0.0032897242344915867,-0.024270132184028625
1666652967.21832228,233786554,1,0.9996987581253052,0.0016320610884577036,0.003290165215730667,-0.02426832728087902
1666652967.25830221,233826534,1,0.9996987581253052,0.001646551419980824,0.0032729029189795256,-0.02426864020526409
1666652967.29824615,233866478,1,0.999697744846344,0.001652416423894465,0.003258687676861882,-0.02431178279221058
1666652967.33824706,233906479,1,0.9996969699859619,0.0016425448702648282,0.0032611575443297625,-0.024343324825167656
1666652967.37828207,233946514,1,0.9996967315673828,0.00164798554033041,0.0032503448892384768,-0.024355048313736916
1666652967.39829016,233966522,1,0.9996967911720276,0.0016325926408171654,0.003241757396608591,-0.024354781955480576
1666652967.41828609,233986518,1,0.999696671962738,0.0016264196019619703,0.003239857265725732,-0.024359852075576782
1666652967.45832825,234026560,1,0.9996970295906067,0.0015931290108710527,0.0032456994522362947,-0.024347487837076187
1666652967.49827409,234066506,1,0.999696671962738,0.0015951014356687665,0.0032472629100084305,-0.024361776188015938
1666652967.53828907,234106521,1,0.9996961951255798,0.0015812398632988334,0.0032494363840669394,-0.02438250184059143
1666652967.57827020,234146502,1,0.999695897102356,0.001589240157045424,0.003225847613066435,-0.024396425113081932
1666652967.59832621,234166558,1,0.9996958374977112,0.001592156826518476,0.0032239952124655247,-0.02439814992249012
1666652967.61830115,234186533,1,0.9996960759162903,0.0016013913555070758,0.0032244157046079636,-0.024388395249843597
1666652967.65831327,234226545,1,0.9996957182884216,0.0015880839200690389,0.0032027028501033783,-0.024405838921666145
1666652967.69830608,234266538,1,0.9996955990791321,0.0015724269906058908,0.003211256116628647,-0.024410884827375412
1666652967.73827219,234306504,1,0.9996952414512634,0.0015669381245970726,0.0032250473741441965,-0.024424731731414795
1666652967.77827024,234346502,1,0.9996947646141052,0.0015800850233063102,0.003236805321648717,-0.024441832676529884
1666652967.79832125,234366553,1,0.9996947050094604,0.0015740243252366781,0.0032349741086363792,-0.024445315822958946
1666652967.81826711,234386499,1,0.9996947050094604,0.0015653064474463463,0.003227745881304145,-0.024445388466119766
1666652967.85830021,234426532,1,0.9996941089630127,0.001546726911328733,0.003219474805518985,-0.02447419799864292
1666652967.89829707,234466529,1,0.9996939897537231,0.0015638000331819057,0.003215144155547023,-0.024476798251271248
1666652967.93831110,234506543,1,0.9996941685676575,0.0015487625496461987,0.0032036418560892344,-0.02447287179529667
1666652967.97824621,234546478,1,0.9996941685676575,0.0015462326118722558,0.003211101982742548,-0.024471821263432503
1666652967.99830413,234566536,1,0.9996943473815918,0.0015481553273275495,0.003202489810064435,-0.02446567453444004
1666652968.01829028,234586522,1,0.9996940493583679,0.0015551218530163169,0.0032054809853434563,-0.024476725608110428
1666652968.05826807,234626500,1,0.999693751335144,0.0015632914146408439,0.003203414846211672,-0.024489520117640495
1666652968.09831119,234666543,1,0.9996938705444336,0.001559103955514729,0.003190845251083374,-0.02448645792901516
1666652968.13831806,234706550,1,0.9996938109397888,0.0015574662247672677,0.0031731443013995886,-0.024490395560860634
1666652968.17828417,234746516,1,0.9996932148933411,0.0015344610437750816,0.003178847022354603,-0.02451658621430397
1666652968.19829917,234766531,1,0.9996930956840515,0.0015326808206737041,0.003163347952067852,-0.024523179978132248
1666652968.21824527,234786477,1,0.9996926188468933,0.0015269810101017356,0.0031712555792182684,-0.024540243670344353
1666652968.25827909,234826511,1,0.9996921420097351,0.0015096982242539525,0.003175965044647455,-0.02456044778227806
1666652968.29827714,234866509,1,0.9996921420097351,0.0015156017616391182,0.0031784726306796074,-0.024559451267123222
1666652968.33831716,234906549,1,0.9996923804283142,0.0015115570276975632,0.0031526372767984867,-0.024554651230573654
1666652968.37834024,234946572,1,0.9996924996376038,0.0015139628667384386,0.0031496344599872828,-0.024548714980483055
1666652968.39825821,234966490,1,0.9996923804283142,0.0015033087693154812,0.003146789036691189,-0.024556873366236687
1666652968.41829419,234986526,1,0.9996923804283142,0.0014828176936134696,0.0031336676329374313,-0.024557601660490036
1666652968.45828128,235026513,1,0.9996923804283142,0.001437511295080185,0.0031406763009727,-0.02455928362905979
1666652968.49827027,235066502,1,0.9996926784515381,0.001423281617462635,0.0031380862928926945,-0.024550272151827812
1666652968.53831625,235106548,1,0.9996929168701172,0.0014198325807228684,0.003144653746858239,-0.024538293480873108
1666652968.57831812,235146550,1,0.9996931552886963,0.001406316296197474,0.0031331791542470455,-0.02453264780342579
1666652968.59826016,235166492,1,0.9996928572654724,0.0014072811463847756,0.0031407398637384176,-0.024542290717363358
1666652968.61832619,235186558,1,0.9996931552886963,0.001396444858983159,0.0031251877080649137,-0.024534273892641068
1666652968.65829706,235226529,1,0.9996933937072754,0.0013744633179157972,0.0031287630554288626,-0.024525370448827744
1666652968.69827628,235266508,1,0.9996933341026306,0.0013459566980600357,0.003135747741907835,-0.024526504799723625
1666652968.73828912,235306521,1,0.9996942281723022,0.0013344621984288096,0.0031733852811157703,-0.02448766864836216
1666652968.77830815,235346540,1,0.9996917843818665,0.0013031967682763934,0.003194792428985238,-0.024585969746112823
1666652968.79827809,235366510,1,0.9996903538703918,0.0013258614344522357,0.0032176529057323933,-0.024637993425130844
1666652968.81829524,235386527,1,0.9996896386146545,0.0013194195926189423,0.0032160556875169277,-0.02466878667473793
1666652968.85831928,235426551,1,0.9996894001960754,0.0013253999641165137,0.00316157890483737,-0.024684200063347816
1666652968.89825010,235466482,1,0.999691903591156,0.0012999349273741245,0.003152133198454976,-0.02458612620830536
1666652968.93828607,235506518,1,0.9996952414512634,0.001244262675754726,0.0031340185087174177,-0.02445547841489315
1666652968.97827506,235546507,1,0.9996978640556335,0.0012261656811460853,0.0031405810732394457,-0.02434752881526947
1666652968.99829721,235566529,1,0.9996984004974365,0.0012244887184351683,0.0031551539432257414,-0.024324193596839905
1666652969.01831126,235586543,1,0.9996979236602783,0.0012386353919282556,0.003171489341184497,-0.0243401899933815
1666652969.05832720,235626559,1,0.9996971487998962,0.0012389479670673609,0.003146386006847024,-0.02437622658908367
1666652969.09829021,235666522,1,0.9996954202651978,0.001219979370944202,0.0031261732801795006,-0.024449162185192108
1666652969.13826227,235706494,1,0.9996936321258545,0.0011657255236059427,0.003149425843730569,-0.024522952735424042
1666652969.17827916,235746511,1,0.9996935129165649,0.001179313869215548,0.0031213730107992887,-0.024531155824661255
1666652969.19833827,235766570,1,0.9996954798698425,0.0011854942422360182,0.003042759606614709,-0.024459626525640488
1666652969.21830821,235786540,1,0.9996978640556335,0.0012081218883395195,0.0029901170637458563,-0.024367420002818108
1666652969.25830626,235826538,1,0.9997016787528992,0.0011947742896154523,0.0029863622039556503,-0.02421179972589016
1666652969.29833627,235866568,1,0.9997037053108215,0.0013866510707885027,0.002983401995152235,-0.024118009954690933
1666652969.33829117,235906523,1,0.9997024536132812,0.0013224334688857198,0.0029191202484071255,-0.02418193407356739
1666652969.37827826,235946510,1,0.9997014999389648,0.001191438757814467,0.0027814668137580156,-0.024243075400590897
1666652969.39834023,235966572,1,0.9996993541717529,0.0012861073482781649,0.002850095508620143,-0.024319034069776535
1666652969.41827106,235986503,1,0.9996991753578186,0.0010981190716847777,0.0029538264498114586,-0.024323534220457077
1666652969.45830607,236026538,1,0.9996987581253052,0.001343698357231915,0.0029413066804409027,-0.024330541491508484
1666652969.49831128,236066543,1,0.9997021555900574,0.001224098145030439,0.0030387400183826685,-0.024184733629226685
1666652969.53828716,236106519,1,0.9997055530548096,0.001448902185074985,0.0029239936266094446,-0.024046028032898903
1666652969.57824922,236146481,1,0.9997090101242065,0.001415239879861474,0.002970999339595437,-0.023896003141999245
1666652969.59831619,236166548,1,0.9997140169143677,0.0009298109798692167,0.0030444832518696785,-0.023701129481196404
1666652969.61827111,236186503,1,0.9997133612632751,0.001320812152698636,0.002977670868858695,-0.02371945232152939
1666652969.65828419,236226516,1,0.999713122844696,0.0010424100328236818,0.0030208532698452473,-0.023737503215670586
1666652969.69830418,236266536,1,0.9997131824493408,0.0012439151760190725,0.0029727050568908453,-0.023730488494038582
1666652969.73829412,236306526,1,0.9997109174728394,0.0013257693499326706,0.0029421725776046515,-0.023827016353607178
1666652969.77833009,236346562,1,0.9997127652168274,0.00141248875297606,0.0028682819101959467,-0.02375333569943905
1666652969.79828811,236366520,1,0.9997143149375916,0.0012246250407770276,0.0028733049985021353,-0.023697342723608017
1666652969.81825614,236386488,1,0.9997146725654602,0.0013999819057062268,0.0029080461245030165,-0.023668646812438965
1666652969.85827708,236426509,1,0.999719500541687,0.0012785058934241533,0.0029773700516670942,-0.02346060611307621
1666652969.89827728,236466509,1,0.9997207522392273,0.0013456058222800493,0.002908615628257394,-0.023413408547639847
1666652969.93831921,236506551,1,0.9997225403785706,0.001181754982098937,0.002863831352442503,-0.023351425305008888
1666652969.97833419,236546566,1,0.9997209310531616,0.0009151590638794005,0.002944844774901867,-0.023422345519065857
1666652969.99826217,236566494,1,0.9997196793556213,0.0012634105514734983,0.0029816601891070604,-0.02345249243080616
1666652970.01829720,236586529,1,0.9997206330299377,0.0009835284436121583,0.0029557461384683847,-0.023429065942764282
1666652970.05827117,236626503,1,0.9997202157974243,0.0010527570266276598,0.0029731744434684515,-0.02344347909092903
1666652970.09827828,236666510,1,0.999722421169281,0.0011756581952795386,0.0029901519883424044,-0.023341145366430283
1666652970.13831425,236706546,1,0.9997252225875854,0.0013083508238196373,0.0029391711577773094,-0.02321966551244259
1666652970.17831612,236746548,1,0.9997292757034302,0.0013683808501809835,0.002868930110707879,-0.02304837293922901
1666652970.19828010,236766512,1,0.9997298121452332,0.0012718038633465767,0.00289093772880733,-0.02302950620651245
1666652970.21832418,236786556,1,0.99973064661026,0.0012167050736024976,0.0028928869869560003,-0.022995660081505775
1666652970.25828910,236826521,1,0.9997302889823914,0.0010998161742463708,0.002938819583505392,-0.02301112934947014
1666652970.29828715,236866519,1,0.9997285604476929,0.001208368455991149,0.0029356356244534254,-0.02307979017496109
1666652970.33828020,236906512,1,0.9997274279594421,0.0012502595782279968,0.0028937887400388718,-0.023132028058171272
1666652970.37828612,236946518,1,0.9997279644012451,0.0012986164074391127,0.002830835059285164,-0.023114820942282677
1666652970.39824915,236966481,1,0.9997298121452332,0.0011980374110862613,0.002881863387301564,-0.023034660145640373
1666652970.41829729,236986529,1,0.9997304081916809,0.001267215353436768,0.0028072851710021496,-0.023012986406683922
1666652970.45832419,237026556,1,0.9997342228889465,0.0011964612640440464,0.0027788467705249786,-0.02285434491932392
1666652970.49824929,237066481,1,0.9997363686561584,0.0011615020921453834,0.0027902740985155106,-0.02276002988219261
1666652970.53825617,237106488,1,0.999736487865448,0.001334184082224965,0.002888149581849575,-0.022735197097063065
1666652970.57829309,237146525,1,0.9997351765632629,0.0013379087904468179,0.0029055422637611628,-0.02278854139149189
1666652970.59829021,237166522,1,0.99973464012146,0.0012948791263625026,0.00286709307692945,-0.02281923219561577
1666652970.61830926,237186541,1,0.9997342824935913,0.0013640538090839982,0.0029320456087589264,-0.022824373096227646
1666652970.65830326,237226535,1,0.999734103679657,0.0012618020409718156,0.0029299475718289614,-0.022837338969111443
1666652970.69831228,237266544,1,0.9997351765632629,0.0012480693403631449,0.0029317915905267,-0.02278956025838852
1666652970.73828912,237306521,1,0.9997367858886719,0.0011363925877958536,0.0028482580091804266,-0.022737277671694756
1666652970.77827907,237346511,1,0.9997398853302002,0.0010522628435865045,0.0028231865726411343,-0.02260805107653141
1666652970.79832506,237366557,1,0.9997400045394897,0.0011386880651116371,0.002953799208626151,-0.022581934928894043
1666652970.81831312,237386545,1,0.9997408390045166,0.0010418357560411096,0.002844350878149271,-0.022562701255083084
1666652970.85830808,237426540,1,0.9997416138648987,0.0009830619674175978,0.0028198736254125834,-0.02253442071378231
1666652970.89832616,237466558,1,0.9997398853302002,0.0010957089252769947,0.002896469086408615,-0.022595955058932304
1666652970.93831015,237506542,1,0.9997390508651733,0.0011764110531657934,0.002914195414632559,-0.02262597344815731
1666652970.97827911,237546511,1,0.9997403025627136,0.0012476921547204256,0.0028630660381168127,-0.022575000301003456
1666652970.99829006,237566522,1,0.9997413158416748,0.0010817402508109808,0.0028964609373360872,-0.022532334551215172
1666652971.01828718,237586519,1,0.9997424483299255,0.0013461274793371558,0.0028092286083847284,-0.022478727623820305
1666652971.05832028,237626552,1,0.9997448921203613,0.0012751749018207192,0.0028570510912686586,-0.022367874160408974
1666652971.09831429,237666546,1,0.9997466206550598,0.0015186701202765107,0.0027916189283132553,-0.02228408120572567
1666652971.13832927,237706561,1,0.9997488260269165,0.0015201377682387829,0.002688426524400711,-0.022197717800736427
1666652971.17826915,237746501,1,0.9997496604919434,0.001239067642018199,0.0028622534591704607,-0.022154895588755608
1666652971.19831014,237766542,1,0.9997495412826538,0.0015277797356247902,0.0027059586718678474,-0.022162964567542076
1666652971.21827626,237786508,1,0.9997506141662598,0.0011484053684398532,0.0026440261863172054,-0.02214447222650051
1666652971.25827718,237826509,1,0.9997480511665344,0.0014858765061944723,0.002726082457229495,-0.022230884060263634
1666652971.29831028,237866542,1,0.999752402305603,0.0010424252832308412,0.002738032955676317,-0.02205827832221985
1666652971.33831429,237906546,1,0.9997510313987732,0.0014579236740246415,0.002608169801533222,-0.022111449390649796
1666652971.37833309,237946565,1,0.9997553825378418,0.00108435342554003,0.002666739746928215,-0.02193029224872589
1666652971.39830828,237966540,1,0.9997567534446716,0.0013309684582054615,0.002566917799413204,-0.021864164620637894
1666652971.41825318,237986485,1,0.9997565746307373,0.0014717753510922194,0.00267086667008698,-0.021852007135748863
1666652971.45827723,238026509,1,0.9997573494911194,0.0015110071981325746,0.0026509626768529415,-0.021816791966557503
1666652971.49827623,238066508,1,0.9997609257698059,0.0012981543550267816,0.0025831563398241997,-0.021673616021871567
1666652971.53831029,238106542,1,0.9997610449790955,0.0009501614258624613,0.0026345085352659225,-0.021680347621440887
1666652971.57831907,238146551,1,0.9997631311416626,0.001056880340911448,0.0027243755757808685,-0.021566789597272873
1666652971.59827113,238166503,1,0.9997643828392029,0.0011752487625926733,0.00261482666246593,-0.021516187116503716
1666652971.61831117,238186543,1,0.9997660517692566,0.0016431694384664297,0.002494378015398979,-0.021422209218144417
1666652971.65825319,238226485,1,0.9997693300247192,0.0016538237687200308,0.0025865265633910894,-0.02125736139714718
1666652971.69827819,238266510,1,0.9997751116752625,0.001232412294484675,0.0023208116181194782,-0.021044407039880753
1666652971.73825526,238306487,1,0.9997764825820923,0.0014239178271964192,0.002544126706197858,-0.020941033959388733
1666652971.77831817,238346550,1,0.9997818470001221,0.0008845857810229063,0.002592667005956173,-0.02070554532110691
1666652971.79828811,238366520,1,0.999783992767334,0.0007896001334302127,0.0024820384569466114,-0.020620133727788925
1666652971.81832814,238386560,1,0.999786913394928,0.0011007522698491812,0.0024903547018766403,-0.02046167477965355
1666652971.85828710,238426519,1,0.9997895956039429,0.0015989519888535142,0.002447034465149045,-0.02030254900455475
1666652971.89828730,238466519,1,0.9997966885566711,0.0014561349526047707,0.0024522908497601748,-0.01996038667857647
1666652971.93828321,238506515,1,0.9998018741607666,0.001558521413244307,0.0025147695560008287,-0.019683383405208588
1666652971.97831106,238546543,1,0.9998088479042053,0.0010779955191537738,0.002597048180177808,-0.019346965476870537
1666652971.99828815,238566520,1,0.9998117685317993,0.0009499018779024482,0.002595404628664255,-0.019203517585992813
1666652972.01832628,238586558,1,0.9998135566711426,0.001186629175208509,0.0026523813139647245,-0.019089382141828537
1666652972.05831313,238626545,1,0.9998189806938171,0.0013789745280519128,0.002541054505854845,-0.018805325031280518
1666652972.09829617,238666528,1,0.9998261332511902,0.0015389729524031281,0.0025146312545984983,-0.018410973250865936
1666652972.13827729,238706509,1,0.9998342990875244,0.0015068721259012818,0.002255836268886924,-0.017998868599534035
1666652972.17828608,238746518,1,0.9998411536216736,0.001557231298647821,0.002306990558281541,-0.017604416236281395
1666652972.19827509,238766507,1,0.999844491481781,0.001583639532327652,0.002291945507749915,-0.0174142736941576
1666652972.21831226,238786544,1,0.9998477697372437,0.001744614215567708,0.00222732312977314,-0.01721593737602234
1666652972.25827026,238826502,1,0.99985271692276,0.0016555761685594916,0.0022365073673427105,-0.016935527324676514
1666652972.29832506,238866557,1,0.9998593926429749,0.0015891431830823421,0.0019117430783808231,-0.016582787036895752
1666652972.33824921,238906481,1,0.9998623132705688,0.0017291215481236577,0.001908839913085103,-0.01639358326792717
1666652972.37828708,238946519,1,0.9998679161071777,0.0017310602124780416,0.0014775923918932676,-0.01609201356768608
1666652972.39834118,238966573,1,0.9998703598976135,0.001649030251428485,0.0012932593235746026,-0.015965690836310387
1666652972.41828418,238986516,1,0.999872624874115,0.0015046808402985334,0.0014145344030112028,-0.015827568247914314
1666652972.45831418,239026546,1,0.9998760223388672,0.0020257881842553616,0.0007334594847634435,-0.01559833437204361
1666652972.49831223,239066544,1,0.9998809695243835,0.001560436561703682,0.0003477839345578104,-0.015346105210483074
1666652972.53833318,239106565,1,0.9998835325241089,0.0018074794206768274,-1.6578262147959322e-05,-0.015153337270021439
1666652972.57827425,239146506,1,0.9998886585235596,0.0009413982043042779,-0.001006832579150796,-0.014859612099826336
1666652972.59829926,239166531,1,0.9998880624771118,0.0020322685595601797,-0.0022375439293682575,-0.014655337668955326
1666652972.61827826,239186510,1,0.9998905658721924,0.001188411726616323,-0.0026601124554872513,-0.014502245001494884
1666652972.65831113,239226543,1,0.999886155128479,0.001368758617900312,-0.004086995031684637,-0.01445967797189951
1666652972.69831109,239266543,1,0.9998766779899597,0.002440638840198517,-0.005893203429877758,-0.01435091719031334
1666652972.73832512,239306557,1,0.9998690485954285,0.00307939643971622,-0.007111651822924614,-0.01420651562511921
1666652972.77826810,239346500,1,0.999859094619751,0.004842864349484444,-0.007741140201687813,-0.014086458832025528
1666652972.79831314,239366545,1,0.9998646378517151,0.003561199875548482,-0.007620361167937517,-0.014140899293124676
1666652972.81826019,239386492,1,0.9998531937599182,0.006041026208549738,-0.0077293249778449535,-0.014050387777388096
1666652972.85826921,239426501,1,0.268489271402359,0.0006246159318834543,0.0008636832353658974,0.9632821083068848
1666652972.89831614,239466548,1,0.26858845353126526,0.0006830759812146425,0.0010143960826098919,0.9632542729377747
1666652972.93832111,239506553,1,0.26884007453918457,0.0012967359507456422,0.0019316930556669831,0.9631820321083069
1666652972.97832918,239546561,1,0.26908186078071594,0.0018113275291398168,0.002371700946241617,0.9631127119064331
1666652972.99825811,239566490,1,0.2695007026195526,0.0017715084832161665,0.0021716789342463017,0.9629961252212524
1666652973.01824927,239586481,1,0.2695053815841675,0.002025960013270378,0.0024598881136626005,0.9629936218261719
1666652973.05828428,239626516,1,0.26984089612960815,0.0022361045703291893,0.0031096641905605793,0.9628973007202148
1666652973.09826326,239666495,1,0.27001914381980896,0.0028609507717192173,0.00418344559147954,0.9628416299819946
1666652973.13830423,239706536,1,0.2702483534812927,0.0037853119429200888,0.005701862275600433,0.9627663493156433
1666652973.17829013,239746522,1,0.2702702283859253,0.004643926862627268,0.006836141459643841,0.9627490639686584
1666652973.19827628,239766508,1,0.27030959725379944,0.0051673660054802895,0.007661050651222467,0.9627290964126587
1666652973.21832013,239786552,1,0.27036046981811523,0.005162680055946112,0.006989570800215006,0.9627199769020081
1666652973.25828314,239826515,1,0.2697681486606598,0.005852409638464451,0.007066658698022366,0.9628815650939941
1666652973.29828906,239866521,1,0.2685135304927826,0.006420054007321596,0.006990204099565744,0.9632291793823242
1666652973.33827424,239906506,1,0.26723727583885193,0.006317365448921919,0.005697875749319792,0.9635931849479675
1666652973.37834024,239946572,1,0.2655625343322754,0.00508871441707015,0.002590999472886324,0.9640766978263855
1666652973.39827919,239966511,1,0.2649834156036377,0.00450160913169384,0.0018778931116685271,0.9642406105995178
1666652973.41831708,239986549,1,0.264037162065506,0.0029888355638831854,-0.0014025428099557757,0.9645068645477295
1666652973.45830011,240026532,1,0.26273536682128906,8.231645915657282e-05,-0.005610054358839989,0.9648516178131104
1666652973.49826121,240066493,1,0.2614339292049408,-0.0023018838837742805,-0.009880907833576202,0.9651680588722229
1666652973.53827929,240106511,1,0.2604043781757355,-0.003788746427744627,-0.012731872498989105,0.9654082655906677
1666652973.57831526,240146547,1,0.2599220275878906,-0.005216016434133053,-0.015688519924879074,0.965488076210022
1666652973.59829307,240166525,1,0.26001253724098206,-0.005339253693819046,-0.016601286828517914,0.9654477834701538
1666652973.61828208,240186514,1,0.2596839368343353,-0.0056452155113220215,-0.01831471174955368,0.965503454208374
1666652973.65831017,240226542,1,0.2596278488636017,-0.00602795509621501,-0.020536724478006363,0.9654715061187744
1666652973.69826627,240266498,1,0.25962457060813904,-0.006036910228431225,-0.02257368713617325,0.9654268622398376
1666652973.73827720,240306509,1,0.2597492039203644,-0.005756419617682695,-0.024088088423013687,0.9653584957122803
1666652973.77826619,240346498,1,0.26069268584251404,-0.0050463201478123665,-0.024441072717308998,0.9650992155075073
1666652973.79830623,240366538,1,0.26137807965278625,-0.005011155270040035,-0.024242227897047997,0.9649190306663513
1666652973.81829810,240386530,1,0.2619422376155853,-0.004357443656772375,-0.02364175394177437,0.9647840857505798
1666652973.85830712,240426539,1,0.2634887099266052,-0.0038075826596468687,-0.022188493981957436,0.9643997550010681
1666652973.89832926,240466561,1,0.2655361294746399,-0.0032853728625923395,-0.020443087443709373,0.9638785719871521
1666652973.93824911,240506481,1,0.26783451437950134,-0.002580757951363921,-0.018285132944583893,0.9632879495620728
1666652973.97829413,240546526,1,0.2708623707294464,-0.00137294118758291,-0.015279611572623253,0.9624958634376526
1666652973.99833107,240566563,1,0.27245453000068665,-0.0003012509841937572,-0.013444152660667896,0.9620746970176697
1666652974.01827812,240586510,1,0.27393320202827454,0.00020477300859056413,-0.011549338698387146,0.9616793394088745
1666652974.05830717,240626539,1,0.2772369384765625,0.0020575993694365025,-0.007282110396772623,0.9607717990875244
1666652974.09831429,240666546,1,0.280580997467041,0.0036975154653191566,-0.003742445958778262,0.9598159193992615
1666652974.13831425,240706546,1,0.28381451964378357,0.004507690202444792,-0.000845350616145879,0.9588682055473328
1666652974.17828822,240746520,1,0.2865654528141022,0.0048218984156847,0.0017827274277806282,0.9580468535423279
1666652974.19831014,240766542,1,0.28777727484703064,0.004257292952388525,0.002347390167415142,0.9576850533485413
1666652974.21827626,240786508,1,0.28907352685928345,0.005107239820063114,0.003938132897019386,0.9572851657867432
1666652974.25832915,240826561,1,0.2913479804992676,0.005576462019234896,0.005496623460203409,0.9565851092338562
1666652974.29831219,240866544,1,0.2934189736843109,0.005833557806909084,0.006739028263837099,0.9559423923492432
1666652974.33832622,240906558,1,0.29504135251045227,0.006325467023998499,0.008280211128294468,0.9554276466369629
1666652974.37829828,240946530,1,0.2960295081138611,0.005770564079284668,0.008625666610896587,0.9551224112510681
1666652974.39831018,240966542,1,0.29650112986564636,0.005358108319342136,0.010212740860879421,0.9549628496170044
1666652974.41827512,240986507,1,0.2966831624507904,0.004834123887121677,0.009517770260572433,0.9549162983894348
1666652974.45828128,241026513,1,0.2970420718193054,0.0027239881455898285,0.011301156133413315,0.9547936320304871
1666652974.49831414,241066546,1,0.29684290289878845,0.0012191814603284001,0.012596658430993557,0.9548424482345581
1666652974.53831530,241106547,1,0.296313613653183,-0.00021626600937452167,0.012991116382181644,0.9550023078918457
1666652974.57833028,241146562,1,0.2950740158557892,-0.0011149109341204166,0.014096363447606564,0.955369770526886
1666652974.59829807,241166530,1,0.29435455799102783,-0.0016458263853564858,0.013023561798036098,0.9556061029434204
1666652974.61825514,241186487,1,0.29358208179473877,-0.001865233643911779,0.013300962746143341,0.9558395147323608
1666652974.65827608,241226508,1,0.291765421628952,-0.0027751224115490913,0.01187606155872345,0.956412136554718
1666652974.69825912,241266491,1,0.2895241379737854,-0.0032074074260890484,0.01150790136307478,0.9570961594581604
1666652974.73833513,241306567,1,0.28719088435173035,-0.0035437503829598427,0.011226934380829334,0.9578010439872742
1666652974.77835917,241346591,1,0.28415796160697937,-0.004041943699121475,0.009276945143938065,0.9587240815162659
1666652974.79827809,241366510,1,0.282744824886322,-0.0037255610805004835,0.009148385375738144,0.9591442942619324
1666652974.81828427,241386516,1,0.28127166628837585,-0.004281566943973303,0.007869835011661053,0.9595863819122314
1666652974.85826325,241426495,1,0.2782834470272064,-0.003920598421245813,0.008482606150209904,0.9604535698890686
1666652974.89829016,241466522,1,0.2752062678337097,-0.0040489304810762405,0.008612348698079586,0.9613381028175354
1666652974.93828011,241506512,1,0.27233603596687317,-0.004544442519545555,0.008146405220031738,0.9621570110321045
1666652974.97830629,241546538,1,0.2692480683326721,-0.00512965302914381,0.00718732038512826,0.9630303978919983
1666652974.99829817,241566530,1,0.2678888440132141,-0.005279473960399628,0.0061830622144043446,0.9634155035018921
1666652975.01831508,241586547,1,0.26652857661247253,-0.005621659569442272,0.006117438897490501,0.9637911915779114
1666652975.05830407,241626536,1,0.26398810744285583,-0.0059138997457921505,0.005039315205067396,0.9644946455955505
1666652975.09824920,241666481,1,0.2616763710975647,-0.005613915156573057,0.004487589932978153,0.9651288986206055
1666652975.13827825,241706510,1,0.2597079873085022,-0.005332688335329294,0.004045494366437197,0.9656640291213989
1666652975.17826319,241746495,1,0.2577318549156189,-0.0051345666870474815,0.003460034728050232,0.9661966562271118
1666652975.19830108,241766533,1,0.2567583918571472,-0.005308658350259066,0.002357157412916422,0.9664581418037415
1666652975.21830606,241786538,1,0.25601688027381897,-0.0047494531609117985,0.0027120255399495363,0.9666568636894226
1666652975.25831914,241826551,1,0.2544253170490265,-0.004613646771758795,0.0023834730964154005,0.9670785069465637
1666652975.29828525,241866517,1,0.25297218561172485,-0.004340202547609806,0.002097215037792921,0.9674615263938904
1666652975.33827829,241906510,1,0.2517399191856384,-0.0032278820872306824,0.001737124752253294,0.9677879810333252
1666652975.37827706,241946509,1,0.25081944465637207,-0.0017925463616847992,0.0014557824470102787,0.968031108379364
1666652975.39831614,241966548,1,0.25042012333869934,-0.0014206969644874334,0.0008211261010728776,0.9681358933448792
1666652975.41831923,241986551,1,0.2500711679458618,-0.00037936639273539186,0.0007318441057577729,0.9682270884513855
1666652975.45831919,242026551,1,0.2494969367980957,0.0010748099302873015,0.0005815456388518214,0.9683747887611389
1666652975.49831820,242066550,1,0.2492065727710724,0.0018415420781821012,-0.00022361008450388908,0.9684485793113708
1666652975.53825808,242106490,1,0.24913965165615082,0.0021092798560857773,-0.0006777007947675884,0.9684650301933289
1666652975.57827926,242146511,1,0.2492438405752182,0.0019951192662119865,-0.00118659355212003,0.9684379696846008
1666652975.59832406,242166556,1,0.24932695925235748,0.0022309995256364346,-0.00048434664495289326,0.968416690826416
1666652975.61829019,242186522,1,0.24942928552627563,0.0017594874370843172,-0.001721476553939283,0.9683898687362671
1666652975.65831423,242226546,1,0.24980998039245605,0.001036229426972568,-0.002518019638955593,0.9682910442352295
1666652975.69830728,242266539,1,0.2502412497997284,0.0004919336060993373,-0.00374535727314651,0.9681761264801025
1666652975.73831511,242306547,1,0.25087636709213257,0.00038552386104129255,-0.0041195484809577465,0.9680103063583374
1666652975.77825713,242346489,1,0.2515452802181244,7.566940621472895e-05,-0.005057215690612793,0.9678323268890381
1666652975.79831529,242366547,1,0.25179344415664673,0.0009715611231513321,-0.005509242415428162,0.9677648544311523
1666652975.81828022,242386512,1,0.2520582675933838,7.419260509777814e-05,-0.005730637814849615,0.9676950573921204
1666652975.85828424,242426516,1,0.2525273263454437,0.0002032121119555086,-0.006078516598790884,0.9675706624984741
1666652975.89831829,242466550,1,0.2529989778995514,-0.00016120090731419623,-0.0064626093953847885,0.9674449563026428
1666652975.93833113,242506563,1,0.25349533557891846,-0.0005702681955881417,-0.0059568677097558975,0.9673181176185608
1666652975.97830820,242546540,1,0.2540173828601837,-0.001530284876935184,-0.005292970221489668,0.9671839475631714
1666652975.99830914,242566541,1,0.2543703615665436,-0.002315177582204342,-0.005013107322156429,0.9670911431312561
1666652976.01825118,242586483,1,0.25452932715415955,-0.0024151720572263002,-0.004240443464368582,0.9670527577400208
1666652976.05827522,242626507,1,0.25488144159317017,-0.0030755396001040936,-0.002749075647443533,0.966963529586792
1666652976.09833407,242666566,1,0.2551403045654297,-0.003136503277346492,-0.0011128821643069386,0.9668983221054077
1666652976.13831115,242706543,1,0.2553720474243164,-0.0034929963294416666,9.55993018578738e-05,0.9668365716934204
1666652976.17832112,242746553,1,0.2554667592048645,-0.0039634257555007935,0.0002134149253834039,0.9668096899986267
1666652976.19827724,242766509,1,0.25551891326904297,-0.00400807149708271,0.001195826567709446,0.966795027256012
1666652976.21826029,242786492,1,0.25533875823020935,-0.00438371067866683,0.00025479597388766706,0.9668416976928711
1666652976.25827813,242826510,1,0.2551594078540802,-0.004901422653347254,0.0006435408722609282,0.9668863415718079
1666652976.29827023,242866502,1,0.25479549169540405,-0.00522933155298233,0.0016044268850237131,0.9669795036315918
1666652976.33831215,242906544,1,0.2543642520904541,-0.005614256486296654,0.0021207791287451982,0.9670898914337158
1666652976.37831116,242946543,1,0.2539287209510803,-0.005827042739838362,0.0028286876622587442,0.9672012329101562
1666652976.39829922,242966531,1,0.253508061170578,-0.0062007964588701725,0.00279161985963583,0.9673093557357788
1666652976.41832209,242986554,1,0.2533518671989441,-0.005885958671569824,0.003204310778528452,0.967350959777832
1666652976.45829320,243026525,1,0.2527563273906708,-0.006422664970159531,0.003121941816061735,0.9675036072731018
1666652976.49828410,243066516,1,0.25202494859695435,-0.00679635489359498,0.0022544392850250006,0.9676942229270935
1666652976.53827929,243106511,1,0.25121206045150757,-0.0070969401858747005,0.0013353449758142233,0.9679051637649536
1666652976.57831717,243146549,1,0.25031888484954834,-0.007229882758110762,0.0008532456704415381,0.9681360721588135
1666652976.59827924,243166511,1,0.24990598857402802,-0.007576977368444204,-0.0007443047943525016,0.9682402014732361
1666652976.61828828,243186520,1,0.2493937760591507,-0.007525085937231779,-0.00023053040786180645,0.9683728814125061
1666652976.65831614,243226548,1,0.2482566088438034,-0.007923847995698452,-0.0011571785435080528,0.9686611890792847
1666652976.69825816,243266490,1,0.2470080703496933,-0.0077634830959141254,-0.0018833347130566835,0.9689804911613464
1666652976.73827720,243306509,1,0.24561995267868042,-0.007476411294192076,-0.0025341634172946215,0.969334065914154
1666652976.77828026,243346512,1,0.24402181804180145,-0.006902995985001326,-0.0016242226120084524,0.9697437882423401
1666652976.79826617,243366498,1,0.24301078915596008,-0.007107241544872522,-0.0014334614388644695,0.9699965119361877
1666652976.81831717,243386549,1,0.24218282103538513,-0.0068237194791436195,-0.0005403623217716813,0.9702064990997314
1666652976.85831523,243426547,1,0.24029088020324707,-0.006281724199652672,0.0010348977521061897,0.9706800580024719
1666652976.89830613,243466538,1,0.23837770521640778,-0.005916278343647718,0.0011506761657074094,0.9711537957191467
1666652976.93827510,243506507,1,0.23667007684707642,-0.004715804476290941,0.0019929667469114065,0.9715765714645386
1666652976.97828317,243546515,1,0.23502810299396515,-0.0038775026332587004,0.002475174842402339,0.971977710723877
1666652976.99830914,243566541,1,0.23423732817173004,-0.0028073026333004236,0.003352666972205043,0.9721696376800537
1666652977.01830912,243586541,1,0.23349213600158691,-0.0029735977295786142,0.002502575283870101,0.9723508954048157
1666652977.05831623,243626548,1,0.23192250728607178,-0.00256812060251832,0.0028777297120541334,0.9727266430854797
1666652977.09831715,243666549,1,0.23051701486110687,-0.0023102546110749245,0.003252366092056036,0.973060131072998
1666652977.13827324,243706505,1,0.22916686534881592,-0.002246640156954527,0.0030594614800065756,0.9733797311782837
1666652977.17828226,243746514,1,0.22804555296897888,-0.0027179482858628035,0.002703284379094839,0.9736429452896118
1666652977.19831324,243766545,1,0.2276226431131363,-0.00262082670815289,0.00401049992069602,0.9737376570701599
1666652977.21827626,243786508,1,0.22689513862133026,-0.002935313154011965,0.002162056276574731,0.9739123582839966
1666652977.25831723,243826549,1,0.22574277222156525,-0.0029732659459114075,0.0020488500595092773,0.974180281162262
1666652977.29832125,243866553,1,0.22477419674396515,-0.0029418736230582,0.0022872830741107464,0.9744037389755249
1666652977.33828115,243906513,1,0.2239421159029007,-0.0032560252584517,0.0029880909714847803,0.9745924472808838
1666652977.37825108,243946483,1,0.22321797907352448,-0.004228615667670965,0.003111843019723892,0.9747543931007385
1666652977.39831710,243966549,1,0.22301185131072998,-0.004198767710477114,0.004152935929596424,0.9747978448867798
1666652977.41827917,243986511,1,0.22256076335906982,-0.005480086896568537,0.0028551374562084675,0.9748992323875427
1666652977.45829821,244026530,1,0.22193600237369537,-0.0069268993102014065,0.0026368950493633747,0.9750330448150635
1666652977.49831510,244066547,1,0.2214791476726532,-0.008479067124426365,0.0030476569663733244,0.9751234650611877
1666652977.53827810,244106510,1,0.22102800011634827,-0.010405242443084717,0.00355961243622005,0.9752054810523987
1666652977.57831407,244146546,1,0.22072695195674896,-0.012086266651749611,0.004234094638377428,0.9752515554428101
1666652977.59831929,244166551,1,0.22067701816558838,-0.0128727862611413,0.0055941189639270306,0.9752459526062012
1666652977.61825013,244186482,1,0.2204170674085617,-0.014058207161724567,0.004804272670298815,0.9752925634384155
1666652977.65827823,244226510,1,0.22015738487243652,-0.016038866713643074,0.005294312722980976,0.9753181338310242
1666652977.69831324,244266545,1,0.21991971135139465,-0.018119826912879944,0.0054413811303675175,0.9753345251083374
1666652977.73830414,244306536,1,0.21972009539604187,-0.02022397890686989,0.005662027280777693,0.9753368496894836
1666652977.77833319,244346565,1,0.2194848656654358,-0.021563589572906494,0.005988881457597017,0.9753592014312744
1666652977.79828525,244366517,1,0.21939004957675934,-0.02152385376393795,0.006866891868412495,0.9753755927085876
1666652977.81828427,244386516,1,0.21929357945919037,-0.022416017949581146,0.006525211036205292,0.9753795266151428
1666652977.85828924,244426521,1,0.21920399367809296,-0.022753847762942314,0.006354484241455793,0.9753929972648621
1666652977.89828014,244466512,1,0.21918733417987823,-0.0219611506909132,0.006067998241633177,0.9754167199134827
1666652977.93830729,244506539,1,0.21910087764263153,-0.020763540640473366,0.006481165066361427,0.9754597544670105
1666652977.97831321,244546545,1,0.21908502280712128,-0.020104538649320602,0.006772841792553663,0.9754751324653625
1666652977.99829817,244566530,1,0.21905343234539032,-0.01946139894425869,0.006543577648699284,0.9754968285560608
1666652978.01832128,244586553,1,0.2190488576889038,-0.019999423995614052,0.006807250902056694,0.9754851460456848
1666652978.05828619,244626518,1,0.2190435230731964,-0.019677478820085526,0.006622021086513996,0.9754941463470459
1666652978.09828115,244666513,1,0.218979611992836,-0.01906171441078186,0.0067207664251327515,0.9755200743675232
1666652978.13826609,244706498,1,0.21904398500919342,-0.018290536478161812,0.006902460474520922,0.9755191206932068
1666652978.17831016,244746542,1,0.21905098855495453,-0.017595816403627396,0.006446035113185644,0.9755334258079529
1666652978.19827628,244766508,1,0.21920815110206604,-0.017787091434001923,0.0044457255862653255,0.9755058288574219
1666652978.21830726,244786539,1,0.21910393238067627,-0.017034856602549553,0.005568113178014755,0.9755369424819946
1666652978.25832224,244826554,1,0.21915288269519806,-0.016449902206659317,0.0048102219589054585,0.9755399823188782
1666652978.29825020,244866482,1,0.2192555069923401,-0.01593773625791073,0.003606014885008335,0.9755306243896484
1666652978.33828306,244906515,1,0.21927542984485626,-0.015690071508288383,0.002362182829529047,0.9755339622497559
1666652978.37827706,244946509,1,0.21947956085205078,-0.01598014496266842,0.0011882350081577897,0.9754855036735535
1666652978.39829421,244966526,1,0.2195151299238205,-0.0157905425876379,-0.0006044344627298415,0.9754810929298401
1666652978.41830921,244986541,1,0.21945492923259735,-0.01649012416601181,0.0008361457730643451,0.9754829406738281
1666652978.45829129,245026523,1,0.21956263482570648,-0.016871923580765724,0.0007741908193565905,0.975452184677124
1666652978.49830818,245066540,1,0.21969962120056152,-0.01701916567981243,0.0010293714003637433,0.9754185676574707
1666652978.53829408,245106526,1,0.2199934422969818,-0.01699552871286869,0.0012617347529157996,0.9753524661064148
1666652978.57828116,245146513,1,0.2201632708311081,-0.01687757298350334,0.001145620015449822,0.9753163456916809
1666652978.59832215,245166554,1,0.2203148752450943,-0.016502734273672104,0.0015460550785064697,0.9752879738807678
1666652978.61830020,245186532,1,0.22039695084095,-0.016762901097536087,0.0006944253691472113,0.9752659797668457
1666652978.65831208,245226544,1,0.2205197960138321,-0.016612058505415916,0.0007908387924544513,0.9752407073974609
1666652978.69832706,245266559,1,0.22078417241573334,-0.01643906533718109,0.0012837129179388285,0.9751833081245422
1666652978.73827815,245306510,1,0.22097554802894592,-0.016202818602323532,0.0021498508285731077,0.9751423597335815
1666652978.77827907,245346511,1,0.2213118076324463,-0.01605306752026081,0.0029368544928729534,0.9750665426254272
1666652978.79829812,245366530,1,0.2213960736989975,-0.015643758699297905,0.004593665711581707,0.9750476479530334
1666652978.81828427,245386516,1,0.22152292728424072,-0.015830865129828453,0.0037410170771181583,0.9750194549560547
1666652978.85830927,245426541,1,0.22180773317813873,-0.016065562143921852,0.004056028556078672,0.9749495983123779
1666652978.89831614,245466548,1,0.2220533937215805,-0.01651717908680439,0.004188243765383959,0.9748855829238892
1666652978.93832827,245506560,1,0.22229482233524323,-0.017161957919597626,0.004099349491298199,0.9748198390007019
1666652978.97829008,245546522,1,0.22260765731334686,-0.01758217252790928,0.003900356125086546,0.9747417569160461
1666652978.99832821,245566560,1,0.22291064262390137,-0.0178033709526062,0.0048457845114171505,0.9746642708778381
1666652979.01827812,245586510,1,0.22288888692855835,-0.01769815944135189,0.0035033163148909807,0.9746769070625305
1666652979.05825615,245626488,1,0.22317713499069214,-0.01723826304078102,0.0031734649091959,0.9746202826499939
1666652979.09831619,245666548,1,0.22359879314899445,-0.016549579799175262,0.0033991816453635693,0.974534809589386
1666652979.13827610,245706508,1,0.22399263083934784,-0.015887917950749397,0.003826466156169772,0.9744538068771362
1666652979.17833209,245746564,1,0.22431476414203644,-0.015109407715499401,0.0045478735119104385,0.9743890166282654
1666652979.19832015,245766552,1,0.2242971956729889,-0.01570490002632141,0.005054351408034563,0.974381148815155
1666652979.21825123,245786483,1,0.22457382082939148,-0.01459720078855753,0.00500884372740984,0.9743348360061646
1666652979.25826406,245826496,1,0.2247970551252365,-0.014096992090344429,0.005308172199875116,0.9742891788482666
1666652979.29827809,245866510,1,0.22491487860679626,-0.013639891520142555,0.005840594880282879,0.974265456199646
1666652979.33830810,245906540,1,0.22504620254039764,-0.01360318437218666,0.006202029064297676,0.9742333889007568
1666652979.37832618,245946558,1,0.2252882719039917,-0.013239925727248192,0.006503783632069826,0.9741804599761963
1666652979.39828515,245966517,1,0.22530503571033478,-0.013042007572948933,0.004685032181441784,0.9741896986961365
1666652979.41832423,245986556,1,0.2254214882850647,-0.012353246100246906,0.006242767907679081,0.9741629958152771
1666652979.45826626,246026498,1,0.22569699585437775,-0.01090238243341446,0.006097643636167049,0.9741174578666687
1666652979.49828529,246066517,1,0.22588112950325012,-0.009684733115136623,0.005277489311993122,0.974092423915863
1666652979.53830814,246106540,1,0.22612015902996063,-0.00881358701735735,0.005095489323139191,0.9740462303161621
1666652979.57831621,246146548,1,0.22622433304786682,-0.00851423665881157,0.004551189485937357,0.9740273952484131
1666652979.59828615,246166518,1,0.22629624605178833,-0.007743817288428545,0.0034674550406634808,0.9740215539932251
1666652979.61832309,246186555,1,0.22642208635807037,-0.008034086786210537,0.003606255166232586,0.9739894866943359
1666652979.65827107,246226503,1,0.22648689150810242,-0.0075558507815003395,0.0015885391039773822,0.9739835858345032
1666652979.69827819,246266510,1,0.2266111820936203,-0.0070814345963299274,-0.00023991381749510765,0.9739595055580139
1666652979.73827314,246306505,1,0.22662588953971863,-0.006477748975157738,-0.0024416842497885227,0.9739573001861572
1666652979.77832818,246346560,1,0.22672782838344574,-0.005360749084502459,-0.004558210261166096,0.9739327430725098
1666652979.79826307,246366495,1,0.22684995830059052,-0.004725799895823002,-0.005091068334877491,0.9739049673080444
1666652979.81831121,246386543,1,0.22670282423496246,-0.004493693355470896,-0.006393461488187313,0.9739326238632202
1666652979.85834026,246426572,1,0.2267586886882782,-0.004255868028849363,-0.007270589005202055,0.9739145636558533
1666652979.89825416,246466486,1,0.22681374847888947,-0.004338132217526436,-0.007999606430530548,0.9738956093788147
1666652979.93828321,246506515,1,0.22690266370773315,-0.004102513659745455,-0.00772904884070158,0.9738781452178955
1666652979.97828817,246546520,1,0.2269868403673172,-0.0032524699345231056,-0.006360327359288931,0.973871648311615
1666652979.99829125,246566523,1,0.22700925171375275,-0.0030014326330274343,-0.004743707366287708,0.973876416683197
1666652980.01830816,246586540,1,0.22711390256881714,-0.001998207764700055,-0.005188243929296732,0.9738523364067078
1666652980.05828309,246626515,1,0.22715696692466736,-0.0008862475515343249,-0.005082306452095509,0.9738444685935974
1666652980.09833407,246666566,1,0.22726474702358246,0.00014161822036840022,-0.006611451040953398,0.9738105535507202
1666652980.13828826,246706520,1,0.2272009402513504,0.0007858509779907763,-0.010145368054509163,0.9737947583198547
1666652980.17827821,246746510,1,0.22717709839344025,0.00032790956902317703,-0.01533143874257803,0.9737327098846436
1666652980.19831824,246766550,1,0.2273428738117218,-0.0009685105760581791,-0.016850333660840988,0.9736685156822205
1666652980.21828318,246786515,1,0.227243572473526,-0.0011484373826533556,-0.02170874923467636,0.9735952615737915
1666652980.25830221,246826534,1,0.22733758389949799,-0.002353997202590108,-0.028263282030820847,0.9734029173851013
1666652980.29833007,246866562,1,0.2273862510919571,-0.0035780540201812983,-0.034395139664411545,0.973190426826477
1666652980.33831024,246906542,1,0.22743310034275055,-0.0044236197136342525,-0.03871184214949608,0.9730138778686523
1666652980.37827706,246946509,1,0.2276308387517929,-0.004909369628876448,-0.040891870856285095,0.9728761315345764
1666652980.39830327,246966535,1,0.22752034664154053,-0.005561910104006529,-0.042604126036167145,0.9728249907493591
1666652980.41827726,246986509,1,0.22762249410152435,-0.005117813125252724,-0.042054448276758194,0.9728274345397949
1666652980.45831108,247026543,1,0.22762304544448853,-0.005463558714836836,-0.04310351610183716,0.9727795124053955
1666652980.49831510,247066547,1,0.22770559787750244,-0.005717533640563488,-0.04401728883385658,0.972717821598053
1666652980.53834820,247106580,1,0.2278914451599121,-0.0062118275091052055,-0.044030170887708664,0.9726706743240356
1666652980.57829309,247146525,1,0.22789593040943146,-0.006568560376763344,-0.044341664761304855,0.9726531505584717
1666652980.59832025,247166552,1,0.22789713740348816,-0.0062424554489552975,-0.04462044686079025,0.9726422429084778
1666652980.61828828,247186520,1,0.22796373069286346,-0.006948509719222784,-0.04445221647620201,0.9726295471191406
1666652980.65827322,247226505,1,0.228046253323555,-0.006844129413366318,-0.04414902254939079,0.9726247787475586
1666652980.69830918,247266541,1,0.22820590436458588,-0.0065765101462602615,-0.04344065859913826,0.9726210832595825
1666652980.73830509,247306537,1,0.22839175164699554,-0.0065363263711333275,-0.04277244955301285,0.9726073145866394
1666652980.77828622,247346518,1,0.22875522077083588,-0.006205666344612837,-0.04183655232191086,0.9725647568702698
1666652980.79830623,247366538,1,0.22884538769721985,-0.005238425452262163,-0.040221914649009705,0.9726173877716064
1666652980.81829309,247386525,1,0.2289273887872696,-0.005945519544184208,-0.041091855615377426,0.9725576639175415
1666652980.85825324,247426485,1,0.2291855365037918,-0.005951523315161467,-0.039389993995428085,0.9725672006607056
1666652980.89828825,247466520,1,0.22961172461509705,-0.005732402671128511,-0.03740628808736801,0.9725463390350342
1666652980.93831420,247506546,1,0.22991923987865448,-0.004809131845831871,-0.033385131508111954,0.9726250171661377
1666652980.97829914,247546531,1,0.23032146692276,-0.0035843197256326675,-0.02685178443789482,0.9727374315261841
1666652980.99828029,247566512,1,0.23030292987823486,-0.0036291310098022223,-0.02465083636343479,0.9727999567985535
1666652981.01832819,247586560,1,0.2305109053850174,-0.0026134189683943987,-0.01933649554848671,0.972874104976654
1666652981.05825424,247626486,1,0.2306153029203415,-0.0010214530630037189,-0.010739516466856003,0.9729852080345154
1666652981.09827828,247666510,1,0.2307799756526947,0.00019304425222799182,-0.003433254547417164,0.9729998707771301
1666652981.13825822,247706490,1,0.2309499830007553,0.0015944078331813216,0.002075614407658577,0.9729620814323425
1666652981.17832017,247746552,1,0.2310446798801422,0.002816318767145276,0.006536089349538088,0.9729171395301819
1666652981.19827724,247766509,1,0.23119552433490753,0.0034171785227954388,0.007299493998289108,0.9728739261627197
1666652981.21831822,247786550,1,0.23136740922927856,0.003710478078573942,0.009622804820537567,0.972811758518219
1666652981.25830007,247826532,1,0.23123636841773987,0.004351743496954441,0.011422493495047092,0.9728208184242249
1666652981.29828215,247866514,1,0.23125368356704712,0.0044303531758487225,0.012743180617690086,0.9727999567985535
1666652981.33828521,247906517,1,0.23109489679336548,0.004660493228584528,0.012340852059423923,0.9728417992591858
1666652981.37830710,247946539,1,0.23109707236289978,0.004563182592391968,0.012368295341730118,0.9728413820266724
1666652981.39825010,247966482,1,0.23095905780792236,0.0037999043706804514,0.011088920757174492,0.9728928804397583
1666652981.41833019,247986562,1,0.23100844025611877,0.00449493108317256,0.011896464973688126,0.9728686213493347
1666652981.45832229,248026554,1,0.2308296114206314,0.0046982476487755775,0.011042609810829163,0.9729201793670654
1666652981.49826217,248066494,1,0.2304447740316391,0.004410584922879934,0.010617689229547977,0.9730174541473389
1666652981.53828025,248106512,1,0.2300957888364792,0.004352775868028402,0.009796207770705223,0.9731089472770691
1666652981.57826829,248146500,1,0.22972998023033142,0.0044547575525939465,0.00901692733168602,0.9732024669647217
1666652981.59832525,248166557,1,0.22955666482448578,0.003923224285244942,0.0075245932675898075,0.9732583165168762
1666652981.61830211,248186534,1,0.22939647734165192,0.0042800321243703365,0.008364882320165634,0.9732877016067505
1666652981.65830708,248226539,1,0.2290073186159134,0.004376919474452734,0.007514365948736668,0.9733858704566956
1666652981.69832921,248266561,1,0.22853563725948334,0.0043700686655938625,0.006958038546144962,0.9735008478164673
1666652981.73825622,248306488,1,0.22791460156440735,0.004091090057045221,0.006551246624439955,0.9736505150794983
1666652981.77827811,248346510,1,0.22741034626960754,0.003791200462728739,0.005566636100411415,0.9737757444381714
1666652981.79831719,248366549,1,0.2270243912935257,0.003563051111996174,0.004008990712463856,0.9738743305206299
1666652981.81827807,248386510,1,0.22684113681316376,0.0034495543222874403,0.004992109723389149,0.9739128947257996
1666652981.85831523,248426547,1,0.22629818320274353,0.003190962364897132,0.004427581559866667,0.9740427732467651
1666652981.89832807,248466560,1,0.22582106292247772,0.0033001252450048923,0.004331302363425493,0.9741535782814026
1666652981.93832111,248506553,1,0.22527644038200378,0.0036748398561030626,0.005416925996541977,0.9742729067802429
1666652981.97828817,248546520,1,0.2248888611793518,0.0038343712221831083,0.007826467975974083,0.9743454456329346
1666652981.99830914,248566541,1,0.22461861371994019,0.0030187806114554405,0.007788169197738171,0.9744109511375427
1666652982.01827812,248586510,1,0.22436097264289856,0.004087558947503567,0.010396577417850494,0.9744420647621155
1666652982.05830622,248626538,1,0.22377155721187592,0.0043614828027784824,0.012393360957503319,0.9745530486106873
1666652982.09831023,248666542,1,0.2235630452632904,0.004655772820115089,0.014025307260453701,0.9745774269104004
1666652982.13832021,248706552,1,0.22326965630054474,0.005151711869984865,0.015911582857370377,0.9746132493019104
1666652982.17829514,248746527,1,0.22297266125679016,0.005559620913118124,0.017825786024332047,0.9746458530426025
1666652982.19830728,248766539,1,0.22276125848293304,0.00525633106008172,0.01861429028213024,0.9746811389923096
1666652982.21829820,248786530,1,0.22273439168930054,0.006021489389240742,0.01905597560107708,0.9746742844581604
1666652982.25827813,248826510,1,0.22253094613552094,0.006072914693504572,0.020127270370721817,0.9746989011764526
1666652982.29831815,248866550,1,0.22233419120311737,0.0061851744540035725,0.022107329219579697,0.9747002124786377
1666652982.33831310,248906545,1,0.22212351858615875,0.006783599499613047,0.025222470983862877,0.9746686220169067
1666652982.37832117,248946553,1,0.22184975445270538,0.007671416737139225,0.029507368803024292,0.974604070186615
1666652982.39829612,248966528,1,0.22173187136650085,0.007719866465777159,0.03140900284051895,0.9745711088180542
1666652982.41828108,248986513,1,0.22165705263614655,0.00832488015294075,0.03387165442109108,0.9745006561279297
1666652982.45828009,249026512,1,0.22158175706863403,0.008797961287200451,0.03679021820425987,0.9744077920913696
1666652982.49828124,249066513,1,0.22134622931480408,0.00883585773408413,0.03836224600672722,0.9744004011154175
1666652982.53831816,249106550,1,0.22117246687412262,0.008679431863129139,0.03838855400681496,0.9744402170181274
1666652982.57830215,249146534,1,0.22101038694381714,0.00839757826179266,0.037509750574827194,0.9745136499404907
1666652982.59827709,249166509,1,0.22106873989105225,0.008172508329153061,0.038211215287446976,0.974475085735321
1666652982.61832929,249186561,1,0.22094620764255524,0.008006707765161991,0.03669559583067894,0.9745625257492065
1666652982.65825415,249226486,1,0.220798060297966,0.0077625298872590065,0.036323945969343185,0.9746119976043701
1666652982.69829917,249266531,1,0.22071459889411926,0.00760347954928875,0.0359511598944664,0.9746459722518921
1666652982.73827910,249306511,1,0.22063790261745453,0.007507049012929201,0.03516538813710213,0.9746927618980408
1666652982.77831817,249346550,1,0.22062431275844574,0.007495434023439884,0.03348654508590698,0.974755048751831
1666652982.79828024,249366512,1,0.2207106649875641,0.007746401242911816,0.03368770331144333,0.9747266173362732
1666652982.81831813,249386550,1,0.22057019174098969,0.007089034654200077,0.031477607786655426,0.9748372435569763
1666652982.85830712,249426539,1,0.22059914469718933,0.0065130009315907955,0.029053105041384697,0.9749100208282471
1666652982.89825130,249466483,1,0.22055478394031525,0.005888651590794325,0.02664138190448284,0.9749928712844849
1666652982.93828511,249506517,1,0.22054637968540192,0.005659900605678558,0.024547860026359558,0.9750511050224304
1666652982.97830510,249546537,1,0.22049100697040558,0.005719784181565046,0.022965194657444954,0.9751018285751343
1666652982.99825215,249566484,1,0.22035862505435944,0.006271246820688248,0.02381296642124653,0.9751080274581909
1666652983.01830220,249586534,1,0.22053317725658417,0.005865782964974642,0.021998396143317223,0.9751137495040894
1666652983.05832624,249626558,1,0.22062863409519196,0.005925491452217102,0.021344434469938278,0.9751062989234924
1666652983.09828329,249666515,1,0.2208126336336136,0.005858143325895071,0.020681107416749,0.975079357624054
1666652983.13828325,249706515,1,0.22096236050128937,0.0059456597082316875,0.019940750673413277,0.9750603437423706
1666652983.17827725,249746509,1,0.22101446986198425,0.005806909408420324,0.019746361300349236,0.9750533103942871
1666652983.19828415,249766516,1,0.2209635227918625,0.005295388866215944,0.018480803817510605,0.9750925898551941
1666652983.21831012,249786542,1,0.22108887135982513,0.0055718268267810345,0.019590824842453003,0.9750409722328186
1666652983.25832820,249826560,1,0.2212180197238922,0.0052362000569701195,0.019602946937084198,0.975013256072998
1666652983.29833317,249866565,1,0.22130626440048218,0.0049853078089654446,0.019877251237630844,0.9749889969825745
1666652983.33825612,249906488,1,0.22145460546016693,0.00493868300691247,0.020796218886971474,0.9749364256858826
