timestamp,TimeUS,Lat,Lng,Alt,RelHomeAlt,RelOriginAlt
1666653790.48114777,240925557,42.7306977,-84.4904207,206.47999572753906,0.004129499197006226,-0.07587049901485443
1666653790.48130083,240925710,42.7306977,-84.4904207,206.47999572753906,0.004129499197006226,-0.07587049901485443
1666653790.52039480,240964804,42.7306977,-84.4904208,206.47999572753906,0.006343431770801544,-0.07365656644105911
1666653790.56039095,241004800,42.7306978,-84.49042089999999,206.47999572753906,0.00834762305021286,-0.0716523751616478
1666653790.58108997,241025499,42.7306978,-84.490421,206.47999572753906,0.009580090641975403,-0.07041990756988525
1666653790.60038376,241044793,42.7306978,-84.490421,206.489990234375,0.010055072605609894,-0.06994492560625076
1666653790.64031196,241084721,42.7306978,-84.49042109999999,206.489990234375,0.01105557382106781,-0.06894442439079285
1666653790.68087077,241125280,42.730697899999996,-84.4904212,206.489990234375,0.011579535901546478,-0.06842046231031418
1666653790.68100786,241125417,42.730697899999996,-84.4904212,206.489990234375,0.011579535901546478,-0.06842046231031418
1666653790.72085881,241165268,42.730698,-84.4904213,206.489990234375,0.011912383139133453,-0.0680876150727272
1666653790.76033688,241204746,42.730698,-84.4904214,206.489990234375,0.012280546128749847,-0.06771945208311081
1666653790.78092098,241225330,42.7306981,-84.4904215,206.489990234375,0.012519054114818573,-0.06748094409704208
1666653790.80029178,241244701,42.7306981,-84.4904215,206.489990234375,0.012502036988735199,-0.06749796122312546
1666653790.84030795,241284717,42.7306982,-84.49042159999999,206.489990234375,0.011799037456512451,-0.0682009607553482
1666653790.88092494,241325334,42.7306982,-84.4904217,206.489990234375,0.011121183633804321,-0.06887881457805634
1666653790.88103676,241325446,42.7306982,-84.4904217,206.489990234375,0.011121183633804321,-0.06887881457805634
1666653790.92091775,241365327,42.7306983,-84.4904218,206.489990234375,0.010567955672740936,-0.06943204253911972
1666653790.96039891,241404808,42.7306983,-84.4904219,206.489990234375,0.010211460292339325,-0.06978853791952133
1666653790.98077679,241425186,42.7306983,-84.490422,206.489990234375,0.01002645492553711,-0.06997354328632355
1666653791.00031281,241444722,42.7306983,-84.490422,206.47999572753906,0.009783521294593811,-0.07021647691726685
1666653791.04032683,241484736,42.7306984,-84.49042209999999,206.47999572753906,0.008844144642353058,-0.0711558535695076
1666653791.08079576,241525205,42.730698499999995,-84.4904222,206.47999572753906,0.008010990917682648,-0.07198900729417801
1666653791.08091283,241525322,42.730698499999995,-84.4904222,206.47999572753906,0.008010990917682648,-0.07198900729417801
1666653791.12086391,241565273,42.730698499999995,-84.49042229999999,206.47999572753906,0.007362917065620422,-0.07263708114624023
1666653791.16032076,241604730,42.730698499999995,-84.49042229999999,206.47999572753906,0.00700000673532486,-0.0729999914765358
1666653791.18083596,241625245,42.7306986,-84.4904224,206.47999572753906,0.006824947893619537,-0.07317505031824112
1666653791.20038795,241644797,42.7306986,-84.4904224,206.47999572753906,0.006560653448104858,-0.0734393447637558
1666653791.24041581,241684825,42.7306986,-84.4904225,206.47999572753906,0.0064850375056266785,-0.07351496070623398
1666653791.28085780,241725267,42.7306987,-84.4904226,206.47999572753906,0.0066453516483306885,-0.07335464656352997
1666653791.28092885,241725338,42.7306987,-84.4904226,206.47999572753906,0.0066453516483306885,-0.07335464656352997
1666653791.32088685,241765296,42.7306987,-84.4904227,206.47999572753906,0.006616763770580292,-0.07338323444128036
1666653791.36033583,241804745,42.7306987,-84.49042279999999,206.47999572753906,0.006748519837856293,-0.07325147837400436
1666653791.38089180,241825301,42.7306988,-84.49042279999999,206.47999572753906,0.00687699019908905,-0.0731230080127716
1666653791.40047193,241844881,42.7306988,-84.4904229,206.47999572753906,0.006745420396327972,-0.07325457781553268
1666653791.44041276,241884822,42.7306988,-84.49042299999999,206.47999572753906,0.0075604915618896484,-0.07243950664997101
1666653791.48089790,241925307,42.7306989,-84.4904231,206.47999572753906,0.008756518363952637,-0.07124347984790802
1666653791.48097086,241925380,42.7306989,-84.4904231,206.47999572753906,0.008756518363952637,-0.07124347984790802
1666653791.52089691,241965306,42.7306989,-84.4904232,206.47999572753906,0.009513340890407562,-0.0704866573214531
1666653791.56031179,242004721,42.7306989,-84.49042329999999,206.489990234375,0.010519258677959442,-0.06948073953390121
1666653791.58090091,242025310,42.7306989,-84.49042329999999,206.489990234375,0.011189378798007965,-0.06881061941385269
1666653791.60038686,242044796,42.730699,-84.49042329999999,206.489990234375,0.011326707899570465,-0.06867329031229019
1666653791.64044976,242084859,42.730699,-84.4904234,206.489990234375,0.012574605643749237,-0.06742539256811142
1666653791.68097186,242125381,42.730699099999995,-84.49042349999999,206.489990234375,0.014286242425441742,-0.06571375578641891
1666653791.68108392,242125493,42.730699099999995,-84.49042349999999,206.489990234375,0.014286242425441742,-0.06571375578641891
1666653791.72094393,242165353,42.730699099999995,-84.4904236,206.489990234375,0.015211217105388641,-0.06478878110647202
1666653791.76029778,242204707,42.730699099999995,-84.4904236,206.489990234375,0.016060158610343933,-0.06393983960151672
1666653791.78086686,242225276,42.7306992,-84.4904236,206.489990234375,0.016630783677101135,-0.06336921453475952
1666653791.80032086,242244730,42.7306992,-84.4904237,206.489990234375,0.016741588711738586,-0.06325840950012207
1666653791.84034276,242284752,42.7306992,-84.4904238,206.489990234375,0.01730690896511078,-0.06269308924674988
1666653791.88088679,242325296,42.7306993,-84.4904239,206.489990234375,0.01833280175924301,-0.061667196452617645
1666653791.88099885,242325408,42.7306993,-84.4904239,206.489990234375,0.01833280175924301,-0.061667196452617645
1666653791.92096996,242365379,42.7306993,-84.49042399999999,206.489990234375,0.018959160894155502,-0.061040837317705154
1666653791.96034288,242404752,42.7306993,-84.49042399999999,206.489990234375,0.019815854728221893,-0.06018414348363876
1666653791.98098779,242425397,42.7306993,-84.4904241,206.5,0.020367812365293503,-0.059632185846567154
1666653792.00036097,242444770,42.7306993,-84.4904241,206.5,0.020465940237045288,-0.05953405797481537
1666653792.04040384,242484813,42.7306994,-84.49042419999999,206.5,0.02052193507552147,-0.05947806313633919
1666653792.08083582,242525245,42.7306994,-84.49042419999999,206.5,0.020880822092294693,-0.059119176119565964
1666653792.08097386,242525383,42.7306994,-84.49042419999999,206.5,0.020880822092294693,-0.059119176119565964
1666653792.12093496,242565344,42.7306994,-84.4904243,206.5,0.02095567062497139,-0.05904432758688927
1666653792.16038990,242604799,42.7306995,-84.4904244,206.5,0.02110479027032852,-0.058895207941532135
1666653792.18115282,242625562,42.7306995,-84.4904244,206.5,0.02123776450753212,-0.05876223370432854
1666653792.20035696,242644766,42.7306995,-84.4904244,206.5,0.02111930400133133,-0.05888069421052933
1666653792.24031186,242684721,42.7306995,-84.4904245,206.5,0.021093182265758514,-0.05890681594610214
1666653792.28077888,242725188,42.7306996,-84.4904245,206.5,0.021328154951334,-0.05867184326052666
1666653792.28092980,242725339,42.7306996,-84.4904245,206.5,0.021328154951334,-0.05867184326052666
1666653792.32078481,242765194,42.7306996,-84.4904246,206.5,0.02144668996334076,-0.0585533082485199
1666653792.36041188,242804821,42.7306996,-84.4904246,206.5,0.021891169250011444,-0.05810882896184921
1666653792.38083696,242825246,42.7306996,-84.4904246,206.5,0.022212263196706772,-0.057787735015153885
1666653792.40039897,242844808,42.7306996,-84.4904246,206.5,0.022181447595357895,-0.05781855061650276
1666653792.44033980,242884749,42.7306996,-84.49042469999999,206.5,0.0214882530272007,-0.05851174518465996
1666653792.48083377,242925243,42.730699699999995,-84.4904248,206.5,0.020767398178577423,-0.059232600033283234
1666653792.48096180,242925371,42.730699699999995,-84.4904248,206.5,0.020767398178577423,-0.059232600033283234
1666653792.52092075,242965330,42.730699699999995,-84.4904249,206.5,0.020190682262182236,-0.05980931594967842
1666653792.56043577,243004845,42.730699699999995,-84.490425,206.489990234375,0.019909318536520004,-0.06009067967534065
1666653792.58082795,243025237,42.730699699999995,-84.490425,206.489990234375,0.019803795963525772,-0.060196202248334885
1666653792.60044885,243044858,42.730699699999995,-84.490425,206.489990234375,0.019536249339580536,-0.06046374887228012
1666653792.64028287,243084692,42.730699699999995,-84.4904251,206.489990234375,0.018473491072654724,-0.06152650713920593
1666653792.68086290,243125272,42.730699699999995,-84.49042519999999,206.489990234375,0.017634693533182144,-0.06236530467867851
1666653792.68096375,243125373,42.730699699999995,-84.49042519999999,206.489990234375,0.017634693533182144,-0.06236530467867851
1666653792.72092485,243165334,42.7306998,-84.4904253,206.489990234375,0.017110764980316162,-0.0628892332315445
1666653792.76043582,243204845,42.7306998,-84.4904253,206.489990234375,0.017137229442596436,-0.06286276876926422
1666653792.78084278,243225252,42.7306998,-84.4904253,206.489990234375,0.017220906913280487,-0.06277909129858017
1666653792.80040789,243244817,42.7306998,-84.4904253,206.489990234375,0.01702972501516342,-0.06297027319669724
1666653792.84031987,243284729,42.7306999,-84.49042539999999,206.489990234375,0.015673480927944183,-0.06432651728391647
1666653792.88088584,243325295,42.7306999,-84.4904255,206.489990234375,0.01433594524860382,-0.06566405296325684
1666653792.88098788,243325397,42.7306999,-84.4904255,206.489990234375,0.01433594524860382,-0.06566405296325684
1666653792.92089677,243365306,42.7306999,-84.4904256,206.489990234375,0.013336002826690674,-0.06666399538516998
1666653792.96035194,243404761,42.7307,-84.4904257,206.489990234375,0.012742653489112854,-0.0672573447227478
1666653792.98093581,243425345,42.7307,-84.4904257,206.489990234375,0.012460559606552124,-0.06753943860530853
1666653793.00039697,243444806,42.7307,-84.4904257,206.489990234375,0.012070789933204651,-0.067929208278656
1666653793.04049993,243484909,42.7307001,-84.4904258,206.489990234375,0.010064132511615753,-0.0699358657002449
1666653793.08093476,243525344,42.7307001,-84.49042589999999,206.47999572753906,0.008046112954616547,-0.07195388525724411
1666653793.08100581,243525415,42.7307001,-84.49042589999999,206.47999572753906,0.008046112954616547,-0.07195388525724411
1666653793.12097478,243565384,42.7307002,-84.49042589999999,206.47999572753906,0.006599873304367065,-0.07340012490749359
1666653793.16024590,243604655,42.7307002,-84.490426,206.47999572753906,0.005655728280544281,-0.07434426993131638
1666653793.18088794,243625297,42.7307002,-84.490426,206.47999572753906,0.005163438618183136,-0.07483655959367752
1666653793.20039487,243644804,42.7307002,-84.490426,206.47999572753906,0.004641957581043243,-0.07535804063081741
1666653793.24050093,243684910,42.730700299999995,-84.4904261,206.47999572753906,0.003201037645339966,-0.07679896056652069
1666653793.28090787,243725317,42.730700299999995,-84.4904262,206.47999572753906,0.00203772634267807,-0.07796227186918259
1666653793.28097892,243725388,42.730700299999995,-84.4904262,206.47999572753906,0.00203772634267807,-0.07796227186918259
1666653793.32092094,243765330,42.730700299999995,-84.4904262,206.47999572753906,0.0011108443140983582,-0.0788891538977623
1666653793.36030889,243804718,42.730700299999995,-84.4904262,206.47999572753906,0.0005960315465927124,-0.07940396666526794
1666653793.38088179,243825291,42.730700399999996,-84.4904262,206.47999572753906,0.00038507580757141113,-0.07961492240428925
1666653793.40043378,243844843,42.730700399999996,-84.4904263,206.47000122070312,-3.384053707122803e-05,-0.08003383874893188
1666653793.44041181,243884821,42.730700399999996,-84.49042639999999,206.47000122070312,-0.0018692687153816223,-0.08186926692724228
1666653793.48095298,243925362,42.730700399999996,-84.4904265,206.47000122070312,-0.003537580370903015,-0.08353757858276367
1666653793.48106694,243925476,42.730700399999996,-84.4904265,206.47000122070312,-0.003537580370903015,-0.08353757858276367
1666653793.52094984,243965359,42.730700399999996,-84.4904265,206.47000122070312,-0.005009829998016357,-0.08500982820987701
1666653793.56030679,244004716,42.730700399999996,-84.49042659999999,206.47000122070312,-0.006346285343170166,-0.08634628355503082
1666653793.58086276,244025272,42.730700399999996,-84.49042659999999,206.47000122070312,-0.007037527859210968,-0.08703752607107162
1666653793.60033679,244044746,42.730700399999996,-84.49042659999999,206.47000122070312,-0.00769573450088501,-0.08769573271274567
1666653793.64038086,244084790,42.730700399999996,-84.4904267,206.47000122070312,-0.009866245090961456,-0.08986624330282211
1666653793.68089795,244125307,42.7307005,-84.4904268,206.45999145507812,-0.011988058686256409,-0.09198805689811707
1666653793.68104076,244125450,42.7307005,-84.4904268,206.45999145507812,-0.011988058686256409,-0.09198805689811707
1666653793.72093892,244165348,42.7307005,-84.4904268,206.45999145507812,-0.013661682605743408,-0.09366168081760406
1666653793.76039577,244204805,42.7307005,-84.4904269,206.45999145507812,-0.014900468289852142,-0.0949004665017128
1666653793.78089285,244225302,42.7307005,-84.4904269,206.45999145507812,-0.01553894579410553,-0.09553894400596619
1666653793.80043983,244244849,42.7307005,-84.4904269,206.45999145507812,-0.01621101051568985,-0.0962110087275505
1666653793.84035778,244284767,42.7307006,-84.490427,206.45999145507812,-0.018025413155555725,-0.09802541136741638
1666653793.88081884,244325228,42.7307005,-84.49042709999999,206.45999145507812,-0.019671708345413208,-0.09967170655727386
1666653793.88094378,244325353,42.7307005,-84.49042709999999,206.45999145507812,-0.019671708345413208,-0.09967170655727386
1666653793.92099786,244365407,42.7307006,-84.4904272,206.4499969482422,-0.021115228533744812,-0.10111522674560547
1666653793.96043086,244404840,42.7307006,-84.4904273,206.4499969482422,-0.02230636030435562,-0.10230635851621628
1666653793.98084784,244425257,42.7307006,-84.4904273,206.4499969482422,-0.022861912846565247,-0.1028619110584259
1666653794.00040698,244444816,42.7307006,-84.4904273,206.4499969482422,-0.023556791245937347,-0.103556789457798
1666653794.04034591,244484755,42.7307006,-84.4904274,206.4499969482422,-0.02539803832769394,-0.1053980365395546
1666653794.08083797,244525247,42.7307005,-84.4904275,206.4499969482422,-0.029411539435386658,-0.10941153764724731
1666653794.08096385,244525373,42.7307005,-84.4904275,206.4499969482422,-0.029411539435386658,-0.10941153764724731
1666653794.12091184,244565321,42.7307005,-84.49042759999999,206.44000244140625,-0.032220982015132904,-0.11222098022699356
1666653794.16040397,244604813,42.7307005,-84.4904277,206.44000244140625,-0.03417845070362091,-0.11417844891548157
1666653794.18087387,244625283,42.7307005,-84.49042779999999,206.44000244140625,-0.035220324993133545,-0.1152203232049942
1666653794.20043278,244644842,42.7307005,-84.49042779999999,206.44000244140625,-0.036182865500450134,-0.11618286371231079
1666653794.24034882,244684758,42.7307005,-84.4904279,206.44000244140625,-0.03829029202461243,-0.11829029023647308
1666653794.28077698,244725186,42.7307005,-84.490428,206.42999267578125,-0.04014594852924347,-0.12014594674110413
1666653794.28086591,244725275,42.7307005,-84.490428,206.42999267578125,-0.04014594852924347,-0.12014594674110413
1666653794.32094288,244765352,42.7307005,-84.4904281,206.42999267578125,-0.04153173416852951,-0.12153173238039017
1666653794.36040282,244804812,42.7307005,-84.4904282,206.42999267578125,-0.042183563113212585,-0.12218356132507324
1666653794.38086081,244825270,42.7307005,-84.4904282,206.42999267578125,-0.04238739609718323,-0.12238739430904388
1666653794.40039587,244844805,42.7307005,-84.49042829999999,206.42999267578125,-0.04297863692045212,-0.12297863513231277
1666653794.44040585,244884815,42.7307005,-84.4904284,206.42999267578125,-0.04503750801086426,-0.12503750622272491
1666653794.48087883,244925288,42.7307005,-84.4904285,206.42999267578125,-0.04660555720329285,-0.1266055554151535
1666653794.48094988,244925359,42.7307005,-84.4904285,206.42999267578125,-0.04660555720329285,-0.1266055554151535
1666653794.52086592,244965275,42.7307005,-84.4904286,206.42999267578125,-0.047932788729667664,-0.12793278694152832
1666653794.56040883,245004818,42.7307005,-84.4904287,206.42999267578125,-0.0486777126789093,-0.12867771089076996
1666653794.58083582,245025245,42.7307005,-84.4904287,206.42999267578125,-0.04895886778831482,-0.12895886600017548
1666653794.60038185,245044791,42.7307005,-84.4904287,206.42999267578125,-0.04961992800235748,-0.12961992621421814
1666653794.64041376,245084823,42.730700399999996,-84.49042879999999,206.4199981689453,-0.05144035816192627,-0.13144035637378693
1666653794.68098187,245125391,42.730700399999996,-84.4904289,206.4199981689453,-0.052606984972953796,-0.13260698318481445
1666653794.68108082,245125490,42.730700399999996,-84.4904289,206.4199981689453,-0.052606984972953796,-0.13260698318481445
1666653794.72091889,245165328,42.730700399999996,-84.49042899999999,206.4199981689453,-0.05389899015426636,-0.13389898836612701
1666653794.76024675,245204656,42.730700399999996,-84.49042899999999,206.4199981689453,-0.054810985922813416,-0.13481098413467407
1666653794.78087378,245225283,42.730700399999996,-84.49042899999999,206.4199981689453,-0.05518537759780884,-0.1351853758096695
1666653794.80034781,245244757,42.730700399999996,-84.4904291,206.4199981689453,-0.05588398873806,-0.13588398694992065
1666653794.84044790,245284857,42.730700399999996,-84.4904291,206.4199981689453,-0.05794551968574524,-0.1379455178976059
1666653794.88093090,245325340,42.7307005,-84.4904292,206.4199981689453,-0.05986429750919342,-0.13986429572105408
1666653794.88100195,245325411,42.7307005,-84.4904292,206.4199981689453,-0.05986429750919342,-0.13986429572105408
1666653794.92107177,245365481,42.7307005,-84.4904292,206.4099884033203,-0.06165643036365509,-0.14165642857551575
1666653794.96031284,245404722,42.7307005,-84.4904293,206.4099884033203,-0.06311918795108795,-0.1431191861629486
1666653794.98092890,245425338,42.7307005,-84.4904293,206.4099884033203,-0.06380866467952728,-0.14380866289138794
1666653795.00039697,245444806,42.7307005,-84.4904293,206.4099884033203,-0.0646720677614212,-0.14467206597328186
1666653795.04038882,245484798,42.7307005,-84.4904293,206.4099884033203,-0.06707817316055298,-0.14707817137241364
1666653795.08096385,245525373,42.7307005,-84.4904294,206.4099884033203,-0.06901800632476807,-0.14901800453662872
1666653795.08106685,245525476,42.7307005,-84.4904294,206.4099884033203,-0.06901800632476807,-0.14901800453662872
1666653795.12094784,245565357,42.7307005,-84.49042949999999,206.39999389648438,-0.07080541551113129,-0.15080541372299194
1666653795.16028786,245604697,42.730700399999996,-84.49042949999999,206.39999389648438,-0.07221633195877075,-0.1522163301706314
1666653795.18085098,245625260,42.730700399999996,-84.49042949999999,206.39999389648438,-0.07287923991680145,-0.1528792381286621
1666653795.20033288,245644742,42.730700399999996,-84.49042949999999,206.39999389648438,-0.07377666234970093,-0.15377666056156158
1666653795.24036980,245684779,42.730700399999996,-84.4904296,206.39999389648438,-0.07597051560878754,-0.1559705138206482
1666653795.28091788,245725327,42.730700399999996,-84.49042969999999,206.39999389648438,-0.0776376873254776,-0.15763768553733826
1666653795.28106189,245725471,42.730700399999996,-84.49042969999999,206.39999389648438,-0.0776376873254776,-0.15763768553733826
1666653795.32094288,245765352,42.730700399999996,-84.49042969999999,206.39999389648438,-0.07927356660366058,-0.15927356481552124
1666653795.36040497,245804814,42.730700399999996,-84.4904298,206.38999938964844,-0.08066952228546143,-0.16066952049732208
1666653795.38086796,245825277,42.730700399999996,-84.4904298,206.38999938964844,-0.08130434155464172,-0.16130433976650238
1666653795.40039587,245844805,42.730700399999996,-84.4904298,206.38999938964844,-0.0821329802274704,-0.16213297843933105
1666653795.44033694,245884746,42.730700399999996,-84.4904298,206.38999938964844,-0.08404289186000824,-0.1640428900718689
1666653795.48085475,245925264,42.730700399999996,-84.4904299,206.38999938964844,-0.08520001173019409,-0.16520000994205475
1666653795.48097992,245925389,42.730700399999996,-84.4904299,206.38999938964844,-0.08520001173019409,-0.16520000994205475
1666653795.52095890,245965368,42.730700399999996,-84.4904299,206.38999938964844,-0.0860481858253479,-0.16604818403720856
1666653795.56042480,246004834,42.730700399999996,-84.49042999999999,206.38999938964844,-0.0856359452009201,-0.16563594341278076
1666653795.58083081,246025240,42.730700399999996,-84.49042999999999,206.38999938964844,-0.08510687947273254,-0.1651068776845932
1666653795.60051298,246044922,42.730700399999996,-84.49042999999999,206.38999938964844,-0.08548973500728607,-0.16548973321914673
1666653795.64041591,246084825,42.730700399999996,-84.49042999999999,206.38999938964844,-0.08513887226581573,-0.1651388704776764
1666653795.68088889,246125298,42.730700399999996,-84.49042999999999,206.38999938964844,-0.08482085168361664,-0.1648208498954773
1666653795.68101478,246125424,42.730700399999996,-84.49042999999999,206.38999938964844,-0.08482085168361664,-0.1648208498954773
1666653795.72091794,246165327,42.730700399999996,-84.4904301,206.38999938964844,-0.08473744988441467,-0.16473744809627533
1666653795.76044679,246204856,42.730700399999996,-84.4904301,206.38999938964844,-0.08370780944824219,-0.16370780766010284
1666653795.78079987,246225209,42.730700399999996,-84.4904301,206.38999938964844,-0.0828007310628891,-0.16280072927474976
1666653795.80044389,246244853,42.730700399999996,-84.4904301,206.38999938964844,-0.08296144008636475,-0.1629614382982254
1666653795.84029198,246284701,42.730700399999996,-84.4904301,206.38999938964844,-0.08111847937107086,-0.16111847758293152
1666653795.88083887,246325248,42.730700399999996,-84.4904301,206.39999389648438,-0.07769599556922913,-0.15769599378108978
1666653795.88095284,246325362,42.730700399999996,-84.4904301,206.39999389648438,-0.07769599556922913,-0.15769599378108978
1666653795.92099595,246365405,42.730700399999996,-84.4904301,206.39999389648438,-0.07515424489974976,-0.1551542431116104
1666653795.96035480,246404764,42.730700399999996,-84.49043019999999,206.39999389648438,-0.07110677659511566,-0.15110677480697632
1666653795.98088598,246425295,42.730700399999996,-84.49043019999999,206.4099884033203,-0.06834793090820312,-0.14834792912006378
1666653796.00045776,246444867,42.730700399999996,-84.49043019999999,206.4099884033203,-0.06748324632644653,-0.1474832445383072
1666653796.04045177,246484861,42.730700399999996,-84.49043019999999,206.4099884033203,-0.06193667650222778,-0.14193667471408844
1666653796.08084989,246525259,42.730700399999996,-84.49043019999999,206.4199981689453,-0.05351826548576355,-0.1335182636976242
1666653796.08091998,246525329,42.730700399999996,-84.49043019999999,206.4199981689453,-0.05351826548576355,-0.1335182636976242
1666653796.12088776,246565297,42.730700399999996,-84.49043019999999,206.42999267578125,-0.04592818021774292,-0.12592817842960358
1666653796.16037798,246604787,42.730700399999996,-84.49043019999999,206.44000244140625,-0.03589764982461929,-0.11589764803647995
1666653796.18100095,246625410,42.730700399999996,-84.49043019999999,206.4499969482422,-0.029736950993537903,-0.10973694920539856
1666653796.20036888,246644778,42.730700399999996,-84.49043019999999,206.4499969482422,-0.025686755776405334,-0.10568675398826599
1666653796.24037790,246684787,42.730700399999996,-84.49043019999999,206.45999145507812,-0.012728258967399597,-0.09272825717926025
1666653796.28094578,246725355,42.730700399999996,-84.49043019999999,206.47999572753906,0.00399114191532135,-0.0760088562965393
1666653796.28101778,246725427,42.730700399999996,-84.49043019999999,206.47999572753906,0.00399114191532135,-0.0760088562965393
1666653796.32096386,246765373,42.730700399999996,-84.49043019999999,206.489990234375,0.019269365817308426,-0.06073063239455223
1666653796.36032796,246804737,42.730700399999996,-84.49043019999999,206.50999450683594,0.03784232214093208,-0.042157676070928574
1666653796.38090086,246825310,42.730700399999996,-84.49043019999999,206.51998901367188,0.04869004711508751,-0.03130995109677315
1666653796.40041375,246844823,42.730700399999996,-84.49043019999999,206.52999877929688,0.056325674057006836,-0.02367432229220867
1666653796.44044375,246884853,42.730700399999996,-84.49043019999999,206.54998779296875,0.07795736193656921,-0.0020426332484930754
1666653796.48093891,246925348,42.730700399999996,-84.4904303,206.5800018310547,0.10452678799629211,0.024526789784431458
1666653796.48100996,246925419,42.730700399999996,-84.4904303,206.5800018310547,0.10452678799629211,0.024526789784431458
1666653796.52098179,246965391,42.730700399999996,-84.4904303,206.59999084472656,0.1282632201910019,0.04826321825385094
1666653796.56033587,247004745,42.730700399999996,-84.4904303,206.62998962402344,0.1550346314907074,0.07503463327884674
1666653796.58094287,247025352,42.730700399999996,-84.4904303,206.64999389648438,0.1700715869665146,0.09007158875465393
1666653796.60036588,247044775,42.730700399999996,-84.49043019999999,206.6599884033203,0.1801225244998932,0.10012253373861313
1666653796.64040089,247084810,42.730700399999996,-84.49043019999999,206.67999267578125,0.20676535367965698,0.12676535546779633
1666653796.68101692,247125426,42.730700399999996,-84.49043019999999,206.70999145507812,0.23840667307376862,0.15840667486190796
1666653796.68111777,247125527,42.730700399999996,-84.49043019999999,206.70999145507812,0.23840667307376862,0.15840667486190796
1666653796.72100186,247165411,42.730700299999995,-84.49043019999999,206.739990234375,0.2661990523338318,0.18619905412197113
1666653796.76037598,247204785,42.730700299999995,-84.4904301,206.76998901367188,0.29687586426734924,0.2168758660554886
1666653796.78085685,247225266,42.730700299999995,-84.4904301,206.7899932861328,0.3141346573829651,0.23413464426994324
1666653796.80037594,247244785,42.730700299999995,-84.4904301,206.79998779296875,0.32568496465682983,0.24568495154380798
1666653796.84033489,247284744,42.730700399999996,-84.4904301,206.8300018310547,0.35238581895828247,0.272385835647583
1666653796.88088584,247325295,42.730700399999996,-84.49042999999999,206.86000061035156,0.3834848403930664,0.30348485708236694
1666653796.88102794,247325437,42.730700399999996,-84.49042999999999,206.86000061035156,0.3834848403930664,0.30348485708236694
1666653796.92097092,247365380,42.730700399999996,-84.49042999999999,206.88999938964844,0.4102594256401062,0.33025944232940674
1666653796.96040082,247404810,42.730700399999996,-84.49042999999999,206.9099884033203,0.43906188011169434,0.3590618669986725
1666653796.98081779,247425227,42.730700399999996,-84.49042999999999,206.92999267578125,0.4549662470817566,0.37496623396873474
1666653797.00039196,247444801,42.730700399999996,-84.49042999999999,206.94000244140625,0.4658586382865906,0.3858586549758911
1666653797.04035187,247484761,42.730700399999996,-84.49042999999999,206.97999572753906,0.5016810894012451,0.42168110609054565
1666653797.08087087,247525280,42.7307005,-84.49042999999999,207.01998901367188,0.5498311519622803,0.4698311686515808
1666653797.08099389,247525403,42.7307005,-84.49042999999999,207.01998901367188,0.5498311519622803,0.4698311686515808
1666653797.12111282,247565522,42.7307005,-84.49042999999999,207.0699920654297,0.5921258330345154,0.5121258497238159
1666653797.16029692,247604706,42.7307005,-84.4904299,207.1199951171875,0.6446520090103149,0.5646520256996155
1666653797.18098593,247625395,42.7307005,-84.4904299,207.14999389648438,0.6745307445526123,0.5945307612419128
1666653797.20040584,247644815,42.7307005,-84.4904299,207.1699981689453,0.69122713804245,0.6112271547317505
1666653797.24039197,247684801,42.7307005,-84.4904299,207.20999145507812,0.7360866665840149,0.6560866832733154
1666653797.28080177,247725211,42.7307005,-84.4904298,207.26998901367188,0.7907660007476807,0.7107660174369812
1666653797.28087378,247725283,42.7307005,-84.4904298,207.26998901367188,0.7907660007476807,0.7107660174369812
1666653797.32091594,247765325,42.7307005,-84.4904298,207.30999755859375,0.8319718241691589,0.7519718408584595
1666653797.36044097,247804850,42.7307005,-84.49042969999999,207.34999084472656,0.8756098747253418,0.7956098914146423
1666653797.38085890,247825268,42.7307005,-84.49042969999999,207.37998962402344,0.9005094170570374,0.8205094337463379
1666653797.40047097,247844880,42.7307005,-84.49042969999999,207.38999938964844,0.9133438467979431,0.8333438634872437
1666653797.44046688,247884876,42.730700399999996,-84.49042969999999,207.4199981689453,0.9495925903320312,0.8695926070213318
1666653797.48088098,247925290,42.730700399999996,-84.49042969999999,207.47000122070312,0.9946233034133911,0.9146233201026917
1666653797.48095989,247925369,42.730700399999996,-84.49042969999999,207.47000122070312,0.9946233034133911,0.9146233201026917
1666653797.52085090,247965260,42.730700399999996,-84.49042969999999,207.5,1.0271689891815186,0.9471689462661743
1666653797.56036186,248004771,42.730700399999996,-84.49042969999999,207.5399932861328,1.0615531206130981,0.9815530776977539
1666653797.58087587,248025285,42.730700399999996,-84.49042969999999,207.55999755859375,1.08151113986969,1.0015110969543457
1666653797.60050678,248044916,42.730700399999996,-84.49042969999999,207.5699920654297,1.0909148454666138,1.0109148025512695
1666653797.64040089,248084810,42.730700299999995,-84.49042969999999,207.58999633789062,1.1134101152420044,1.0334100723266602
1666653797.68091679,248125326,42.730700299999995,-84.4904298,207.6199951171875,1.1412361860275269,1.0612361431121826
1666653797.68100190,248125411,42.730700299999995,-84.4904298,207.6199951171875,1.1412361860275269,1.0612361431121826
1666653797.72092080,248165330,42.730700299999995,-84.4904298,207.63999938964844,1.1602087020874023,1.080208659172058
1666653797.76032782,248204737,42.7307002,-84.4904298,207.64999389648438,1.1791679859161377,1.0991679430007935
1666653797.78092885,248225338,42.7307002,-84.4904298,207.6699981689453,1.1902657747268677,1.1102657318115234
1666653797.80044198,248244851,42.7307002,-84.49042969999999,207.6699981689453,1.1954436302185059,1.1154435873031616
1666653797.84043097,248284840,42.7307002,-84.4904298,207.67999267578125,1.2077293395996094,1.1277292966842651
1666653797.88092780,248325337,42.7307002,-84.4904298,207.6999969482422,1.223468542098999,1.1434684991836548
1666653797.88099885,248325408,42.7307002,-84.4904298,207.6999969482422,1.223468542098999,1.1434684991836548
1666653797.92092395,248365333,42.7307001,-84.4904298,207.70999145507812,1.2339493036270142,1.15394926071167
1666653797.96033597,248404745,42.7307001,-84.49042969999999,207.72000122070312,1.243116021156311,1.1631159782409668
1666653797.98096275,248425372,42.7307001,-84.49042969999999,207.72000122070312,1.2488458156585693,1.168845772743225
1666653798.00040388,248444813,42.7307001,-84.49042969999999,207.72999572753906,1.2532600164413452,1.173259973526001
1666653798.04040480,248484814,42.7307001,-84.49042969999999,207.72999572753906,1.2591215372085571,1.179121494293213
1666653798.08093691,248525346,42.7307001,-84.49042969999999,207.739990234375,1.2632954120635986,1.1832953691482544
1666653798.08101177,248525421,42.7307001,-84.49042969999999,207.739990234375,1.2632954120635986,1.1832953691482544
1666653798.12096977,248565379,42.7307001,-84.49042969999999,207.739990234375,1.2681595087051392,1.188159465789795
1666653798.16036296,248604772,42.7307001,-84.49042969999999,207.75,1.271500587463379,1.1915005445480347
1666653798.18089581,248625305,42.7307001,-84.49042969999999,207.75,1.2729425430297852,1.192942500114441
1666653798.20031381,248644723,42.7307001,-84.49042969999999,207.75,1.2771536111831665,1.1971535682678223
1666653798.24035287,248684762,42.7307001,-84.4904298,207.75999450683594,1.2808390855789185,1.2008390426635742
1666653798.28096581,248725375,42.7307,-84.4904299,207.75999450683594,1.2825030088424683,1.202502965927124
1666653798.28106976,248725479,42.7307,-84.4904299,207.75999450683594,1.2825030088424683,1.202502965927124
1666653798.32098484,248765394,42.7307,-84.4904299,207.75999450683594,1.288358449935913,1.2083584070205688
1666653798.36035895,248804768,42.7306999,-84.4904299,207.76998901367188,1.2937564849853516,1.2137564420700073
1666653798.38094378,248825353,42.7306999,-84.49042999999999,207.76998901367188,1.2952499389648438,1.2152498960494995
1666653798.40040493,248844814,42.7306999,-84.49042999999999,207.77999877929688,1.3005468845367432,1.220546841621399
1666653798.44046092,248884870,42.7306999,-84.49042999999999,207.77999877929688,1.304470419883728,1.2244703769683838
1666653798.48088479,248925294,42.7306998,-84.4904301,207.77999877929688,1.304634690284729,1.2246346473693848
1666653798.48105478,248925464,42.7306998,-84.4904301,207.77999877929688,1.304634690284729,1.2246346473693848
1666653798.52047086,248964880,42.730699699999995,-84.4904301,207.77999877929688,1.3094227313995361,1.229422688484192
1666653798.56041098,249004820,42.730699699999995,-84.4904301,207.7899932861328,1.313580870628357,1.2335808277130127
1666653798.58118892,249025598,42.7306996,-84.49043019999999,207.7899932861328,1.3147493600845337,1.2347493171691895
1666653798.60037398,249044783,42.7306996,-84.49043019999999,207.79998779296875,1.3205115795135498,1.2405115365982056
1666653798.64031792,249084727,42.7306995,-84.4904303,207.79998779296875,1.3269366025924683,1.246936559677124
1666653798.68094277,249125352,42.7306994,-84.4904304,207.80999755859375,1.3303790092468262,1.250378966331482
1666653798.68108988,249125499,42.7306994,-84.4904304,207.80999755859375,1.3303790092468262,1.250378966331482
1666653798.72071886,249165128,42.7306993,-84.4904305,207.80999755859375,1.339641809463501,1.2596417665481567
1666653798.76028991,249204699,42.7306992,-84.4904306,207.8199920654297,1.3477784395217896,1.2677783966064453
1666653798.78079176,249225201,42.7306992,-84.4904306,207.8300018310547,1.3504990339279175,1.2704989910125732
1666653798.80042577,249244835,42.730699099999995,-84.4904306,207.8300018310547,1.3570048809051514,1.2770048379898071
1666653798.84037781,249284787,42.730699099999995,-84.49043069999999,207.83999633789062,1.3686619997024536,1.2886619567871094
1666653798.88088179,249325291,42.730699099999995,-84.4904308,207.84999084472656,1.378248929977417,1.2982488870620728
1666653798.88095188,249325361,42.730699099999995,-84.4904308,207.84999084472656,1.378248929977417,1.2982488870620728
1666653798.92093897,249365348,42.730699099999995,-84.4904308,207.8699951171875,1.3902912139892578,1.3102911710739136
1666653798.96037483,249404784,42.730699,-84.49043089999999,207.87998962402344,1.4012490510940552,1.321249008178711
1666653798.98091793,249425327,42.730699,-84.49043089999999,207.87998962402344,1.4058270454406738,1.3258270025253296
1666653799.00043297,249444842,42.730699,-84.49043089999999,207.88999938964844,1.4132423400878906,1.3332422971725464
1666653799.04040885,249484818,42.730699,-84.49043089999999,207.89999389648438,1.422741413116455,1.3427413702011108
1666653799.08086586,249525275,42.7306989,-84.49043089999999,207.9099884033203,1.430179476737976,1.3501794338226318
1666653799.08096576,249525375,42.7306989,-84.49043089999999,207.9099884033203,1.430179476737976,1.3501794338226318
1666653799.12093878,249565348,42.7306989,-84.49043089999999,207.9199981689453,1.4405885934829712,1.360588550567627
1666653799.16038299,249604792,42.7306988,-84.49043089999999,207.92999267578125,1.4500929117202759,1.3700928688049316
1666653799.18089795,249625307,42.7306988,-84.49043089999999,207.92999267578125,1.4540090560913086,1.3740090131759644
1666653799.20045686,249644866,42.7306988,-84.49043089999999,207.94000244140625,1.4606328010559082,1.380632758140564
1666653799.24049377,249684903,42.7306988,-84.490431,207.94000244140625,1.4683804512023926,1.3883804082870483
1666653799.28092289,249725332,42.7306987,-84.490431,207.9499969482422,1.473400354385376,1.3934003114700317
1666653799.28099394,249725403,42.7306987,-84.490431,207.9499969482422,1.473400354385376,1.3934003114700317
1666653799.32088494,249765294,42.7306987,-84.490431,207.95999145507812,1.481548547744751,1.4015485048294067
1666653799.36033177,249804741,42.7306987,-84.490431,207.95999145507812,1.4894485473632812,1.409448504447937
1666653799.38092780,249825337,42.7306987,-84.4904311,207.97000122070312,1.4923607110977173,1.412360668182373
1666653799.40037179,249844781,42.7306987,-84.4904311,207.97000122070312,1.4981119632720947,1.4181119203567505
1666653799.44044089,249884850,42.7306987,-84.4904311,207.97999572753906,1.5059534311294556,1.4259533882141113
1666653799.48093176,249925341,42.7306986,-84.4904311,207.989990234375,1.5113660097122192,1.431365966796875
1666653799.48100281,249925412,42.7306986,-84.4904311,207.989990234375,1.5113660097122192,1.431365966796875
1666653799.52092886,249965338,42.7306986,-84.4904311,207.989990234375,1.5196882486343384,1.4396882057189941
1666653799.56032681,250004736,42.7306986,-84.4904311,208.0,1.5274618864059448,1.4474618434906006
1666653799.58094692,250025356,42.7306986,-84.4904311,208.00999450683594,1.530454158782959,1.4504541158676147
1666653799.60043883,250044848,42.7306986,-84.4904311,208.00999450683594,1.5355337858200073,1.455533742904663
1666653799.64038897,250084798,42.7306986,-84.49043119999999,208.01998901367188,1.5418235063552856,1.4618234634399414
1666653799.68096089,250125370,42.7306987,-84.49043119999999,208.01998901367188,1.5457783937454224,1.4657783508300781
1666653799.68103695,250125446,42.7306987,-84.49043119999999,208.01998901367188,1.5457783937454224,1.4657783508300781
1666653799.72099590,250165405,42.7306986,-84.4904313,208.02999877929688,1.55218505859375,1.4721850156784058
1666653799.76038575,250204795,42.7306986,-84.4904313,208.02999877929688,1.5575966835021973,1.477596640586853
1666653799.78092575,250225335,42.7306986,-84.4904313,208.02999877929688,1.5594748258590698,1.4794747829437256
1666653799.80031490,250244724,42.7306986,-84.4904313,208.0399932861328,1.5635946989059448,1.4835946559906006
1666653799.84034991,250284759,42.7306987,-84.4904313,208.04998779296875,1.5704957246780396,1.4904956817626953
1666653799.88096690,250325376,42.7306987,-84.4904313,208.04998779296875,1.5757941007614136,1.4957940578460693
1666653799.88106990,250325479,42.7306987,-84.4904313,208.04998779296875,1.5757941007614136,1.4957940578460693
1666653799.92097092,250365380,42.7306988,-84.4904313,208.05999755859375,1.5829200744628906,1.5029200315475464
1666653799.96047592,250404885,42.7306988,-84.4904313,208.0699920654297,1.590208649635315,1.5102086067199707
1666653799.98087096,250425280,42.7306989,-84.4904313,208.0699920654297,1.59329354763031,1.5132935047149658
1666653800.00034690,250444756,42.7306989,-84.4904313,208.0699920654297,1.5975619554519653,1.517561912536621
1666653800.04032397,250484733,42.7306989,-84.4904313,208.0800018310547,1.604581356048584,1.5245813131332397
1666653800.08089590,250525305,42.730699,-84.4904313,208.08999633789062,1.6110999584197998,1.5310999155044556
1666653800.08096886,250525378,42.730699,-84.4904313,208.08999633789062,1.6110999584197998,1.5310999155044556
1666653800.12108684,250565496,42.730699,-84.4904313,208.08999633789062,1.6184730529785156,1.5384730100631714
1666653800.16033578,250604745,42.730699099999995,-84.49043119999999,208.09999084472656,1.6258171796798706,1.5458171367645264
1666653800.18083477,250625244,42.730699099999995,-84.49043119999999,208.09999084472656,1.628996729850769,1.5489966869354248
1666653800.20032477,250644734,42.730699099999995,-84.49043119999999,208.11000061035156,1.6328011751174927,1.5528011322021484
1666653800.24035192,250684761,42.7306992,-84.49043119999999,208.11000061035156,1.6372478008270264,1.5572477579116821
1666653800.28083086,250725240,42.7306993,-84.49043119999999,208.1199951171875,1.6402220726013184,1.5602220296859741
1666653800.28090096,250725310,42.7306993,-84.49043119999999,208.1199951171875,1.6402220726013184,1.5602220296859741
1666653800.32094979,250765359,42.7306994,-84.49043119999999,208.1199951171875,1.6442381143569946,1.5642380714416504
1666653800.36041880,250804828,42.7306994,-84.49043119999999,208.1199951171875,1.647754192352295,1.5677541494369507
1666653800.38088393,250825293,42.7306995,-84.49043119999999,208.1199951171875,1.6489033699035645,1.5689033269882202
1666653800.40035176,250844761,42.7306995,-84.49043119999999,208.12998962402344,1.6511890888214111,1.571189045906067
1666653800.44038486,250884794,42.7306996,-84.49043119999999,208.12998962402344,1.654403567314148,1.5744035243988037
1666653800.48086977,250925279,42.730699699999995,-84.4904313,208.12998962402344,1.6557363271713257,1.5757362842559814
1666653800.48097181,250925381,42.730699699999995,-84.4904313,208.12998962402344,1.6557363271713257,1.5757362842559814
1666653800.52093387,250965343,42.7306998,-84.4904313,208.12998962402344,1.6581077575683594,1.5781077146530151
1666653800.56038475,251004794,42.7306999,-84.4904313,208.13999938964844,1.6604819297790527,1.5804818868637085
1666653800.58084989,251025259,42.7307,-84.4904313,208.13999938964844,1.6613489389419556,1.5813488960266113
1666653800.60043287,251044842,42.7307,-84.4904313,208.13999938964844,1.6627638339996338,1.5827637910842896
1666653800.64035988,251084769,42.7307001,-84.4904313,208.13999938964844,1.6649960279464722,1.584995985031128
1666653800.68090987,251125319,42.7307002,-84.4904313,208.13999938964844,1.666649580001831,1.5866495370864868
1666653800.68103290,251125442,42.7307002,-84.4904313,208.13999938964844,1.666649580001831,1.5866495370864868
1666653800.72088981,251165299,42.730700299999995,-84.49043139999999,208.13999938964844,1.6687347888946533,1.588734745979309
1666653800.76033998,251204749,42.730700399999996,-84.49043139999999,208.14999389648438,1.6707351207733154,1.5907350778579712
1666653800.78088093,251225290,42.730700399999996,-84.4904315,208.14999389648438,1.6714789867401123,1.591478943824768
1666653800.80051494,251244924,42.7307005,-84.4904315,208.14999389648438,1.6724897623062134,1.5924897193908691
1666653800.84042597,251284835,42.7307005,-84.4904316,208.14999389648438,1.6737796068191528,1.5937795639038086
1666653800.88083887,251325248,42.7307006,-84.4904317,208.14999389648438,1.6748360395431519,1.5948359966278076
1666653800.88100576,251325415,42.7307006,-84.4904317,208.14999389648438,1.6748360395431519,1.5948359966278076
1666653800.92086792,251365277,42.7307007,-84.4904318,208.14999389648438,1.675964593887329,1.5959645509719849
1666653800.96043181,251404841,42.7307007,-84.49043189999999,208.14999389648438,1.6769529581069946,1.5969529151916504
1666653800.98095083,251425360,42.7307008,-84.490432,208.14999389648438,1.6773252487182617,1.5973252058029175
1666653801.00046682,251444876,42.7307008,-84.490432,208.14999389648438,1.6776633262634277,1.5976632833480835
1666653801.04049087,251484900,42.730700899999995,-84.490432,208.14999389648438,1.6770613193511963,1.597061276435852
1666653801.08090377,251525313,42.730700899999995,-84.49043209999999,208.14999389648438,1.6758520603179932,1.595852017402649
1666653801.08098388,251525393,42.730700899999995,-84.49043209999999,208.14999389648438,1.6758520603179932,1.595852017402649
1666653801.12094879,251565358,42.730700999999996,-84.4904322,208.14999389648438,1.675045132637024,1.5950450897216797
1666653801.16029596,251604705,42.730700999999996,-84.4904322,208.14999389648438,1.6740918159484863,1.594091773033142
1666653801.18093181,251625341,42.7307011,-84.4904323,208.14999389648438,1.6733930110931396,1.5933929681777954
1666653801.20032883,251644738,42.7307011,-84.4904323,208.14999389648438,1.6729364395141602,1.592936396598816
1666653801.24043298,251684842,42.7307012,-84.4904324,208.14999389648438,1.671114444732666,1.5911144018173218
1666653801.28091383,251725323,42.7307012,-84.4904325,208.13999938964844,1.669081449508667,1.5890814065933228
1666653801.28098679,251725396,42.7307012,-84.4904325,208.13999938964844,1.669081449508667,1.5890814065933228
1666653801.32095575,251765365,42.7307013,-84.49043259999999,208.13999938964844,1.6672240495681763,1.587224006652832
1666653801.36036682,251804776,42.7307013,-84.4904327,208.13999938964844,1.6651607751846313,1.585160732269287
1666653801.38101888,251825428,42.7307014,-84.4904328,208.13999938964844,1.6639747619628906,1.5839747190475464
1666653801.40042782,251844837,42.7307014,-84.4904328,208.13999938964844,1.6629438400268555,1.5829437971115112
1666653801.44037676,251884786,42.730701499999995,-84.4904329,208.13999938964844,1.6608761548995972,1.580876111984253
1666653801.48095679,251925366,42.730701499999995,-84.490433,208.12998962402344,1.658642292022705,1.5786422491073608
1666653801.48103189,251925441,42.730701499999995,-84.490433,208.12998962402344,1.658642292022705,1.5786422491073608
1666653801.52095199,251965361,42.730701599999996,-84.49043309999999,208.12998962402344,1.6564604043960571,1.576460361480713
1666653801.56043482,252004844,42.7307017,-84.49043329999999,208.12998962402344,1.654128909111023,1.5741288661956787
1666653801.58090281,252025312,42.7307017,-84.49043329999999,208.12998962402344,1.6529254913330078,1.5729254484176636
1666653801.60038686,252044796,42.7307018,-84.4904334,208.12998962402344,1.6515761613845825,1.5715761184692383
1666653801.64036989,252084779,42.7307018,-84.4904334,208.1199951171875,1.649878740310669,1.5698786973953247
1666653801.68093181,252125341,42.7307019,-84.4904335,208.1199951171875,1.6481313705444336,1.5681313276290894
1666653801.68106794,252125477,42.7307019,-84.4904335,208.1199951171875,1.6481313705444336,1.5681313276290894
1666653801.72098279,252165392,42.730702,-84.4904336,208.1199951171875,1.6460129022598267,1.5660128593444824
1666653801.76045299,252204862,42.730702099999995,-84.4904337,208.1199951171875,1.6439287662506104,1.5639287233352661
1666653801.78081894,252225228,42.730702099999995,-84.4904337,208.1199951171875,1.6427735090255737,1.5627734661102295
1666653801.80048275,252244892,42.730702199999996,-84.49043379999999,208.1199951171875,1.6415228843688965,1.5615228414535522
1666653801.84038877,252284798,42.7307023,-84.49043379999999,208.1199951171875,1.640499472618103,1.5604994297027588
1666653801.88084483,252325254,42.7307023,-84.49043379999999,208.1199951171875,1.6399990320205688,1.5599989891052246
1666653801.88091493,252325324,42.7307023,-84.49043379999999,208.1199951171875,1.6399990320205688,1.5599989891052246
1666653801.92098689,252365396,42.7307024,-84.49043379999999,208.11000061035156,1.6384608745574951,1.5584608316421509
1666653801.96041799,252404827,42.7307025,-84.49043379999999,208.11000061035156,1.636837124824524,1.5568370819091797
1666653801.98080897,252425218,42.7307026,-84.49043379999999,208.11000061035156,1.6361947059631348,1.5561946630477905
1666653802.00041175,252444821,42.7307026,-84.4904339,208.11000061035156,1.6349222660064697,1.5549222230911255
1666653802.04038882,252484798,42.730702699999995,-84.4904339,208.11000061035156,1.6331158876419067,1.5531158447265625
1666653802.08080697,252525216,42.730702799999996,-84.49043379999999,208.11000061035156,1.6327496767044067,1.5527496337890625
1666653802.08093095,252525340,42.730702799999996,-84.49043379999999,208.11000061035156,1.6327496767044067,1.5527496337890625
1666653802.12096286,252565372,42.7307029,-84.4904337,208.11000061035156,1.6310778856277466,1.5510778427124023
1666653802.16033483,252604744,42.730703,-84.4904337,208.09999084472656,1.6287792921066284,1.5487792491912842
1666653802.18086290,252625272,42.730703,-84.4904337,208.09999084472656,1.62795090675354,1.5479508638381958
1666653802.20043898,252644848,42.7307031,-84.4904337,208.09999084472656,1.6263048648834229,1.5463048219680786
1666653802.24041080,252684820,42.7307031,-84.4904336,208.09999084472656,1.6229900121688843,1.54298996925354
1666653802.28089285,252725302,42.7307032,-84.4904334,208.08999633789062,1.6184788942337036,1.5384788513183594
1666653802.28099680,252725406,42.7307032,-84.4904334,208.08999633789062,1.6184788942337036,1.5384788513183594
1666653802.32085776,252765267,42.7307032,-84.49043329999999,208.08999633789062,1.6138755083084106,1.5338754653930664
1666653802.36030197,252804711,42.730703299999995,-84.4904332,208.0800018310547,1.6089856624603271,1.528985619544983
1666653802.38089585,252825305,42.730703299999995,-84.49043309999999,208.0800018310547,1.6064625978469849,1.5264625549316406
1666653802.40044880,252844858,42.730703299999995,-84.49043309999999,208.0800018310547,1.6039706468582153,1.523970603942871
1666653802.44041181,252884821,42.730703299999995,-84.490433,208.0699920654297,1.5983456373214722,1.518345594406128
1666653802.48106194,252925471,42.730703299999995,-84.4904327,208.0699920654297,1.5914767980575562,1.511476755142212
1666653802.48119688,252925606,42.730703299999995,-84.4904327,208.0699920654297,1.5914767980575562,1.511476755142212
1666653802.52089882,252965308,42.730703399999996,-84.49043259999999,208.05999755859375,1.585771083831787,1.5057710409164429
1666653802.56031775,253004727,42.730703399999996,-84.4904324,208.05999755859375,1.5810620784759521,1.501062035560608
1666653802.58094597,253025355,42.730703399999996,-84.4904323,208.04998779296875,1.5789662599563599,1.4989662170410156
1666653802.60037279,253044782,42.730703399999996,-84.4904323,208.04998779296875,1.5768035650253296,1.4968035221099854
1666653802.64052176,253084931,42.730703399999996,-84.49043209999999,208.04998779296875,1.572947382926941,1.4929473400115967
1666653802.68093085,253125340,42.7307035,-84.4904318,208.0399932861328,1.5693018436431885,1.4893018007278442
1666653802.68100977,253125419,42.7307035,-84.4904318,208.0399932861328,1.5693018436431885,1.4893018007278442
1666653802.72094083,253165350,42.7307035,-84.4904315,208.0399932861328,1.5659695863723755,1.4859695434570312
1666653802.76037288,253204782,42.7307035,-84.4904313,208.0399932861328,1.5630548000335693,1.483054757118225
1666653802.78093982,253225349,42.7307036,-84.49043119999999,208.0399932861328,1.5616856813430786,1.4816856384277344
1666653802.80034590,253244755,42.7307036,-84.49043119999999,208.0399932861328,1.5603209733963013,1.480320930480957
1666653802.84040475,253284814,42.7307037,-84.490431,208.0399932861328,1.5607088804244995,1.4807088375091553
1666653802.88086581,253325275,42.7307038,-84.4904308,208.0399932861328,1.5620542764663696,1.4820542335510254
1666653802.88101292,253325422,42.7307038,-84.4904308,208.0399932861328,1.5620542764663696,1.4820542335510254
1666653802.92096686,253365376,42.7307038,-84.4904306,208.0399932861328,1.5622774362564087,1.4822773933410645
1666653802.96033692,253404746,42.730703899999995,-84.4904305,208.0399932861328,1.5624312162399292,1.482431173324585
1666653802.98099995,253425409,42.730703899999995,-84.4904304,208.0399932861328,1.5627615451812744,1.4827615022659302
1666653803.00039196,253444801,42.730703999999996,-84.4904304,208.0399932861328,1.5623208284378052,1.482320785522461
1666653803.04030585,253484715,42.7307041,-84.4904303,208.0399932861328,1.562416672706604,1.4824166297912598
1666653803.08086181,253525271,42.7307042,-84.4904301,208.0399932861328,1.5632017850875854,1.4832017421722412
1666653803.08101892,253525428,42.7307042,-84.4904301,208.0399932861328,1.5632017850875854,1.4832017421722412
1666653803.12101197,253565421,42.7307043,-84.49042999999999,208.0399932861328,1.5631062984466553,1.483106255531311
1666653803.16037679,253604786,42.7307044,-84.49042999999999,208.0399932861328,1.562968134880066,1.4829680919647217
1666653803.18093681,253625346,42.730704499999995,-84.49042999999999,208.0399932861328,1.5631520748138428,1.4831520318984985
1666653803.20041394,253644823,42.730704499999995,-84.4904299,208.0399932861328,1.5625839233398438,1.4825838804244995
1666653803.24031782,253684727,42.730704599999996,-84.4904298,208.0399932861328,1.5622367858886719,1.4822367429733276
1666653803.28082585,253725235,42.7307048,-84.4904296,208.0399932861328,1.56283700466156,1.4828369617462158
1666653803.28095388,253725363,42.7307048,-84.4904296,208.0399932861328,1.56283700466156,1.4828369617462158
1666653803.32104588,253765455,42.7307049,-84.49042949999999,208.0399932861328,1.5620052814483643,1.48200523853302
1666653803.36042476,253804834,42.730705,-84.4904294,208.0399932861328,1.5606921911239624,1.4806921482086182
1666653803.38087678,253825286,42.7307051,-84.4904293,208.0399932861328,1.5601675510406494,1.4801675081253052
1666653803.40037084,253844780,42.7307051,-84.4904293,208.02999877929688,1.5591245889663696,1.4791245460510254
1666653803.44033575,253884745,42.730705199999996,-84.4904291,208.02999877929688,1.5575954914093018,1.4775954484939575
1666653803.48092079,253925330,42.7307054,-84.49042899999999,208.02999877929688,1.5566540956497192,1.476654052734375
1666653803.48104692,253925456,42.7307054,-84.49042899999999,208.02999877929688,1.5566540956497192,1.476654052734375
1666653803.52103686,253965446,42.7307055,-84.4904289,208.02999877929688,1.5548781156539917,1.4748780727386475
1666653803.56047678,254004886,42.7307056,-84.49042879999999,208.02999877929688,1.552815318107605,1.4728152751922607
1666653803.58080792,254025217,42.7307056,-84.4904287,208.02999877929688,1.5518561601638794,1.4718561172485352
1666653803.60039687,254044806,42.7307056,-84.4904287,208.02999877929688,1.5504692792892456,1.4704692363739014
1666653803.64039278,254084802,42.7307057,-84.4904286,208.01998901367188,1.5497382879257202,1.469738245010376
1666653803.68091178,254125321,42.7307059,-84.4904284,208.01998901367188,1.5496885776519775,1.4696885347366333
1666653803.68104386,254125453,42.7307059,-84.4904284,208.01998901367188,1.5496885776519775,1.4696885347366333
1666653803.72088099,254165290,42.7307059,-84.49042829999999,208.01998901367188,1.5484448671340942,1.46844482421875
1666653803.76031780,254204727,42.730706,-84.4904282,208.01998901367188,1.5468052625656128,1.4668052196502686
1666653803.78082180,254225231,42.7307061,-84.4904282,208.01998901367188,1.5461546182632446,1.4661545753479004
1666653803.80039191,254244801,42.7307061,-84.4904282,208.01998901367188,1.5448108911514282,1.464810848236084
1666653803.84045196,254284861,42.7307061,-84.490428,208.01998901367188,1.544608235359192,1.4646081924438477
1666653803.88092875,254325338,42.7307062,-84.4904279,208.01998901367188,1.544922113418579,1.4649220705032349
1666653803.88102984,254325439,42.7307062,-84.4904279,208.01998901367188,1.544922113418579,1.4649220705032349
1666653803.92096782,254365377,42.7307063,-84.49042779999999,208.01998901367188,1.5438944101333618,1.4638943672180176
1666653803.96035790,254404767,42.7307063,-84.4904277,208.01998901367188,1.5427495241165161,1.4627494812011719
1666653803.98094177,254425351,42.7307063,-84.4904277,208.01998901367188,1.5424258708953857,1.4624258279800415
1666653804.00036788,254444777,42.730706399999995,-84.49042759999999,208.01998901367188,1.5412577390670776,1.4612576961517334
1666653804.04039693,254484806,42.730706399999995,-84.4904275,208.01998901367188,1.5406301021575928,1.4606300592422485
1666653804.08094788,254525357,42.7307065,-84.4904274,208.01998901367188,1.540604591369629,1.4606045484542847
1666653804.08101892,254525428,42.7307065,-84.4904274,208.01998901367188,1.540604591369629,1.4606045484542847
1666653804.12092185,254565331,42.7307065,-84.4904274,208.00999450683594,1.5389926433563232,1.458992600440979
1666653804.16037679,254604786,42.7307065,-84.4904273,208.00999450683594,1.5371766090393066,1.4571765661239624
1666653804.18089986,254625309,42.7307066,-84.4904272,208.00999450683594,1.5365797281265259,1.4565796852111816
1666653804.20043182,254644841,42.7307066,-84.4904272,208.00999450683594,1.535016417503357,1.4550163745880127
1666653804.24041390,254684823,42.7307066,-84.49042709999999,208.00999450683594,1.5337634086608887,1.4537633657455444
1666653804.28095293,254725362,42.7307067,-84.49042709999999,208.00999450683594,1.5332635641098022,1.453263521194458
1666653804.28104496,254725454,42.7307067,-84.49042709999999,208.00999450683594,1.5332635641098022,1.453263521194458
1666653804.32106090,254765470,42.7307068,-84.490427,208.00999450683594,1.5313421487808228,1.4513421058654785
1666653804.36031294,254804722,42.7307068,-84.4904269,208.0,1.5292751789093018,1.4492751359939575
1666653804.38096094,254825370,42.7307068,-84.4904269,208.0,1.5284634828567505,1.4484634399414062
1666653804.40036583,254844775,42.7307068,-84.4904269,208.0,1.5268497467041016,1.4468497037887573
1666653804.44037986,254884789,42.7307069,-84.4904268,208.0,1.5236858129501343,1.44368577003479
1666653804.48086381,254925273,42.730706999999995,-84.4904267,208.0,1.520792007446289,1.4407919645309448
1666653804.48104978,254925459,42.730706999999995,-84.4904267,208.0,1.520792007446289,1.4407919645309448
1666653804.52095079,254965360,42.730706999999995,-84.4904267,207.989990234375,1.517493486404419,1.4374934434890747
1666653804.56036496,255004774,42.7307071,-84.49042659999999,207.989990234375,1.5142269134521484,1.4342268705368042
1666653804.58095884,255025368,42.7307071,-84.49042659999999,207.989990234375,1.5124907493591309,1.4324907064437866
1666653804.60035586,255044765,42.7307072,-84.49042659999999,207.989990234375,1.5105929374694824,1.4305928945541382
1666653804.64041996,255084829,42.7307072,-84.4904265,207.97999572753906,1.5065033435821533,1.426503300666809
1666653804.68089890,255125308,42.7307073,-84.4904265,207.97999572753906,1.502918004989624,1.4229179620742798
1666653804.68102980,255125439,42.7307073,-84.4904265,207.97999572753906,1.502918004989624,1.4229179620742798
1666653804.72094679,255165356,42.7307074,-84.4904265,207.97000122070312,1.49932861328125,1.4193285703659058
1666653804.76040387,255204813,42.7307075,-84.4904265,207.97000122070312,1.4960232973098755,1.4160232543945312
1666653804.78083777,255225247,42.7307075,-84.4904265,207.97000122070312,1.4944826364517212,1.414482593536377
1666653804.80037880,255244788,42.7307075,-84.4904265,207.97000122070312,1.4924966096878052,1.412496566772461
1666653804.84029794,255284707,42.730707599999995,-84.4904265,207.97000122070312,1.490411639213562,1.4104115962982178
1666653804.88081694,255325226,42.730707699999996,-84.4904265,207.95999145507812,1.4887213706970215,1.4087213277816772
1666653804.88094783,255325357,42.730707699999996,-84.4904265,207.95999145507812,1.4887213706970215,1.4087213277816772
1666653804.92099690,255365406,42.7307078,-84.4904265,207.95999145507812,1.4863494634628296,1.4063494205474854
1666653804.96042991,255404839,42.7307079,-84.4904265,207.95999145507812,1.4844157695770264,1.4044157266616821
1666653804.98088598,255425295,42.7307079,-84.4904265,207.95999145507812,1.4839046001434326,1.4039045572280884
1666653805.00053096,255444940,42.730708,-84.4904265,207.95999145507812,1.4824156761169434,1.4024156332015991
1666653805.04037976,255484789,42.730708,-84.4904265,207.95999145507812,1.480893850326538,1.4008938074111938
1666653805.08076191,255525171,42.7307081,-84.4904265,207.95999145507812,1.4807876348495483,1.400787591934204
1666653805.08088398,255525293,42.7307081,-84.4904265,207.95999145507812,1.4807876348495483,1.400787591934204
1666653805.12095690,255565366,42.730708199999995,-84.4904265,207.9499969482422,1.479366660118103,1.3993666172027588
1666653805.16046691,255604876,42.730708299999996,-84.49042659999999,207.9499969482422,1.4777390956878662,1.397739052772522
1666653805.18086076,255625270,42.730708299999996,-84.49042659999999,207.9499969482422,1.477281093597412,1.3972810506820679
1666653805.20041084,255644820,42.730708299999996,-84.49042659999999,207.9499969482422,1.4760167598724365,1.3960167169570923
1666653805.24039388,255684803,42.7307084,-84.49042659999999,207.9499969482422,1.4721853733062744,1.3921853303909302
1666653805.28087378,255725283,42.7307084,-84.4904267,207.94000244140625,1.4687048196792603,1.388704776763916
1666653805.28094482,255725354,42.7307084,-84.4904267,207.94000244140625,1.4687048196792603,1.388704776763916
