timestamp,TimeUS,C,Q1,Q2,Q3,Q4
1666653790.47958994,240923999,1,0.9967672228813171,0.0005886582657694817,0.0015569442184641957,-0.08032651990652084
1666653790.51962376,240964033,1,0.9967678785324097,0.0005824132822453976,0.0015454504173249006,-0.08031850308179855
1666653790.55963898,241004048,1,0.996767520904541,0.0006008286727592349,0.0015604745130985975,-0.08032262325286865
1666653790.57958698,241023996,1,0.996766984462738,0.0006004123133607209,0.0015578126767650247,-0.08032891154289246
1666653790.59962797,241044037,1,0.996766984462738,0.0005946328165009618,0.0015408715698868036,-0.08032981306314468
1666653790.63962197,241084031,1,0.9967679977416992,0.0006044001202099025,0.0015224390663206577,-0.08031763881444931
1666653790.67959976,241124009,1,0.9967682361602783,0.0006350164185278118,0.0014826584374532104,-0.08031491935253143
1666653790.71958780,241163997,1,0.996770441532135,0.000648203887976706,0.0014636346604675055,-0.0802876278758049
1666653790.75961590,241204025,1,0.9967728853225708,0.0006514379638247192,0.0014462730614468455,-0.0802578330039978
1666653790.77958894,241223998,1,0.9967719912528992,0.0006704854895360768,0.001440756837837398,-0.0802685096859932
1666653790.79957986,241243989,1,0.9967725276947021,0.0006776031223125756,0.001437302795238793,-0.08026181906461716
1666653790.83959794,241284007,1,0.9967731833457947,0.0006849826313555241,0.001428171992301941,-0.08025401085615158
1666653790.87959290,241324002,1,0.9967740178108215,0.0006965690408833325,0.0014120881678536534,-0.0802437961101532
1666653790.91957784,241363987,1,0.9967751502990723,0.0006882054731249809,0.0013948900159448385,-0.08022980391979218
1666653790.95962691,241404036,1,0.9967755675315857,0.0006913779070600867,0.0013777526328340173,-0.08022505789995193
1666653790.97959280,241424002,1,0.9967783093452454,0.0007053166045807302,0.0013771007070317864,-0.08019089698791504
1666653790.99961686,241444026,1,0.9967787861824036,0.000703433237504214,0.0013724029995501041,-0.08018522709608078
1666653791.03962779,241484037,1,0.9967811703681946,0.0007036827737465501,0.0013644242426380515,-0.08015605807304382
1666653791.07957983,241523989,1,0.996782124042511,0.0007092339801602066,0.0013677835231646895,-0.08014348149299622
1666653791.11958790,241563997,1,0.9967824220657349,0.0007174470229074359,0.001398305525071919,-0.08013982325792313
1666653791.15958977,241603999,1,0.9967809915542603,0.0007205702713690698,0.0013780092122033238,-0.08015724271535873
1666653791.17959976,241624009,1,0.9967818260192871,0.000736038142349571,0.0013763775350525975,-0.08014744520187378
1666653791.19962096,241644030,1,0.996781587600708,0.0007435004226863384,0.0013695999514311552,-0.08014996349811554
1666653791.23961496,241684024,1,0.9967823624610901,0.0007329232757911086,0.0013767147902399302,-0.08014026284217834
1666653791.27959776,241724007,1,0.9967823028564453,0.000745775003451854,0.001372438040561974,-0.080141082406044
1666653791.31956482,241763974,1,0.9967814683914185,0.0007495551253668964,0.0013508009724318981,-0.08015155792236328
1666653791.35959697,241804006,1,0.9967812895774841,0.0007648594328202307,0.0013378284638747573,-0.08015425503253937
1666653791.37961888,241824028,1,0.9967806935310364,0.0007588370935991406,0.0013254000805318356,-0.08016172796487808
1666653791.39959693,241844006,1,0.9967806339263916,0.0007606660947203636,0.0013249455951154232,-0.08016282320022583
1666653791.43961596,241884025,1,0.9967788457870483,0.0007658866816200316,0.0013164961710572243,-0.0801849216222763
1666653791.47961497,241924024,1,0.996780276298523,0.0007775353733450174,0.0012981555191799998,-0.0801670178771019
1666653791.51961875,241964028,1,0.9967786073684692,0.0007965321419760585,0.0012897561537101865,-0.08018794655799866
1666653791.55958891,242003998,1,0.9967787861824036,0.0008054136415012181,0.0012743333354592323,-0.08018603920936584
1666653791.57961488,242024024,1,0.9967795014381409,0.0008145109750330448,0.0012816974194720387,-0.08017671853303909
1666653791.59957480,242043984,1,0.9967793226242065,0.0008101885323412716,0.0012752913171425462,-0.08017940074205399
1666653791.63958478,242083994,1,0.9967812299728394,0.0008115969249047339,0.0012464842293411493,-0.08015619218349457
1666653791.67961597,242124025,1,0.9967804551124573,0.0008253274136222899,0.001226153690367937,-0.0801655724644661
1666653791.71960282,242164012,1,0.9967800378799438,0.0008380215731449425,0.0012140859616920352,-0.08017109334468842
1666653791.75959396,242204003,1,0.9967809915542603,0.0008512482163496315,0.001208757166750729,-0.0801592692732811
1666653791.77962089,242224030,1,0.9967817664146423,0.0008500777767039835,0.0012103037443012,-0.08014912903308868
1666653791.79959297,242244002,1,0.9967816472053528,0.0008606299525126815,0.0012046118499711156,-0.08015047758817673
1666653791.83959079,242284000,1,0.996783435344696,0.0008742776117287576,0.0011973027139902115,-0.08012869209051132
1666653791.87962580,242324035,1,0.996783971786499,0.0008817703346721828,0.001200093305669725,-0.08012157678604126
1666653791.91965675,242364066,1,0.9967833161354065,0.0008882195106707513,0.0011883012484759092,-0.0801297277212143
1666653791.95965695,242404066,1,0.996785044670105,0.000893815653398633,0.0011710664257407188,-0.0801083967089653
1666653791.97959089,242424000,1,0.9967862367630005,0.0008935519144870341,0.001187450485303998,-0.0800933837890625
1666653791.99958992,242443999,1,0.9967871308326721,0.0009027310879901052,0.001175224082544446,-0.08008287101984024
1666653792.03958893,242483998,1,0.9967893362045288,0.0009082375909201801,0.0011694775894284248,-0.08005531877279282
1666653792.07959390,242524003,1,0.9967912435531616,0.0009117485024034977,0.0011523208813741803,-0.08003171533346176
1666653792.11961794,242564027,1,0.9967899322509766,0.0009334757342003286,0.0011539831757545471,-0.0800473690032959
1666653792.15963078,242604040,1,0.9967926144599915,0.0009249284048564732,0.001159296603873372,-0.08001449704170227
1666653792.17958593,242623995,1,0.9967932105064392,0.0009329112945124507,0.0011678010923787951,-0.08000685274600983
1666653792.19962788,242644037,1,0.9967933297157288,0.0009415788226760924,0.0011727275559678674,-0.08000524342060089
1666653792.23960090,242684010,1,0.9967946410179138,0.000948109314776957,0.0011796988546848297,-0.07998847961425781
1666653792.27958798,242723997,1,0.9967952966690063,0.0009484451147727668,0.0011949220206588507,-0.07998019456863403
1666653792.31959391,242764003,1,0.9967958331108093,0.0009434985113330185,0.0012046959018334746,-0.0799732357263565
1666653792.35961485,242804024,1,0.9967954158782959,0.0009393537184223533,0.0011930410983040929,-0.07997841387987137
1666653792.37959480,242824004,1,0.9967944025993347,0.0009495750418864191,0.0012007831828668714,-0.07999145984649658
1666653792.39960194,242844011,1,0.9967936873435974,0.0009441121947020292,0.0011870464077219367,-0.07999991625547409
1666653792.43962383,242884033,1,0.996793806552887,0.0009356084046885371,0.0011723085772246122,-0.0799994245171547
1666653792.47959280,242924002,1,0.9967946410179138,0.0009392882348038256,0.0011858622310683131,-0.07998879998922348
1666653792.51959181,242964001,1,0.9967948794364929,0.0009454602841287851,0.0011744434013962746,-0.07998577505350113
1666653792.55960584,243004015,1,0.996797502040863,0.0009447640622965991,0.001172330230474472,-0.07995269447565079
1666653792.57959175,243024001,1,0.9967973828315735,0.0009408803889527917,0.00117137108463794,-0.07995451986789703
1666653792.59961796,243044027,1,0.9967972636222839,0.0009422898292541504,0.0011734655126929283,-0.07995572686195374
1666653792.63959885,243084008,1,0.996799886226654,0.0009380425326526165,0.001176537130959332,-0.07992307096719742
1666653792.67959476,243124004,1,0.996802568435669,0.0009185826638713479,0.0011667812941595912,-0.07989007979631424
1666653792.71959376,243164003,1,0.996802806854248,0.0009055690607056022,0.001153136370703578,-0.07988718897104263
1666653792.75960588,243204015,1,0.996803879737854,0.0009014487150125206,0.0011609623907133937,-0.0798737183213234
1666653792.77963686,243224046,1,0.9968035817146301,0.0009194453596137464,0.001158225815743208,-0.07987789064645767
1666653792.79960990,243244019,1,0.9968041181564331,0.0009212916484102607,0.001161615364253521,-0.0798705667257309
1666653792.83962488,243284034,1,0.996803343296051,0.0009314017370343208,0.001157499267719686,-0.07988078147172928
1666653792.87960792,243324017,1,0.9968026280403137,0.0009261131635867059,0.001157820806838572,-0.07988936454057693
1666653792.91959596,243364005,1,0.9968008399009705,0.0009347008890472353,0.0011388510465621948,-0.07991178333759308
1666653792.95959592,243404005,1,0.9968008995056152,0.0009328593732789159,0.001159864361397922,-0.0799112319946289
1666653792.97961187,243424021,1,0.9968001842498779,0.0009412349900230765,0.0011631723027676344,-0.07991960644721985
1666653792.99959588,243444005,1,0.9967995882034302,0.0009459352004341781,0.0011648093350231647,-0.07992716133594513
1666653793.03962278,243484032,1,0.9967978596687317,0.0009302996331825852,0.0011751592392101884,-0.07994895428419113
1666653793.07961178,243524021,1,0.996799111366272,0.0009257187484763563,0.0011974716326221824,-0.07993245124816895
1666653793.11962390,243564033,1,0.9967984557151794,0.0009360471158288419,0.001197200850583613,-0.07994074374437332
1666653793.15959477,243604004,1,0.996796727180481,0.0009389121551066637,0.0012073093093931675,-0.07996231317520142
1666653793.17962098,243624030,1,0.9967963695526123,0.0009357091039419174,0.0012146560475230217,-0.07996655255556107
1666653793.19959378,243644003,1,0.9967967867851257,0.0009368703467771411,0.0012142034247517586,-0.07996166497468948
1666653793.23959088,243684000,1,0.9967935681343079,0.0009304303675889969,0.0012264337856322527,-0.0800015777349472
1666653793.27961993,243724029,1,0.9967865347862244,0.0009382381686009467,0.0012301427777856588,-0.08008886873722076
1666653793.31960487,243764014,1,0.9967813491821289,0.0009261032682843506,0.0012395327212288976,-0.08015318959951401
1666653793.35963583,243804045,1,0.9967770576477051,0.0009354850626550615,0.001214856980368495,-0.08020715415477753
1666653793.37963176,243824041,1,0.9967775344848633,0.0009504337213002145,0.0012180396588519216,-0.08020100742578506
1666653793.39959478,243844004,1,0.9967795610427856,0.000940811587497592,0.0012162616476416588,-0.08017562329769135
1666653793.43960190,243884011,1,0.9967838525772095,0.0009226498077623546,0.0012017535045742989,-0.08012261241674423
1666653793.47962785,243924037,1,0.9967876672744751,0.0009258370846509933,0.0012151075061410666,-0.08007499575614929
1666653793.51962185,243964031,1,0.9967875480651855,0.0009147616801783442,0.001196882571093738,-0.08007708191871643
1666653793.55963588,244004045,1,0.9967830181121826,0.0009384409058839083,0.0012041511945426464,-0.0801328495144844
1666653793.57960176,244024011,1,0.9967796206474304,0.0009556339355185628,0.001197446370497346,-0.08017537742853165
1666653793.59959793,244044007,1,0.9967776536941528,0.0009584065992385149,0.0012042592279613018,-0.08019944280385971
1666653793.63959980,244084009,1,0.9967742562294006,0.000977029325440526,0.0011882972903549671,-0.0802416279911995
1666653793.67959690,244124006,1,0.996772289276123,0.0009263971005566418,0.00120845390483737,-0.0802665501832962
1666653793.71962881,244164038,1,0.9967805743217468,0.0009034813847392797,0.001218594261445105,-0.08016366511583328
1666653793.75962090,244204030,1,0.9967913031578064,0.0009736717911437154,0.001146715716458857,-0.08003030717372894
1666653793.77959776,244224007,1,0.9967933297157288,0.0010005393996834755,0.001189422095194459,-0.08000386506319046
1666653793.79962683,244244036,1,0.9967948198318481,0.0009536054567433894,0.0012241803342476487,-0.07998517155647278
1666653793.83959794,244284007,1,0.996787965297699,0.0010411350522190332,0.0010840727481991053,-0.08007160574197769
1666653793.87959576,244324005,1,0.9967723488807678,0.0008534864173270762,0.0011755626183003187,-0.08026671409606934
1666653793.91959691,244364006,1,0.9967676997184753,0.000888558104634285,0.0010840172180905938,-0.08032523840665817
1666653793.95962477,244404034,1,0.9967613220214844,0.0009319995297119021,0.0012477412819862366,-0.08040157705545425
1666653793.97960782,244424017,1,0.9967676401138306,0.0010830438695847988,0.0011968333274126053,-0.08032253384590149
1666653793.99963880,244444048,1,0.9967677593231201,0.0009389990591444075,0.001286794780753553,-0.08032120764255524
1666653794.03962493,244484034,1,0.9967854619026184,0.000983762787654996,0.0011840180959552526,-0.08010212332010269
1666653794.07959795,244524007,1,0.9967923760414124,0.0006748037994839251,0.0011881093960255384,-0.08001920580863953
1666653794.11959481,244564004,1,0.9967931509017944,0.0008325870730914176,0.0013399024028331041,-0.08000572770833969
1666653794.15959597,244604005,1,0.9967949986457825,0.00102012581191957,0.0011211811797693372,-0.07998384535312653
1666653794.17959189,244624001,1,0.9967882633209229,0.0010048303520306945,0.001204086234793067,-0.08006719499826431
1666653794.19963098,244644040,1,0.9967801570892334,0.0007226752350106835,0.0013511761790141463,-0.08016832172870636
1666653794.23959398,244684003,1,0.996781051158905,0.0010429013054817915,0.0011929795145988464,-0.08015593141317368
1666653794.27960086,244724010,1,0.9967851042747498,0.001043018652126193,0.001118300249800086,-0.0801069363951683
1666653794.31961179,244764021,1,0.9967929124832153,0.0008235103450715542,0.0012069647200405598,-0.08001118898391724
1666653794.35959291,244804002,1,0.9968035817146301,0.0008835361804813147,0.0012214789167046547,-0.07987706363201141
1666653794.37962890,244824038,1,0.9968073964118958,0.0009761813562363386,0.0011851171730086207,-0.07982927560806274
1666653794.39962387,244844033,1,0.9968070387840271,0.0009341047261841595,0.0011973431101068854,-0.07983376085758209
1666653794.43962693,244884036,1,0.9968061447143555,0.0009809633484110236,0.0011844340479001403,-0.07984471321105957
1666653794.47964478,244924054,1,0.9967989325523376,0.0010755585972219706,0.0011856408091261983,-0.07993309944868088
1666653794.51959491,244964004,1,0.9967946410179138,0.000808013544883579,0.0011859589722007513,-0.07998967170715332
1666653794.55959678,245004006,1,0.9967970252037048,0.000871535565238446,0.0011756032472476363,-0.07995997369289398
1666653794.57959986,245024009,1,0.9968007802963257,0.000896691344678402,0.0012008631601929665,-0.07991227507591248
1666653794.59960794,245044017,1,0.9968013763427734,0.0009367638849653304,0.0011930643813684583,-0.07990429550409317
1666653794.63963485,245084044,1,0.9968123435974121,0.0009360655676573515,0.0011584283784031868,-0.07976818829774857
1666653794.67962289,245124032,1,0.9968165755271912,0.0009398224647156894,0.0011970567284151912,-0.07971414923667908
1666653794.71962786,245164037,1,0.9968175292015076,0.0010252828942611814,0.0011385877151042223,-0.07970263808965683
1666653794.75959396,245204003,1,0.9968137145042419,0.0008831516024656594,0.0011761266505345702,-0.07975121587514877
1666653794.77962875,245224038,1,0.9968128800392151,0.0008909188909456134,0.001183908199891448,-0.07976147532463074
1666653794.79959583,245244005,1,0.9968107342720032,0.0008956075762398541,0.0011862552491948009,-0.07978837937116623
1666653794.83959579,245284005,1,0.9968029856681824,0.0009238257189281285,0.0011747200042009354,-0.07988502085208893
1666653794.87962389,245324033,1,0.9968065619468689,0.0009359723189845681,0.0012090157251805067,-0.07983952760696411
1666653794.91961694,245364026,1,0.9968147873878479,0.001024360186420381,0.0011927440064027905,-0.07973612844944
1666653794.95964789,245404057,1,0.9968209266662598,0.0009409071644768119,0.0012050374643877149,-0.07965961843729019
1666653794.97963381,245424043,1,0.9968268871307373,0.0009017034899443388,0.0012509856605902314,-0.07958515733480453
1666653794.99959683,245444006,1,0.9968259334564209,0.0009903879836201668,0.001237520482391119,-0.07959581166505814
1666653795.03959894,245484008,1,0.996822714805603,0.0010062830988317728,0.00111955136526376,-0.07963826507329941
1666653795.07959580,245524005,1,0.9968233108520508,0.0009089544764719903,0.001194056123495102,-0.07963085174560547
1666653795.11962390,245564033,1,0.996811032295227,0.0009013233939185739,0.0012183480430394411,-0.07978376746177673
1666653795.15958881,245603998,1,0.9968157410621643,0.0009419529815204442,0.0011583378072828054,-0.07972536236047745
1666653795.17959976,245624009,1,0.996813178062439,0.0009873189264908433,0.0012282537063583732,-0.07975590974092484
1666653795.19959688,245644006,1,0.9968172907829285,0.0010966385016217828,0.0011916430667042732,-0.07970372587442398
1666653795.23959494,245684004,1,0.9968255162239075,0.0009222411899827421,0.0012467567576095462,-0.07960201054811478
1666653795.27960396,245724013,1,0.9968326091766357,0.0009539273451082408,0.0011653038673102856,-0.07951423525810242
1666653795.31961799,245764027,1,0.9968332648277283,0.0009728907607495785,0.0012506465427577496,-0.0795043557882309
1666653795.35963988,245804049,1,0.9968284368515015,0.0010697132674977183,0.0011945184087380767,-0.07956451177597046
1666653795.37959576,245824005,1,0.9968322515487671,0.0007441182970069349,0.001344439573585987,-0.07951783388853073
1666653795.39963794,245844047,1,0.9968249201774597,0.0009755223873071373,0.0013710393104702234,-0.0796070471405983
1666653795.43959689,245884006,1,0.9968209862709045,0.001030121580697596,0.0012502040481194854,-0.07965731620788574
1666653795.47960091,245924010,1,0.9968324899673462,0.0008085859008133411,0.0014979819534346461,-0.07951183617115021
1666653795.51960588,245964015,1,0.9968495965003967,0.0009657860500738025,0.0011343249352648854,-0.07930085062980652
1666653795.55962276,246004032,1,0.9968687295913696,0.0008408515132032335,0.0011789854615926743,-0.0790613517165184
1666653795.57959390,246024003,1,0.9968793392181396,0.0006973895942792296,0.0013286392204463482,-0.07892627269029617
1666653795.59962797,246044037,1,0.9968827366828918,0.0008181926095858216,0.0013574414188042283,-0.07888123393058777
1666653795.63963294,246084042,1,0.9969084858894348,0.0012492137029767036,0.0010897957254201174,-0.07855391502380371
1666653795.67959476,246124004,1,0.9969307780265808,0.0009833724470809102,0.0011348424013704062,-0.07827381789684296
1666653795.71959782,246164007,1,0.9969496726989746,0.0009029493667185307,0.001197373727336526,-0.07803235203027725
1666653795.75959682,246204006,1,0.996971070766449,0.0011946950107812881,0.0012651571305468678,-0.07775405794382095
1666653795.77959895,246224008,1,0.9969919323921204,0.0012247635750100017,0.0012276654597371817,-0.0774863213300705
1666653795.79962277,246244032,1,0.9970003962516785,0.0013625540304929018,0.0013379796873778105,-0.07737281918525696
1666653795.83961296,246284022,1,0.9970365762710571,0.001327837584540248,0.001043396070599556,-0.07691033184528351
1666653795.87962985,246324039,1,0.9970682263374329,0.0013776847627013922,0.0007157871732488275,-0.0765022486448288
1666653795.91959691,246364006,1,0.9970782399177551,0.0005542261060327291,0.001401540357619524,-0.0763719379901886
1666653795.95959997,246404009,1,0.9971095323562622,0.0008484239806421101,0.0008535119122825563,-0.07596810162067413
1666653795.97963285,246424042,1,0.9971081614494324,0.0024013700895011425,0.00027943647000938654,-0.0759570449590683
1666653795.99958897,246443998,1,0.9971200823783875,0.001403715112246573,0.0007003541686572134,-0.07582288980484009
1666653796.03962088,246484030,1,0.9971239566802979,0.001100083813071251,0.0007249743212014437,-0.07577621936798096
1666653796.07959986,246524009,1,0.9971394538879395,0.0021924797911196947,0.0009603158687241375,-0.07554598897695541
1666653796.11959887,246564008,1,0.9971413016319275,0.0030289706774055958,0.0010135994525626302,-0.07549178600311279
1666653796.15959692,246604006,1,0.9971510767936707,0.005065714940428734,0.0006122209597378969,-0.07525788247585297
1666653796.17962980,246624039,1,0.997149646282196,0.006583597511053085,0.0009494298719801009,-0.07515541464090347
1666653796.19959688,246644006,1,0.9971520304679871,0.006310674361884594,0.0008482815464958549,-0.07514816522598267
1666653796.23961282,246684022,1,0.9971519112586975,0.007278040517121553,0.001029566745273769,-0.07505997270345688
1666653796.27962089,246724030,1,0.9971588253974915,0.007352548185735941,0.0014965968439355493,-0.07495325803756714
1666653796.31963587,246764045,1,0.9971625208854675,0.007481308653950691,0.0017235224368050694,-0.07488619536161423
1666653796.35959578,246804005,1,0.9971732497215271,0.0070285252295434475,0.0013651004992425442,-0.07479459047317505
1666653796.37964988,246824059,1,0.9971497058868408,0.008376716636121273,0.0006190516869537532,-0.0749797523021698
1666653796.39959979,246844009,1,0.9971718788146973,0.006632496137171984,0.00023100076941773295,-0.07486098259687424
1666653796.43960977,246884019,1,0.9971791505813599,0.006364196538925171,-0.0012748908484354615,-0.07477686554193497
1666653796.47962189,246924031,1,0.9971781969070435,0.005766828544437885,-0.0024450444616377354,-0.0748090073466301
1666653796.51961088,246964020,1,0.9971702098846436,0.004853341728448868,-0.0028546664398163557,-0.07496552914381027
1666653796.55962586,247004035,1,0.9971560835838318,0.004548022989183664,-0.003060786286368966,-0.07516469806432724
1666653796.57963681,247024046,1,0.9971461296081543,0.005366276018321514,-0.002753801178187132,-0.07525445520877838
1666653796.59959292,247044002,1,0.9971466064453125,0.0034668217413127422,-0.003348637605085969,-0.07533533871173859
1666653796.63959384,247084003,1,0.997136652469635,0.0026339534670114517,-0.0037460708990693092,-0.0754823312163353
1666653796.67959881,247124008,1,0.9971193671226501,0.0017990696942433715,-0.00403037341311574,-0.07571972906589508
1666653796.71966577,247164075,1,0.9970961809158325,0.001025001984089613,-0.003874167799949646,-0.07604669034481049
1666653796.75961590,247204025,1,0.997080385684967,0.00016443125787191093,-0.00352911907248199,-0.07627744227647781
1666653796.77959275,247224002,1,0.9970660209655762,0.0003654549364000559,-0.0034839792642742395,-0.07646594941616058
1666653796.79961181,247244021,1,0.9970651865005493,9.278282232116908e-05,-0.0028709457255899906,-0.07650364935398102
1666653796.83959389,247284003,1,0.9970529675483704,0.0006002647569403052,-0.002488114405423403,-0.07667357474565506
1666653796.87959576,247324005,1,0.997032642364502,0.001970437588170171,-0.002044476568698883,-0.07692743092775345
1666653796.91962981,247364039,1,0.9970037341117859,0.00302025955170393,-0.001714613870717585,-0.07727581262588501
1666653796.95962286,247404032,1,0.9969821572303772,0.0024964779149740934,-0.0013860140461474657,-0.07757825404405594
1666653796.97959876,247424008,1,0.9969604015350342,0.003265080042183399,-0.0013096779584884644,-0.07783067226409912
1666653796.99964190,247444051,1,0.9969613552093506,0.001901685493066907,-0.0013038072502240539,-0.07786397635936737
1666653797.03959775,247484007,1,0.9969417452812195,0.0020641321316361427,-0.0012282647658139467,-0.07811128348112106
1666653797.07959294,247524002,1,0.9969192147254944,0.0016956378240138292,-0.0006047207280062139,-0.07841429859399796
1666653797.11959291,247564002,1,0.21683312952518463,0.0024599486496299505,0.0028444447088986635,0.9762014150619507
1666653797.15962791,247604037,1,0.21710801124572754,0.0025275112129747868,0.0032842461951076984,0.9761387705802917
1666653797.17959476,247624004,1,0.21710939705371857,0.0026426101103425026,0.001940734451636672,0.9761417508125305
1666653797.19961882,247644028,1,0.21734970808029175,0.0023644426837563515,0.003281249664723873,0.9760854244232178
1666653797.23963785,247684047,1,0.2175649255514145,0.0015409317566081882,0.0026769840624183416,0.9760409593582153
1666653797.27959490,247724004,1,0.21780335903167725,0.00140997557900846,0.002725479891523719,0.9759878516197205
1666653797.31960583,247764015,1,0.21825198829174042,0.0013206311268731952,0.0023544221185147762,0.975888729095459
1666653797.35959792,247804007,1,0.21851274371147156,0.0009133739513345063,-0.00011743074719561264,0.9758336544036865
1666653797.37959576,247824005,1,0.21832306683063507,0.0005602006567642093,-0.00033211917616426945,0.9758763313293457
1666653797.39962888,247844038,1,0.2185468226671219,0.00024542302708141506,-0.0008106417953968048,0.9758260846138
1666653797.43963194,247884041,1,0.21858146786689758,0.0001385247305734083,-0.0032771523110568523,0.9758132100105286
1666653797.47963595,247924045,1,0.21845918893814087,-0.0002239278401248157,-0.005225716158747673,0.9758320450782776
1666653797.51959586,247964005,1,0.21848970651626587,-0.0006618540501222014,-0.006757186260074377,0.9758156538009644
1666653797.55959296,248004002,1,0.218927264213562,-0.0019338020356371999,-0.007883968763053417,0.9757074117660522
1666653797.57963276,248024042,1,0.2191542237997055,-0.0018623040523380041,-0.009633445180952549,0.9756408929824829
1666653797.59959793,248044007,1,0.2193131297826767,-0.0021770859602838755,-0.010633349418640137,0.975594162940979
1666653797.63962388,248084033,1,0.219766303896904,-0.0028478566091507673,-0.013742567040026188,0.9754515886306763
1666653797.67963576,248124045,1,0.22048571705818176,-0.0037208821158856153,-0.017900044098496437,0.9752188324928284
1666653797.71959782,248164007,1,0.22130893170833588,-0.004796041641384363,-0.02115963213145733,0.9749623537063599
1666653797.75959492,248204004,1,0.22225530445575714,-0.00517760356888175,-0.02292160876095295,0.9747052788734436
1666653797.77962494,248224034,1,0.22263535857200623,-0.005070006474852562,-0.02375931292772293,0.9745990633964539
1666653797.79959178,248244001,1,0.22303836047649384,-0.0048324717208743095,-0.02247954159975052,0.9745384454727173
1666653797.83962584,248284035,1,0.2238168567419052,-0.0038695884868502617,-0.020152734592556953,0.9744151830673218
1666653797.87961984,248324029,1,0.22446884214878082,-0.002315807854756713,-0.01632823795080185,0.9743416905403137
1666653797.91964197,248364051,1,0.2251087725162506,-0.0009731116006150842,-0.011568806134164333,0.9742644429206848
1666653797.95959687,248404006,1,0.22536244988441467,0.00011083340359618887,-0.008251388557255268,0.9742400646209717
1666653797.97962284,248424032,1,0.22548328340053558,0.001046739867888391,-0.006238225381821394,0.9742264747619629
1666653797.99959493,248444004,1,0.22574259340763092,0.0015859451377764344,-0.004542941693216562,0.9741750955581665
1666653798.03959298,248484002,1,0.22631287574768066,0.0019533035811036825,-0.0009597744792699814,0.9740522503852844
1666653798.07961488,248524024,1,0.22699891030788422,0.0019838535226881504,0.0011153632076457143,0.973892331123352
1666653798.11962080,248564030,1,0.227707639336586,0.0021487711928784847,0.002703850856050849,0.9737234115600586
1666653798.15960884,248604018,1,0.22863738238811493,0.002457954687997699,0.004699165932834148,0.973497211933136
1666653798.17961693,248624026,1,0.22916899621486664,0.0029113858472555876,0.005837183445692062,0.9733647704124451
1666653798.19959688,248644006,1,0.22966688871383667,0.002372758463025093,0.006305792834609747,0.9732459783554077
1666653798.23959684,248684006,1,0.23058250546455383,0.0022169442381709814,0.00822486449033022,0.9730154871940613
1666653798.27959394,248724003,1,0.2313036173582077,0.0025021263863891363,0.009466014802455902,0.9728323221206665
1666653798.31962276,248764032,1,0.23200157284736633,0.003260210156440735,0.010418049991130829,0.9726541638374329
1666653798.35960889,248804018,1,0.23220865428447723,0.003913811407983303,0.01077331230044365,0.9725984334945679
1666653798.37959695,248824006,1,0.23224180936813354,0.004239923320710659,0.011538234539330006,0.9725803732872009
1666653798.39962792,248844037,1,0.23224015533924103,0.00465930812060833,0.012227078899741173,0.9725704789161682
1666653798.43960595,248884015,1,0.23212717473506927,0.004238836467266083,0.010916121304035187,0.9726149439811707
1666653798.47959280,248924002,1,0.23178334534168243,0.004065127577632666,0.009799424558877945,0.972709596157074
1666653798.51957989,248963989,1,0.23125983774662018,0.0036311866715550423,0.009796502068638802,0.972835898399353
1666653798.55962992,249004039,1,0.23064544796943665,0.003210082184523344,0.009384523145854473,0.9729872941970825
1666653798.57959390,249024003,1,0.23044909536838531,0.0030659176409244537,0.00789895560592413,0.9730474948883057
1666653798.59957886,249043988,1,0.23000593483448029,0.0029732503462582827,0.007272082380950451,0.973157525062561
1666653798.63959885,249084008,1,0.22923555970191956,0.00286293332464993,0.006198096554726362,0.973347008228302
1666653798.67959690,249124006,1,0.22811271250247955,0.0031265905126929283,0.0047668335027992725,0.9736180305480957
1666653798.71959186,249164001,1,0.2271636575460434,0.0036018998362123966,0.0034274375066161156,0.9738439321517944
1666653798.75961995,249204029,1,0.22583724558353424,0.004579571541398764,0.0019473166903480887,0.9741523265838623
1666653798.77959394,249224003,1,0.2249734103679657,0.004166596569120884,0.0005578846903517842,0.9743558168411255
1666653798.79962277,249244032,1,0.2242710143327713,0.004393266513943672,0.001035533845424652,0.9745163321495056
1666653798.83963490,249284044,1,0.22274844348430634,0.0035347756929695606,-1.8647029719431885e-05,0.9748695492744446
1666653798.87959886,249324008,1,0.22115756571292877,0.0022505121305584908,-0.0005031893379054964,0.9752353429794312
1666653798.91959977,249364009,1,0.21963633596897125,0.00019609011360444129,-0.0010777240386232734,0.9755812287330627
1666653798.95959496,249404004,1,0.2181246131658554,-0.001448327791877091,-0.0015269682044163346,0.9759186506271362
1666653798.97961879,249424028,1,0.21744446456432343,-0.002227627206593752,-0.0007965846452862024,0.9760698080062866
1666653798.99962187,249444031,1,0.21668869256973267,-0.0025131020229309797,-0.001389453187584877,0.9762365221977234
1666653799.03960896,249484018,1,0.21534650027751923,-0.003240949474275112,-0.0007318392163142562,0.9765320420265198
1666653799.07963085,249524040,1,0.21397851407527924,-0.0038120467215776443,-5.6618519010953605e-05,0.9768308997154236
1666653799.11962080,249564030,1,0.21268224716186523,-0.004410867113620043,0.00027394993230700493,0.9771113991737366
1666653799.15959692,249604006,1,0.2112426459789276,-0.004929468035697937,0.0005027616862207651,0.9774211049079895
1666653799.17963481,249624044,1,0.21058028936386108,-0.005397374276071787,0.0008585681789554656,0.9775612950325012
1666653799.19959378,249644003,1,0.20989809930324554,-0.005272816400974989,0.00038164982106536627,0.9777089953422546
1666653799.23961878,249684028,1,0.20859229564666748,-0.005667865741997957,2.6053730834973976e-05,0.9779862761497498
1666653799.27961898,249724028,1,0.20739935338497162,-0.005723894573748112,-0.00020122836576774716,0.9782395958900452
1666653799.31962276,249764032,1,0.20619437098503113,-0.005776560865342617,-0.0004796404391527176,0.978493869304657
1666653799.35959387,249804003,1,0.20493905246257782,-0.006048524286597967,-0.001560728414915502,0.9787548184394836
1666653799.37961888,249824028,1,0.20415852963924408,-0.0066315652802586555,-0.0031415638513863087,0.9789103269577026
1666653799.39959598,249844005,1,0.20358482003211975,-0.006149906199425459,-0.0025028318632394075,0.9790347814559937
1666653799.43963289,249884042,1,0.20235441625118256,-0.006725480314344168,-0.003947375807911158,0.9792813062667847
1666653799.47966576,249924075,1,0.20104864239692688,-0.007155981846153736,-0.0049133142456412315,0.9795427918434143
1666653799.51962280,249964032,1,0.1996522694826126,-0.007007635198533535,-0.005595101043581963,0.9798257946968079
1666653799.55960083,250004010,1,0.19836419820785522,-0.00655352370813489,-0.005059020593762398,0.9800934195518494
1666653799.57962084,250024030,1,0.19781038165092468,-0.006135724950581789,-0.0036296446342021227,0.9802143573760986
1666653799.59959579,250044005,1,0.19717229902744293,-0.00576096260920167,-0.0034439379815012217,0.9803459048271179
1666653799.63959384,250084003,1,0.19613400101661682,-0.0053091528825461864,-0.002154624555259943,0.9805603623390198
1666653799.67961478,250124024,1,0.19518756866455078,-0.0052371397614479065,-0.0011696608271449804,0.9807512760162354
1666653799.71962476,250164034,1,0.19434227049350739,-0.00497069489210844,-8.789631101535633e-05,0.98092120885849
1666653799.75963187,250204041,1,0.1934768110513687,-0.004641462583094835,0.0008996311225928366,0.9810934662818909
1666653799.77960086,250224010,1,0.193032905459404,-0.004292948171496391,0.0015209725825116038,0.9811817407608032
1666653799.79958081,250243990,1,0.19269293546676636,-0.004090414382517338,0.0019355511758476496,0.981248676776886
1666653799.83959699,250284006,1,0.1920148879289627,-0.003808141453191638,0.0025758598931133747,0.9813812375068665
1666653799.87960386,250324013,1,0.1914101541042328,-0.0036987143103033304,0.0030639709439128637,0.9814983606338501
1666653799.91962194,250364031,1,0.19087176024913788,-0.0037065688520669937,0.0035988723393529654,0.981601357460022
1666653799.95961785,250404027,1,0.19043338298797607,-0.0038683353923261166,0.00413345405831933,0.9816837906837463
1666653799.97959495,250424004,1,0.19025316834449768,-0.004150647670030594,0.004935052245855331,0.9817138910293579
1666653799.99963284,250444042,1,0.19007878005504608,-0.0039236596785485744,0.004904449451714754,0.9817487597465515
1666653800.03959394,250484003,1,0.18985909223556519,-0.004165286663919687,0.005069319624453783,0.9817894101142883
1666653800.07959294,250524002,1,0.189722940325737,-0.0043602557852864265,0.00475658755749464,0.9818164706230164
1666653800.11959481,250564004,1,0.18951278924942017,-0.00450976612046361,0.004776360001415014,0.9818562865257263
1666653800.15962577,250604035,1,0.1894320696592331,-0.004595760256052017,0.005428629461675882,0.9818680882453918
1666653800.17959380,250624003,1,0.18949277698993683,-0.004224272910505533,0.005703903269022703,0.9818564653396606
1666653800.19960093,250644010,1,0.18928436934947968,-0.004753464367240667,0.005701187998056412,0.9818942546844482
1666653800.23961878,250684028,1,0.1892969310283661,-0.005142375361174345,0.005272285081446171,0.9818922877311707
1666653800.27959394,250724003,1,0.1892593801021576,-0.00552896223962307,0.004914364777505398,0.9818992614746094
1666653800.31959677,250764006,1,0.18925386667251587,-0.0056948172859847546,0.004898006096482277,0.9818994402885437
1666653800.35958290,250803992,1,0.1893186867237091,-0.006030025891959667,0.005077706649899483,0.9818840622901917
1666653800.37960982,250824019,1,0.18925663828849792,-0.006099608261138201,0.004188232589513063,0.9818997979164124
1666653800.39962077,250844030,1,0.18939869105815887,-0.00648121302947402,0.005049001891165972,0.9818658828735352
1666653800.43964195,250884051,1,0.18944106996059418,-0.007003690116107464,0.0050332210958004,0.9818542003631592
1666653800.47959995,250924009,1,0.18952231109142303,-0.0073417737148702145,0.004875657614320517,0.9818368554115295
1666653800.51960397,250964013,1,0.18968452513217926,-0.007421450223773718,0.004524253308773041,0.9818066358566284
1666653800.55959487,251004004,1,0.18994778394699097,-0.007127328310161829,0.0034003821201622486,0.9817624092102051
1666653800.57962489,251024034,1,0.1900690495967865,-0.007667635101824999,0.002039422979578376,0.9817386865615845
1666653800.59962177,251044031,1,0.19021368026733398,-0.006995522417128086,0.002612053183838725,0.9817143082618713
1666653800.63962197,251084031,1,0.19052653014659882,-0.006733085960149765,0.0025113143492490053,0.9816557168960571
1666653800.67962980,251124039,1,0.19089409708976746,-0.006372450385242701,0.002560047898441553,0.9815866351127625
1666653800.71961594,251164025,1,0.191225066781044,-0.005960420239716768,0.002510150196030736,0.9815248847007751
1666653800.75959396,251204003,1,0.19145092368125916,-0.0056669628247618675,0.0022194795310497284,0.9814833402633667
1666653800.77962875,251224038,1,0.19136613607406616,-0.005430067423731089,0.0013394794659689069,0.9815027713775635
1666653800.79960585,251244015,1,0.19162781536579132,-0.0051040188409388065,0.0017281515756621957,0.9814528822898865
1666653800.83961987,251284029,1,0.1917821317911148,-0.004499195143580437,0.0016413478879258037,0.9814258217811584
1666653800.87960982,251324019,1,0.19195064902305603,-0.003760569030418992,0.001575979171320796,0.9813960790634155
1666653800.91963196,251364041,1,0.19201743602752686,-0.003186968620866537,0.0017360338242724538,0.981384813785553
1666653800.95959687,251404006,1,0.1921999454498291,-0.002618555910885334,0.001252504182048142,0.9813514947891235
1666653800.97962284,251424032,1,0.1922571361064911,-0.0033352551981806755,0.0011731020640581846,0.9813382029533386
1666653800.99959588,251444005,1,0.1924033761024475,-0.001969852950423956,0.0020470190793275833,0.9813117980957031
1666653801.03960395,251484013,1,0.1925923228263855,-0.0007952877203933895,0.004509178921580315,0.9812681674957275
1666653801.07962084,251524030,1,0.1928270161151886,0.0006158486939966679,0.007429664023220539,0.9812044501304626
1666653801.11960483,251564014,1,0.1930820196866989,0.0014721110928803682,0.00919221993535757,0.9811384677886963
1666653801.15962887,251604038,1,0.19333362579345703,0.002283611334860325,0.010746804997324944,0.9810715317726135
1666653801.17962790,251624037,1,0.19336485862731934,0.0029019429348409176,0.010503711178898811,0.9810664057731628
1666653801.19959688,251644006,1,0.1935437172651291,0.002833333797752857,0.012411145493388176,0.9810090661048889
1666653801.23957682,251683986,1,0.19379034638404846,0.002957829274237156,0.01331380382180214,0.9809481501579285
1666653801.27962399,251724033,1,0.1940147578716278,0.002873004646971822,0.014064368791878223,0.9808935523033142
1666653801.31963277,251764042,1,0.1942732185125351,0.0022576930932700634,0.014808842912316322,0.9808330535888672
1666653801.35963678,251804046,1,0.19452694058418274,0.0012767871376127005,0.015419213101267815,0.9807751178741455
1666653801.37959695,251824006,1,0.19452348351478577,0.00033089047065004706,0.015029157511889935,0.980782687664032
1666653801.39962697,251844036,1,0.19472353160381317,-0.0002900575927924365,0.016001317650079727,0.9807276129722595
1666653801.43962479,251884034,1,0.19486360251903534,-0.0025488960091024637,0.01669161021709442,0.9806849956512451
1666653801.47959495,251924004,1,0.19491393864154816,-0.005260279402136803,0.016917414963245392,0.9806603193283081
1666653801.51962781,251964037,1,0.1950474977493286,-0.0076453667134046555,0.01655462384223938,0.980624258518219
1666653801.55962086,252004030,1,0.1951460987329483,-0.009916328825056553,0.015608392655849457,0.9805998206138611
1666653801.57959580,252024005,1,0.19512253999710083,-0.011747815646231174,0.014512056484818459,0.9806011319160461
1666653801.59963179,252044041,1,0.19534091651439667,-0.011869793757796288,0.014945192262530327,0.980549693107605
1666653801.63959885,252084008,1,0.195320725440979,-0.013276198878884315,0.013489238917827606,0.9805567860603333
1666653801.67960191,252124011,1,0.1952781081199646,-0.014359980821609497,0.012552015483379364,0.9805624485015869
1666653801.71959877,252164008,1,0.1952195167541504,-0.014877846464514732,0.012362496927380562,0.9805687665939331
1666653801.75961876,252204028,1,0.19509680569171906,-0.015433252789080143,0.012162848375737667,0.9805871248245239
1666653801.77959895,252224008,1,0.19498886168003082,-0.015951326116919518,0.010635178536176682,0.9806180596351624
1666653801.79964876,252244058,1,0.19494113326072693,-0.015666022896766663,0.0114692822098732,0.9806227684020996
1666653801.83964896,252284058,1,0.1947522908449173,-0.015552139841020107,0.010930439457297325,0.9806682467460632
1666653801.87959576,252324005,1,0.19455033540725708,-0.014952198602259159,0.009770233184099197,0.980729877948761
1666653801.91959882,252364008,1,0.1944122314453125,-0.014258532784879208,0.008495739661157131,0.9807794690132141
1666653801.95957685,252403986,1,0.19413352012634277,-0.013003136031329632,0.007314242422580719,0.9808616638183594
1666653801.97960377,252424013,1,0.1939466893672943,-0.012135200202465057,0.006335863843560219,0.9809165596961975
1666653801.99962378,252444033,1,0.1938583254814148,-0.01137907337397337,0.0064512621611356735,0.9809423089027405
1666653802.03963375,252484043,1,0.19363775849342346,-0.009604087099432945,0.005234109703451395,0.9810121059417725
1666653802.07960296,252524012,1,0.19355656206607819,-0.006786588579416275,0.004408680833876133,0.981055736541748
1666653802.11959386,252564003,1,0.19356754422187805,-0.0035086739808321,0.0033891990315169096,0.9810748100280762
1666653802.15957379,252603983,1,0.1934615671634674,-0.0008823670796118677,0.0017550084739923477,0.9811058640480042
1666653802.17962384,252624033,1,0.19351224601268768,-0.00026534812059253454,0.00207783211953938,0.9810956120491028
1666653802.19963288,252644042,1,0.19340665638446808,0.0007589813321828842,0.0010846134973689914,0.9811177849769592
1666653802.23965192,252684061,1,0.19340482354164124,0.0016472043935209513,0.0007309671491384506,0.9811173677444458
1666653802.27965379,252724063,1,0.1933656930923462,0.0023042866960167885,0.0007224336150102317,0.9811238050460815
1666653802.31960297,252764012,1,0.19334541261196136,0.00274870777502656,0.0006966146174818277,0.9811266660690308
1666653802.35959482,252804004,1,0.19339847564697266,0.0029356360901147127,0.0004346078203525394,0.9811158180236816
1666653802.37966895,252824078,1,0.19363397359848022,0.0034588356502354145,0.000650708214379847,0.9810675382614136
1666653802.39959598,252844005,1,0.19351188838481903,0.003308213548734784,-4.594908023136668e-05,0.9810923337936401
1666653802.43960476,252884014,1,0.19365936517715454,0.003268923843279481,-0.000399014912545681,0.9810633063316345
1666653802.47962189,252924031,1,0.19394159317016602,0.0028240722604095936,-0.00034704682184383273,0.9810089468955994
1666653802.51963592,252964045,1,0.19423718750476837,0.0018924238393083215,0.00011794512829510495,0.9809527397155762
1666653802.55962992,253004039,1,0.19451457262039185,0.0007428075768984854,0.00013544957619160414,0.9808993339538574
1666653802.57962775,253024037,1,0.19471462070941925,9.19797457754612e-05,0.0012769176391884685,0.980859100818634
1666653802.59959483,253044004,1,0.1948053538799286,-0.0006337692029774189,0.0009138257009908557,0.9808412790298462
1666653802.63959694,253084006,1,0.19505341351032257,-0.00202217441983521,0.0015194850275292993,0.9807893633842468
1666653802.67962384,253124033,1,0.19524021446704865,-0.003195907222107053,0.0024201690685003996,0.9807472825050354
1666653802.71960497,253164014,1,0.19539296627044678,-0.0038255120161920786,0.0031728751491755247,0.9807124137878418
1666653802.75962687,253204036,1,0.19555100798606873,-0.004588904324918985,0.00367183075286448,0.9806759357452393
1666653802.77962995,253224039,1,0.19567382335662842,-0.005644998978823423,0.0028773071244359016,0.9806485772132874
1666653802.79959798,253244007,1,0.19576920568943024,-0.005761559586971998,0.0036223740316927433,0.9806264042854309
1666653802.83959794,253284007,1,0.19585025310516357,-0.007057370152324438,0.004081863909959793,0.9805999398231506
1666653802.87959576,253324005,1,0.19599227607250214,-0.008308419957756996,0.004553201608359814,0.9805596470832825
1666653802.91963387,253364043,1,0.19593404233455658,-0.009103063493967056,0.004443803336471319,0.9805647730827332
1666653802.95962691,253404036,1,0.19591864943504333,-0.009159400127828121,0.004130114801228046,0.9805687069892883
1666653802.97959876,253424008,1,0.19594316184520721,-0.008712392300367355,0.004689532797783613,0.9805653095245361
1666653802.99963379,253444043,1,0.19594667851924896,-0.008465539664030075,0.0034167144913226366,0.9805720448493958
1666653803.03959489,253484004,1,0.19602921605110168,-0.0072791785933077335,0.003099137917160988,0.980566143989563
1666653803.07959485,253524004,1,0.1960820108652115,-0.0059525324031710625,0.002691457513719797,0.9805657267570496
1666653803.11965394,253564063,1,0.1961863934993744,-0.00424090214073658,0.002453124150633812,0.9805544018745422
1666653803.15962577,253604035,1,0.19618026912212372,-0.00265101226978004,0.0020910976454615593,0.9805620312690735
1666653803.17959380,253624003,1,0.19618086516857147,-0.001615721732378006,0.0026177791878581047,0.9805629253387451
1666653803.19963384,253644043,1,0.19624069333076477,-0.0011768450494855642,0.0022363567259162664,0.9805524945259094
1666653803.23959589,253684005,1,0.19621415436267853,-0.0003821178979706019,0.0021439013071358204,0.9805586338043213
1666653803.27959490,253724004,1,0.19609799981117249,3.053215186810121e-05,0.0012313415063545108,0.9805835485458374
1666653803.31959581,253764005,1,0.19600597023963928,0.00011814187018899247,-0.0002299332554684952,0.9806026816368103
1666653803.35962296,253804032,1,0.1958477646112442,-1.082334802049445e-05,-0.002315955003723502,0.9806315898895264
1666653803.37959576,253824005,1,0.19580036401748657,-0.00042985790059901774,-0.0029947205912321806,0.9806391000747681
1666653803.39961696,253844026,1,0.19568966329097748,-3.841580110020004e-05,-0.004632315132766962,0.9806549549102783
1666653803.43962693,253884036,1,0.19568587839603424,-0.00015229135169647634,-0.005956624634563923,0.9806485176086426
1666653803.47960186,253924011,1,0.19567877054214478,-0.0002188764774473384,-0.005470972508192062,0.9806527495384216
1666653803.51960182,253964011,1,0.19573825597763062,-0.0002876759390346706,-0.004200184717774391,0.9806471467018127
1666653803.55959582,254004005,1,0.1957051157951355,-0.00030227884417399764,-0.0033351595047861338,0.9806571006774902
1666653803.57959390,254024003,1,0.19561782479286194,-0.00047048329724930227,-0.0037432063836604357,0.9806729555130005
1666653803.59962487,254044034,1,0.1956389844417572,-0.00019498915935400873,-0.0031065037474036217,0.9806710481643677
1666653803.63959599,254084005,1,0.1955895572900772,-0.00044143779086880386,-0.0028307538013905287,0.9806816577911377
1666653803.67963290,254124042,1,0.19550630450248718,-0.0005624477635137737,-0.003471452509984374,0.9806961417198181
1666653803.71960282,254164012,1,0.1954619288444519,-0.0006634748424403369,-0.003993889782577753,0.9807029366493225
1666653803.75958896,254203998,1,0.19545400142669678,-0.0007521896623075008,-0.003870155429467559,0.9807049632072449
1666653803.77963781,254224047,1,0.1955372393131256,-0.0006098534795455635,-0.0037095097359269857,0.9806890487670898
1666653803.79962778,254244037,1,0.19546687602996826,-0.0006003446760587394,-0.00312455790117383,0.9807051420211792
1666653803.83962178,254284031,1,0.19540780782699585,-0.0003032434615306556,-0.002721975091844797,0.9807182550430298
1666653803.87965298,254324062,1,0.19541165232658386,4.749251274915878e-06,-0.0024039403069764376,0.9807183742523193
1666653803.91959596,254364005,1,0.1954212188720703,0.0002061910490738228,-0.0026327508967369795,0.9807158708572388
1666653803.95959878,254404008,1,0.19546005129814148,0.0002834034094121307,-0.0031352329533547163,0.9807066321372986
1666653803.97961688,254424026,1,0.19551970064640045,0.0004966945853084326,-0.0027235373854637146,0.9806958436965942
1666653803.99959397,254444003,1,0.19543638825416565,0.00035091795143671334,-0.004272497724741697,0.9807069897651672
1666653804.03962088,254484030,1,0.19550052285194397,0.00023928385053295642,-0.0050300005823373795,0.9806906580924988
1666653804.07962775,254524037,1,0.19556306302547455,-0.00017493037739768624,-0.005800723098218441,0.9806739687919617
1666653804.11962581,254564035,1,0.19547830522060394,-0.000320746359648183,-0.006463095545768738,0.9806866645812988
1666653804.15959883,254604008,1,0.19549961388111115,-0.00031128726550377905,-0.006605374161154032,0.9806814789772034
1666653804.17961979,254624029,1,0.19541475176811218,-4.330368756200187e-05,-0.005143080838024616,0.9807072281837463
1666653804.19959784,254644007,1,0.19541974365711212,-0.000326392037095502,-0.00634950865060091,0.9806990623474121
1666653804.23960376,254684013,1,0.1953921765089035,-0.00046344968723133206,-0.006185114849358797,0.9807055592536926
1666653804.27962089,254724030,1,0.19531498849391937,-0.0006929693045094609,-0.006780359894037247,0.9807168841362
1666653804.31962490,254764034,1,0.19531477987766266,-0.0010986292036250234,-0.007697161287069321,0.9807097911834717
1666653804.35963178,254804041,1,0.1954212635755539,-0.0018768954323604703,-0.00866131391376257,0.9806793332099915
1666653804.37962985,254824039,1,0.19534608721733093,-0.002358680358156562,-0.008562766015529633,0.9806941747665405
1666653804.39960384,254844013,1,0.1955275684595108,-0.0032083247788250446,-0.008697367273271084,0.9806544184684753
1666653804.43959880,254884008,1,0.1954733282327652,-0.004599972162395716,-0.007316139992326498,0.9806709289550781
1666653804.47959781,254924007,1,0.1955462098121643,-0.0062265885062515736,-0.005559760611504316,0.9806589484214783
1666653804.51962781,254964037,1,0.19552938640117645,-0.0077338796108961105,-0.003656643209978938,0.9806605577468872
1666653804.55960178,255004011,1,0.19559402763843536,-0.008602285757660866,-0.0016838082810863853,0.9806457757949829
1666653804.57959485,255024004,1,0.19569480419158936,-0.008694509044289589,-0.0018511915113776922,0.9806245565414429
1666653804.59961176,255044021,1,0.19575121998786926,-0.008827578276395798,-9.046990453498438e-05,0.9806138277053833
1666653804.63959599,255084005,1,0.19588321447372437,-0.009244771674275398,0.0011546789901331067,0.9805829524993896
1666653804.67959976,255124009,1,0.19597794115543365,-0.009893967770040035,0.0025355147663503885,0.9805551171302795
1666653804.71957278,255163982,1,0.1960529237985611,-0.010492272675037384,0.003976310603320599,0.9805291295051575
1666653804.75962996,255204039,1,0.19607305526733398,-0.011006895452737808,0.005186660680919886,0.9805138111114502
1666653804.77959394,255224003,1,0.19617274403572083,-0.01088204886764288,0.005979963578283787,0.9804907441139221
1666653804.79963183,255244041,1,0.19606827199459076,-0.011124019511044025,0.0055707781575620174,0.9805113077163696
1666653804.83959389,255284003,1,0.19616806507110596,-0.010907711461186409,0.006119520869106054,0.980490505695343
1666653804.87959576,255324005,1,0.19615662097930908,-0.010227678343653679,0.005663732998073101,0.9805029034614563
1666653804.91960788,255364017,1,0.19615831971168518,-0.009447600692510605,0.004667180590331554,0.9805155992507935
1666653804.95960379,255404013,1,0.19611118733882904,-0.008519908413290977,0.00422318372875452,0.9805355668067932
1666653804.97959685,255424006,1,0.19625304639339447,-0.007832728326320648,0.005856641568243504,0.9805045127868652
1666653804.99963784,255444047,1,0.1960688978433609,-0.007391985040158033,0.003989710472524166,0.9805541634559631
1666653805.03965688,255484066,1,0.1959528625011444,-0.0060305348597466946,0.0037943776696920395,0.9805874228477478
1666653805.07959580,255524005,1,0.1959114968776703,-0.004665861371904612,0.004056708887219429,0.9806020855903625
1666653805.11959696,255564006,1,0.1957799345254898,-0.003140512388199568,0.003654786618426442,0.9806360006332397
1666653805.15960383,255604013,1,0.1956484615802765,-0.0017909362213686109,0.0033576006535440683,0.9806666970252991
1666653805.17960191,255624011,1,0.19550977647304535,-0.0020299179013818502,0.0028546748217195272,0.9806954860687256
1666653805.19962192,255644031,1,0.1954757124185562,-0.0004593456396833062,0.0029772508423775434,0.9807038903236389
1666653805.23963785,255684047,1,0.19522680342197418,0.0008029708405956626,0.0024827392771840096,0.9807546734809875
1666653805.27963686,255724046,1,0.19510160386562347,0.0016023478237912059,0.0026680396404117346,0.9807780981063843
1666653805.31959796,255764007,1,0.1950571984052658,0.001948470831848681,0.0023604198358953,0.9807870984077454
1666653805.35958982,255803999,1,0.1949598491191864,0.002194405533373356,0.0020075628999620676,0.9808067083358765
1666653805.37962389,255824033,1,0.1949068307876587,0.002218404086306691,0.000835463113617152,0.9808189272880554
1666653805.39959788,255844007,1,0.19484712183475494,0.0025166687555611134,0.001239599660038948,0.9808295965194702
1666653805.43962383,255884033,1,0.19473278522491455,0.0026555825024843216,0.0013429883401840925,0.9808518290519714
1666653805.47960591,255924015,1,0.19462572038173676,0.002331121824681759,0.0008635934209451079,0.9808744192123413
1666653805.51961279,255964022,1,0.1945752054452896,0.0024642329663038254,0.000977056217379868,0.9808840155601501
1666653805.55959487,256004004,1,0.19440406560897827,0.0025888467207551003,0.0010789725929498672,0.9809175133705139
1666653805.57962394,256024033,1,0.1944807469844818,0.0028706551529467106,0.0018979329615831375,0.9809002876281738
1666653805.59959579,256044005,1,0.19435706734657288,0.0027309891302138567,0.001258133095689118,0.9809262156486511
1666653805.63962793,256084037,1,0.1943785697221756,0.0025989459827542305,0.0013110004365444183,0.980922281742096
1666653805.67962694,256124036,1,0.1944195181131363,0.0025393266696482897,0.001591384643688798,0.9809138774871826
1666653805.71963477,256164044,1,0.19445614516735077,0.002552660880610347,0.0017124466830864549,0.9809064269065857
1666653805.75959492,256204004,1,0.19447660446166992,0.002620481653138995,0.0023322117049247026,0.9809008836746216
1666653805.77962399,256224033,1,0.1944843828678131,0.0021348213776946068,0.003400692017748952,0.9808974266052246
1666653805.79959488,256244004,1,0.19452932476997375,0.0023362471256405115,0.002672787057235837,0.9808902740478516
1666653805.83959579,256284005,1,0.19454067945480347,0.001994566060602665,0.0030934002716094255,0.9808875322341919
1666653805.87960792,256324017,1,0.19461457431316376,0.0018746423302218318,0.0030349779408425093,0.9808732867240906
1666653805.91962290,256364032,1,0.1944981813430786,0.0018625687807798386,0.0033601291943341494,0.9808953404426575
1666653805.95964599,256404055,1,0.19453538954257965,0.0015847738832235336,0.003515620483085513,0.9808879494667053
1666653805.97962880,256424038,1,0.1944562792778015,0.0010555358603596687,0.002194738946855068,0.9809081554412842
1666653805.99966884,256444078,1,0.19459150731563568,0.0012140902690589428,0.0037238835357129574,0.9808765649795532
1666653806.03959489,256484004,1,0.19462043046951294,0.0011502065462991595,0.003710133256390691,0.9808709621429443
1666653806.07959580,256524005,1,0.19466426968574524,0.0012543016346171498,0.0036508815828710794,0.9808623194694519
1666653806.11962080,256564030,1,0.19465528428554535,0.0012648970587179065,0.003843395970761776,0.9808633923530579
1666653806.15960383,256604013,1,0.19474102556705475,0.0011911577312275767,0.0037099889013916254,0.9808469414710999
1666653806.17959380,256624003,1,0.1948232501745224,0.0016556717455387115,0.0032686584163457155,0.980831503868103
1666653806.19962883,256644038,1,0.19476217031478882,0.0011021499522030354,0.003276771865785122,0.9808443784713745
1666653806.23959279,256684002,1,0.1948351114988327,0.001243552309460938,0.002679978497326374,0.9808315634727478
1666653806.27960086,256724010,1,0.19477185606956482,0.0012989751994609833,0.0021099210716784,0.9808454513549805
1666653806.31961179,256764021,1,0.19477534294128418,0.0009232754237018526,0.0018652412109076977,0.9808456897735596
1666653806.35962081,256804030,1,0.19486404955387115,0.0007426219526678324,0.0014452033210545778,0.9808289408683777
1666653806.37959886,256824008,1,0.1948869526386261,0.0017120767151936889,0.0027269916608929634,0.9808204174041748
1666653806.39960575,256844015,1,0.19491362571716309,0.0007496292819269001,0.0012377885868772864,0.9808193445205688
1666653806.43959975,256884009,1,0.19493719935417175,0.001024360302835703,0.0012114668497815728,0.9808144569396973
1666653806.47959495,256924004,1,0.1948096603155136,0.001178498612716794,0.0014051797334104776,0.9808393716812134
1666653806.51960182,256964011,1,0.19467169046401978,0.0013064536033198237,0.0015014520613476634,0.9808664321899414
1666653806.55961680,257004026,1,0.19458654522895813,0.001470350194722414,0.0016909368569031358,0.9808827638626099
1666653806.57960176,257024011,1,0.1945233792066574,0.0005763061344623566,0.0005762786604464054,0.9808975458145142
1666653806.59962797,257044037,1,0.19459857046604156,0.0014501430559903383,0.001880073337815702,0.980880081653595
1666653806.63963079,257084040,1,0.19453735649585724,0.0014995790552347898,0.002020740881562233,0.9808918833732605
1666653806.67959690,257124006,1,0.1945187747478485,0.0014968460891395807,0.0024503490421921015,0.9808945655822754
1666653806.71960282,257164012,1,0.19450272619724274,0.0013537401100620627,0.0022177696228027344,0.9808985590934753
1666653806.75959277,257204002,1,0.19444164633750916,0.0013484407681971788,0.002019916195422411,0.9809110760688782
1666653806.77961779,257224027,1,0.19458001852035522,0.0020059309899806976,0.0012232019798830152,0.9808838367462158
1666653806.79962492,257244034,1,0.194345161318779,0.0015182187780737877,0.002328647766262293,0.9809292554855347
1666653806.83961987,257284029,1,0.1943225860595703,0.0013516924809664488,0.0023297430016100407,0.9809339642524719
1666653806.87963390,257324043,1,0.19432011246681213,0.0012189988046884537,0.0017140110721811652,0.9809359312057495
1666653806.91959691,257364006,1,0.1943356841802597,0.0011077449889853597,0.0009085105848498642,0.9809340238571167
1666653806.95960689,257404016,1,0.1942916214466095,0.000928460038267076,0.0009254053002223372,0.980942964553833
1666653806.97963095,257424040,1,0.19445796310901642,0.0009149200632236898,0.0020952571649104357,0.980908215045929
1666653806.99959779,257444007,1,0.19420140981674194,0.0006462876335717738,0.0009651229484006763,0.9809609651565552
1666653807.03962278,257484032,1,0.19413620233535767,0.0007597215007990599,0.000965923594776541,0.9809738397598267
1666653807.07959676,257524006,1,0.19419094920158386,0.0022067625541239977,0.0008723290520720184,0.9809609055519104
1666653807.11965394,257564063,1,0.19409656524658203,0.005403462331742048,0.0006535892025567591,0.9809673428535461
1666653807.15959597,257604005,1,0.19406208395957947,0.009355969727039337,0.0003464555775281042,0.9809445738792419
1666653807.17963076,257624040,1,0.1939501017332077,0.010818034410476685,0.00021306253620423377,0.980951726436615
1666653807.19959688,257644006,1,0.19409221410751343,0.013354683294892311,0.00018089477089233696,0.9808923602104187
1666653807.23960686,257684016,1,0.19410404562950134,0.016588600352406502,-0.00019103083468507975,0.9808406829833984
1666653807.27962184,257724031,1,0.1940496861934662,0.01979237236082554,-0.00043019797885790467,0.9807919263839722
1666653807.31959987,257764009,1,0.19408145546913147,0.02260536327958107,-0.0008370455470867455,0.980724573135376
1666653807.35960197,257804011,1,0.1939985305070877,0.02451644279062748,-0.0011911775218322873,0.9806947112083435
1666653807.37962079,257824030,1,0.19389107823371887,0.025447912514209747,-0.002861007582396269,0.980688750743866
1666653807.39963078,257844040,1,0.1939222514629364,0.02583668753504753,-0.001609266735613346,0.9806752800941467
1666653807.43959880,257884008,1,0.19393977522850037,0.026526620611548424,-0.0017789880512282252,0.9806531071662903
1666653807.47963691,257924046,1,0.19378063082695007,0.026027502492070198,-0.0015450543724000454,0.9806983470916748
1666653807.51962090,257964030,1,0.1937227100133896,0.02493884041905403,-0.0008853115141391754,0.9807388782501221
1666653807.55962276,258004032,1,0.19377359747886658,0.023732926696538925,-0.0009318583179265261,0.9807587265968323
1666653807.57959676,258024006,1,0.19390061497688293,0.023230990394949913,-0.0022736035753041506,0.9807434678077698
1666653807.59959888,258044008,1,0.19387373328208923,0.02272079512476921,-0.0010140278609469533,0.9807628393173218
1666653807.63960195,258084011,1,0.193956196308136,0.021909352391958237,-0.001347660319879651,0.9807645678520203
1666653807.67959595,258124005,1,0.19397862255573273,0.021119603887200356,-0.0013953237794339657,0.980777382850647
1666653807.71963692,258164046,1,0.19412098824977875,0.019958365708589554,-0.0016082553192973137,0.9807732105255127
1666653807.75962186,258204031,1,0.1941630244255066,0.018677549436688423,-0.002085283864289522,0.9807892441749573
1666653807.77959776,258224007,1,0.19414715468883514,0.01934622786939144,-0.0010332702659070492,0.980781078338623
1666653807.79962492,258244034,1,0.19426082074642181,0.017484791576862335,-0.0023927423171699047,0.9807911515235901
1666653807.83959794,258284007,1,0.19433538615703583,0.016631420701742172,-0.002167384373024106,0.9807917475700378
