timestamp,TimeUS,C,Roll,Pitch,Yaw,VN,VE,VD,dPD,PN,PE,PD,GX,GY,GZ,OH
1666653790.47958994,240923999,1,0.05,0.18,350.78000000000003,0.020685987547039986,-0.09836690872907639,0.0008403874817304313,-0.06042175367474556,-13.18036937713623,-11.199616432189941,0.06150183454155922,0.13,0.02,0.02,206.57
1666653790.51962376,240964033,1,0.05,0.18,350.78000000000003,0.020651111379265785,-0.0985349714756012,0.0006518235895782709,-0.05460089072585106,-13.17480182647705,-11.208415985107422,0.05912095680832863,0.13,0.02,0.02,206.57
1666653790.55963898,241004048,1,0.05,0.18,350.78000000000003,0.0205681212246418,-0.09861605614423752,0.0006764403078705072,-0.056420959532260895,-13.169931411743164,-11.216499328613281,0.056925587356090546,0.13,0.02,0.02,206.57
1666653790.57958698,241023996,1,0.05,0.18,350.78000000000003,0.02078876458108425,-0.09875566512346268,0.0007728149648755789,-0.05620152875781059,-13.167152404785156,-11.220921516418457,0.05561817064881325,0.13,0.02,0.02,206.57
1666653790.59962797,241044037,1,0.05,0.18,350.78000000000003,0.020348602905869484,-0.09884780645370483,0.0008675336139276624,-0.05631175637245178,-13.165660858154297,-11.22400188446045,0.05501656234264374,0.13,0.02,0.02,206.57
1666653790.63962197,241084031,1,0.05,0.17,350.78000000000003,0.020401498302817345,-0.09864190965890884,0.0010047279065474868,-0.05082564428448677,-13.160135269165039,-11.231417655944824,0.05380505323410034,0.13,0.02,0.02,206.57
1666653790.67959976,241124009,1,0.05,0.17,350.78000000000003,0.021913815289735794,-0.09784922748804092,0.0012623725924640894,-0.03504262864589691,-13.151782989501953,-11.239362716674805,0.05323890969157219,0.13,0.02,0.02,206.57
1666653790.71958780,241163997,1,0.06,0.17,350.78000000000003,0.023794926702976227,-0.09706083685159683,0.0016617689980193973,-0.020655222237110138,-13.142441749572754,-11.247482299804688,0.05252215638756752,0.13,0.02,0.02,206.57
1666653790.75961590,241204025,1,0.06,0.17,350.79,0.024443741887807846,-0.09667038172483444,0.0016320653958246112,-0.012301206588745117,-13.136168479919434,-11.253938674926758,0.05193578079342842,0.13,0.02,0.02,206.57
1666653790.77958894,241223998,1,0.06,0.17,350.79,0.024599669501185417,-0.09646103531122208,0.0013933067675679922,-0.009817819111049175,-13.134061813354492,-11.256664276123047,0.05177384987473488,0.13,0.02,0.02,206.57
1666653790.79957986,241243989,1,0.06,0.17,350.79,0.025285689160227776,-0.09582708775997162,0.001528286375105381,-0.00769956037402153,-13.13058090209961,-11.259954452514648,0.05144880339503288,0.13,0.02,0.02,206.57
1666653790.83959794,241284007,1,0.06,0.16,350.79,0.025438616052269936,-0.0958186537027359,0.0024699296336621046,0.0021164899226278067,-13.124353408813477,-11.269561767578125,0.05197519809007645,0.13,0.02,0.02,206.57
1666653790.87959290,241324002,1,0.06,0.16,350.79,0.024828441441059113,-0.09522683918476105,0.0031345218885689974,0.01242457702755928,-13.11888313293457,-11.2782621383667,0.052417412400245667,0.13,0.02,0.02,206.57
1666653790.91957784,241363987,1,0.06,0.16,350.79,0.024383392184972763,-0.09484772384166718,0.003952352330088615,0.0192869920283556,-13.112963676452637,-11.287398338317871,0.05285818874835968,0.13,0.02,0.02,206.57
1666653790.95962691,241404036,1,0.06,0.16,350.79,0.024069704115390778,-0.09422755986452103,0.0044886404648423195,0.019921911880373955,-13.108943939208984,-11.2944917678833,0.05299483984708786,0.13,0.02,0.02,206.57
1666653790.97959280,241424002,1,0.06,0.16,350.8,0.023894790560007095,-0.0939243882894516,0.004626477602869272,0.018805265426635742,-13.107544898986816,-11.297398567199707,0.05308569595217705,0.13,0.02,0.02,206.57
1666653790.99961686,241444026,1,0.06,0.16,350.8,0.023913312703371048,-0.09348661452531815,0.004633225500583649,0.01732802949845791,-13.105417251586914,-11.301033020019531,0.053178898990154266,0.13,0.02,0.02,206.57
1666653791.03962779,241484037,1,0.06,0.16,350.8,0.025094782933592796,-0.0915532335639,0.00542060611769557,0.01924337074160576,-13.098121643066406,-11.308412551879883,0.05398429557681084,0.13,0.02,0.02,206.57
1666653791.07957983,241523989,1,0.06,0.16,350.8,0.0256165973842144,-0.08975983411073685,0.0060330224223434925,0.021347494795918465,-13.091676712036133,-11.314981460571289,0.054596126079559326,0.13,0.02,0.02,206.57
1666653791.11958790,241563997,1,0.06,0.16,350.8,0.026346741244196892,-0.08776294440031052,0.006789102219045162,0.022387776523828506,-13.084529876708984,-11.321742057800293,0.055170852690935135,0.13,0.02,0.02,206.57
1666653791.15958977,241603999,1,0.06,0.16,350.8,0.02666405588388443,-0.08611419796943665,0.0073672751896083355,0.018608514219522476,-13.079649925231934,-11.327075004577637,0.055339325219392776,0.13,0.02,0.02,206.57
1666653791.17959976,241624009,1,0.07,0.16,350.8,0.0265575610101223,-0.0855705738067627,0.007731799967586994,0.016175540164113045,-13.077966690063477,-11.329320907592773,0.055461131036281586,0.13,0.02,0.02,206.57
1666653791.19962096,241644030,1,0.07,0.16,350.8,0.027142610400915146,-0.08472459763288498,0.007600418757647276,0.013425533659756184,-13.075300216674805,-11.331960678100586,0.05556559935212135,0.13,0.02,0.02,206.57
1666653791.23961496,241684024,1,0.07,0.16,350.8,0.026714997366070747,-0.0842466726899147,0.007770555559545755,0.008205333724617958,-13.069910049438477,-11.340988159179688,0.05551275610923767,0.13,0.02,0.02,206.57
1666653791.27959776,241724007,1,0.07,0.16,350.8,0.02634361758828163,-0.08356048166751862,0.007366688456386328,0.0013088780688121915,-13.06514835357666,-11.349184036254883,0.05538380891084671,0.13,0.02,0.02,206.57
1666653791.31956482,241763974,1,0.07,0.16,350.8,0.025998760014772415,-0.08313485234975815,0.007600770797580481,-0.002444102894514799,-13.06003189086914,-11.357815742492676,0.05507611110806465,0.13,0.02,0.02,206.57
1666653791.35959697,241804006,1,0.07,0.15,350.8,0.02501991018652916,-0.08306947350502014,0.00775647908449173,-0.006872353609651327,-13.056511878967285,-11.364409446716309,0.05472926050424576,0.13,0.02,0.02,206.57
1666653791.37961888,241824028,1,0.07,0.15,350.8,0.024970170110464096,-0.08277265727519989,0.007451656740158796,-0.009023893624544144,-13.05527400970459,-11.36703872680664,0.054683636873960495,0.13,0.02,0.02,206.57
1666653791.39959693,241844006,1,0.07,0.15,350.8,0.024776829406619072,-0.08236546069383621,0.007461857050657272,-0.010320388711988926,-13.053431510925293,-11.370479583740234,0.05446714535355568,0.13,0.02,0.02,206.57
1666653791.43961596,241884025,1,0.07,0.15,350.8,0.02474723570048809,-0.08185099065303802,0.007292641326785088,-0.01568419113755226,-13.048354148864746,-11.379252433776855,0.05347566306591034,0.13,0.02,0.02,206.57
1666653791.47961497,241924024,1,0.07,0.15,350.8,0.02471861056983471,-0.08092442899942398,0.006983949337154627,-0.023699620738625526,-13.043879508972168,-11.387225151062012,0.052522432059049606,0.13,0.02,0.02,206.57
1666653791.51961875,241964028,1,0.07,0.15,350.8,0.024710362777113914,-0.08005037158727646,0.006474091671407223,-0.027850547805428505,-13.03907585144043,-11.395626068115234,0.05115554481744766,0.13,0.02,0.02,206.57
1666653791.55958891,242003998,1,0.08,0.15,350.8,0.02437559887766838,-0.07929426431655884,0.005822924897074699,-0.03385929763317108,-13.035759925842285,-11.40201187133789,0.0498817041516304,0.13,0.02,0.02,206.57
1666653791.57961488,242024024,1,0.08,0.15,350.8,0.024223212152719498,-0.07881263643503189,0.005815710872411728,-0.03584114834666252,-13.03459358215332,-11.404509544372559,0.04953039065003395,0.13,0.02,0.02,206.57
1666653791.59957480,242043984,1,0.08,0.15,350.8,0.02438439428806305,-0.07831268012523651,0.005456502549350262,-0.037335533648729324,-13.032837867736816,-11.407862663269043,0.048773109912872314,0.13,0.02,0.02,206.57
1666653791.63958478,242083994,1,0.08,0.14,350.8,0.025474537163972855,-0.0753704309463501,0.00504273222759366,-0.0397469699382782,-13.026793479919434,-11.41457748413086,0.047307468950748444,0.13,0.02,0.02,206.57
1666653791.67961597,242124025,1,0.08,0.14,350.8,0.026797709986567497,-0.07240600883960724,0.004444198217242956,-0.042912084609270096,-13.021385192871094,-11.4205322265625,0.045907534658908844,0.13,0.02,0.02,206.57
1666653791.71960282,242164012,1,0.08,0.14,350.8,0.027440419420599937,-0.06898827105760574,0.004374195355921984,-0.04200068116188049,-13.015392303466797,-11.426565170288086,0.04421434551477432,0.13,0.02,0.02,206.57
1666653791.75959396,242204003,1,0.08,0.14,350.8,0.028106942772865295,-0.06625086069107056,0.004143230151385069,-0.04010212793946266,-13.011210441589355,-11.431111335754395,0.04307781904935837,0.13,0.02,0.02,206.57
1666653791.77962089,242224030,1,0.08,0.14,350.8,0.02814340963959694,-0.06502493470907211,0.003964819014072418,-0.038513533771038055,-13.009719848632812,-11.432944297790527,0.042758382856845856,0.13,0.02,0.02,206.57
1666653791.79959297,242244002,1,0.08,0.14,350.8,0.028351183980703354,-0.06323006749153137,0.004145276267081499,-0.03613580763339996,-13.007418632507324,-11.435176849365234,0.04209009185433388,0.13,0.02,0.02,206.57
1666653791.83959079,242284000,1,0.08,0.14,350.8,0.028347032144665718,-0.06220829114317894,0.004392916802316904,-0.02985830046236515,-13.002999305725098,-11.443391799926758,0.04132067784667015,0.13,0.02,0.02,206.57
1666653791.87962580,242324035,1,0.08,0.14,350.8,0.027818774804472923,-0.06096140295267105,0.004182450007647276,-0.026089955121278763,-12.999066352844238,-11.450746536254883,0.04046395421028137,0.13,0.02,0.02,206.57
1666653791.91965675,242364066,1,0.09,0.14,350.8,0.027007536962628365,-0.059758540242910385,0.004083593841642141,-0.022312916815280914,-12.994898796081543,-11.458584785461426,0.03926914930343628,0.13,0.02,0.02,206.57
1666653791.95965695,242404066,1,0.09,0.14,350.81,0.026309287175536156,-0.05803879350423813,0.0041758818551898,-0.02317310869693756,-12.991958618164062,-11.464333534240723,0.038161296397447586,0.13,0.02,0.02,206.57
1666653791.97959089,242424000,1,0.09,0.14,350.81,0.026271145790815353,-0.05715882405638695,0.0041429526172578335,-0.024141261354088783,-12.990890502929688,-11.46649169921875,0.03785618394613266,0.13,0.02,0.02,206.57
1666653791.99958992,242443999,1,0.09,0.14,350.81,0.025711020454764366,-0.056944239884614944,0.004047904163599014,-0.024783018976449966,-12.989370346069336,-11.469517707824707,0.03721580281853676,0.13,0.02,0.02,206.57
1666653792.03958893,242483998,1,0.09,0.14,350.81,0.02607548236846924,-0.05400346964597702,0.0043043349869549274,-0.01992454007267952,-12.9847412109375,-11.475881576538086,0.03698479384183884,0.13,0.02,0.02,206.57
1666653792.07959390,242524003,1,0.09,0.13,350.81,0.026244668290019035,-0.051234230399131775,0.0044962260872125626,-0.013705205172300339,-12.980639457702637,-11.481451988220215,0.03665637969970703,0.13,0.02,0.02,206.57
1666653792.11961794,242564027,1,0.09,0.14,350.81,0.02649320848286152,-0.048048608005046844,0.004727696068584919,-0.008198784664273262,-12.976215362548828,-11.487214088439941,0.036202821880578995,0.13,0.02,0.02,206.57
1666653792.15963078,242604040,1,0.09,0.14,350.82,0.026341384276747704,-0.04530273750424385,0.004841419868171215,-0.006013795733451843,-12.9730806350708,-11.491369247436523,0.0358290821313858,0.13,0.02,0.02,206.57
1666653792.17958593,242623995,1,0.09,0.14,350.82,0.02625562995672226,-0.043699949979782104,0.004964045248925686,-0.0055307201109826565,-12.9713773727417,-11.493522644042969,0.03559929504990578,0.13,0.02,0.02,206.57
1666653792.19962788,242644037,1,0.09,0.14,350.82,0.025973236188292503,-0.04256745055317879,0.004770824685692787,-0.005498015321791172,-12.970308303833008,-11.49496841430664,0.035547636449337006,0.13,0.02,0.02,206.57
1666653792.23960090,242684010,1,0.09,0.14,350.82,0.025352686643600464,-0.03913154453039169,0.0048658112064003944,-0.0030278614722192287,-12.966424942016602,-11.500544548034668,0.03544559329748154,0.13,0.02,0.02,206.57
1666653792.27958798,242723997,1,0.09,0.14,350.82,0.02468300797045231,-0.035908568650484085,0.00545644061639905,-0.0015506691997870803,-12.963003158569336,-11.505319595336914,0.035254742950201035,0.13,0.02,0.02,206.57
1666653792.31959391,242764003,1,0.09,0.14,350.82,0.024796659126877785,-0.03214859962463379,0.006066653411835432,-0.00026308142696507275,-12.959378242492676,-11.510189056396484,0.034830011427402496,0.13,0.02,0.02,206.57
1666653792.35961485,242804024,1,0.09,0.14,350.82,0.02438182942569256,-0.029240041971206665,0.006294370163232088,-0.004586340393871069,-12.95680046081543,-11.51350212097168,0.03419172018766403,0.13,0.02,0.02,206.57
1666653792.37959480,242824004,1,0.09,0.14,350.82,0.024222569540143013,-0.02780884876847267,0.006732412148267031,-0.007004747167229652,-12.955839157104492,-11.514687538146973,0.03405802324414253,0.13,0.02,0.02,206.57
1666653792.39960194,242844011,1,0.09,0.14,350.82,0.02390459179878235,-0.026482604444026947,0.006852721329778433,-0.009195879101753235,-12.95451545715332,-11.516313552856445,0.03369797021150589,0.13,0.02,0.02,206.57
1666653792.43962383,242884033,1,0.09,0.14,350.82,0.022234898060560226,-0.025733524933457375,0.007485098671168089,-0.004716611932963133,-12.952310562133789,-11.524240493774414,0.034306541085243225,0.13,0.02,0.02,206.57
1666653792.47959280,242924002,1,0.09,0.14,350.82,0.020383495837450027,-0.024523288011550903,0.00806374754756689,0.005313077475875616,-12.950458526611328,-11.531207084655762,0.0349210686981678,0.13,0.02,0.02,206.57
1666653792.51959181,242964001,1,0.09,0.14,350.82,0.018802162259817123,-0.024290690198540688,0.0089370496571064,0.013883695006370544,-12.948714256286621,-11.538905143737793,0.03547140583395958,0.13,0.02,0.02,206.57
1666653792.55960584,243004015,1,0.09,0.14,350.82,0.01700637862086296,-0.02365710400044918,0.009256568737328053,0.014975172467529774,-12.947528839111328,-11.544134140014648,0.0356358140707016,0.13,0.02,0.02,206.57
1666653792.57959175,243024001,1,0.09,0.14,350.82,0.01638394594192505,-0.023039445281028748,0.009075618349015713,0.01370471715927124,-12.94707202911377,-11.545907020568848,0.035765450447797775,0.13,0.02,0.02,206.57
1666653792.59961796,243044027,1,0.09,0.14,350.82,0.015537496656179428,-0.022802866995334625,0.009228404611349106,0.012576659210026264,-12.946586608886719,-11.548772811889648,0.03584210202097893,0.13,0.02,0.02,206.57
1666653792.63959885,243084008,1,0.09,0.14,350.83,0.015927640721201897,-0.020602069795131683,0.009815973229706287,0.01621202379465103,-12.943042755126953,-11.555310249328613,0.036850497126579285,0.13,0.02,0.02,206.57
1666653792.67959476,243124004,1,0.09,0.14,350.83,0.016253113746643066,-0.018918396905064583,0.010174193419516087,0.01998496986925602,-12.939918518066406,-11.56098461151123,0.037587959319353104,0.13,0.02,0.02,206.57
1666653792.71959376,243164003,1,0.09,0.14,350.83,0.016567867249250412,-0.01759771630167961,0.010720835998654366,0.022318562492728233,-12.93652629852295,-11.567192077636719,0.03810301423072815,0.13,0.02,0.02,206.57
1666653792.75960588,243204015,1,0.09,0.14,350.83,0.01686261221766472,-0.015975868329405785,0.010813805274665356,0.015376854687929153,-12.934165954589844,-11.57130241394043,0.037943337112665176,0.13,0.02,0.02,206.57
1666653792.77963686,243224046,1,0.09,0.14,350.83,0.01683661714196205,-0.014964129775762558,0.010974446311593056,0.010792751796543598,-12.93331527709961,-11.572649002075195,0.037989892065525055,0.13,0.02,0.02,206.57
1666653792.79960990,243244019,1,0.09,0.14,350.83,0.016920138150453568,-0.014002333395183086,0.011390776373445988,0.007086127530783415,-12.932051658630371,-11.574837684631348,0.037886470556259155,0.13,0.02,0.02,206.57
1666653792.83962488,243284034,1,0.09,0.14,350.83,0.019169863313436508,-0.01335893664509058,0.011832427233457565,0.009985720738768578,-12.927176475524902,-11.582784652709961,0.03922317549586296,0.13,0.02,0.02,206.57
1666653792.87960792,243324017,1,0.09,0.14,350.83,0.02083015814423561,-0.012876675464212894,0.012260673567652702,0.019389519467949867,-12.922706604003906,-11.589753150939941,0.04040846228599548,0.13,0.02,0.02,206.57
1666653792.91959596,243364005,1,0.09,0.13,350.83,0.023091984912753105,-0.013047067448496819,0.012997090816497803,0.027066471055150032,-12.917644500732422,-11.597579002380371,0.041524067521095276,0.13,0.02,0.02,206.57
1666653792.95959592,243404005,1,0.09,0.14,350.83,0.02408752217888832,-0.012595423497259617,0.013356983661651611,0.026085447520017624,-12.913991928100586,-11.602749824523926,0.04200926423072815,0.13,0.02,0.02,206.57
1666653792.97961187,243424021,1,0.09,0.14,350.83,0.024330370128154755,-0.012233812361955643,0.01359343621879816,0.02404903993010521,-12.912680625915527,-11.604415893554688,0.04227052256464958,0.13,0.02,0.02,206.57
1666653792.99959588,243444005,1,0.09,0.14,350.83,0.024979325011372566,-0.011826232075691223,0.013875413686037064,0.021961050108075142,-12.910646438598633,-11.60729694366455,0.04253113269805908,0.13,0.02,0.02,206.57
1666653793.03962278,243484032,1,0.09,0.14,350.82,0.027822332456707954,-0.01006282214075327,0.014788426458835602,0.028188658878207207,-12.904626846313477,-11.613882064819336,0.04455390200018883,0.13,0.02,0.02,206.57
1666653793.07961178,243524021,1,0.09,0.14,350.83,0.03018260933458805,-0.008281782269477844,0.01549745723605156,0.038575317710638046,-12.899055480957031,-11.619585990905762,0.04630405455827713,0.13,0.02,0.02,206.57
1666653793.11962390,243564033,1,0.09,0.14,350.82,0.03320537507534027,-0.00652848556637764,0.016539232805371284,0.045722659677267075,-12.89267349243164,-11.625901222229004,0.04805913195014,0.13,0.02,0.02,206.57
1666653793.15959477,243604004,1,0.09,0.14,350.82,0.03509886562824249,-0.004600833635777235,0.017400696873664856,0.04293864220380783,-12.887980461120605,-11.629919052124023,0.048967260867357254,0.13,0.02,0.02,206.57
1666653793.17962098,243624030,1,0.09,0.14,350.82,0.03557904064655304,-0.003939303569495678,0.0176388006657362,0.039624691009521484,-12.886265754699707,-11.631147384643555,0.04938335344195366,0.13,0.02,0.02,206.57
1666653793.19959378,243644003,1,0.09,0.14,350.82,0.0362573079764843,-0.0031213725451380014,0.017886541783809662,0.03605826199054718,-12.883606910705566,-11.633338928222656,0.04989223554730415,0.13,0.02,0.02,206.57
1666653793.23959088,243684000,1,0.09,0.14,350.82,0.03645956516265869,-0.0007197578088380396,0.018878605216741562,0.03504246100783348,-12.880285263061523,-11.638504028320312,0.05139315873384476,0.13,0.02,0.02,206.57
1666653793.27961993,243724029,1,0.09,0.14,350.81,0.03720581904053688,0.002417747862637043,0.019759826362133026,0.03398648649454117,-12.877202987670898,-11.642833709716797,0.052576944231987,0.13,0.02,0.02,206.57
1666653793.31960487,243764014,1,0.09,0.15,350.8,0.03613700345158577,0.0020466840360313654,0.02088225446641445,0.03295807167887688,-12.873916625976562,-11.647561073303223,0.05365867167711258,0.13,0.02,0.02,206.57
1666653793.35963583,243804045,1,0.09,0.14,350.79,0.037075065076351166,0.007991422899067402,0.021208208054304123,0.025902869179844856,-12.871369361877441,-11.650355339050293,0.05416233837604523,0.13,0.02,0.02,206.57
1666653793.37963176,243824041,1,0.09,0.14,350.79,0.035212192684412,0.007225441746413708,0.02100062184035778,0.021513303741812706,-12.870328903198242,-11.651094436645508,0.054500896483659744,0.13,0.02,0.02,206.57
1666653793.39959478,243844004,1,0.09,0.14,350.8,0.03575660288333893,0.008247338235378265,0.022181985899806023,0.018958093598484993,-12.869037628173828,-11.65257453918457,0.05477829650044441,0.13,0.02,0.02,206.57
1666653793.43960190,243884011,1,0.09,0.14,350.8,0.03390268236398697,0.008352184668183327,0.022613706067204475,0.02309342287480831,-12.868006706237793,-11.660470962524414,0.0567055270075798,0.13,0.02,0.02,206.57
1666653793.47962785,243924037,1,0.09,0.14,350.81,0.03299466520547867,0.008510121144354343,0.023880738765001297,0.03216218203306198,-12.86716079711914,-11.667428016662598,0.05835074931383133,0.13,0.02,0.02,206.57
1666653793.51962185,243964031,1,0.09,0.14,350.81,0.029480531811714172,0.005150539334863424,0.024508917704224586,0.0382453054189682,-12.866598129272461,-11.67537784576416,0.060094065964221954,0.13,0.02,0.02,206.57
1666653793.55963588,244004045,1,0.09,0.14,350.8,0.03068321943283081,0.008467371575534344,0.024952320381999016,0.03994947671890259,-12.865988731384277,-11.680397033691406,0.061469171196222305,0.13,0.02,0.02,206.57
1666653793.57960176,244024011,1,0.09,0.14,350.8,0.029008205980062485,0.007638165261596441,0.025511708110570908,0.04008882865309715,-12.865599632263184,-11.681851387023926,0.062099389731884,0.13,0.02,0.02,206.57
1666653793.59959793,244044007,1,0.09,0.14,350.8,0.027819275856018066,0.008003645576536655,0.02581212855875492,0.03954649716615677,-12.865459442138672,-11.684732437133789,0.06285717338323593,0.13,0.02,0.02,206.57
1666653793.63959980,244084009,1,0.1,0.14,350.79,0.029832258820533752,0.010882602073252201,0.027452971786260605,0.04550576210021973,-12.861773490905762,-11.69050407409668,0.06515524536371231,0.13,0.02,0.02,206.57
1666653793.67959690,244124006,1,0.09,0.14,350.79,0.02997332066297531,0.010499516502022743,0.027894489467144012,0.05099833011627197,-12.858457565307617,-11.695480346679688,0.06719105690717697,0.13,0.02,0.02,206.57
1666653793.71962881,244164038,1,0.09,0.14,350.8,0.03392130881547928,0.009753629565238953,0.02976926416158676,0.0550721250474453,-12.85473918914795,-11.701165199279785,0.0692099779844284,0.13,0.02,0.02,206.57
1666653793.75962090,244204030,1,0.1,0.13,350.81,0.03398460894823074,0.016211971640586853,0.03000931814312935,0.050249189138412476,-12.851879119873047,-11.704509735107422,0.07051341235637665,0.13,0.02,0.02,206.57
1666653793.77959776,244224007,1,0.1,0.14,350.82,0.03559618815779686,0.014658293686807156,0.026935065165162086,0.04333753511309624,-12.850711822509766,-11.705366134643555,0.07116254419088364,0.13,0.02,0.02,206.57
1666653793.79962683,244244036,1,0.09,0.14,350.82,0.03485368937253952,0.010633233934640884,0.034361496567726135,0.04712606221437454,-12.849143981933594,-11.707300186157227,0.07182744145393372,0.13,0.02,0.02,206.57
1666653793.83959794,244284007,1,0.1,0.13,350.81,0.035859279334545135,0.016882196068763733,0.02698899805545807,0.037985969334840775,-12.8487548828125,-11.715734481811523,0.07370525598526001,0.13,0.02,0.02,206.57
1666653793.87959576,244324005,1,0.08,0.14,350.79,0.028056582435965538,0.014465969055891037,0.040713224560022354,0.05111441761255264,-12.848487854003906,-11.723055839538574,0.07534126192331314,0.13,0.02,0.02,206.57
1666653793.91959691,244364006,1,0.09,0.13,350.78000000000003,0.034281160682439804,0.012585252523422241,0.030283592641353607,0.03991673141717911,-12.848485946655273,-11.731610298156738,0.07691841572523117,0.13,0.02,0.02,206.57
1666653793.95962477,244404034,1,0.09,0.15,350.77,0.02467568963766098,0.010080814361572266,0.035619158297777176,0.04121833294630051,-12.848278999328613,-11.73690128326416,0.07813089340925217,0.13,0.02,0.02,206.57
1666653793.97960782,244424017,1,0.11,0.14,350.78000000000003,0.026790378615260124,0.014279995113611221,0.03872668743133545,0.04194121062755585,-12.848026275634766,-11.738470077514648,0.07873142510652542,0.13,0.02,0.02,206.57
1666653793.99963880,244444048,1,0.09,0.15,350.78000000000003,0.029122233390808105,0.011928768828511238,0.025622855871915817,0.02661062590777874,-12.8480863571167,-11.741634368896484,0.07936051487922668,0.13,0.02,0.02,206.57
1666653794.03962493,244484034,1,0.1,0.14,350.81,0.025570161640644073,0.01893678680062294,0.026273731142282486,0.025170335546135902,-12.848254203796387,-11.747506141662598,0.0812520682811737,0.13,0.02,0.02,206.57
1666653794.07959795,244524007,1,0.06,0.14,350.82,0.03289918974041939,0.010866452939808369,0.029453717172145844,0.046062666922807693,-12.849061012268066,-11.756121635437012,0.08473934233188629,0.13,0.02,0.02,206.57
1666653794.11959481,244564004,1,0.08,0.16,350.82,0.012878828682005405,0.007480110507458448,0.053755808621644974,0.0888642892241478,-12.85031509399414,-11.766124725341797,0.08816034346818924,0.13,0.02,0.02,206.57
1666653794.15959597,244604005,1,0.1,0.13,350.82,0.022656958550214767,0.005786106921732426,0.02605900913476944,0.06326723843812943,-12.851045608520508,-11.772522926330566,0.09009405970573425,0.13,0.02,0.02,206.57
1666653794.17959189,244624001,1,0.1,0.14,350.81,0.025679433718323708,0.0030554968398064375,0.030494561418890953,0.06474429368972778,-12.85108757019043,-11.774463653564453,0.09099993109703064,0.13,0.02,0.02,206.57
1666653794.19963098,244644040,1,0.07,0.16,350.8,0.0177359227091074,0.010015837848186493,0.040812890976667404,0.07133547961711884,-12.851653099060059,-11.778189659118652,0.0920751765370369,0.13,0.02,0.02,206.57
1666653794.23959398,244684003,1,0.1,0.14,350.8,0.0152314817532897,-0.001628707512281835,0.037901122123003006,0.06378337740898132,-12.852742195129395,-11.787713050842285,0.09433907270431519,0.13,0.02,0.02,206.57
1666653794.27960086,244724010,1,0.1,0.13,350.81,0.018152866512537003,0.005423726513981819,0.0358370766043663,0.055688392370939255,-12.853669166564941,-11.796259880065918,0.0962931290268898,0.13,0.02,0.02,206.57
1666653794.31961179,244764021,1,0.08,0.14,350.82,0.012399649247527122,-2.803842562570935e-06,0.04044666513800621,0.05490512400865555,-12.855213165283203,-11.806079864501953,0.0979139655828476,0.13,0.02,0.02,206.57
1666653794.35959291,244804002,1,0.08,0.14,350.83,0.014773543924093246,-0.0012338444357737899,0.0420670323073864,0.04302520677447319,-12.856114387512207,-11.812520980834961,0.09869140386581421,0.13,0.02,0.02,206.57
1666653794.37962890,244824038,1,0.1,0.14,350.84000000000003,0.010442287661135197,0.005935122258961201,0.04355558007955551,0.03717293217778206,-12.85628890991211,-11.814454078674316,0.09925013780593872,0.13,0.02,0.02,206.57
1666653794.39962387,244844033,1,0.09,0.14,350.84000000000003,0.007760439999401569,-0.00010746215411927551,0.041363444179296494,0.02885476127266884,-12.856986999511719,-11.81808090209961,0.09958343952894211,0.13,0.02,0.02,206.57
1666653794.43962693,244884036,1,0.1,0.14,350.84000000000003,0.013952735811471939,-0.0057081133127212524,0.03779496252536774,0.024542927742004395,-12.857330322265625,-11.82773208618164,0.10160324722528458,0.13,0.02,0.02,206.57
1666653794.47964478,244924054,1,0.11,0.14,350.83,0.0062257712706923485,-0.0019873373676091433,0.04353567957878113,0.03263281285762787,-12.857579231262207,-11.836260795593262,0.10321781784296036,0.13,0.02,0.02,206.57
1666653794.51959491,244964004,1,0.08,0.14,350.82,0.011898651719093323,-0.006237789057195187,0.04534519836306572,0.03683583438396454,-12.858174324035645,-11.846148490905762,0.10450179874897003,0.13,0.02,0.02,206.57
1666653794.55959678,245004006,1,0.08,0.14,350.82,0.007686718367040157,-0.00838878471404314,0.039929796010255814,0.025409922003746033,-12.858366012573242,-11.85264778137207,0.10522192716598511,0.13,0.02,0.02,206.57
1666653794.57959986,245024009,1,0.09,0.14,350.83,0.005644700955599546,-0.006035894155502319,0.04307178035378456,0.024824058637022972,-12.858434677124023,-11.85464859008789,0.10577594488859177,0.13,0.02,0.02,206.57
1666653794.59960794,245044017,1,0.09,0.14,350.83,0.006706960964947939,-0.00911854486912489,0.04329419881105423,0.021776074543595314,-12.858699798583984,-11.858342170715332,0.10610456764698029,0.13,0.02,0.02,206.57
1666653794.63963485,245084044,1,0.09,0.14,350.84000000000003,0.00928975734859705,-0.004203535616397858,0.04602736979722977,0.02803836390376091,-12.859001159667969,-11.86520767211914,0.10802533477544785,0.13,0.02,0.02,206.57
1666653794.67962289,245124032,1,0.09,0.14,350.85,0.004080663435161114,-0.009346631355583668,0.04427267983555794,0.02976010926067829,-12.859382629394531,-11.871074676513672,0.10947193950414658,0.13,0.02,0.02,206.57
1666653794.71962786,245164037,1,0.1,0.13,350.85,0.007170799653977156,-0.009977499023079872,0.04418715462088585,0.03249621391296387,-12.859877586364746,-11.877833366394043,0.11075036972761154,0.13,0.02,0.02,206.57
1666653794.75959396,245204003,1,0.09,0.14,350.85,0.004459882155060768,-0.0037523810751736164,0.04725392535328865,0.03265869989991188,-12.8601713180542,-11.882137298583984,0.11174625158309937,0.13,0.02,0.02,206.57
1666653794.77962875,245224038,1,0.09,0.14,350.85,0.003630449064075947,-0.008881023153662682,0.0487443171441555,0.03220820054411888,-12.86026382446289,-11.883490562438965,0.11239595711231232,0.13,0.02,0.02,206.57
1666653794.79959583,245244005,1,0.09,0.14,350.84000000000003,0.006424065213650465,-0.009169606491923332,0.047911908477544785,0.029605843126773834,-12.860469818115234,-11.885923385620117,0.11289355903863907,0.13,0.02,0.02,206.57
1666653794.83959579,245284005,1,0.09,0.14,350.83,0.004122765734791756,-0.004742090590298176,0.0442323237657547,0.030954010784626007,-12.85953426361084,-11.891213417053223,0.11513224244117737,0.13,0.02,0.02,206.57
1666653794.87962389,245324033,1,0.09,0.14,350.84000000000003,0.006111519411206245,-0.005475426092743874,0.048248425126075745,0.043416768312454224,-12.858719825744629,-11.895748138427734,0.11721546202898026,0.13,0.02,0.02,206.57
1666653794.91961694,245364026,1,0.1,0.14,350.85,0.006156420800834894,-0.001286673010326922,0.05308360978960991,0.054744649678468704,-12.857719421386719,-11.900793075561523,0.1191846951842308,0.13,0.02,0.02,206.57
1666653794.95964789,245404057,1,0.09,0.14,350.86,0.00838197860866785,-0.006108064204454422,0.045769527554512024,0.04699944704771042,-12.857030868530273,-11.903959274291992,0.12079276889562607,0.13,0.02,0.02,206.57
1666653794.97963381,245424043,1,0.09,0.15,350.87,0.008261811919510365,-0.004807497840374708,0.048232052475214005,0.04790318384766579,-12.856741905212402,-11.904964447021484,0.12170057743787766,0.13,0.02,0.02,206.57
1666653794.99959683,245444006,1,0.1,0.15,350.86,0.005797207355499268,-0.003209618153050542,0.05171723663806915,0.04981895536184311,-12.856337547302246,-11.906694412231445,0.12250714004039764,0.13,0.02,0.02,206.57
1666653795.03959894,245484008,1,0.1,0.13,350.86,0.00682624988257885,0.0002619242004584521,0.0488261878490448,0.05156052112579346,-12.85700511932373,-11.91169548034668,0.12518832087516785,0.13,0.02,0.02,206.57
1666653795.07959580,245524005,1,0.09,0.14,350.86,0.009470202028751373,-0.0022551948204636574,0.04746032878756523,0.054087381809949875,-12.85751724243164,-11.916051864624023,0.1274637132883072,0.13,0.02,0.02,206.57
1666653795.11962390,245564033,1,0.09,0.14,350.84000000000003,0.004176334943622351,-0.0021305785048753023,0.05345451459288597,0.06173483654856682,-12.858281135559082,-11.920858383178711,0.12954458594322205,0.13,0.02,0.02,206.57
1666653795.15958881,245603998,1,0.09,0.14,350.85,0.008135995827615261,-7.331217057071626e-05,0.05266566202044487,0.056264642626047134,-12.85869026184082,-11.923955917358398,0.13116398453712463,0.13,0.02,0.02,206.57
1666653795.17959976,245624009,1,0.1,0.14,350.85,0.00231200666166842,-0.0035540226381272078,0.05240893363952637,0.05289005860686302,-12.858810424804688,-11.92486572265625,0.13206547498703003,0.13,0.02,0.02,206.57
1666653795.19959688,245644006,1,0.11,0.14,350.85,0.0018599212635308504,0.0009728615987114608,0.05077430233359337,0.04837382584810257,-12.859182357788086,-11.926513671875,0.1328718364238739,0.13,0.02,0.02,206.57
1666653795.23959494,245684004,1,0.09,0.15,350.86,0.00321729457937181,-0.005372485611587763,0.05126019939780235,0.049650128930807114,-12.860031127929688,-11.932263374328613,0.13521841168403625,0.13,0.02,0.02,206.57
1666653795.27960396,245724013,1,0.09,0.14,350.87,0.001692711841315031,-0.002115449635311961,0.05005312338471413,0.04717330262064934,-12.860892295837402,-11.937214851379395,0.137062668800354,0.13,0.02,0.02,206.57
1666653795.31961799,245764027,1,0.09,0.15,350.87,0.007141035981476307,-0.008102099411189556,0.048155318945646286,0.04370955750346184,-12.861892700195312,-11.94288444519043,0.1387253850698471,0.13,0.02,0.02,206.57
1666653795.35963988,245804049,1,0.11,0.14,350.87,0.007550833281129599,-0.00031455079442821443,0.05308922752737999,0.04369385913014412,-12.862546920776367,-11.946524620056152,0.14020106196403503,0.13,0.02,0.02,206.57
1666653795.37959576,245824005,1,0.07,0.16,350.87,0.002048073336482048,-0.006491397507488728,0.05465055629611015,0.04254041612148285,-12.862730979919434,-11.94765567779541,0.14111016690731049,0.13,0.02,0.02,206.57
1666653795.39963794,245844047,1,0.09,0.16,350.86,0.0020589069463312626,-0.009094261564314365,0.04813956841826439,0.03387197107076645,-12.863154411315918,-11.949687957763672,0.14178261160850525,0.13,0.02,0.02,206.57
1666653795.43959689,245884006,1,0.1,0.15,350.86,0.0023151251953095198,0.004358959849923849,0.05766253173351288,0.04538000375032425,-12.86388874053955,-11.95384407043457,0.1438896209001541,0.13,0.02,0.02,206.57
1666653795.47960091,245924010,1,0.07,0.17,350.87,-0.005138482432812452,0.0025064582005143166,0.05766146257519722,0.04410877823829651,-12.864542961120605,-11.95750904083252,0.14546002447605133,0.13,0.02,0.02,206.57
1666653795.51960588,245964015,1,0.1,0.13,350.90000000000003,-0.001826462452299893,0.002815552521497011,0.06274529546499252,0.04811588302254677,-12.865315437316895,-11.961462020874023,0.14623893797397614,0.13,0.02,0.02,206.57
1666653795.55962276,246004032,1,0.08,0.14,350.93,-0.0038635581731796265,0.0045412518084049225,0.05814791098237038,0.026304194703698158,-12.865806579589844,-11.963934898376465,0.14596542716026306,0.13,0.02,0.02,206.57
1666653795.57959390,246024003,1,0.06,0.15,350.94,-0.004796868190169334,0.0002090712368953973,0.050214678049087524,0.007813530042767525,-12.865955352783203,-11.964690208435059,0.14628952741622925,0.13,0.02,0.02,206.57
1666653795.59962797,246044037,1,0.08,0.16,350.95,-0.008428439497947693,-0.003044920042157173,0.05293219909071922,0.0020038580987602472,-12.8663330078125,-11.966041564941406,0.14589732885360718,0.13,0.02,0.02,206.57
1666653795.63963294,246084042,1,0.13,0.13,350.98,-0.005689636804163456,-0.005306418985128403,0.050621069967746735,-0.014978677965700626,-12.866107940673828,-11.967911720275879,0.1455545872449875,0.13,0.02,0.01,206.57
1666653795.67959476,246124004,1,0.1,0.13,351.02,0.0035733976401388645,0.0004488968406803906,0.05385338515043259,-0.0179568063467741,-12.864234924316406,-11.969584465026855,0.14563818275928497,0.13,0.02,0.01,206.57
1666653795.71959782,246164007,1,0.09,0.14,351.04,0.006137797608971596,-0.0017086492152884603,0.05371721461415291,-0.015439759008586407,-12.861894607543945,-11.971161842346191,0.14475421607494354,0.13,0.02,0.01,206.57
1666653795.75959682,246204006,1,0.12,0.15,351.08,0.0010934941237792373,0.008667337708175182,0.054944541305303574,-0.02348768711090088,-12.860265731811523,-11.97189712524414,0.14360277354717255,0.13,0.02,0.01,206.57
1666653795.77959895,246224008,1,0.12,0.15,351.11,0.00532254483550787,0.0013325829058885574,0.049814239144325256,-0.03335217386484146,-12.8597412109375,-11.972043991088867,0.1436467468738556,0.13,0.02,0.01,206.57
1666653795.79962277,246244032,1,0.14,0.16,351.12,0.0033907301258295774,-0.001909735961817205,0.04873201996088028,-0.0380505733191967,-12.85886001586914,-11.97240161895752,0.14277935028076172,0.13,0.02,0.01,206.57
1666653795.83961296,246284022,1,0.14,0.13,351.17,0.0010508984560146928,-0.0037295680958777666,0.0547795407474041,-0.041174568235874176,-12.859469413757324,-11.974491119384766,0.1408195197582245,0.13,0.02,0.01,206.57
1666653795.87962985,246324039,1,0.15,0.09,351.22,0.009941724129021168,0.021353384479880333,0.041017770767211914,-0.07068062573671341,-12.859813690185547,-11.976279258728027,0.1386425644159317,0.13,0.02,0.01,206.57
1666653795.91959691,246364006,1,0.05,0.16,351.23,0.016920577734708786,0.008897366933524609,0.03995451331138611,-0.0774974450469017,-12.860241889953613,-11.978164672851562,0.13469384610652924,0.13,0.02,0.01,206.57
1666653795.95959997,246404009,1,0.08,0.1,351.28000000000003,0.0024121820461004972,0.008441531099379063,0.057395271956920624,-0.08038869500160217,-12.860457420349121,-11.97895336151123,0.13060496747493744,0.13,0.02,0.01,206.57
1666653795.97963285,246424042,1,0.27,0.05,351.28000000000003,0.016394980251789093,0.02801474556326866,0.029684409499168396,-0.11757860332727432,-12.860496520996094,-11.978981971740723,0.1295631378889084,0.13,0.02,0.01,206.57
1666653795.99958897,246443998,1,0.15,0.09,351.3,-0.007393368519842625,0.005720099434256554,0.03977039083838463,-0.11422477662563324,-12.860738754272461,-11.97936725616455,0.12692143023014069,0.13,0.02,0.01,206.57
1666653796.03962088,246484030,1,0.11,0.09,351.3,-0.003753244411200285,0.003382386639714241,0.027789290994405746,-0.136472687125206,-12.861149787902832,-11.980719566345215,0.12134002149105072,0.13,0.02,0.01,206.57
1666653796.07959986,246524009,1,0.24,0.12,351.33,-0.005361959338188171,0.011613559909164906,0.015340355224907398,-0.16346710920333862,-12.861517906188965,-11.981661796569824,0.11487830430269241,0.13,0.02,0.01,206.57
1666653796.11959887,246564008,1,0.33,0.14,351.34000000000003,0.018470782786607742,0.02865579165518284,-0.01839083805680275,-0.19731968641281128,-12.861952781677246,-11.982573509216309,0.10532357543706894,0.13,0.02,0.0,206.57
1666653796.15959692,246604006,1,0.5700000000000001,0.11,351.36,0.016217036172747612,0.03688950836658478,-0.05829860642552376,-0.25269877910614014,-12.862077713012695,-11.982498168945312,0.09526348114013672,0.13,0.02,0.0,206.57
1666653796.17962980,246624039,1,0.74,0.16,351.38,-0.00031562044750899076,0.02498657815158367,-0.10349303483963013,-0.30412718653678894,-12.86208724975586,-11.982122421264648,0.09133441746234894,0.13,0.02,0.0,206.57
1666653796.19959688,246644006,1,0.71,0.15,351.38,0.018197353929281235,0.03920770063996315,-0.08719220012426376,-0.2908891439437866,-12.86225414276123,-11.982132911682129,0.08515538275241852,0.13,0.02,0.0,206.57
1666653796.23961282,246684022,1,0.8200000000000001,0.18,351.39,0.01328118983656168,0.036788370460271835,-0.13253644108772278,-0.3420134484767914,-12.864012718200684,-11.982403755187988,0.07219453901052475,0.13,0.02,0.0,206.57
1666653796.27962089,246724030,1,0.8200000000000001,0.23,351.40000000000003,0.0126956170424819,0.0397404246032238,-0.15955673158168793,-0.38758569955825806,-12.865633964538574,-11.982197761535645,0.05794366076588631,0.13,0.02,0.0,206.57
1666653796.31963587,246764045,1,0.84,0.26,351.41,0.0065867411904037,0.04427282139658928,-0.17689932882785797,-0.4065583050251007,-12.867596626281738,-11.981863975524902,0.039841923862695694,0.13,0.02,0.0,206.57
1666653796.35959578,246804005,1,0.79,0.21,351.42,0.004321544896811247,0.06465568393468857,-0.2048504501581192,-0.46097809076309204,-12.868831634521484,-11.980794906616211,0.021279355511069298,0.13,0.02,0.0,206.57
1666653796.37964988,246824059,1,0.9500000000000001,0.14,351.40000000000003,0.010662208311259747,0.04229125753045082,-0.22301924228668213,-0.4897887706756592,-12.869119644165039,-11.979984283447266,0.013757920823991299,0.13,0.02,0.0,206.57
1666653796.39959979,246844009,1,0.75,0.08,351.41,0.006545090116560459,0.07358096539974213,-0.23222556710243225,-0.5060348510742188,-12.86978530883789,-11.979426383972168,0.002958259778097272,0.13,0.02,0.0,206.57
1666653796.43960977,246884019,1,0.73,-0.09,351.42,0.00874896626919508,0.0680471807718277,-0.273521363735199,-0.5579317212104797,-12.870466232299805,-11.97947883605957,-0.018396951258182526,0.13,0.02,0.0,206.57
1666653796.47962189,246924031,1,0.67,-0.22,351.41,0.01779470406472683,0.06951519846916199,-0.2958611249923706,-0.610622763633728,-12.87100887298584,-11.978913307189941,-0.0412948876619339,0.13,0.02,0.0,206.57
1666653796.51961088,246964020,1,0.5700000000000001,-0.28,351.39,0.020964311435818672,0.07417651265859604,-0.2867210805416107,-0.609305739402771,-12.871660232543945,-11.978226661682129,-0.06859320402145386,0.13,0.02,0.0,206.57
1666653796.55962586,247004035,1,0.54,-0.31,351.37,0.025847161188721657,0.08279884606599808,-0.29155784845352173,-0.6534130573272705,-12.8717679977417,-11.976516723632812,-0.09546201676130295,0.13,0.02,0.0,206.57
1666653796.57963681,247024046,1,0.63,-0.26,351.36,0.007325827144086361,0.07387417554855347,-0.30698898434638977,-0.6856420040130615,-12.871676445007324,-11.975441932678223,-0.10592391341924667,0.13,0.02,0.0,206.57
1666653796.59959292,247044002,1,0.42,-0.35000000000000003,351.35,0.03225114941596985,0.07731625437736511,-0.28439030051231384,-0.6732100248336792,-12.871706008911133,-11.974784851074219,-0.12059168517589569,0.13,0.02,0.0,206.57
1666653796.63959384,247084003,1,0.33,-0.4,351.34000000000003,0.03740553930401802,0.06323090940713882,-0.28950461745262146,-0.6865124106407166,-12.87148666381836,-11.970991134643555,-0.14755047857761383,0.13,0.02,0.0,206.57
1666653796.67959881,247124008,1,0.24,-0.44,351.31,0.03755827993154526,0.058966390788555145,-0.2932403087615967,-0.7066222429275513,-12.871012687683105,-11.967147827148438,-0.17479757964611053,0.13,0.02,0.0,206.57
1666653796.71966577,247164075,1,0.15,-0.43,351.27,0.04436677694320679,0.06593635678291321,-0.30762195587158203,-0.7126277089118958,-12.870573997497559,-11.962865829467773,-0.20733164250850677,0.13,0.02,0.0,206.57
1666653796.75961590,247204025,1,0.04,-0.4,351.25,0.0462617427110672,0.07864256948232651,-0.3243286609649658,-0.7588286399841309,-12.869623184204102,-11.958645820617676,-0.23878151178359985,0.13,0.02,0.0,206.57
1666653796.77959275,247224002,1,0.07,-0.39,351.22,0.03518882021307945,0.08812526613473892,-0.3670162856578827,-0.8143534064292908,-12.86900520324707,-11.95667552947998,-0.2508230209350586,0.13,0.02,0.0,206.57
1666653796.79961181,247244021,1,0.03,-0.32,351.22,0.05274204909801483,0.08261848241090775,-0.3436596393585205,-0.7956752777099609,-12.86849308013916,-11.954474449157715,-0.2678465247154236,0.13,0.02,0.0,206.57
1666653796.83959389,247284003,1,0.09,-0.27,351.2,0.04882190376520157,0.08734582364559174,-0.343608021736145,-0.7742804884910583,-12.86651611328125,-11.950798988342285,-0.2948571741580963,0.13,0.02,0.0,206.57
1666653796.87959576,247324005,1,0.24,-0.21,351.17,0.048164695501327515,0.09635837376117706,-0.3354705274105072,-0.7457804083824158,-12.864506721496582,-11.946932792663574,-0.32226166129112244,0.13,0.02,0.0,206.57
1666653796.91962981,247364039,1,0.36,-0.16,351.13,0.056571636348962784,0.09819179773330688,-0.3228195309638977,-0.6979275345802307,-12.86233901977539,-11.942805290222168,-0.3535197675228119,0.13,0.02,0.0,206.57
1666653796.95962286,247404032,1,0.29,-0.13,351.1,0.054135117679834366,0.09050478041172028,-0.32979655265808105,-0.7109514474868774,-12.86013126373291,-11.938882827758789,-0.3826664984226227,0.13,0.02,0.0,206.57
1666653796.97959876,247424008,1,0.38,-0.12,351.07,0.05490000918507576,0.09720799326896667,-0.3599650263786316,-0.745705783367157,-12.859006881713867,-11.9368896484375,-0.3940816819667816,0.13,0.02,0.0,206.57
1666653796.99964190,247444051,1,0.22,-0.13,351.06,0.061105091124773026,0.0884452760219574,-0.31606656312942505,-0.7031233906745911,-12.857860565185547,-11.934865951538086,-0.4096999764442444,0.13,0.02,0.0,206.57
1666653797.03959775,247484007,1,0.24,-0.12,351.03000000000003,0.05989426001906395,0.08203069865703583,-0.2926400303840637,-0.7112476229667664,-12.85683822631836,-11.932939529418945,-0.445059210062027,0.13,0.02,0.0,206.57
1666653797.07959294,247524002,1,0.19,-0.05,351.0,0.057977259159088135,0.0753074437379837,-0.30127549171447754,-0.8565046787261963,-12.855607986450195,-11.93067455291748,-0.48423606157302856,0.13,0.02,0.0,206.57
1666653797.11959291,247564002,1,0.37,-0.2,154.95000000000002,0.05192676559090614,0.0970538780093193,-0.28287628293037415,-0.9257751107215881,-12.85440731048584,-11.928450584411621,-0.5343089699745178,0.13,0.02,0.0,206.57
1666653797.15962791,247604037,1,0.43,-0.2,154.92000000000002,0.05010339990258217,0.09188858419656754,-0.26076239347457886,-1.1049751043319702,-12.853666305541992,-11.926314353942871,-0.5861905813217163,0.13,0.02,0.0,206.57
1666653797.17959476,247624004,1,0.28,-0.24,154.92000000000002,0.027519162744283676,0.07134464383125305,-0.2653585374355316,-1.2068188190460205,-12.853121757507324,-11.92487907409668,-0.6039370894432068,0.13,0.02,0.0,206.57
1666653797.19961882,247644028,1,0.42,-0.18,154.89000000000001,0.04842286929488182,0.07781760394573212,-0.25302281975746155,-1.2630923986434937,-12.852813720703125,-11.923831939697266,-0.6322972178459167,0.13,0.02,0.0,206.57
1666653797.23963785,247684047,1,0.33,-0.1,154.86,0.04466288536787033,0.07200856506824493,-0.22758936882019043,-1.29057776927948,-12.854373931884766,-11.921050071716309,-0.6762011051177979,0.13,0.02,0.0,206.57
1666653797.27959490,247724004,1,0.34,-0.08,154.83,0.03189726546406746,0.06195620447397232,-0.20383435487747192,-1.2790364027023315,-12.855859756469727,-11.918503761291504,-0.7192302346229553,0.13,0.02,0.0,206.57
1666653797.31960583,247764015,1,0.29,-0.08,154.78,0.022336818277835846,0.06414652615785599,-0.1908104419708252,-1.2114897966384888,-12.858177185058594,-11.915849685668945,-0.770079493522644,0.13,0.02,0.0,206.57
1666653797.35959792,247804007,1,0.0,-0.1,154.75,0.01600555330514908,0.061998575925827026,-0.16192041337490082,-1.1807500123977661,-12.85934829711914,-11.912867546081543,-0.8127272725105286,0.13,0.02,0.0,206.57
1666653797.37959576,247824005,1,-0.02,-0.07,154.77,0.029158618301153183,0.08629551529884338,-0.12380214035511017,-1.1370371580123901,-12.859514236450195,-11.911296844482422,-0.8266904354095459,0.13,0.02,0.0,206.57
1666653797.39962888,247844038,1,-0.08,-0.04,154.75,0.014572346583008766,0.06644467264413834,-0.11297999322414398,-1.1122437715530396,-12.860243797302246,-11.909690856933594,-0.8497881889343262,0.13,0.02,0.0,206.57
1666653797.43963194,247884041,1,-0.36,-0.09,154.74,0.01134994626045227,0.07384690642356873,-0.07365488260984421,-1.0086839199066162,-12.863652229309082,-11.911086082458496,-0.8848346471786499,0.13,0.02,0.0,206.57
1666653797.47963595,247924045,1,-0.58,-0.1,154.76,0.013457224704325199,0.08420538157224655,-0.03605472296476364,-0.9327684044837952,-12.866495132446289,-11.9116849899292,-0.9190166592597961,0.13,0.02,0.0,206.57
1666653797.51959586,247964005,1,-0.77,-0.09,154.75,0.024705877527594566,0.09262940287590027,-0.025711923837661743,-0.8557534217834473,-12.869685173034668,-11.912483215332031,-0.959972083568573,0.13,0.02,0.0,206.57
1666653797.55959296,248004002,1,-0.93,0.01,154.70000000000002,0.036334238946437836,0.10809293389320374,-0.01327280979603529,-0.8390980958938599,-12.871237754821777,-11.91161060333252,-0.9935101270675659,0.13,0.02,0.0,206.57
1666653797.57963276,248024042,1,-1.12,-0.03,154.68,0.01472616009414196,0.07907507568597794,-0.016600096598267555,-0.8386054635047913,-12.871501922607422,-11.91053295135498,-1.0035886764526367,0.13,0.02,0.0,206.57
1666653797.59959793,248044007,1,-1.24,-0.02,154.66,0.04144599288702011,0.11235548555850983,-0.023759564384818077,-0.8365694284439087,-12.872354507446289,-11.910085678100586,-1.0221422910690308,0.13,0.02,0.0,206.57
1666653797.63962388,248084033,1,-1.6,-0.02,154.6,0.045202188193798065,0.11220856755971909,-0.012921973131597042,-0.7501268982887268,-12.87625789642334,-11.914514541625977,-1.044366478919983,0.13,0.02,0.0,206.57
1666653797.67963576,248124045,1,-2.09,-0.03,154.52,0.03957038000226021,0.11547516286373138,-0.023321617394685745,-0.6675979495048523,-12.879244804382324,-11.917407035827637,-1.0655529499053955,0.13,0.02,0.0,206.57
1666653797.71959782,248164007,1,-2.48,0.0,154.42000000000002,0.04918918013572693,0.12778565287590027,-0.018848644569516182,-0.5609657764434814,-12.88256549835205,-11.920916557312012,-1.0908364057540894,0.13,0.02,0.0,206.57
1666653797.75959492,248204004,1,-2.69,0.0,154.3,0.049484848976135254,0.1464615911245346,-0.001310257357545197,-0.4835279881954193,-12.883829116821289,-11.921001434326172,-1.1096302270889282,0.13,0.02,0.0,206.57
1666653797.77962494,248224034,1,-2.7800000000000002,-0.03,154.26,0.04367766156792641,0.12554822862148285,0.0013045775704085827,-0.4535219073295593,-12.883757591247559,-11.919869422912598,-1.1152244806289673,0.13,0.02,0.0,206.57
1666653797.79959178,248244001,1,-2.63,-0.03,154.21,0.057834379374980927,0.16448888182640076,0.010929646901786327,-0.4181932508945465,-12.884488105773926,-11.920133590698242,-1.1258111000061035,0.13,0.02,0.0,206.57
1666653797.83962584,248284035,1,-2.35,-0.08,154.12,0.05026387795805931,0.1665482372045517,0.00675994623452425,-0.35035446286201477,-12.888032913208008,-11.921868324279785,-1.1377302408218384,0.13,0.02,0.0,206.57
1666653797.87961984,248324029,1,-1.8800000000000001,-0.16,154.05,0.046415723860263824,0.16159817576408386,-0.027798263356089592,-0.31471747159957886,-12.890725135803223,-11.922263145446777,-1.1495822668075562,0.13,0.02,0.0,206.57
1666653797.91964197,248364051,1,-1.31,-0.18,153.98,0.06518745422363281,0.17342984676361084,-0.08873704820871353,-0.31185466051101685,-12.89371395111084,-11.922924041748047,-1.163087010383606,0.13,0.02,0.0,206.57
1666653797.95959687,248404006,1,-0.91,-0.22,153.95000000000002,0.05898718908429146,0.1891755759716034,-0.12589770555496216,-0.2762534022331238,-12.894631385803223,-11.920669555664062,-1.1719404458999634,0.13,0.02,0.0,206.57
1666653797.97962284,248424032,1,-0.66,-0.27,153.93,0.0805017501115799,0.18385078012943268,-0.12179836630821228,-0.23678074777126312,-12.89445686340332,-11.918581008911133,-1.1758991479873657,0.13,0.02,0.0,206.57
1666653797.99959493,248444004,1,-0.46,-0.29,153.9,0.052278708666563034,0.1760866492986679,-0.17107410728931427,-0.2548023462295532,-12.895072937011719,-11.917571067810059,-1.1817893981933594,0.13,0.02,0.0,206.57
1666653798.03959298,248484002,1,-0.05,-0.24,153.83,0.05433911085128784,0.19127067923545837,-0.19106394052505493,-0.19728006422519684,-12.898737907409668,-11.919647216796875,-1.1870249509811401,0.13,0.02,0.0,206.57
1666653798.07961488,248524024,1,0.17,-0.19,153.75,0.06431444734334946,0.19600076973438263,-0.2129954695701599,-0.11853373795747757,-12.90162181854248,-11.920557022094727,-1.1917418241500854,0.13,0.02,0.0,206.57
1666653798.11962080,248564030,1,0.35000000000000003,-0.16,153.67000000000002,0.07247479259967804,0.19717921316623688,-0.2545648217201233,-0.09160368889570236,-12.905364990234375,-11.922855377197266,-1.1951230764389038,0.13,0.02,0.0,206.57
1666653798.15960884,248604018,1,0.58,-0.15,153.56,0.0663532093167305,0.18350964784622192,-0.27483439445495605,-0.038667745888233185,-12.90689754486084,-11.921801567077637,-1.1983920335769653,0.13,0.02,0.0,206.57
1666653798.17961693,248624026,1,0.72,-0.17,153.5,0.04824846237897873,0.16734112799167633,-0.3212567865848541,-0.05648704618215561,-12.90700626373291,-11.92025375366211,-1.2018442153930664,0.13,0.02,0.0,206.57
1666653798.19959688,248644006,1,0.76,-0.09,153.44,0.057146407663822174,0.17673061788082123,-0.3280837833881378,-0.043710995465517044,-12.908084869384766,-11.92028522491455,-1.203831434249878,0.13,0.02,0.0,206.57
1666653798.23959684,248684006,1,0.97,-0.02,153.33,0.04171494022011757,0.1537669152021408,-0.37336763739585876,-0.05243280529975891,-12.913412094116211,-11.927111625671387,-1.2071698904037476,0.13,0.02,0.0,206.57
1666653798.27959394,248724003,1,1.12,-0.02,153.25,0.03176829218864441,0.15097260475158691,-0.4118053913116455,-0.04719378426671028,-12.91794490814209,-11.932666778564453,-1.2115074396133423,0.13,0.02,0.0,206.57
1666653798.31962276,248764032,1,1.24,-0.08,153.16,0.03393398970365524,0.1418856978416443,-0.4431484639644623,-0.06551322340965271,-12.923455238342285,-11.940325736999512,-1.2136300802230835,0.13,0.02,0.0,206.57
1666653798.35960889,248804018,1,1.3,-0.14,153.14000000000001,0.02348160929977894,0.12242589890956879,-0.452493816614151,-0.0555855892598629,-12.926602363586426,-11.943594932556152,-1.21845281124115,0.13,0.02,0.0,206.57
1666653798.37959695,248824006,1,1.3900000000000001,-0.16,153.13,0.04193863645195961,0.13697367906570435,-0.44747036695480347,-0.045184724032878876,-12.927343368530273,-11.943655014038086,-1.2235125303268433,0.13,0.02,0.0,206.57
1666653798.39962792,248844037,1,1.48,-0.19,153.13,0.023292934522032738,0.11778637766838074,-0.4380330443382263,-0.03718710318207741,-12.9293794631958,-11.94622802734375,-1.2250760793685913,0.13,0.02,0.0,206.57
1666653798.43960595,248884015,1,1.32,-0.18,153.15,0.020909061655402184,0.12018716335296631,-0.4257374107837677,-0.021399347111582756,-12.937110900878906,-11.953017234802246,-1.2284307479858398,0.13,0.02,0.0,206.57
1666653798.47959280,248924002,1,1.2,-0.19,153.19,0.012639385648071766,0.10449393093585968,-0.42839106917381287,-0.013412055559456348,-12.944108963012695,-11.95886516571045,-1.2322273254394531,0.13,0.02,0.0,206.57
1666653798.51957989,248963989,1,1.18,-0.14,153.25,0.0024784556590020657,0.08808749914169312,-0.4293304681777954,-0.020070159807801247,-12.952505111694336,-11.96672248840332,-1.2320693731307983,0.13,0.02,0.0,206.57
1666653798.55962992,249004039,1,1.1300000000000001,-0.1,153.32,-0.0036263579968363047,0.08372516185045242,-0.4441216289997101,-0.03107205219566822,-12.958080291748047,-11.970873832702637,-1.2359603643417358,0.13,0.02,0.0,206.57
1666653798.57959390,249024003,1,0.96,-0.13,153.35,-0.006814540363848209,0.05594217777252197,-0.465779185295105,-0.060505203902721405,-12.961514472961426,-11.973760604858398,-1.2370573282241821,0.13,0.02,0.0,206.57
1666653798.59957886,249043988,1,0.88,-0.13,153.4,-0.011614157818257809,0.07872772961854935,-0.47399774193763733,-0.0752371996641159,-12.96323299407959,-11.974471092224121,-1.2426177263259888,0.13,0.02,0.0,206.57
1666653798.63959885,249084008,1,0.76,-0.15,153.49,-0.016937488690018654,0.06686504930257797,-0.49976977705955505,-0.12339667975902557,-12.973377227783203,-11.98324966430664,-1.2485342025756836,0.13,0.02,0.0,206.57
1666653798.67959690,249124006,1,0.61,-0.22,153.62,-0.03496173024177551,0.048070330172777176,-0.5055519342422485,-0.13361245393753052,-12.982675552368164,-11.991067886352539,-1.25605309009552,0.13,0.02,0.0,206.57
1666653798.71959186,249164001,1,0.47000000000000003,-0.31,153.73,-0.039874542504549026,0.03225506469607353,-0.5196584463119507,-0.16485103964805603,-12.993488311767578,-12.000737190246582,-1.260421872138977,0.13,0.02,0.0,206.57
1666653798.75961995,249204029,1,0.33,-0.46,153.89000000000001,-0.04494545981287956,0.02552161179482937,-0.5242952108383179,-0.17485995590686798,-13.00113296508789,-12.006562232971191,-1.2684451341629028,0.13,0.02,0.0,206.57
1666653798.77959394,249224003,1,0.16,-0.45,153.99,-0.03144363313913345,0.0406615324318409,-0.49019983410835266,-0.1458553522825241,-13.003705978393555,-12.008031845092773,-1.274911880493164,0.13,0.02,0.0,206.57
1666653798.79962277,249244032,1,0.22,-0.46,154.07,-0.03730415180325508,0.03324966877698898,-0.49467694759368896,-0.15845510363578796,-13.00809097290039,-12.01166820526123,-1.2773191928863525,0.13,0.02,0.0,206.57
1666653798.83963490,249284044,1,0.08,-0.39,154.25,-0.04044189676642418,0.03087235428392887,-0.48844167590141296,-0.19211485981941223,-13.014456748962402,-12.017812728881836,-1.2892829179763794,0.13,0.02,0.0,206.57
1666653798.87959886,249324008,1,0.0,-0.26,154.44,-0.03601023182272911,0.022104477509856224,-0.487349271774292,-0.23863349854946136,-13.020155906677246,-12.023224830627441,-1.3011162281036377,0.13,0.02,0.0,206.57
1666653798.91959977,249364009,1,-0.11,-0.04,154.62,-0.026614004746079445,0.03672390058636665,-0.476946622133255,-0.27362799644470215,-13.026455879211426,-12.02975082397461,-1.3107800483703613,0.13,0.02,0.0,206.57
1666653798.95959496,249404004,1,-0.2,0.12,154.8,-0.03417579084634781,0.033430587500333786,-0.4796818792819977,-0.2892311215400696,-13.030990600585938,-12.033651351928711,-1.3217689990997314,0.13,0.02,0.0,206.57
1666653798.97961879,249424028,1,-0.14,0.22,154.88,-0.03363822400569916,0.020338576287031174,-0.496793270111084,-0.3086695969104767,-13.032628059387207,-12.03469181060791,-1.3287572860717773,0.13,0.02,0.0,206.57
1666653798.99962187,249444031,1,-0.21,0.24,154.97,-0.036490172147750854,0.025881433859467506,-0.48089799284935,-0.294261634349823,-13.035115242004395,-12.03696346282959,-1.3338128328323364,0.13,0.02,0.0,206.57
1666653799.03960896,249484018,1,-0.16,0.34,155.12,-0.038541655987501144,0.013703981414437294,-0.4758039116859436,-0.2823374569416046,-13.041596412658691,-12.041468620300293,-1.3436641693115234,0.13,0.02,0.0,206.57
1666653799.07963085,249524040,1,-0.09,0.42,155.28,-0.030093125998973846,0.014346066862344742,-0.469511479139328,-0.2629525363445282,-13.047261238098145,-12.045302391052246,-1.3541041612625122,0.13,0.02,0.0,206.57
1666653799.11962080,249564030,1,-0.07,0.5,155.44,-0.027369225397706032,0.017149049788713455,-0.4538183808326721,-0.24812781810760498,-13.053197860717773,-12.049715042114258,-1.361781358718872,0.13,0.02,0.0,206.57
1666653799.15959692,249604006,1,-0.06,0.56,155.6,-0.025506943464279175,0.017025979235768318,-0.45489344000816345,-0.2425302118062973,-13.057151794433594,-12.0521821975708,-1.3713457584381104,0.13,0.02,0.0,206.57
1666653799.17963481,249624044,1,-0.03,0.62,155.68,-0.018131697550415993,0.021755922585725784,-0.4583609402179718,-0.24507266283035278,-13.058462142944336,-12.05279541015625,-1.3777161836624146,0.13,0.02,0.0,206.57
1666653799.19959378,249644003,1,-0.08,0.59,155.76,-0.021857650950551033,0.01155773550271988,-0.4374188780784607,-0.22492341697216034,-13.060519218444824,-12.054190635681152,-1.3816801309585571,0.13,0.02,0.0,206.57
1666653799.23961878,249684028,1,-0.13,0.63,155.91,-0.01835523545742035,0.00432250089943409,-0.4289252460002899,-0.20955003798007965,-13.064441680908203,-12.05819034576416,-1.3892210721969604,0.13,0.02,0.0,206.57
1666653799.27961898,249724028,1,-0.15,0.63,156.05,-0.015619815327227116,-0.0027507576160132885,-0.4294011890888214,-0.19247259199619293,-13.06766128540039,-12.061643600463867,-1.3972060680389404,0.13,0.02,0.0,206.57
1666653799.31962276,249764032,1,-0.19,0.63,156.19,-0.005669108591973782,-0.0032299624290317297,-0.41483235359191895,-0.177154079079628,-13.07084846496582,-12.065616607666016,-1.4024546146392822,0.13,0.02,0.0,206.57
1666653799.35959387,249804003,1,-0.31,0.64,156.34,0.006458088289946318,0.005057912319898605,-0.41215986013412476,-0.17192389070987701,-13.072647094726562,-12.067975997924805,-1.4101313352584839,0.13,0.02,0.0,206.57
1666653799.37961888,249824028,1,-0.5,0.67,156.43,0.0071023511700332165,0.011450938880443573,-0.391914963722229,-0.15370771288871765,-13.073027610778809,-12.068536758422852,-1.4153555631637573,0.13,0.02,0.0,206.57
1666653799.39959598,249844005,1,-0.42,0.63,156.5,0.012442095205187798,0.013074510730803013,-0.40649160742759705,-0.17268413305282593,-13.07388973236084,-12.069905281066895,-1.4185583591461182,0.13,0.02,0.0,206.57
1666653799.43963289,249884042,1,-0.59,0.66,156.64000000000001,0.023087650537490845,0.02312612719833851,-0.3986993134021759,-0.17536506056785583,-13.076103210449219,-12.07233715057373,-1.4261945486068726,0.13,0.02,0.0,206.57
1666653799.47966576,249924075,1,-0.71,0.6900000000000001,156.79,0.027055054903030396,0.028408590704202652,-0.38048121333122253,-0.16152508556842804,-13.077596664428711,-12.074300765991211,-1.4340239763259888,0.13,0.02,0.0,206.57
1666653799.51962280,249964032,1,-0.78,0.65,156.96,0.027160655707120895,0.020788142457604408,-0.37363606691360474,-0.1690552681684494,-13.07900619506836,-12.076480865478516,-1.4399052858352661,0.13,0.02,0.0,206.57
1666653799.55960083,250004010,1,-0.71,0.62,157.11,0.02929306961596012,0.005621209740638733,-0.36097362637519836,-0.1623772531747818,-13.079279899597168,-12.077735900878906,-1.4474883079528809,0.13,0.02,0.0,206.57
1666653799.57962084,250024030,1,-0.54,0.6,157.17000000000002,0.041974667459726334,0.014765901491045952,-0.3736567795276642,-0.17929933965206146,-13.079068183898926,-12.0780611038208,-1.452597975730896,0.13,0.02,0.0,206.57
1666653799.59959579,250044005,1,-0.51,0.56,157.25,0.033785659819841385,0.00034841123851947486,-0.3588271141052246,-0.17005133628845215,-13.079142570495605,-12.078760147094727,-1.4557856321334839,0.13,0.02,0.0,206.57
1666653799.63959384,250084003,1,-0.36,0.54,157.37,0.03995731100440025,0.0020279816817492247,-0.36406540870666504,-0.17819082736968994,-13.078863143920898,-12.082844734191895,-1.4617890119552612,0.13,0.02,0.0,206.57
1666653799.67961478,250124024,1,-0.24,0.56,157.48,0.044651471078395844,0.002925561973825097,-0.3465116620063782,-0.1531699299812317,-13.078024864196777,-12.086387634277344,-1.468013048171997,0.13,0.02,0.0,206.57
1666653799.71962476,250164034,1,-0.12,0.55,157.58,0.053173571825027466,-0.0008055592770688236,-0.3345002830028534,-0.14441458880901337,-13.076980590820312,-12.090380668640137,-1.4718523025512695,0.13,0.02,0.0,206.57
