timestamp,TimeUS,DesRoll,Roll,DesPitch,Pitch,DesYaw,Yaw,ErrRP,ErrYaw,AEKF
10.50135300,10501353,0.0,0.0,0.0,0.22,0.0,0.0,1.0,1.0,0
10.60112000,10601120,0.0,0.0,0.0,0.22,38.58,38.58,1.0,0.8,0
10.70116700,10701167,0.0,0.0,0.0,0.22,38.6,38.6,0.8,0.64,0
10.80106500,10801065,0.0,-0.02,0.0,0.21,38.58,38.58,0.8,0.51,0
10.90101500,10901015,0.0,-0.03,0.0,0.2,38.550000000000004,38.550000000000004,0.64,0.41000000000000003,0
11.00094600,11000946,0.0,-0.04,0.0,0.19,38.480000000000004,38.480000000000004,0.64,0.33,0
11.10098400,11100984,0.0,-0.05,0.0,0.18,38.44,38.44,0.51,0.26,0
11.20098200,11200982,0.0,-0.06,0.0,0.18,38.480000000000004,38.480000000000004,0.51,0.21,0
11.30105000,11301050,0.0,-0.06,0.0,0.17,38.47,38.47,0.41000000000000003,0.17,0
11.40109300,11401093,0.0,-0.07,0.0,0.16,38.57,38.57,0.41000000000000003,0.14,0
11.50132700,11501327,0.0,-0.07,0.0,0.16,38.57,38.57,0.32,0.11,0
11.60124300,11601243,0.0,-0.07,0.0,0.16,38.53,38.53,0.32,0.09,0
11.70125300,11701253,0.0,-0.08,0.0,0.16,38.52,38.52,0.26,0.07,0
11.80118400,11801184,0.0,-0.08,0.0,0.16,38.37,38.37,0.26,0.06,0
11.90107500,11901075,0.0,-0.08,0.0,0.15,38.47,38.47,0.21,0.05,0
12.00110600,12001106,0.0,-0.09,0.0,0.15,38.410000000000004,38.410000000000004,0.21,0.04,0
12.10111300,12101113,0.0,-0.09,0.0,0.15,38.4,38.4,0.16,0.03,0
12.20116100,12201161,0.0,-0.09,0.0,0.15,38.4,38.4,0.16,0.03,0
12.30117400,12301174,0.0,-0.09,0.0,0.14,38.38,38.38,0.13,0.02,0
12.40130300,12401303,0.0,-0.09,0.0,0.14,38.36,38.36,0.13,0.02,0
12.50135900,12501359,-0.32,-0.68,-0.03,0.09,359.99,0.0,0.1,0.01,3
12.60129400,12601294,-0.16,-0.68,-0.01,0.08,359.99,0.0,0.1,0.01,3
12.70126600,12701266,-0.08,-0.68,0.0,0.09,359.99,0.0,0.08,0.01,3
12.80118800,12801188,-0.04,-0.67,0.0,0.09,359.99,0.0,0.08,0.01,3
12.90117900,12901179,-0.02,-0.67,0.0,0.09,359.99,0.0,0.06,0.01,3
13.00112800,13001128,-0.01,-0.67,0.0,0.09,359.99,0.0,0.06,0.01,3
13.10123400,13101234,0.0,-0.68,0.0,0.09,359.98,359.99,0.05,0.01,3
13.20149700,13201497,0.0,-0.67,0.0,0.09,359.98,359.99,0.05,0.01,3
13.30149500,13301495,0.0,-0.67,0.0,0.09,359.98,359.99,0.04,0.01,3
13.40156600,13401566,0.0,-0.66,0.0,0.08,359.98,359.99,0.04,0.01,3
13.50153700,13501537,0.0,-0.65,0.0,0.08,359.98,359.99,0.03,0.01,3
13.60136100,13601361,0.0,-0.64,0.0,0.08,359.98,359.99,0.03,0.01,3
13.70119100,13701191,0.0,-0.62,0.0,0.08,359.98,359.99,0.02,0.0,3
13.80118000,13801180,0.0,-0.6,0.0,0.07,359.98,359.99,0.02,0.0,3
13.90114700,13901147,0.0,-0.58,0.0,0.07,359.98,359.99,0.02,0.0,3
14.00123600,14001236,0.0,-0.5700000000000001,0.0,0.08,36.81,36.81,0.02,0.0,3
14.10124900,14101249,0.0,-0.56,0.0,0.07,36.84,36.84,0.01,0.0,3
14.20131900,14201319,0.0,-0.55,0.0,0.06,36.9,36.9,0.01,0.0,3
14.30132800,14301328,0.0,-0.55,0.0,0.06,36.96,36.96,0.01,0.0,3
14.40135900,14401359,0.0,-0.55,0.0,0.06,37.02,37.02,0.01,0.0,3
14.50129600,14501296,0.0,-0.55,0.0,0.07,37.11,37.11,0.01,0.0,3
14.60120200,14601202,0.0,-0.55,0.0,0.07,37.21,37.21,0.01,0.01,3
14.70118900,14701189,0.0,-0.55,0.0,0.08,37.33,37.33,0.0,0.01,3
14.80115400,14801154,0.0,-0.55,0.0,0.07,37.410000000000004,37.410000000000004,0.0,0.01,3
14.90124500,14901245,0.0,-0.55,0.0,0.08,37.45,37.45,0.0,0.01,3
15.00125400,15001254,0.0,-0.54,0.0,0.07,37.47,37.47,0.0,0.01,3
15.10132400,15101324,0.0,-0.54,0.0,0.08,37.480000000000004,37.480000000000004,0.0,0.01,3
15.20138000,15201380,0.0,-0.53,0.0,0.07,37.480000000000004,37.480000000000004,0.0,0.01,3
15.30129400,15301294,0.0,-0.53,0.0,0.07,37.480000000000004,37.480000000000004,0.0,0.01,3
15.40132400,15401324,0.0,-0.52,0.0,0.08,37.47,37.47,0.0,0.01,3
15.50121200,15501212,0.0,-0.51,0.0,0.08,37.480000000000004,37.480000000000004,0.0,0.01,3
15.60118500,15601185,0.0,-0.51,0.0,0.08,37.480000000000004,37.480000000000004,0.0,0.01,3
15.70114800,15701148,0.0,-0.5,0.0,0.07,37.480000000000004,37.480000000000004,0.0,0.01,3
15.80118000,15801180,0.0,-0.49,0.0,0.08,37.5,37.5,0.0,0.01,3
15.90123700,15901237,0.0,-0.49,0.0,0.08,37.52,37.52,0.0,0.01,3
16.00131500,16001315,0.0,-0.48,0.0,0.09,37.54,37.54,0.0,0.01,3
16.10133300,16101333,0.0,-0.48,0.0,0.09,37.550000000000004,37.550000000000004,0.0,0.01,3
16.20132900,16201329,0.0,-0.47000000000000003,0.0,0.09,37.58,37.58,0.0,0.01,3
16.30153500,16301535,0.0,-0.47000000000000003,0.0,0.09,37.61,37.61,0.0,0.01,3
16.40149800,16401498,0.0,-0.46,0.0,0.09,37.63,37.63,0.0,0.01,3
16.50142800,16501428,0.0,-0.46,0.0,0.09,37.64,37.64,0.0,0.01,3
16.60144200,16601442,0.0,-0.46,0.0,0.09,37.660000000000004,37.660000000000004,0.0,0.01,3
16.70123800,16701238,0.0,-0.45,0.0,0.09,37.69,37.69,0.0,0.01,3
16.80125500,16801255,0.0,-0.45,0.0,0.09,37.730000000000004,37.730000000000004,0.0,0.01,3
16.90132100,16901321,0.0,-0.45,0.0,0.1,37.78,37.78,0.0,0.01,3
17.00137300,17001373,0.0,-0.44,0.0,0.1,37.83,37.83,0.0,0.01,3
17.10129300,17101293,0.0,-0.44,0.0,0.1,37.86,37.86,0.0,0.01,3
17.20128400,17201284,0.0,-0.44,0.0,0.09,37.87,37.87,0.0,0.01,3
17.30119700,17301197,0.0,-0.43,0.0,0.1,37.87,37.87,0.0,0.01,3
17.40119000,17401190,0.0,-0.43,0.0,0.1,37.85,37.85,0.0,0.01,3
17.50111700,17501117,0.0,-0.44,0.0,0.1,37.82,37.82,0.0,0.01,3
17.60123500,17601235,0.0,-0.44,0.0,0.1,37.81,37.81,0.0,0.01,3
17.70124900,17701249,0.0,-0.44,0.0,0.1,37.800000000000004,37.800000000000004,0.0,0.01,3
17.80136400,17801364,0.0,-0.44,0.0,0.1,37.79,37.79,0.0,0.01,3
17.90134600,17901346,0.0,-0.45,0.0,0.1,37.78,37.78,0.0,0.01,3
18.00151400,18001514,0.0,-0.45,0.0,0.1,37.78,37.78,0.0,0.01,3
18.10150100,18101501,0.0,-0.45,0.0,0.1,37.78,37.78,0.0,0.01,3
18.20145500,18201455,0.0,-0.46,0.0,0.1,37.78,37.78,0.0,0.01,3
18.30140800,18301408,0.0,-0.46,0.0,0.1,37.78,37.78,0.0,0.01,3
18.40143200,18401432,0.0,-0.45,0.0,0.1,37.79,37.79,0.0,0.01,3
18.50141300,18501413,0.0,-0.46,0.0,0.11,37.81,37.81,0.0,0.01,3
18.60143700,18601437,0.0,-0.46,0.0,0.11,37.84,37.84,0.0,0.01,3
18.70145000,18701450,0.0,-0.46,0.0,0.11,37.86,37.86,0.0,0.01,3
18.80150500,18801505,0.0,-0.46,0.0,0.11,37.88,37.88,0.0,0.01,3
18.90150200,18901502,0.0,-0.45,0.0,0.11,37.89,37.89,0.0,0.01,3
19.00150700,19001507,0.0,-0.45,0.0,0.1,37.910000000000004,37.910000000000004,0.0,0.01,3
19.10143200,19101432,0.0,-0.45,0.0,0.1,37.93,37.93,0.0,0.01,3
19.20140600,19201406,0.0,-0.45,0.0,0.11,37.96,37.96,0.0,0.01,3
19.30140800,19301408,0.0,-0.45,0.0,0.11,38.01,38.01,0.0,0.01,3
19.40146200,19401462,0.0,-0.44,0.0,0.11,38.050000000000004,38.050000000000004,0.0,0.01,3
19.50142800,19501428,0.0,-0.44,0.0,0.11,38.09,38.09,0.0,0.01,3
19.60145500,19601455,0.0,-0.44,0.0,0.11,38.12,38.12,0.0,0.0,3
19.70150900,19701509,0.0,-0.44,0.0,0.11,38.15,38.15,0.0,0.0,3
19.80151300,19801513,0.0,-0.44,0.0,0.12,38.17,38.17,0.0,0.0,3
19.90157100,19901571,0.0,-0.45,0.0,0.12,38.19,38.19,0.0,0.0,3
20.00145100,20001451,0.0,-0.45,0.0,0.12,38.2,38.2,0.0,0.0,3
20.10139100,20101391,0.0,-0.44,0.0,0.12,38.21,38.21,0.0,0.0,3
20.20168800,20201688,0.0,-0.44,0.0,0.12,38.21,38.21,0.0,0.0,3
20.30144500,20301445,0.0,-0.45,0.0,0.12,38.22,38.22,0.0,0.01,3
20.40151100,20401511,0.0,-0.45,0.0,0.12,38.230000000000004,38.230000000000004,0.0,0.01,3
20.50149100,20501491,0.0,-0.45,0.0,0.13,38.28,38.28,0.0,0.01,3
20.60153900,20601539,0.0,-0.44,0.0,0.13,38.33,38.33,0.0,0.01,3
20.70152900,20701529,0.0,-0.44,0.0,0.13,38.37,38.37,0.0,0.01,3
20.80154900,20801549,0.0,-0.44,0.0,0.12,38.4,38.4,0.0,0.01,3
20.90148300,20901483,0.0,-0.44,0.0,0.13,38.4,38.4,0.0,0.01,3
21.00143200,21001432,0.0,-0.44,0.0,0.13,38.39,38.39,0.0,0.01,3
21.10144200,21101442,0.0,-0.44,0.0,0.13,38.38,38.38,0.0,0.01,3
21.20125400,21201254,0.0,-0.44,0.0,0.13,38.36,38.36,0.0,0.01,3
21.30125200,21301252,0.0,-0.43,0.0,0.13,38.34,38.34,0.0,0.01,3
21.40134500,21401345,0.0,-0.43,0.0,0.13,38.31,38.31,0.0,0.01,3
21.50137300,21501373,0.0,-0.43,0.0,0.13,38.29,38.29,0.0,0.01,3
21.60129600,21601296,0.0,-0.42,0.0,0.13,38.28,38.28,0.0,0.01,3
21.70128500,21701285,0.0,-0.42,0.0,0.13,38.26,38.26,0.0,0.0,3
21.80119100,21801191,0.0,-0.42,0.0,0.13,38.24,38.24,0.0,0.01,3
21.90117700,21901177,0.0,-0.42,0.0,0.13,38.22,38.22,0.0,0.0,3
22.00115400,22001154,0.0,-0.42,0.0,0.13,38.2,38.2,0.0,0.01,3
22.10124300,22101243,0.0,-0.41000000000000003,0.0,0.13,38.19,38.19,0.0,0.01,3
22.20124800,22201248,0.0,-0.41000000000000003,0.0,0.12,38.19,38.19,0.0,0.01,3
22.30131900,22301319,0.0,-0.41000000000000003,0.0,0.12,38.2,38.2,0.0,0.0,3
22.40138700,22401387,0.0,-0.4,0.0,0.12,38.2,38.2,0.0,0.01,3
22.50134800,22501348,0.0,-0.4,0.0,0.12,38.19,38.19,0.0,0.01,3
22.60128500,22601285,0.0,-0.4,0.0,0.13,38.17,38.17,0.0,0.01,3
22.70119000,22701190,0.0,-0.4,0.0,0.13,38.160000000000004,38.160000000000004,0.0,0.01,3
22.80114700,22801147,0.0,-0.39,0.0,0.12,38.160000000000004,38.160000000000004,0.0,0.01,3
22.90114400,22901144,0.0,-0.39,0.0,0.12,38.17,38.17,0.0,0.01,3
23.00127400,23001274,0.0,-0.39,0.0,0.12,38.19,38.19,0.0,0.0,3
23.10123600,23101236,0.0,-0.38,0.0,0.12,38.21,38.21,0.0,0.0,3
23.20130900,23201309,0.0,-0.38,0.0,0.12,38.230000000000004,38.230000000000004,0.0,0.0,3
23.30136400,23301364,0.0,-0.38,0.0,0.11,38.25,38.25,0.0,0.0,3
23.40138700,23401387,0.0,-0.38,0.0,0.11,38.26,38.26,0.0,0.0,3
23.50128400,23501284,0.0,-0.38,0.0,0.11,38.28,38.28,0.0,0.0,3
23.60120000,23601200,0.0,-0.37,0.0,0.11,38.29,38.29,0.0,0.0,3
23.70119600,23701196,0.0,-0.37,0.0,0.11,38.300000000000004,38.300000000000004,0.0,0.0,3
23.80114800,23801148,0.0,-0.37,0.0,0.1,38.31,38.31,0.0,0.0,3
23.90124500,23901245,0.0,-0.37,0.0,0.1,38.31,38.31,0.0,0.01,3
24.00124700,24001247,0.0,-0.36,0.0,0.1,38.300000000000004,38.300000000000004,0.0,0.01,3
24.10136500,24101365,0.0,-0.36,0.0,0.1,38.29,38.29,0.0,0.01,3
24.20137300,24201373,0.0,-0.36,0.0,0.1,38.28,38.28,0.0,0.0,3
24.30135100,24301351,0.0,-0.36,0.0,0.1,38.27,38.27,0.0,0.0,3
24.40132400,24401324,0.0,-0.36,0.0,0.09,38.26,38.26,0.0,0.0,3
24.50120100,24501201,0.0,-0.35000000000000003,0.0,0.09,38.26,38.26,0.0,0.0,3
24.60116900,24601169,0.0,-0.35000000000000003,0.0,0.09,38.25,38.25,0.0,0.01,3
24.70112500,24701125,0.0,-0.35000000000000003,0.0,0.08,38.25,38.25,0.0,0.0,3
24.80123800,24801238,0.0,-0.35000000000000003,0.0,0.08,38.26,38.26,0.0,0.0,3
24.90125000,24901250,0.0,-0.35000000000000003,0.0,0.08,38.27,38.27,0.0,0.0,3
25.00130700,25001307,0.0,-0.35000000000000003,0.0,0.08,38.28,38.28,0.0,0.0,3
25.10135000,25101350,0.0,-0.35000000000000003,0.0,0.08,38.28,38.28,0.0,0.0,3
25.20133900,25201339,0.0,-0.36,0.0,0.07,38.29,38.29,0.0,0.0,3
25.30129100,25301291,0.0,-0.36,0.0,0.07,38.300000000000004,38.300000000000004,0.0,0.0,3
25.40121400,25401214,0.0,-0.36,0.0,0.07,38.31,38.31,0.0,0.0,3
25.50119500,25501195,0.0,-0.36,0.0,0.07,38.32,38.32,0.0,0.0,3
25.60115900,25601159,0.0,-0.36,0.0,0.07,38.34,38.34,0.0,0.0,3
25.70118500,25701185,0.0,-0.36,0.0,0.07,38.34,38.34,0.0,0.0,3
25.80125300,25801253,0.0,-0.36,0.0,0.06,38.36,38.36,0.0,0.0,3
25.90130700,25901307,0.0,-0.36,0.0,0.06,38.38,38.38,0.0,0.0,3
26.00154000,26001540,0.0,-0.36,0.0,0.06,38.39,38.39,0.0,0.01,3
26.10153000,26101530,0.0,-0.36,0.0,0.07,38.4,38.4,0.0,0.01,3
26.20159100,26201591,0.0,-0.36,0.0,0.06,38.410000000000004,38.410000000000004,0.0,0.0,3
26.30147900,26301479,0.0,-0.34,0.0,0.02,38.42,38.42,0.0,0.0,3
26.40154200,26401542,0.0,-0.35000000000000003,0.0,0.05,38.42,38.42,0.0,0.01,3
26.50143600,26501436,0.0,-0.36,0.0,0.08,38.4,38.4,0.0,0.0,3
26.60146900,26601469,0.0,-0.36,0.0,0.06,38.410000000000004,38.410000000000004,0.0,0.01,3
