timestamp,TimeUS,DesRoll,Roll,DesPitch,Pitch,DesYaw,Yaw,ErrRP,ErrYaw,AEKF
1682371501.83919811,386308777,0.0,-0.04,0.0,-0.21,190.99,191.0,0.0,0.0,3
1682371501.93920612,386408785,0.0,-0.04,0.0,-0.22,190.99,191.0,0.0,0.0,3
1682371502.03912711,386508706,0.0,-0.04,0.0,-0.22,190.99,191.0,0.0,0.0,3
1682371502.13919210,386608771,0.0,-0.04,0.0,-0.22,190.99,191.0,0.0,0.0,3
1682371502.23914409,386708723,0.0,-0.04,0.0,-0.22,190.99,190.99,0.0,0.0,3
1682371502.33923101,386808810,0.0,-0.04,0.0,-0.23,190.99,190.99,0.0,0.0,3
1682371502.43920803,386908787,0.0,-0.04,0.0,-0.23,190.99,190.99,0.0,0.01,3
1682371502.53922701,387008806,0.0,-0.04,0.0,-0.23,190.99,190.99,0.0,0.01,3
1682371502.63912606,387108705,0.0,-0.03,0.0,-0.23,190.99,190.99,0.0,0.01,3
1682371502.73916101,387208740,0.0,-0.03,0.0,-0.23,190.99,190.99,0.0,0.01,3
1682371502.83917594,387308755,0.0,-0.03,0.0,-0.23,190.99,190.99,0.0,0.01,3
1682371502.93924594,387408825,0.0,-0.03,0.0,-0.23,190.99,190.98,0.0,0.01,3
1682371503.03918099,387508760,0.0,-0.03,0.0,-0.23,190.99,190.98,0.0,0.01,3
1682371503.13915396,387608733,0.0,-0.03,0.0,-0.23,190.99,190.98,0.0,0.01,3
1682371503.23925900,387708838,0.0,-0.02,0.0,-0.23,190.99,190.98,0.0,0.01,3
1682371503.33922100,387808800,0.0,-0.02,0.0,-0.23,190.99,190.98,0.0,0.01,3
1682371503.43921709,387908796,0.0,-0.02,0.0,-0.24,190.99,190.98,0.0,0.0,3
1682371503.53914213,388008721,0.0,-0.02,0.0,-0.24,190.99,190.98,0.0,0.0,3
1682371503.63918114,388108760,0.0,-0.02,0.0,-0.24,190.99,190.98,0.01,0.0,3
1682371503.73940301,388208982,0.0,-0.01,0.0,-0.24,190.99,190.97,0.01,0.0,3
1682371503.83930302,388308882,0.0,-0.01,0.0,-0.24,190.96,190.97,0.01,0.0,3
1682371503.93926692,388408846,0.0,-0.01,0.0,-0.24,190.96,190.97,0.01,0.0,3
1682371504.03910804,388508687,0.0,-0.01,0.0,-0.25,190.96,190.97,0.01,0.0,3
1682371504.13920712,388608786,0.0,-0.01,0.0,-0.25,190.96,190.97,0.01,0.0,3
1682371504.23917699,388708756,0.0,-0.01,0.0,-0.25,190.96,190.97,0.01,0.0,3
1682371504.33912706,388808706,0.0,-0.01,0.0,-0.25,190.96,190.97,0.01,0.0,3
1682371504.43904209,388908621,0.0,-0.01,0.0,-0.25,190.96,190.97,0.02,0.0,3
1682371504.53902507,389008604,0.0,0.0,0.0,-0.25,190.96,190.97,0.02,0.0,3
1682371504.63903904,389108618,0.0,0.0,0.0,-0.26,190.96,190.96,0.01,0.01,3
1682371504.73907995,389208659,0.0,0.0,0.0,-0.26,190.96,190.98,0.01,0.0,3
1682371504.83910799,389308687,0.0,0.0,0.0,-0.27,190.96,190.96,0.01,0.0,3
1682371504.93915796,389408737,0.0,-0.01,0.0,-0.26,190.96,190.94,0.01,0.0,3
1682371505.03920794,389508787,0.0,0.0,0.0,-0.27,190.96,190.98,0.01,0.0,3
1682371505.13916612,389608745,0.0,-0.02,0.0,-0.27,190.96,190.98,0.01,0.01,3
1682371505.23914695,389708726,0.0,0.0,0.0,-0.3,190.96,190.92000000000002,0.01,0.01,3
1682371505.33911109,389808690,0.07,-0.12,0.21,-0.36,190.96,190.99,0.01,0.01,3
1682371505.43919301,389908772,0.35000000000000003,0.12,0.53,-0.4,190.96,190.92000000000002,0.01,0.01,3
1682371505.53914309,390008722,0.16,0.45,0.34,0.39,190.96,190.76,0.01,0.03,3
1682371505.63912392,390108703,0.08,0.38,0.3,0.47000000000000003,190.96,190.68,0.01,0.03,3
1682371505.73914909,390208728,-0.06,0.4,0.36,0.23,190.96,190.46,0.01,0.03,3
1682371505.83913708,390308716,-0.07,0.16,0.27,0.27,190.96,190.29,0.01,0.04,3
1682371505.93932295,390408902,-0.01,0.0,0.36,0.06,190.96,190.1,0.01,0.04,3
1682371506.03920698,390508786,0.03,-0.05,0.44,-0.04,190.96,189.94,0.01,0.04,3
1682371506.13915396,390608733,0.2,-0.43,0.55,0.0,190.96,189.76,0.01,0.03,3
1682371506.23903704,390708616,0.3,-0.21,0.6900000000000001,0.03,190.96,189.6,0.02,0.03,3
1682371506.33907700,390808656,0.44,0.27,0.78,0.42,190.96,189.45000000000002,0.02,0.03,3
1682371506.43914700,390908726,0.62,0.49,0.85,0.8,190.97,189.35,0.02,0.03,3
1682371506.53911996,391008699,0.54,0.85,0.8300000000000001,0.9500000000000001,190.96,189.25,0.02,0.03,3
1682371506.63916802,391108747,0.54,0.74,0.8,0.86,190.96,189.25,0.03,0.03,3
1682371506.73912811,391208707,0.42,0.78,0.59,0.78,190.96,189.22,0.03,0.03,3
1682371506.83923197,391308811,0.43,0.68,0.48,0.56,190.96,189.27,0.05,0.03,3
1682371506.93924093,391408820,0.66,0.53,0.56,0.24,190.96,189.38,0.05,0.03,3
1682371507.03938699,391508966,0.76,0.86,0.65,0.47000000000000003,190.96,189.5,0.06,0.02,3
1682371507.13925099,391608830,0.96,0.75,0.8200000000000001,0.54,190.97,189.65,0.06,0.02,3
1682371507.23922896,391708808,1.01,0.81,0.88,0.77,190.97,189.8,0.05,0.02,3
1682371507.33895802,391808537,1.08,0.8300000000000001,0.91,0.9,190.97,189.92000000000002,0.05,0.02,3
1682371507.43894792,391908527,1.08,0.86,0.9400000000000001,0.8300000000000001,190.97,190.07,0.05,0.02,3
1682371507.53899503,392008574,1.05,0.9400000000000001,1.11,0.81,190.97,190.23,0.05,0.02,3
1682371507.63900900,392108588,1.0,0.99,1.17,1.01,190.97,190.35,0.05,0.02,3
1682371507.73909593,392208675,0.92,0.8200000000000001,1.26,1.05,190.97,190.48,0.05,0.02,3
1682371507.83899903,392308578,0.8300000000000001,0.7000000000000001,1.24,1.1,190.97,190.55,0.04,0.02,3
1682371507.93899012,392408569,0.76,0.4,1.19,1.11,190.97,190.65,0.04,0.02,3
1682371508.03893590,392508515,0.74,0.5,1.1300000000000001,1.05,190.97,190.75,0.04,0.02,3
1682371508.13888907,392608468,0.99,0.79,1.02,1.16,190.97,190.81,0.04,0.03,3
1682371508.23891306,392708492,1.18,1.09,0.99,1.0,190.97,190.88,0.05,0.03,3
1682371508.33893013,392808509,1.28,1.23,0.9400000000000001,1.03,190.97,190.92000000000002,0.05,0.03,3
1682371508.43897891,392908558,1.28,1.3,0.9500000000000001,1.04,190.97,190.9,0.05,0.03,3
1682371508.53900504,393008584,1.18,1.49,0.89,1.0,190.97,190.89000000000001,0.05,0.03,3
1682371508.63909698,393108676,1.1300000000000001,1.18,0.8300000000000001,0.85,190.97,190.82,0.07,0.03,3
1682371508.73903203,393208611,1.06,1.04,0.91,0.76,190.97,190.74,0.07,0.03,3
1682371508.83892894,393308508,1.06,0.88,0.9400000000000001,0.93,190.97,190.64000000000001,0.06,0.02,3
1682371508.93893909,393408518,1.1400000000000001,0.88,1.01,0.9500000000000001,190.97,190.54,0.06,0.02,3
1682371509.03889203,393508471,1.19,0.93,1.03,1.03,190.97,190.4,0.06,0.02,3
1682371509.13890505,393608484,1.29,0.93,0.93,1.03,190.97,190.23,0.06,0.02,3
1682371509.23894000,393708519,1.32,1.04,0.89,0.8200000000000001,190.97,190.08,0.06,0.02,3
1682371509.33899713,393808576,1.36,1.35,0.9,0.84,190.97,189.91,0.06,0.02,3
1682371509.43901110,393908590,1.37,1.28,0.96,0.92,190.97,189.73,0.05,0.01,3
1682371509.53912497,394008704,1.26,1.21,1.08,0.9,190.97,189.55,0.05,0.02,3
1682371509.63907099,394108650,1.09,1.1500000000000001,1.18,1.11,188.87,187.31,0.04,0.02,3
1682371509.73890996,394208489,1.01,0.9,1.16,1.18,188.87,187.18,0.04,0.01,3
1682371509.83884406,394308423,1.02,0.96,1.1400000000000001,1.19,188.87,187.05,0.05,0.01,3
1682371509.93899107,394408570,1.1400000000000001,0.93,0.97,1.1,188.87,187.01,0.05,0.01,3
1682371510.03891397,394508493,1.21,0.98,0.87,0.9,188.86,186.95000000000002,0.06,0.01,3
1682371510.13902903,394608608,1.17,1.24,0.64,0.73,188.86,186.89000000000001,0.06,0.01,3
1682371510.23898602,394708565,1.1500000000000001,1.09,0.56,0.45,188.86,186.87,0.07,0.01,3
1682371510.33900595,394808585,1.1300000000000001,1.17,0.66,0.38,188.86,186.97,0.07,0.01,3
1682371510.43930793,394908887,1.16,1.08,0.76,0.67,188.86,187.09,0.07,0.01,3
1682371510.53922796,395008807,1.21,0.86,0.89,0.77,188.86,187.19,0.07,0.01,3
1682371510.63921809,395108797,1.28,1.1,0.93,0.97,188.87,187.23,0.06,0.01,3
1682371510.73881507,395208394,1.34,1.23,0.91,0.96,188.86,187.19,0.06,0.01,3
1682371510.83890700,395308486,1.41,1.27,0.87,0.91,188.86,187.16,0.05,0.01,3
1682371510.93898702,395408566,1.46,1.45,0.71,0.81,188.86,187.09,0.05,0.01,3
1682371511.03894401,395508523,1.49,1.33,0.7000000000000001,0.65,188.86,187.06,0.06,0.01,3
1682371511.13898802,395608567,1.61,1.44,0.79,0.58,188.86,187.08,0.06,0.01,3
1682371511.23901701,395708596,1.68,1.43,0.9,0.8200000000000001,188.87,187.13,0.05,0.01,3
1682371511.33908010,395808659,1.78,1.6600000000000001,0.98,0.92,188.87,187.26,0.05,0.0,3
1682371511.43903303,395908612,1.82,1.68,0.99,1.1,188.87,187.32,0.05,0.0,3
1682371511.53892112,396008500,1.94,1.9000000000000001,0.78,0.99,188.86,187.35,0.05,0.0,3
1682371511.63884401,396108423,1.98,1.83,0.63,0.66,188.86,187.4,0.05,0.01,3
1682371511.73888493,396208464,1.83,1.8800000000000001,0.6,0.36,188.86,187.57,0.05,0.01,3
1682371511.83895802,396308537,1.69,1.69,0.63,0.5,188.86,187.77,0.04,0.01,3
1682371511.93902707,396408606,1.57,1.47,0.87,0.61,188.86,188.04,0.04,0.01,3
1682371512.03902197,396508601,1.47,1.34,1.0,0.9400000000000001,188.87,188.29,0.05,0.01,3
1682371512.13902211,396608601,1.48,1.25,1.03,1.06,188.87,188.45000000000002,0.05,0.01,3
1682371512.23914099,396708720,1.47,1.34,1.1300000000000001,1.07,188.88,188.61,0.04,0.01,3
1682371512.33903813,396808617,1.45,1.22,0.97,1.12,188.88,188.78,0.04,0.01,3
1682371512.43893695,396908516,1.33,1.27,0.7000000000000001,0.78,188.87,188.87,0.04,0.01,3
1682371512.53885412,397008433,1.07,0.92,0.15,0.29,188.87,188.96,0.04,0.02,3
1682371512.63895297,397108532,0.75,0.59,-0.43,-0.34,188.48,189.02,0.03,0.01,3
1682371512.73896813,397208547,0.45,0.26,-1.01,-1.11,187.21,189.02,0.03,0.01,3
1682371512.83894801,397308527,0.21,-0.15,-1.62,-1.68,185.07,188.71,0.02,0.02,3
1682371512.93906903,397408648,0.19,-0.47000000000000003,-2.13,-2.22,182.05,188.05,0.02,0.01,3
1682371513.03901696,397508596,0.22,-0.31,-2.63,-2.66,178.14000000000001,186.91,0.02,0.01,3
1682371513.13912392,397608703,0.46,-0.36,-2.9,-2.98,173.37,185.24,0.02,0.01,3
1682371513.23906112,397708640,0.7000000000000001,-0.22,-3.0500000000000003,-3.06,168.76,182.98,0.02,0.02,3
1682371513.33894706,397808526,0.98,-0.01,-2.95,-3.06,165.03,180.27,0.02,0.02,3
1682371513.43885708,397908436,1.21,0.06,-2.68,-2.93,162.19,177.31,0.02,0.03,3
1682371513.53895807,398008537,1.54,0.61,-2.22,-2.5500000000000003,160.23,174.16,0.02,0.03,3
1682371513.63896298,398108542,1.73,1.27,-1.62,-1.98,159.13,170.96,0.02,0.04,3
1682371513.73895907,398208538,1.99,1.62,-0.98,-1.27,158.58,167.64000000000001,0.02,0.04,3
1682371513.83923197,398308811,2.1,2.31,-0.32,-0.58,158.3,164.4,0.02,0.05,3
1682371513.93928695,398408866,2.36,2.54,0.3,0.17,158.16,161.03,0.02,0.04,3
1682371514.03930497,398508884,2.43,2.87,0.89,0.9500000000000001,158.1,157.76,0.02,0.05,3
1682371514.13935208,398608931,2.57,2.99,1.33,1.59,158.07,154.6,0.02,0.06,3
1682371514.23924398,398708823,2.5500000000000003,2.7,1.58,2.07,158.06,151.89000000000001,0.02,0.07,3
1682371514.33938193,398808961,2.47,2.75,1.68,2.29,158.05,149.53,0.02,0.07,3
1682371514.43921900,398908798,2.4,2.61,1.67,2.25,158.04,147.57,0.02,0.08,3
1682371514.53916693,399008746,2.24,2.41,1.6300000000000001,2.08,158.04,145.97,0.02,0.07,3
1682371514.63922405,399108803,2.14,2.19,1.53,1.8900000000000001,158.03,144.66,0.02,0.07,3
1682371514.73923397,399208813,1.94,2.06,1.48,1.81,158.03,143.73,0.02,0.07,3
1682371514.83918691,399308766,1.74,1.79,1.47,1.73,158.03,143.08,0.02,0.07,3
1682371514.93933892,399408918,1.6400000000000001,1.49,1.3800000000000001,1.67,158.02,142.73,0.02,0.07,3
1682371515.03925014,399508829,1.4000000000000001,1.1400000000000001,1.33,1.59,158.02,142.68,0.02,0.07,3
1682371515.13923311,399608812,1.3800000000000001,1.08,1.16,1.45,158.02,142.84,0.02,0.06,3
1682371515.23923111,399708810,1.18,0.8200000000000001,1.06,1.23,158.02,143.22,0.02,0.05,3
1682371515.33922791,399808807,1.1300000000000001,0.8200000000000001,0.97,1.1300000000000001,158.01,143.74,0.02,0.05,3
1682371515.43925905,399908838,0.9400000000000001,0.67,0.91,1.08,158.01,144.45000000000002,0.02,0.04,3
1682371515.53925395,400008833,0.76,0.44,0.91,0.98,158.01,145.32,0.02,0.05,3
1682371515.63925505,400108834,0.61,0.17,0.87,0.9,158.01,146.27,0.02,0.05,3
1682371515.73918509,400208764,0.5,0.38,0.81,0.89,158.01,147.33,0.02,0.05,3
1682371515.83929396,400308873,0.5,0.46,0.75,0.93,158.01,148.51,0.01,0.06,3
1682371515.93929911,400408878,0.53,0.15,0.65,0.89,158.01,149.74,0.01,0.06,3
1682371516.03924108,400508820,0.52,0.29,0.58,0.84,158.01,150.98,0.02,0.06,3
1682371516.13916111,400608740,0.71,0.49,0.42,0.68,158.01,152.28,0.02,0.06,3
1682371516.23923898,400708818,0.72,0.6,0.29,0.45,158.01,153.59,0.01,0.05,3
1682371516.33919597,400808775,0.81,0.74,0.21,0.26,158.01,154.81,0.01,0.04,3
1682371516.43936896,400908948,0.84,0.86,0.15,0.27,158.01,156.0,0.01,0.05,3
1682371516.53922296,401008802,0.8300000000000001,0.68,0.16,0.2,158.01,157.09,0.01,0.04,3
1682371516.63920307,401108782,0.92,0.7000000000000001,0.14,0.22,158.01,158.05,0.01,0.04,3
1682371516.73928308,401208862,0.9400000000000001,0.75,0.15,0.15,158.01,158.87,0.01,0.03,3
1682371516.83923793,401308817,1.03,0.78,0.19,0.19,158.01,159.55,0.01,0.03,3
1682371516.93930006,401408879,1.06,0.8300000000000001,0.24,0.31,158.01,160.1,0.01,0.03,3
1682371517.03923702,401508816,1.11,0.8300000000000001,0.3,0.38,158.01,160.49,0.02,0.03,3
1682371517.13922596,401608805,1.23,1.1400000000000001,0.32,0.56,158.01,160.72,0.02,0.03,3
1682371517.23925805,401708837,1.25,1.17,0.33,0.51,158.01,160.82,0.01,0.02,3
1682371517.33922791,401808807,1.29,1.43,0.28,0.49,158.01,160.82,0.01,0.02,3
1682371517.43925190,401908831,1.22,1.35,0.28,0.34,158.01,160.71,0.02,0.02,3
1682371517.53916407,402008743,1.16,1.3900000000000001,0.36,0.4,158.01,160.55,0.02,0.02,3
1682371517.63925409,402108833,1.06,1.06,0.45,0.5,158.01,160.3,0.02,0.02,3
1682371517.73919797,402208777,0.98,1.03,0.49,0.63,158.01,159.99,0.02,0.03,3
1682371517.83917999,402308759,0.9400000000000001,1.08,0.52,0.66,158.01,159.67000000000002,0.02,0.02,3
1682371517.93917012,402408749,0.9400000000000001,1.07,0.52,0.65,158.01,159.29,0.02,0.02,3
1682371518.03916192,402508741,0.9400000000000001,1.07,0.55,0.62,158.01,158.93,0.02,0.02,3
1682371518.13916111,402608740,0.9,1.02,0.62,0.67,158.01,158.55,0.02,0.03,3
1682371518.23912096,402708700,0.9,0.9500000000000001,0.68,0.6900000000000001,158.01,158.19,0.02,0.03,3
1682371518.33918405,402808763,0.9500000000000001,0.89,0.72,0.79,158.01,157.84,0.02,0.03,3
1682371518.43914604,402908725,1.0,1.0,0.77,0.84,158.01,157.5,0.03,0.03,3
1682371518.53926492,403008844,1.05,1.12,0.87,0.8300000000000001,158.01,157.26,0.03,0.03,3
1682371518.63919401,403108773,1.05,1.09,0.9500000000000001,0.99,158.01,156.95000000000002,0.03,0.03,3
1682371518.73919702,403208776,1.04,1.1300000000000001,0.9400000000000001,1.06,158.01,156.74,0.03,0.03,3
1682371518.83911395,403308693,1.05,1.29,0.93,1.04,158.01,156.54,0.03,0.03,3
1682371518.93924499,403408824,1.1,1.1,0.8,0.91,158.01,156.39000000000001,0.03,0.02,3
1682371519.03914213,403508721,1.12,1.05,0.7000000000000001,0.78,158.01,156.27,0.04,0.03,3
1682371519.13912201,403608701,1.1,1.1500000000000001,0.66,0.72,158.01,156.22,0.04,0.03,3
1682371519.23916698,403708746,1.09,1.1500000000000001,0.67,0.78,158.01,156.21,0.03,0.02,3
1682371519.33914304,403808722,1.06,1.1500000000000001,0.65,0.81,158.01,156.25,0.03,0.02,3
1682371519.43924308,403908822,1.03,1.02,0.64,0.76,158.01,156.32,0.03,0.02,3
1682371519.53920794,404008787,0.9500000000000001,1.06,0.61,0.75,158.01,156.42000000000002,0.03,0.02,3
1682371519.63916111,404108740,0.92,0.73,0.6,0.74,158.01,156.51,0.03,0.02,3
1682371519.73909402,404208673,0.88,0.84,0.56,0.71,158.01,156.64000000000001,0.03,0.03,3
1682371519.83915401,404308733,0.87,0.97,0.53,0.68,158.01,156.75,0.03,0.03,3
1682371519.93921995,404408799,0.86,0.93,0.52,0.53,158.01,156.83,0.03,0.03,3
1682371520.03911591,404508695,0.86,1.12,0.52,0.5,158.01,156.96,0.03,0.04,3
1682371520.13918209,404608761,0.8300000000000001,1.04,0.6,0.49,158.01,157.08,0.03,0.04,3
1682371520.23915792,404708737,0.8300000000000001,0.9,0.65,0.65,158.01,157.18,0.03,0.03,3
1682371520.33923292,404808812,0.85,0.9400000000000001,0.7000000000000001,0.66,158.01,157.32,0.03,0.03,3
1682371520.43918705,404908766,0.88,0.86,0.7000000000000001,0.7000000000000001,158.01,157.46,0.03,0.03,3
1682371520.53938699,405008966,0.87,0.96,0.74,0.73,158.01,157.59,0.03,0.02,3
1682371520.63943291,405109012,0.9,1.04,0.77,0.85,158.01,157.68,0.03,0.02,3
1682371520.73921299,405208792,0.92,1.16,0.7000000000000001,0.91,158.01,157.76,0.03,0.02,3
1682371520.83895993,405308539,0.92,1.08,0.66,0.73,158.01,157.83,0.04,0.01,3
1682371520.93903804,405408617,0.91,1.16,0.71,0.85,158.01,157.87,0.04,0.01,3
1682371521.03901410,405508593,0.88,1.05,0.76,0.87,158.01,157.88,0.05,0.02,3
1682371521.13900805,405608587,0.81,1.09,0.8200000000000001,0.91,158.01,157.87,0.05,0.01,3
1682371521.23910093,405708680,0.74,0.99,0.84,0.91,158.01,157.81,0.04,0.01,3
1682371521.33904195,405808621,0.6,0.89,0.92,0.9,158.01,157.74,0.04,0.01,3
1682371521.43894291,405908522,0.53,0.73,0.97,0.96,158.01,157.69,0.04,0.02,3
1682371521.53892994,406008509,0.47000000000000003,0.73,1.0,0.92,158.01,157.65,0.04,0.02,3
1682371521.63895392,406108533,0.46,0.84,1.02,0.97,158.01,157.65,0.04,0.02,3
1682371521.73895502,406208534,0.38,0.5700000000000001,1.05,0.9400000000000001,158.01,157.64000000000001,0.04,0.02,3
1682371521.83895993,406308539,0.4,0.56,1.06,0.96,158.01,157.71,0.03,0.02,3
1682371521.93904805,406408627,0.36,0.31,0.99,0.9400000000000001,158.01,157.77,0.03,0.03,3
1682371522.03901005,406508589,0.35000000000000003,0.43,0.9500000000000001,0.84,158.01,157.87,0.03,0.04,3
1682371522.13910007,406608679,0.4,0.52,0.86,0.89,158.01,158.03,0.03,0.03,3
1682371522.23904109,406708620,0.44,0.55,0.8,0.77,158.01,158.20000000000002,0.03,0.03,3
1682371522.33893108,406808510,0.46,0.42,0.76,0.72,158.01,158.41,0.03,0.02,3
1682371522.43885803,406908437,0.5,0.45,0.71,0.73,158.01,158.65,0.02,0.03,3
1682371522.53897405,407008553,0.56,0.35000000000000003,0.71,0.67,158.01,158.9,0.02,0.02,3
1682371522.63895702,407108536,0.62,0.48,0.6900000000000001,0.6,158.01,159.20000000000002,0.02,0.02,3
1682371522.73905206,407208631,0.71,0.62,0.67,0.62,158.01,159.47,0.02,0.02,3
1682371522.83899999,407308579,0.8,0.6900000000000001,0.64,0.5700000000000001,158.01,159.72,0.02,0.02,3
1682371522.93906093,407408640,0.9,0.75,0.64,0.53,158.01,159.93,0.02,0.01,3
1682371523.03909707,407508676,1.0,0.87,0.64,0.51,158.01,160.12,0.02,0.01,3
1682371523.13904905,407608628,1.1400000000000001,1.01,0.71,0.5,158.01,160.25,0.02,0.01,3
1682371523.23894691,407708526,1.23,1.1300000000000001,0.75,0.58,158.01,160.32,0.02,0.01,3
1682371523.33891892,407808498,1.32,1.29,0.81,0.67,158.01,160.35,0.02,0.0,3
1682371523.43895698,407908536,1.37,1.3,0.85,0.7000000000000001,158.01,160.29,0.02,0.0,3
1682371523.53897595,408008555,1.34,1.3,0.88,0.81,158.01,160.17000000000002,0.02,0.0,3
1682371523.63896394,408108543,1.31,1.1300000000000001,0.89,0.8300000000000001,158.01,160.03,0.02,0.01,3
1682371523.73900509,408208584,1.27,1.1500000000000001,0.88,0.81,158.01,159.85,0.02,0.01,3
1682371523.83900094,408308580,1.25,1.12,0.8200000000000001,0.81,158.01,159.63,0.02,0.01,3
1682371523.93938494,408408964,1.33,1.11,0.76,0.78,158.01,159.41,0.02,0.01,3
1682371524.03926706,408508846,1.36,1.16,0.6900000000000001,0.78,158.01,159.18,0.03,0.0,3
1682371524.13923907,408608818,1.35,1.22,0.7000000000000001,0.76,158.01,158.98,0.03,0.01,3
1682371524.23886108,408708440,1.32,1.17,0.68,0.87,158.01,158.79,0.04,0.01,3
1682371524.33896208,408808541,1.31,1.2,0.64,0.81,158.01,158.58,0.04,0.01,3
1682371524.43898511,408908564,1.31,1.16,0.5700000000000001,0.76,158.01,158.45000000000002,0.03,0.01,3
1682371524.53895593,409008535,1.28,1.26,0.51,0.71,158.01,158.29,0.03,0.01,3
1682371524.63898993,409108569,1.28,1.33,0.47000000000000003,0.64,158.01,158.20000000000002,0.03,0.01,3
1682371524.73899913,409208578,1.19,1.1400000000000001,0.51,0.6,158.01,158.11,0.03,0.01,3
1682371524.83912706,409308706,1.16,1.02,0.51,0.67,158.01,158.03,0.03,0.01,3
1682371524.93911195,409408691,1.12,1.04,0.54,0.75,158.01,157.96,0.03,0.01,3
1682371525.03897595,409508555,1.1300000000000001,1.09,0.51,0.79,158.01,157.87,0.03,0.01,3
1682371525.13886499,409608444,1.24,1.23,0.45,0.74,158.01,157.84,0.03,0.01,3
1682371525.23897910,409708558,1.29,1.1,0.38,0.5700000000000001,158.01,157.81,0.03,0.01,3
1682371525.33896613,409808545,1.32,1.35,0.36,0.56,158.01,157.77,0.03,0.01,3
1682371525.43900990,409908589,1.32,1.3,0.35000000000000003,0.54,158.01,157.72,0.02,0.01,3
1682371525.53901505,410008594,1.27,1.37,0.37,0.56,158.01,157.71,0.02,0.01,3
1682371525.63901591,410108595,1.26,1.23,0.38,0.46,158.01,157.73,0.02,0.01,3
1682371525.73910213,410208681,1.29,1.18,0.36,0.53,158.01,157.72,0.02,0.01,3
1682371525.83912396,410308703,1.32,1.34,0.35000000000000003,0.42,158.01,157.73,0.03,0.01,3
1682371525.93901110,410408590,1.33,1.33,0.41000000000000003,0.45,158.01,157.71,0.03,0.01,3
1682371526.03895211,410508531,1.3,1.24,0.45,0.43,158.01,157.72,0.02,0.01,3
1682371526.13890696,410608486,1.27,1.28,0.52,0.53,158.01,157.72,0.02,0.01,3
1682371526.23894906,410708528,1.24,1.31,0.5700000000000001,0.55,158.01,157.72,0.02,0.02,3
1682371526.33893895,410808518,1.2,1.32,0.68,0.61,158.01,157.72,0.02,0.02,3
1682371526.43901396,410908593,1.16,1.1400000000000001,0.74,0.66,158.01,157.72,0.03,0.02,3
1682371526.53900695,411008586,1.16,1.1400000000000001,0.73,0.75,158.01,157.72,0.03,0.02,3
1682371526.63911700,411108696,1.16,1.35,0.7000000000000001,0.73,158.01,157.72,0.03,0.02,3
1682371526.73904896,411208628,1.18,1.1,0.68,0.6900000000000001,158.01,157.69,0.03,0.02,3
1682371526.83894897,411308528,1.19,1.24,0.66,0.67,158.01,157.72,0.03,0.02,3
1682371526.93905306,411408632,1.19,1.32,0.63,0.64,158.01,157.75,0.03,0.02,3
1682371527.03897190,411508551,1.18,1.3,0.62,0.56,158.01,157.81,0.03,0.02,3
1682371527.13896799,411608547,1.16,1.1300000000000001,0.61,0.6,158.01,157.82,0.03,0.01,3
1682371527.23895907,411708538,1.1400000000000001,1.04,0.6,0.58,158.01,157.85,0.02,0.01,3
1682371527.33922696,411808806,1.17,1.1500000000000001,0.63,0.63,158.01,157.89000000000001,0.02,0.02,3
1682371527.43920708,411908786,1.1500000000000001,1.17,0.68,0.67,158.01,157.92000000000002,0.02,0.01,3
1682371527.53931808,412008897,1.29,1.28,0.7000000000000001,0.61,158.01,157.97,0.02,0.01,3
1682371527.63926506,412108844,1.29,1.33,0.6900000000000001,0.6900000000000001,158.01,158.02,0.03,0.01,3
1682371527.73926401,412208843,1.29,1.27,0.62,0.56,158.01,158.06,0.03,0.01,3
1682371527.83926105,412308840,1.25,1.24,0.55,0.4,158.01,158.15,0.03,0.01,3
1682371527.93928599,412408865,1.2,1.31,0.49,0.31,158.01,158.22,0.03,0.01,3
1682371528.03924894,412508828,1.19,1.16,0.49,0.33,158.01,158.29,0.02,0.01,3
1682371528.13921213,412608791,1.16,1.1,0.46,0.4,158.01,158.36,0.02,0.01,3
1682371528.23923993,412708819,1.1500000000000001,1.1300000000000001,0.45,0.44,158.01,158.42000000000002,0.02,0.01,3
1682371528.33919501,412808774,1.23,0.96,0.44,0.47000000000000003,158.01,158.44,0.02,0.01,3
1682371528.43927813,412908857,1.27,1.16,0.45,0.52,158.01,158.44,0.02,0.0,3
1682371528.53925204,413008831,1.3,1.31,0.47000000000000003,0.51,158.01,158.4,0.02,0.01,3
1682371528.63925409,413108833,1.32,1.4000000000000001,0.5,0.44,158.01,158.34,0.02,0.01,3
1682371528.73927999,413208859,1.35,1.48,0.54,0.44,158.01,158.26,0.02,0.01,3
1682371528.83923507,413308814,1.33,1.5,0.6,0.46,158.01,158.16,0.02,0.01,3
1682371528.93928790,413408867,1.4000000000000001,1.43,0.67,0.45,158.01,158.03,0.02,0.01,3
1682371529.03937197,413508951,1.36,1.4000000000000001,0.77,0.53,158.01,157.91,0.02,0.01,3
1682371529.13924003,413608819,1.33,1.51,0.9500000000000001,0.73,158.02,157.81,0.02,0.01,3
1682371529.23920798,413708787,1.26,1.46,1.08,0.99,158.02,157.71,0.03,0.01,3
1682371529.33930993,413808889,1.1,1.44,1.16,1.1500000000000001,158.02,157.63,0.03,0.0,3
1682371529.43928695,413908866,1.0,1.22,1.18,1.23,158.01,157.57,0.02,0.01,3
1682371529.53928113,414008860,0.85,1.12,1.12,1.19,158.01,157.52,0.02,0.01,3
1682371529.63916111,414108740,0.81,0.88,1.06,1.1400000000000001,158.01,157.47,0.03,0.01,3
1682371529.73922992,414208809,0.85,0.8200000000000001,0.88,1.06,158.01,157.44,0.03,0.02,3
1682371529.83925104,414308830,0.85,0.87,0.78,0.75,158.01,157.42000000000002,0.03,0.01,3
1682371529.93929195,414408871,0.98,1.07,0.65,0.65,158.01,157.4,0.03,0.01,3
1682371530.03923893,414508818,0.9500000000000001,1.2,0.62,0.5700000000000001,158.01,157.39000000000001,0.04,0.01,3
1682371530.13946891,414609048,0.93,0.98,0.77,0.61,158.01,157.34,0.04,0.01,3
1682371530.23933911,414708918,0.87,0.92,0.8300000000000001,0.8300000000000001,158.01,157.34,0.05,0.0,3
1682371530.33924913,414808828,0.78,0.8300000000000001,0.88,0.88,158.01,157.36,0.05,0.0,3
1682371530.43920803,414908787,0.74,0.85,0.81,0.9400000000000001,158.01,157.39000000000001,0.05,0.0,3
1682371530.53912902,415008708,0.75,0.68,0.7000000000000001,0.8300000000000001,158.01,157.38,0.05,0.0,3
1682371530.63906908,415108648,0.79,0.74,0.62,0.66,158.01,157.42000000000002,0.04,0.0,3
1682371530.73914003,415208719,0.86,0.96,0.46,0.64,158.01,157.45000000000002,0.04,0.0,3
1682371530.83912706,415308706,0.89,1.08,0.39,0.43,158.01,157.45000000000002,0.03,0.0,3
1682371530.93923593,415408815,0.96,0.97,0.3,0.35000000000000003,158.01,157.49,0.03,0.01,3
1682371531.03917813,415508757,0.9,1.22,0.29,0.26,158.01,157.52,0.04,0.01,3
1682371531.13932705,415608906,0.84,1.09,0.28,0.27,158.01,157.55,0.04,0.02,3
1682371531.23920894,415708788,0.79,0.9400000000000001,0.29,0.41000000000000003,158.01,157.59,0.03,0.01,3
1682371531.33919597,415808775,0.81,0.9400000000000001,0.29,0.35000000000000003,158.01,157.62,0.03,0.01,3
1682371531.43913198,415908711,0.8200000000000001,0.88,0.27,0.34,158.01,157.67000000000002,0.03,0.01,3
1682371531.53917098,416008750,0.86,0.91,0.28,0.35000000000000003,158.01,157.71,0.03,0.01,3
1682371531.63911295,416108692,0.87,0.89,0.3,0.32,158.01,157.73,0.03,0.01,3
1682371531.73912406,416208703,0.85,0.9400000000000001,0.42,0.38,158.01,157.77,0.03,0.01,3
1682371531.83918905,416308768,0.81,0.9500000000000001,0.49,0.54,158.01,157.78,0.04,0.01,3
1682371531.93919396,416408773,0.8,0.74,0.49,0.68,158.01,157.82,0.04,0.01,3
1682371532.03926206,416508841,0.8,0.78,0.48,0.6,158.01,157.84,0.04,0.01,3
1682371532.13920498,416608784,0.84,0.68,0.46,0.55,158.01,157.81,0.04,0.01,3
1682371532.23918295,416708762,0.86,0.81,0.5,0.51,158.01,157.82,0.03,0.01,3
1682371532.33910108,416808680,0.9,0.88,0.62,0.47000000000000003,158.01,157.81,0.03,0.01,3
1682371532.43907690,416908656,0.91,0.9400000000000001,0.6900000000000001,0.68,158.01,157.77,0.03,0.01,3
1682371532.53913498,417008714,0.89,0.88,0.78,0.76,158.01,157.73,0.03,0.01,3
1682371532.63910604,417108685,0.8300000000000001,0.8200000000000001,0.79,0.8300000000000001,158.01,157.68,0.03,0.01,3
1682371532.73916101,417208740,0.73,0.8300000000000001,0.75,0.84,158.01,157.62,0.03,0.01,3
1682371532.83914113,417308720,0.66,0.65,0.6900000000000001,0.6900000000000001,158.01,157.54,0.03,0.01,3
1682371532.93929791,417408877,0.68,0.6900000000000001,0.55,0.58,158.01,157.49,0.03,0.01,3
1682371533.03920507,417508784,0.72,0.74,0.5,0.38,158.01,157.42000000000002,0.03,0.01,3
1682371533.13918710,417608766,0.8200000000000001,0.74,0.45,0.36,158.01,157.31,0.03,0.01,3
1682371533.23929191,417708871,0.87,1.02,0.49,0.36,158.01,157.24,0.04,0.01,3
1682371533.33916306,417808742,0.85,1.1,0.62,0.4,158.01,157.18,0.04,0.01,3
1682371533.43916297,417908742,0.81,0.92,0.71,0.56,158.01,157.1,0.03,0.01,3
1682371533.53925109,418008830,0.77,0.76,0.84,0.6900000000000001,158.01,157.06,0.03,0.01,3
1682371533.63924599,418108825,0.74,0.81,0.87,0.84,158.01,157.05,0.03,0.01,3
1682371533.73902798,418208607,0.71,0.67,0.88,0.78,158.01,157.0,0.03,0.01,3
1682371533.83913302,418308712,0.71,0.63,0.86,0.74,158.01,157.0,0.03,0.01,3
1682371533.93909907,418408678,0.72,0.6900000000000001,0.78,0.79,158.01,156.99,0.03,0.01,3
1682371534.03894401,418508523,0.74,0.84,0.76,0.66,158.01,156.99,0.02,0.01,3
1682371534.13886094,418608440,0.74,0.93,0.65,0.59,158.01,157.0,0.02,0.01,3
1682371534.23895311,418708532,0.75,0.75,0.65,0.45,158.01,157.0,0.03,0.01,3
1682371534.33895993,418808539,0.78,0.68,0.67,0.52,158.01,157.04,0.03,0.01,3
1682371534.43896508,418908544,0.79,0.89,0.7000000000000001,0.65,158.01,157.07,0.03,0.01,3
1682371534.53903103,419008610,0.84,0.89,0.75,0.62,158.01,157.11,0.03,0.01,3
1682371534.63900304,419108582,0.87,0.8200000000000001,0.73,0.72,158.01,157.17000000000002,0.02,0.01,3
1682371534.73914695,419208726,0.97,1.02,0.72,0.73,158.01,157.23,0.02,0.01,3
1682371534.83903599,419308615,1.02,1.23,0.67,0.67,158.01,157.29,0.02,0.01,3
1682371534.93899107,419408570,0.98,1.1500000000000001,0.68,0.64,158.01,157.37,0.02,0.01,3
1682371535.03886008,419508439,0.9500000000000001,1.1400000000000001,0.65,0.71,158.01,157.46,0.02,0.01,3
1682371535.13896894,419608548,0.84,1.1400000000000001,0.59,0.73,158.01,157.55,0.02,0.01,3
1682371535.23897505,419708554,0.81,0.84,0.56,0.58,158.01,157.66,0.01,0.01,3
1682371535.33905411,419808633,0.77,0.88,0.5,0.5700000000000001,158.01,157.75,0.01,0.01,3
1682371535.43903494,419908614,0.8,0.79,0.51,0.41000000000000003,158.01,157.89000000000001,0.01,0.01,3
1682371535.53902912,420008608,0.8300000000000001,0.85,0.52,0.49,158.01,158.0,0.01,0.01,3
1682371535.63911891,420108698,0.84,0.89,0.53,0.54,158.01,158.09,0.02,0.01,3
1682371535.73902798,420208607,0.85,1.03,0.48,0.54,158.01,158.19,0.02,0.01,3
1682371535.83897901,420308558,0.8200000000000001,0.92,0.44,0.45,158.01,158.29,0.02,0.01,3
1682371535.93895507,420408534,0.8,0.93,0.44,0.43,158.01,158.37,0.02,0.0,3
1682371536.03896499,420508544,0.77,0.65,0.44,0.4,158.01,158.46,0.02,0.01,3
1682371536.13895202,420608531,0.79,0.68,0.47000000000000003,0.41000000000000003,158.01,158.54,0.02,0.01,3
1682371536.23895907,420708538,0.84,0.74,0.47000000000000003,0.54,158.01,158.6,0.02,0.01,3
1682371536.33900213,420808581,0.8200000000000001,0.75,0.45,0.5700000000000001,158.01,158.66,0.02,0.01,3
1682371536.43901300,420908592,0.8200000000000001,0.65,0.44,0.47000000000000003,158.01,158.71,0.03,0.01,3
1682371536.53912711,421008706,0.78,0.8300000000000001,0.43,0.45,158.01,158.75,0.03,0.01,3
1682371536.63903093,421108610,0.76,0.73,0.44,0.45,158.01,158.78,0.03,0.01,3
1682371536.73895597,421208535,0.79,0.75,0.42,0.47000000000000003,158.01,158.8,0.03,0.0,3
1682371536.83916092,421308740,0.79,0.78,0.39,0.41000000000000003,158.01,158.82,0.03,0.01,3
1682371536.93928099,421408860,0.88,0.98,0.43,0.42,158.01,158.83,0.03,0.01,3
1682371537.03926706,421508846,0.88,1.0,0.46,0.5700000000000001,158.01,158.81,0.03,0.01,3
1682371537.13903594,421608615,0.89,0.81,0.56,0.58,158.01,158.82,0.03,0.01,3
1682371537.23903108,421708610,0.84,0.87,0.61,0.65,158.01,158.82,0.02,0.01,3
1682371537.33901405,421808593,0.84,0.84,0.71,0.75,158.01,158.81,0.02,0.01,3
1682371537.43913913,421908718,0.88,0.87,0.75,0.78,158.01,158.81,0.02,0.01,3
1682371537.53902292,422008602,0.87,0.76,0.8200000000000001,0.8,158.01,158.79,0.02,0.01,3
1682371537.63894701,422108526,0.88,0.86,0.86,0.8300000000000001,158.01,158.79,0.03,0.0,3
1682371537.73891497,422208494,0.9500000000000001,0.9,0.81,0.85,158.01,158.77,0.03,0.0,3
1682371537.83892703,422308506,0.98,1.02,0.77,0.67,158.01,158.77,0.04,0.0,3
1682371537.93901300,422408592,0.91,1.03,0.77,0.68,158.01,158.75,0.04,0.01,3
1682371538.03896308,422508542,0.85,0.9,0.78,0.76,158.01,158.74,0.04,0.0,3
1682371538.13899994,422608579,0.78,0.8,0.78,0.75,158.01,158.71,0.04,0.01,3
1682371538.23900890,422708588,0.74,0.6900000000000001,0.8200000000000001,0.75,158.01,158.71,0.03,0.01,3
1682371538.33911300,422808692,0.6900000000000001,0.76,1.0,0.92,158.01,158.69,0.03,0.01,3
1682371538.43907404,422908653,0.67,0.75,1.41,1.27,158.01,158.69,0.03,0.01,3
1682371538.53893709,423008516,0.68,0.71,1.99,1.84,158.02,158.69,0.03,0.01,3
1682371538.63890195,423108481,0.7000000000000001,0.61,2.66,2.63,158.02,158.70000000000002,0.03,0.01,3
1682371538.73897600,423208555,0.71,0.6900000000000001,3.35,3.4,158.03,158.70000000000002,0.03,0.01,3
1682371538.83896804,423308547,0.7000000000000001,0.67,4.0200000000000005,4.1,158.03,158.69,0.02,0.01,3
1682371538.93905401,423408633,0.65,0.73,4.6000000000000005,4.68,158.03,158.67000000000002,0.02,0.01,3
1682371539.03901911,423508598,0.65,0.68,5.04,5.22,158.03,158.65,0.03,0.01,3
1682371539.13902402,423608603,0.63,0.62,5.33,5.48,158.03,158.6,0.03,0.02,3
1682371539.23913693,423708716,0.67,0.5,5.38,5.5,158.04,158.54,0.03,0.01,3
1682371539.33904791,423808627,0.64,0.59,5.18,5.34,158.03,158.46,0.03,0.01,3
1682371539.43903303,423908612,0.67,0.52,4.73,4.84,158.03,158.36,0.02,0.01,3
1682371539.53895307,424008532,0.68,0.55,4.08,4.13,158.03,158.25,0.02,0.01,3
1682371539.63896608,424108545,0.68,0.64,3.4,3.29,158.02,158.15,0.02,0.01,3
1682371539.73898196,424208561,0.62,0.62,2.68,2.49,158.02,157.98,0.02,0.01,3
1682371539.83895493,424308534,0.59,0.46,2.04,1.73,158.02,157.84,0.02,0.01,3
1682371539.93906212,424408641,0.48,0.34,1.49,1.08,158.01,157.67000000000002,0.02,0.01,3
1682371540.03902793,424508607,0.47000000000000003,0.33,1.04,0.64,158.01,157.56,0.02,0.01,3
1682371540.13912892,424608708,0.42,0.43,0.79,0.39,157.81,157.44,0.02,0.01,3
1682371540.23924303,424708822,0.59,0.46,0.66,0.29,156.88,157.34,0.02,0.01,3
1682371540.33892393,424808503,1.84,0.88,-0.15,0.32,156.39000000000001,157.09,0.02,0.01,3
1682371540.43923211,424908811,3.91,2.74,-1.6300000000000001,-0.88,156.31,156.74,0.01,0.02,3
1682371540.53923106,425008810,5.62,5.76,-2.77,-3.18,156.22,156.34,0.01,0.03,3
1682371540.63921905,425108798,6.1000000000000005,7.51,-3.16,-4.3100000000000005,156.18,156.03,0.02,0.04,3
1682371540.73923397,425208813,5.67,6.92,-2.85,-3.75,156.21,155.87,0.02,0.03,3
1682371540.83922100,425308800,4.75,5.5,-1.99,-2.61,156.29,155.76,0.02,0.04,3
1682371540.93927598,425408855,3.77,3.99,-1.09,-1.22,156.35,155.70000000000002,0.02,0.04,3
1682371541.03931904,425508898,3.08,2.6,-0.47000000000000003,-0.09,156.39000000000001,155.63,0.03,0.04,3
1682371541.13923693,425608816,2.49,2.05,0.05,0.32,156.42000000000002,155.55,0.03,0.04,3
1682371541.23925400,425708833,1.9000000000000001,1.69,0.45,0.72,156.43,155.51,0.03,0.04,3
1682371541.33916807,425808747,1.36,0.8200000000000001,0.8300000000000001,1.01,156.44,155.49,0.03,0.03,3
1682371541.43924499,425908824,0.92,0.5700000000000001,1.24,1.31,156.45000000000002,155.5,0.03,0.03,3
1682371541.53920197,426008781,0.51,-0.02,1.6400000000000001,1.71,156.46,155.52,0.03,0.02,3
1682371541.63931799,426108897,0.2,-0.18,1.96,2.12,156.46,155.57,0.04,0.02,3
1682371541.73923206,426208811,-0.14,-0.5,2.24,2.34,156.46,155.62,0.04,0.02,3
1682371541.83921003,426308789,-0.34,-0.6900000000000001,2.39,2.65,156.46,155.66,0.04,0.02,3
1682371541.93934393,426408923,-0.47000000000000003,-0.71,2.46,2.59,156.46,155.76,0.04,0.01,3
1682371542.03925896,426508838,-0.54,-0.79,2.47,2.58,156.46,155.85,0.03,0.01,3
1682371542.13924098,426608820,-0.47000000000000003,-0.66,2.38,2.48,156.46,155.95000000000002,0.03,0.01,3
1682371542.23922396,426708803,-0.38,-0.43,2.32,2.36,156.46,156.06,0.04,0.01,3
1682371542.33922911,426808808,-0.3,-0.4,2.2800000000000002,2.22,156.46,156.18,0.04,0.01,3
1682371542.43924713,426908826,-0.22,-0.23,2.18,2.21,156.46,156.29,0.04,0.01,3
1682371542.53925705,427008836,-0.16,-0.03,2.13,2.16,156.46,156.39000000000001,0.04,0.01,3
1682371542.63926697,427108846,-0.12,-0.01,1.98,2.05,156.46,156.47,0.03,0.01,3
1682371542.73919392,427208773,-0.07,-0.05,1.86,1.8800000000000001,156.46,156.52,0.03,0.01,3
1682371542.83929396,427308873,-0.02,-0.06,1.72,1.73,156.46,156.58,0.03,0.01,3
1682371542.93930793,427408887,0.14,-0.04,1.57,1.62,156.46,156.56,0.03,0.01,3
1682371543.03926492,427508844,0.3,0.31,1.49,1.45,156.46,156.55,0.03,0.01,3
1682371543.13916707,427608746,0.42,0.52,1.35,1.46,156.46,156.5,0.03,0.01,3
1682371543.23923492,427708814,0.55,0.66,1.3,1.28,156.46,156.47,0.03,0.0,3
1682371543.33925891,427808838,0.56,0.6900000000000001,1.29,1.23,156.46,156.39000000000001,0.03,0.0,3
1682371543.43927503,427908854,0.62,0.8,1.27,1.23,156.46,156.3,0.04,0.01,3
1682371543.53925204,428008831,0.68,0.8200000000000001,1.18,1.16,156.46,156.18,0.04,0.01,3
1682371543.63921094,428108790,0.7000000000000001,0.79,1.12,1.05,156.46,156.07,0.04,0.01,3
1682371543.73938894,428208968,0.64,0.84,1.05,1.02,156.46,156.0,0.04,0.01,3
1682371543.83924508,428308824,0.63,0.84,1.01,0.89,156.46,155.89000000000001,0.04,0.0,3
1682371543.93924809,428408827,0.59,0.8,0.97,0.9,156.45000000000002,155.78,0.04,0.01,3
1682371544.03914595,428508725,0.6,0.62,0.96,0.8,156.45000000000002,155.65,0.03,0.01,3
1682371544.13918495,428608764,0.65,0.84,0.9500000000000001,0.85,156.45000000000002,155.58,0.03,0.01,3
1682371544.23909211,428708671,0.6900000000000001,0.6900000000000001,0.97,0.85,156.45000000000002,155.46,0.02,0.01,3
1682371544.33912802,428808707,0.79,0.9,0.97,0.9,156.45000000000002,155.46,0.02,0.01,3
1682371544.43921494,428908794,0.78,0.8300000000000001,0.97,0.9400000000000001,156.45000000000002,155.4,0.02,0.01,3
1682371544.53915596,429008735,0.8200000000000001,1.06,0.9500000000000001,0.9400000000000001,156.45000000000002,155.37,0.02,0.01,3
1682371544.63924599,429108825,0.77,0.97,0.9400000000000001,0.85,156.45000000000002,155.35,0.02,0.01,3
1682371544.73920012,429208779,0.75,0.78,0.97,0.85,156.45000000000002,155.33,0.02,0.01,3
1682371544.83920097,429308780,0.68,1.05,0.98,0.9,156.45000000000002,155.31,0.03,0.01,3
1682371544.93925595,429408835,0.66,0.8300000000000001,0.96,0.93,156.45000000000002,155.32,0.03,0.01,3
1682371545.03918290,429508762,0.62,0.49,0.96,0.89,156.45000000000002,155.31,0.03,0.01,3
1682371545.13917398,429608753,0.58,0.61,0.98,1.02,156.45000000000002,155.3,0.03,0.01,3
1682371545.23914194,429708721,0.65,0.52,1.0,1.03,156.45000000000002,155.29,0.03,0.02,3
1682371545.33920598,429808785,0.65,0.71,0.9400000000000001,1.07,156.45000000000002,155.27,0.03,0.02,3
1682371545.43914294,429908722,0.67,0.79,0.92,0.97,156.45000000000002,155.29,0.03,0.01,3
1682371545.53925610,430008835,0.67,0.66,0.87,0.93,156.45000000000002,155.3,0.03,0.01,3
1682371545.63919497,430108774,0.64,0.74,0.84,0.89,156.45000000000002,155.27,0.02,0.01,3
1682371545.73918390,430208763,0.64,0.67,0.78,0.89,156.45000000000002,155.31,0.02,0.01,3
1682371545.83916306,430308742,0.5700000000000001,0.73,0.75,0.81,156.45000000000002,155.33,0.03,0.02,3
1682371545.93920994,430408789,0.49,0.56,0.75,0.66,156.45000000000002,155.31,0.03,0.01,3
1682371546.03908992,430508669,0.49,0.38,0.73,0.6900000000000001,156.45000000000002,155.33,0.03,0.01,3
1682371546.13912106,430608700,0.44,0.45,0.78,0.71,156.45000000000002,155.32,0.03,0.02,3
1682371546.23916698,430708746,0.5,0.44,0.8,0.76,156.45000000000002,155.34,0.03,0.03,3
1682371546.33913302,430808712,0.47000000000000003,0.5,0.78,0.93,156.45000000000002,155.34,0.03,0.04,3
1682371546.43924093,430908820,0.49,0.45,0.75,1.0,156.45000000000002,155.32,0.03,0.03,3
1682371546.53923607,431008815,0.41000000000000003,0.44,0.73,0.89,156.45000000000002,155.28,0.03,0.02,3
1682371546.63920403,431108783,0.34,0.33,0.72,0.84,156.45000000000002,155.29,0.02,0.02,3
1682371546.73914599,431208725,0.42,0.11,0.67,0.87,156.45000000000002,155.31,0.02,0.02,3
1682371546.83919811,431308777,0.4,0.41000000000000003,0.64,0.88,156.45000000000002,155.33,0.02,0.02,3
1682371546.93926001,431408839,0.42,0.36,0.63,0.8,156.45000000000002,155.35,0.02,0.02,3
1682371547.03924513,431508824,0.41000000000000003,0.31,0.5700000000000001,0.8,156.45000000000002,155.39000000000001,0.01,0.01,3
1682371547.13923812,431608817,0.47000000000000003,0.22,0.58,0.76,156.45000000000002,155.41,0.01,0.01,3
1682371547.23901391,431708593,0.47000000000000003,0.39,0.53,0.73,156.45000000000002,155.45000000000002,0.01,0.01,3
1682371547.33911705,431808696,0.45,0.5,0.52,0.59,156.45000000000002,155.54,0.01,0.01,3
1682371547.43907404,431908653,0.5,0.35000000000000003,0.52,0.55,156.45000000000002,155.65,0.01,0.02,3
1682371547.53894997,432008529,0.46,0.56,0.55,0.54,156.45000000000002,155.74,0.01,0.01,3
1682371547.63891411,432108493,0.45,0.59,0.59,0.48,156.45000000000002,155.85,0.02,0.02,3
1682371547.73897004,432208549,0.36,0.54,0.6,0.56,156.45000000000002,155.96,0.02,0.02,3
1682371547.83893299,432308512,0.3,0.46,0.63,0.45,156.45000000000002,156.04,0.01,0.01,3
1682371547.93908501,432408664,0.35000000000000003,0.32,0.61,0.63,156.45000000000002,156.11,0.01,0.01,3
1682371548.03901005,432508589,0.32,0.32,0.6,0.61,156.45000000000002,156.15,0.01,0.01,3
1682371548.13900805,432608587,0.39,0.34,0.58,0.66,156.45000000000002,156.16,0.01,0.01,3
1682371548.23910213,432708681,0.42,0.48,0.6,0.56,156.45000000000002,156.14000000000001,0.01,0.01,3
1682371548.33903909,432808618,0.44,0.63,0.63,0.62,156.45000000000002,156.09,0.01,0.01,3
1682371548.43896413,432908543,0.43,0.54,0.61,0.68,156.45000000000002,156.05,0.01,0.01,3
1682371548.53886294,433008442,0.4,0.34,0.68,0.65,156.45000000000002,155.97,0.01,0.01,3
1682371548.63895011,433108529,0.39,0.39,0.63,0.79,156.45000000000002,155.92000000000002,0.01,0.01,3
1682371548.73898005,433208559,0.39,0.42,0.62,0.73,156.45000000000002,155.9,0.01,0.01,3
1682371548.83894205,433308521,0.4,0.36,0.62,0.67,156.45000000000002,155.84,0.01,0.01,3
1682371548.93905711,433408636,0.4,0.53,0.55,0.77,156.45000000000002,155.8,0.01,0.02,3
1682371549.03902411,433508603,0.42,0.46,0.58,0.64,156.45000000000002,155.76,0.01,0.02,3
1682371549.13912702,433608706,0.44,0.59,0.5,0.65,156.45000000000002,155.71,0.01,0.01,3
1682371549.23904300,433708622,0.4,0.56,0.5,0.48,156.45000000000002,155.67000000000002,0.01,0.01,3
1682371549.33895612,433808535,0.38,0.47000000000000003,0.56,0.4,156.45000000000002,155.6,0.01,0.01,3
1682371549.43889713,433908476,0.4,0.31,0.56,0.51,156.45000000000002,155.56,0.01,0.02,3
1682371549.53895903,434008538,0.32,0.35000000000000003,0.61,0.56,156.45000000000002,155.52,0.01,0.01,3
1682371549.63896108,434108540,0.33,0.14,0.6,0.65,156.45000000000002,155.52,0.01,0.01,3
1682371549.73895597,434208535,0.35000000000000003,0.26,0.59,0.73,156.45000000000002,155.53,0.01,0.01,3
1682371549.83901596,434308595,0.34,0.34,0.55,0.74,156.45000000000002,155.6,0.01,0.01,3
1682371549.93907094,434408650,0.41000000000000003,0.27,0.5,0.67,156.45000000000002,155.68,0.01,0.01,3
1682371550.03914499,434508724,0.37,0.47000000000000003,0.46,0.5700000000000001,156.45000000000002,155.77,0.0,0.01,3
1682371550.13907409,434608653,0.41000000000000003,0.37,0.44,0.52,156.45000000000002,155.83,0.0,0.01,3
1682371550.23897791,434708557,0.38,0.37,0.42,0.53,156.45000000000002,155.91,0.0,0.01,3
1682371550.33925009,434808829,0.33,0.45,0.41000000000000003,0.51,156.45000000000002,155.96,0.0,0.01,3
1682371550.43928099,434908860,0.31,0.55,0.43,0.4,156.45000000000002,156.01,0.01,0.01,3
1682371550.53924608,435008825,0.27,0.63,0.44,0.23,156.45000000000002,156.06,0.01,0.01,3
1682371550.63901305,435108592,0.24,0.59,0.39,0.3,156.45000000000002,156.1,0.01,0.01,3
1682371550.73901391,435208593,0.25,0.36,0.47000000000000003,0.25,156.45000000000002,156.12,0.01,0.02,3
1682371550.83905292,435308632,0.22,0.35000000000000003,0.55,0.27,156.45000000000002,156.12,0.01,0.02,3
1682371550.93917298,435408752,0.26,0.2,0.64,0.36,156.45000000000002,156.12,0.01,0.02,3
1682371551.03913403,435508713,0.31,0.22,0.6900000000000001,0.47000000000000003,156.45000000000002,156.11,0.01,0.01,3
1682371551.13894510,435608524,0.29,0.51,0.68,0.66,156.45000000000002,156.1,0.01,0.01,3
1682371551.23892093,435708500,0.33,0.47000000000000003,0.7000000000000001,0.73,156.45000000000002,156.07,0.01,0.01,3
1682371551.33889604,435808475,0.37,0.24,0.64,0.86,156.45000000000002,156.03,0.01,0.01,3
1682371551.43896914,435908548,0.32,0.37,0.55,0.92,156.45000000000002,156.02,0.01,0.01,3
1682371551.53901291,436008592,0.43,0.24,0.47000000000000003,0.79,156.45000000000002,156.0,0.01,0.01,3
1682371551.63899612,436108575,0.46,0.32,0.35000000000000003,0.71,156.45000000000002,155.98,0.02,0.01,3
1682371551.73900795,436208587,0.53,0.36,0.26,0.51,156.45000000000002,155.95000000000002,0.02,0.01,3
1682371551.83912706,436308706,0.58,0.49,0.23,0.31,156.45000000000002,155.92000000000002,0.02,0.01,3
1682371551.93911290,436408692,0.51,0.49,0.28,0.16,156.45000000000002,155.88,0.02,0.01,3
1682371552.03895998,436508539,0.49,0.5,0.3,0.24,156.45000000000002,155.83,0.02,0.01,3
1682371552.13893604,436608515,0.43,0.55,0.34,0.26,156.45000000000002,155.81,0.02,0.01,3
1682371552.23895812,436708537,0.38,0.51,0.4,0.33,156.45000000000002,155.78,0.02,0.01,3
1682371552.33893609,436808515,0.41000000000000003,0.38,0.35000000000000003,0.54,156.45000000000002,155.77,0.02,0.01,3
1682371552.43898511,436908564,0.46,0.24,0.37,0.41000000000000003,156.45000000000002,155.82,0.02,0.01,3
1682371552.53901196,437008591,0.37,0.48,0.32,0.35000000000000003,156.45000000000002,155.82,0.02,0.01,3
1682371552.63902712,437108606,0.43,0.59,0.34,0.21,156.45000000000002,155.84,0.03,0.0,3
1682371552.73913503,437208714,0.34,0.6,0.43,0.22,156.45000000000002,155.85,0.03,0.0,3
1682371552.83906698,437308646,0.29,0.49,0.38,0.58,156.45000000000002,155.86,0.03,0.0,3
1682371552.93922091,437408800,0.27,0.21,0.35000000000000003,0.59,156.45000000000002,155.86,0.03,0.01,3
1682371553.03890800,437508487,0.21,-0.02,0.38,0.23,156.45000000000002,155.89000000000001,0.02,0.01,3
1682371553.13897109,437608550,0.26,0.0,0.27,0.34,156.45000000000002,155.92000000000002,0.02,0.01,3
1682371553.23894310,437708522,0.34,0.15,0.23,0.43,156.45000000000002,155.94,0.02,0.01,3
1682371553.33895802,437808537,0.33,0.31,0.15,0.58,156.45000000000002,155.98,0.02,0.01,3
1682371553.43901491,437908594,0.36,0.39,0.12,0.49,156.45000000000002,156.08,0.02,0.01,3
1682371553.53903198,438008611,0.29,0.67,0.15,0.31,156.45000000000002,156.14000000000001,0.02,0.01,3
1682371553.63910103,438108680,0.26,0.71,0.13,0.35000000000000003,156.45000000000002,156.22,0.02,0.01,3
1682371553.73928905,438208868,0.25,0.67,0.23,0.24,156.45000000000002,156.28,0.02,0.0,3
1682371553.83924007,438308819,0.26,0.47000000000000003,0.27,0.27,156.45000000000002,156.32,0.01,0.01,3
1682371553.93929410,438408873,0.31,0.3,0.27,0.36,156.45000000000002,156.39000000000001,0.01,0.01,3
1682371554.03925204,438508831,0.27,0.49,0.23,0.4,156.45000000000002,156.48,0.01,0.01,3
1682371554.13920307,438608782,0.32,0.62,0.21,0.4,156.45000000000002,156.52,0.01,0.01,3
1682371554.23931599,438708895,0.35000000000000003,0.63,0.28,0.3,156.45000000000002,156.55,0.01,0.01,3
1682371554.33922291,438808802,0.33,0.67,0.29,0.34,156.45000000000002,156.62,0.01,0.01,3
1682371554.43921304,438908792,0.36,0.53,0.41000000000000003,1.09,156.45000000000002,156.63,0.01,0.01,3
1682371554.53932595,439008905,0.41000000000000003,0.63,0.64,1.51,156.45000000000002,156.65,0.01,0.01,3
1682371554.63925004,439108829,0.58,0.93,0.85,1.68,156.45000000000002,156.68,0.01,0.01,3
1682371554.73923898,439208818,0.54,0.93,0.64,1.54,156.45000000000002,156.69,0.01,0.01,3
1682371554.83916712,439308746,0.86,0.61,0.96,1.33,156.45000000000002,156.84,0.01,0.01,3
1682371554.93927598,439408855,0.81,0.85,1.04,1.12,156.46,157.1,0.01,0.01,3
1682371555.03925300,439508832,0.51,-0.02,0.8300000000000001,0.93,156.45000000000002,157.43,0.01,0.01,3
1682371555.13922811,439608807,0.87,0.47000000000000003,0.52,0.84,156.45000000000002,157.61,0.01,0.01,3
1682371555.23924613,439708825,-0.05,-0.05,0.06,0.86,156.45000000000002,157.48,0.01,0.01,3
1682371555.33921504,439808794,0.61,0.31,-0.07,0.85,156.45000000000002,157.44,0.01,0.01,3
1682371555.43932199,439908901,0.27,0.15,0.1,0.89,156.45000000000002,157.55,0.01,0.01,3
1682371555.53925800,440008837,0.5,0.12,0.1,0.88,156.45000000000002,157.51,0.01,0.01,3
1682371555.63923907,440108818,0.43,0.19,0.14,0.86,156.45000000000002,157.44,0.01,0.01,3
1682371555.73917007,440208749,0.4,0.13,0.12,0.89,156.45000000000002,157.54,0.01,0.01,3
1682371555.83921909,440308798,0.4,0.18,0.2,0.86,156.45000000000002,157.49,0.01,0.01,3
1682371555.93927407,440408853,0.34,0.13,0.2,0.87,156.45000000000002,157.44,0.01,0.01,3
1682371556.03922796,440508807,0.45,0.18,0.19,0.87,156.45000000000002,157.53,0.01,0.01,3
1682371556.13923812,440608817,0.28,0.15,0.27,0.85,156.45000000000002,157.5,0.01,0.0,3
1682371556.23919702,440708776,0.36,0.16,0.17,0.85,156.45000000000002,157.45000000000002,0.01,0.01,3
1682371556.33938694,440808966,0.29,0.12,0.3,0.86,156.45000000000002,157.52,0.01,0.0,3
1682371556.43925905,440908838,0.4,0.24,0.2,0.87,156.45000000000002,157.5,0.01,0.01,3
1682371556.53925109,441008830,0.32,0.15,0.26,0.85,156.45000000000002,157.48,0.01,0.01,3
1682371556.63922906,441108808,0.41000000000000003,0.18,0.25,0.85,156.45000000000002,157.58,0.01,0.02,3
1682371556.73923206,441208811,0.34,0.17,0.18,0.85,156.45000000000002,157.53,0.01,0.02,3
1682371556.83908510,441308664,0.26,0.17,0.25,0.85,156.45000000000002,157.52,0.01,0.01,3
1682371556.93921709,441408796,0.13,0.15,0.13,0.88,157.70000000000002,157.70000000000002,0.01,0.01,3
1682371557.03916693,441508746,0.07,0.19,0.06,0.92,157.9,157.9,0.01,0.01,3
1682371557.13913107,441608710,0.03,0.16,0.03,0.92,158.25,158.25,0.01,0.01,3
1682371557.23921895,441708798,0.01,0.18,0.01,0.92,158.77,158.77,0.01,0.01,3
1682371557.33916712,441808746,0.0,0.16,0.0,0.93,159.25,159.25,0.01,0.01,3
1682371557.43913698,441908716,0.0,0.16,0.0,0.92,159.77,159.77,0.0,0.01,3
1682371557.53904390,442008623,0.0,0.18,0.0,0.93,160.33,160.33,0.0,0.02,3
1682371557.63906097,442108640,0.0,0.15,0.0,0.93,160.86,160.86,0.0,0.02,3
1682371557.73906302,442208642,0.0,0.18,0.0,0.9400000000000001,161.3,161.3,0.0,0.02,3
1682371557.83909392,442308673,0.0,0.17,0.0,0.93,161.83,161.83,0.0,0.01,3
1682371557.93925405,442408833,0.0,0.16,0.0,0.9400000000000001,162.28,162.28,0.0,0.01,3
1682371558.03912902,442508708,0.0,0.16,0.0,0.93,162.63,162.63,0.0,0.02,3
1682371558.13921809,442608797,0.0,0.17,0.0,0.93,163.07,163.07,0.0,0.02,3
1682371558.23916912,442708748,0.0,0.16,0.0,0.9400000000000001,163.46,163.46,0.0,0.02,3
1682371558.33912897,442808708,0.0,0.17,0.0,0.93,163.75,163.75,0.0,0.02,3
1682371558.43916893,442908748,0.0,0.16,0.0,0.93,164.14000000000001,164.14000000000001,0.0,0.02,3
1682371558.53915596,443008735,0.0,0.16,0.0,0.93,164.48,164.48,0.0,0.02,3
1682371558.63907695,443108656,0.0,0.16,0.0,0.9400000000000001,164.74,164.74,0.0,0.02,3
1682371558.73910999,443208689,0.0,0.16,0.0,0.93,165.1,165.1,0.0,0.02,3
1682371558.83916402,443308743,0.0,0.17,0.0,0.93,165.4,165.4,0.0,0.02,3
1682371558.93920302,443408782,0.0,0.16,0.0,0.92,165.63,165.63,0.0,0.01,3
1682371559.03921795,443508797,0.0,0.16,0.0,0.92,165.94,165.94,0.0,0.01,3
1682371559.13919806,443608777,0.0,0.16,0.0,0.91,166.20000000000002,166.20000000000002,0.0,0.01,3
1682371559.23914003,443708719,0.0,0.16,0.0,0.91,166.39000000000001,166.39000000000001,0.0,0.01,3
1682371559.33909798,443808677,0.0,0.16,0.0,0.91,166.66,166.66,0.0,0.01,3
1682371559.43904996,443908629,0.0,0.16,0.0,0.9,166.89000000000001,166.89000000000001,0.0,0.01,3
1682371559.53907514,444008654,0.0,0.15,0.0,0.9,167.07,167.07,0.0,0.02,3
1682371559.63909411,444108673,0.0,0.16,0.0,0.9,167.32,167.32,0.0,0.02,3
1682371559.73917007,444208749,0.0,0.16,0.0,0.91,167.54,167.54,0.0,0.02,3
1682371559.83911014,444308689,0.0,0.16,0.0,0.9,167.73,167.73,0.0,0.02,3
1682371559.93927002,444408849,0.0,0.15,0.0,0.91,167.97,167.97,0.0,0.02,3
1682371560.03917503,444508754,0.0,0.15,0.0,0.9,168.17000000000002,168.17000000000002,0.0,0.02,3
1682371560.13916492,444608744,0.0,0.15,0.0,0.9,168.34,168.34,0.0,0.01,3
1682371560.23903799,444708617,0.0,0.15,0.0,0.9,168.56,168.56,0.0,0.01,3
1682371560.33907294,444808652,0.0,0.15,0.0,0.9,168.73,168.73,0.0,0.01,3
1682371560.43908596,444908665,0.0,0.16,0.0,0.9,168.87,168.87,0.0,0.01,3
1682371560.53948593,445009065,0.0,0.16,0.0,0.9,169.07,169.07,0.0,0.01,3
1682371560.63922405,445108803,0.0,0.16,0.0,0.9,169.22,169.22,0.0,0.01,3
1682371560.73898411,445208563,0.0,0.16,0.0,0.9,169.34,169.34,0.0,0.01,3
1682371560.83906198,445308641,0.0,0.16,0.0,0.9,169.53,169.53,0.0,0.01,3
1682371560.93908596,445408665,0.0,0.16,0.0,0.9,169.66,169.66,0.0,0.01,3
1682371561.03891802,445508497,0.0,0.16,0.0,0.89,169.78,169.78,0.0,0.01,3
1682371561.13884711,445608426,0.0,0.16,0.0,0.9,169.95000000000002,169.95000000000002,0.0,0.01,3
1682371561.23888993,445708469,0.0,0.16,0.0,0.89,170.07,170.07,0.0,0.01,3
1682371561.33887696,445808456,0.0,0.16,0.0,0.89,170.18,170.18,0.0,0.02,3
1682371561.43891191,445908491,0.0,0.16,0.0,0.9,170.35,170.35,0.0,0.01,3
1682371561.53898692,446008566,0.0,0.16,0.0,0.9,170.46,170.46,0.0,0.01,3
1682371561.63897395,446108553,0.0,0.16,0.0,0.9,170.57,170.57,0.0,0.01,3
1682371561.73905706,446208636,0.0,0.16,0.0,0.91,170.72,170.72,0.0,0.01,3
1682371561.83889604,446308475,0.0,0.16,0.0,0.91,170.82,170.82,0.0,0.01,3
1682371561.93896008,446408539,0.0,0.16,0.0,0.91,170.91,170.91,0.0,0.01,3
1682371562.03884006,446508419,0.0,0.16,0.0,0.91,171.04,171.04,0.0,0.01,3
1682371562.13888311,446608462,0.0,0.17,0.0,0.91,171.13,171.13,0.0,0.01,3
1682371562.23890090,446708480,0.0,0.17,0.0,0.91,171.22,171.22,0.0,0.0,3
1682371562.33893108,446808510,0.0,0.17,0.0,0.91,171.35,171.35,0.0,0.01,3
1682371562.43897605,446908555,0.0,0.18,0.0,0.91,171.42000000000002,171.42000000000002,0.0,0.01,3
1682371562.53897905,447008558,0.0,0.18,0.0,0.91,171.51,171.51,0.0,0.01,3
1682371562.63909698,447108676,0.0,0.18,0.0,0.91,171.63,171.63,0.0,0.02,3
1682371562.73899102,447208570,0.0,0.18,0.0,0.91,171.71,171.71,0.0,0.01,3
1682371562.83890605,447308485,0.0,0.18,0.0,0.91,171.8,171.8,0.0,0.01,3
1682371562.93892598,447408505,0.0,0.18,0.0,0.91,171.92000000000002,171.92000000000002,0.0,0.01,3
1682371563.03888893,447508468,0.0,0.18,0.0,0.91,172.0,172.0,0.0,0.02,3
1682371563.13890600,447608485,0.0,0.18,0.0,0.91,172.08,172.08,0.0,0.02,3
1682371563.23891592,447708495,0.0,0.18,0.0,0.91,172.20000000000002,172.20000000000002,0.0,0.02,3
1682371563.33897209,447808551,0.0,0.18,0.0,0.91,172.27,172.27,0.0,0.01,3
1682371563.43897700,447908556,0.0,0.18,0.0,0.91,172.36,172.36,0.0,0.01,3
1682371563.53908801,448008667,0.0,0.18,0.0,0.92,172.46,172.46,0.0,0.01,3
1682371563.63891006,448108489,0.0,0.18,0.0,0.92,172.51,172.51,0.0,0.01,3
1682371563.73884511,448208424,0.0,0.18,0.0,0.92,172.59,172.59,0.0,0.01,3
1682371563.83912992,448308709,0.0,0.18,0.0,0.92,172.68,172.68,0.0,0.01,3
1682371563.93926692,448408846,0.0,0.18,0.0,0.92,172.74,172.74,0.0,0.01,3
1682371564.03918195,448508761,0.0,0.18,0.0,0.92,172.81,172.81,0.0,0.01,3
1682371564.13892198,448608501,0.0,0.18,0.0,0.93,172.9,172.9,0.0,0.01,3
1682371564.23897505,448708554,0.0,0.18,0.0,0.93,172.95000000000002,172.95000000000002,0.0,0.01,3
1682371564.33897805,448808557,0.0,0.18,0.0,0.93,173.03,173.03,0.0,0.01,3
1682371564.43906403,448908643,0.0,0.18,0.0,0.9400000000000001,173.11,173.11,0.0,0.0,3
1682371564.53899312,449008572,0.0,0.18,0.0,0.9400000000000001,173.15,173.15,0.0,0.0,3
1682371564.63890910,449108488,0.0,0.18,0.0,0.9400000000000001,173.22,173.22,0.0,0.01,3
1682371564.73894310,449208522,0.0,0.18,0.0,0.9500000000000001,173.29,173.29,0.0,0.01,3
1682371564.83886600,449308445,0.0,0.18,0.0,0.9500000000000001,173.33,173.33,0.0,0.01,3
1682371564.93896914,449408548,0.0,0.18,0.0,0.9500000000000001,173.4,173.4,0.0,0.01,3
1682371565.03893590,449508515,0.0,0.18,0.0,0.9500000000000001,173.47,173.47,0.0,0.01,3
1682371565.13895607,449608535,0.0,0.17,0.0,0.9500000000000001,173.52,173.52,0.0,0.01,3
1682371565.23897099,449708550,0.0,0.18,0.0,0.96,173.59,173.59,0.0,0.01,3
1682371565.33906913,449808648,0.0,0.17,0.0,0.96,173.67000000000002,173.67000000000002,0.0,0.01,3
1682371565.43890309,449908482,0.0,0.17,0.0,0.96,173.70000000000002,173.70000000000002,0.0,0.01,3
1682371565.53890395,450008483,0.0,0.18,0.0,0.97,173.77,173.77,0.0,0.01,3
1682371565.63881803,450108397,0.0,0.18,0.0,0.97,173.83,173.83,0.0,0.0,3
1682371565.73883510,450208414,0.0,0.18,0.0,0.96,173.86,173.86,0.0,0.0,3
1682371565.83890295,450308482,0.0,0.18,0.0,0.97,173.93,173.93,0.0,0.0,3
1682371565.93898511,450408564,0.0,0.18,0.0,0.97,173.98,173.98,0.0,0.0,3
1682371566.03896308,450508542,0.0,0.18,0.0,0.97,174.02,174.02,0.0,0.01,3
1682371566.13896704,450608546,0.0,0.17,0.0,0.97,174.08,174.08,0.0,0.01,3
1682371566.23908710,450708666,0.0,0.17,0.0,0.97,174.14000000000001,174.14000000000001,0.0,0.01,3
1682371566.33890200,450808481,0.0,0.17,0.0,0.97,174.17000000000002,174.17000000000002,0.0,0.01,3
1682371566.43891406,450908493,0.0,0.17,0.0,0.97,174.23,174.23,0.0,0.01,3
1682371566.53882599,451008405,0.0,0.17,0.0,0.97,174.28,174.28,0.0,0.01,3
1682371566.63891006,451108489,0.0,0.17,0.0,0.98,174.31,174.31,0.0,0.01,3
1682371566.73892307,451208502,0.0,0.17,0.0,0.98,174.37,174.37,0.0,0.01,3
1682371566.83901405,451308593,0.0,0.18,0.0,0.97,174.42000000000002,174.42000000000002,0.0,0.01,3
1682371566.93902206,451408601,0.0,0.18,0.0,0.97,174.45000000000002,174.45000000000002,0.0,0.01,3
1682371567.03898597,451508565,0.0,0.17,0.0,0.98,174.51,174.51,0.0,0.01,3
1682371567.13907313,451608652,0.0,0.17,0.0,0.98,174.56,174.56,0.0,0.01,3
1682371567.23920894,451708788,0.0,0.17,0.0,0.98,174.59,174.59,0.0,0.02,3
1682371567.33923793,451808817,0.0,0.17,0.0,0.99,174.65,174.65,0.0,0.01,3
1682371567.43913293,451908712,0.0,0.17,0.0,0.99,174.70000000000002,174.70000000000002,0.0,0.01,3
1682371567.53887510,452008454,0.0,0.17,0.0,0.99,174.74,174.74,0.0,0.01,3
1682371567.63918805,452108767,0.0,0.17,0.0,1.0,174.79,174.79,0.0,0.01,3
1682371567.73914409,452208723,0.0,0.17,0.0,1.0,174.83,174.83,0.0,0.01,3
1682371567.83918810,452308767,0.0,0.18,0.0,1.0,174.86,174.86,0.0,0.01,3
1682371567.93926406,452408843,0.0,0.18,0.0,1.0,174.92000000000002,174.92000000000002,0.0,0.01,3
1682371568.03927493,452508854,0.0,0.18,0.0,1.0,174.96,174.96,0.0,0.01,3
1682371568.13921595,452608795,0.0,0.18,0.0,1.0,174.99,174.99,0.0,0.01,3
1682371568.23923206,452708811,0.0,0.18,0.0,1.0,175.05,175.05,0.0,0.01,3
1682371568.33915591,452808735,0.0,0.18,0.0,1.0,175.08,175.08,0.0,0.01,3
1682371568.43920302,452908782,0.0,0.18,0.0,1.0,175.11,175.11,0.0,0.01,3
1682371568.53920293,453008782,0.0,0.18,0.0,1.0,175.16,175.16,0.0,0.01,3
1682371568.63920808,453108787,0.0,0.18,0.0,1.0,175.18,175.18,0.0,0.0,3
1682371568.73921204,453208791,0.0,0.19,0.0,1.0,175.21,175.21,0.0,0.01,3
1682371568.83917093,453308750,0.0,0.19,0.0,1.0,175.26,175.26,0.0,0.01,3
1682371568.93943906,453409018,0.0,0.2,0.0,1.0,175.28,175.28,0.0,0.01,3
1682371569.03923798,453508817,0.0,0.2,0.0,1.0,175.31,175.31,0.0,0.01,3
1682371569.13921809,453608797,0.0,0.2,0.0,1.01,175.36,175.36,0.0,0.01,3
1682371569.23915410,453708733,0.0,0.2,0.0,1.01,175.38,175.38,0.0,0.01,3
1682371569.33947706,453809056,0.0,0.21,0.0,1.01,175.42000000000002,175.42000000000002,0.0,0.01,3
1682371569.43918490,453908764,0.0,0.21,0.0,1.01,175.47,175.47,0.0,0.01,3
1682371569.53920197,454008781,0.0,0.21,0.0,1.01,175.5,175.5,0.0,0.01,3
1682371569.63920808,454108787,0.0,0.21,0.0,1.01,175.53,175.53,0.0,0.01,3
1682371569.73917413,454208753,0.0,0.21,0.0,1.01,175.58,175.58,0.0,0.0,3
1682371569.83925891,454308838,0.0,0.22,0.0,1.01,175.6,175.6,0.0,0.0,3
1682371569.93927193,454408851,0.0,0.22,0.0,1.01,175.61,175.63,0.0,0.0,3
1682371570.03923893,454508818,0.0,0.22,0.0,1.01,175.61,175.67000000000002,0.0,0.0,3
1682371570.13914204,454608721,0.0,0.22,0.0,1.01,175.69,175.69,0.0,0.01,3
1682371570.23921204,454708791,0.0,0.22,0.0,1.01,175.72,175.72,0.0,0.01,3
1682371570.33892107,454808500,0.0,0.22,0.0,1.01,175.76,175.76,0.0,0.01,3
1682371570.43911099,454908690,0.0,0.22,0.0,1.01,175.78,175.78,0.0,0.01,3
1682371570.53915095,455008730,0.0,0.22,0.0,1.01,175.81,175.81,0.0,0.01,3
1682371570.63911104,455108690,0.0,0.23,0.0,1.01,175.84,175.84,0.0,0.01,3
1682371570.73920798,455208787,0.0,0.22,0.0,1.01,175.86,175.86,0.0,0.01,3
1682371570.83916998,455308749,0.0,0.22,0.0,1.01,175.9,175.9,0.01,0.01,3
1682371570.93923211,455408811,0.0,0.22,0.0,1.01,175.94,175.94,0.01,0.01,3
1682371571.03914905,455508728,0.0,0.22,0.0,1.01,175.96,175.96,0.0,0.01,3
1682371571.13904309,455608622,0.0,0.22,0.0,1.01,176.0,176.0,0.0,0.01,3
1682371571.23906112,455708640,0.0,0.22,0.0,1.02,176.04,176.04,0.0,0.01,3
1682371571.33909392,455808673,0.0,0.22,0.0,1.02,176.06,176.06,0.0,0.01,3
1682371571.43916011,455908739,0.0,0.22,0.0,1.02,176.09,176.09,0.0,0.01,3
1682371571.53910899,456008688,0.0,0.22,0.0,1.02,176.12,176.12,0.0,0.01,3
1682371571.63921595,456108795,0.0,0.22,0.0,1.03,176.14000000000001,176.14000000000001,0.0,0.01,3
1682371571.73918009,456208759,0.0,0.22,0.0,1.03,176.17000000000002,176.17000000000002,0.0,0.0,3
1682371571.83914113,456308720,0.0,0.23,0.0,1.03,176.20000000000002,176.20000000000002,0.0,0.01,3
1682371571.93915606,456408735,0.0,0.22,0.0,1.03,176.22,176.22,0.0,0.0,3
1682371572.03916311,456508742,0.0,0.23,0.0,1.03,176.25,176.25,0.0,0.01,3
1682371572.13936806,456608947,0.0,0.22,0.0,1.03,176.27,176.27,0.0,0.01,3
1682371572.23920298,456708782,0.0,0.22,0.0,1.03,176.29,176.29,0.01,0.01,3
1682371572.33922100,456808800,0.0,0.22,0.0,1.03,176.32,176.32,0.01,0.01,3
1682371572.43919706,456908776,0.0,0.23,0.0,1.03,176.34,176.35,0.01,0.01,3
1682371572.53925705,457008836,0.0,0.23,0.0,1.03,176.34,176.37,0.01,0.01,3
