timestamp,TimeUS,I,Status,GMS,GWk,NSats,HDop,Lat,Lng,Alt,Spd,GCrs,VZ,Yaw,U
1682371501.79900002,386268579,0,3,163519799,2259,16,0.7000000000000001,42.6899947,-84.4888158,260.65,0.01612451672554016,172.87496948242188,-0.04100000113248825,0.0,1
1682371501.99877191,386468351,0,3,163519999,2259,16,0.7000000000000001,42.6899947,-84.4888158,260.64,0.02024845778942108,290.224853515625,-0.014000000432133675,0.0,1
1682371502.19883108,386668410,0,3,163520199,2259,16,0.7000000000000001,42.6899947,-84.4888158,260.64,0.021189620718359947,70.70995330810547,0.030000001192092896,0.0,1
1682371502.39885497,386868434,0,3,163520399,2259,16,0.7000000000000001,42.6899947,-84.4888158,260.63,0.012206556275486946,34.99201583862305,-0.07600000500679016,0.0,1
1682371502.59890103,387068480,0,3,163520599,2259,16,0.7000000000000001,42.6899948,-84.4888158,260.62,0.021954499185085297,300.0685729980469,-0.07200000435113907,0.0,1
1682371502.77865100,387248230,0,3,163520799,2259,16,0.7000000000000001,42.6899948,-84.4888158,260.62,0.005099019967019558,348.6900634765625,-0.07300000637769699,0.0,1
1682371502.99871898,387468298,0,3,163520999,2259,16,0.7000000000000001,42.6899948,-84.4888158,260.61,0.012727922759950161,225.0,-0.05900000408291817,0.0,1
1682371503.19883013,387668409,0,3,163521199,2259,16,0.7000000000000001,42.6899948,-84.48881569999999,260.6,0.012727922759950161,45.0,0.01100000087171793,0.0,1
1682371503.39890409,387868483,0,3,163521399,2259,16,0.7000000000000001,42.6899948,-84.48881569999999,260.59000000000003,0.01486606989055872,42.273685455322266,-0.013000000268220901,0.0,1
1682371503.59898305,388068562,0,3,163521599,2259,16,0.7000000000000001,42.6899948,-84.48881569999999,260.58,0.0596657395362854,193.57044982910156,-0.03200000151991844,0.0,1
1682371503.79879093,388268370,0,3,163521799,2259,16,0.7000000000000001,42.6899948,-84.48881569999999,260.57,0.021260293200612068,318.8140869140625,-0.07400000095367432,0.0,1
1682371503.99905491,388468634,0,3,163521999,2259,16,0.7000000000000001,42.6899948,-84.48881569999999,260.56,0.010816654190421104,146.30992126464844,-0.04000000283122063,0.0,1
1682371504.19890404,388668483,0,3,163522199,2259,16,0.7000000000000001,42.6899948,-84.48881569999999,260.55,0.02102379873394966,177.273681640625,0.009000000543892384,0.0,1
1682371504.39897609,388868555,0,3,163522399,2259,16,0.7000000000000001,42.6899948,-84.48881569999999,260.54,0.05930430442094803,354.1932678222656,-0.06300000101327896,0.0,1
1682371504.59890699,389068486,0,3,163522599,2259,16,0.7000000000000001,42.689994899999995,-84.4888156,260.53000000000003,0.023345237597823143,9.865805625915527,-0.020000001415610313,0.0,1
1682371504.79882312,389268402,0,3,163522799,2259,16,0.7000000000000001,42.689994899999995,-84.4888156,260.5,0.01910497434437275,186.00901794433594,-0.01100000087171793,0.0,1
1682371504.99864101,389468220,0,3,163522999,2259,16,0.7000000000000001,42.689994899999995,-84.4888156,260.5,0.005385165102779865,111.80139923095703,-0.006000000052154064,0.0,1
1682371505.19871092,389668290,0,3,163523199,2259,16,0.7000000000000001,42.689994999999996,-84.4888155,260.48,0.034885529428720474,27.299570083618164,-0.024000000208616257,0.0,1
1682371505.39875698,389868336,0,3,163523399,2259,16,0.7000000000000001,42.689994999999996,-84.4888154,260.47,0.02789265289902687,75.46553802490234,-0.07500000298023224,0.0,1
1682371505.59860802,390068187,0,3,163523599,2259,16,0.7000000000000001,42.689994999999996,-84.4888154,260.47,0.022203605622053146,187.7651824951172,-0.1469999998807907,0.0,1
1682371505.79864001,390268219,0,3,163523799,2259,16,0.7000000000000001,42.689994999999996,-84.4888154,260.51,0.025179356336593628,186.84278869628906,-0.398000031709671,0.0,1
1682371506.01900697,390488586,0,3,163523999,2259,16,0.7000000000000001,42.689994999999996,-84.4888154,260.57,0.04085339978337288,291.5409851074219,-0.5540000200271606,0.0,1
1682371506.19874501,390668324,0,3,163524199,2259,16,0.7000000000000001,42.689994999999996,-84.4888155,260.64,0.06203225255012512,159.2277374267578,-0.5270000100135803,0.0,1
1682371506.39870000,390868279,0,3,163524399,2259,16,0.7000000000000001,42.689994999999996,-84.4888155,260.74,0.03505709767341614,273.2705078125,-0.6160000562667847,0.0,1
1682371506.59862399,391068203,0,3,163524599,2259,16,0.7000000000000001,42.6899951,-84.4888155,260.85,0.10165137052536011,15.403423309326172,-0.7270000576972961,0.0,1
1682371506.79866791,391268247,0,3,163524799,2259,16,0.7000000000000001,42.689994999999996,-84.4888153,260.95,0.19860011339187622,143.18780517578125,-0.5509999990463257,0.0,1
1682371506.99876499,391468344,0,3,163524999,2259,16,0.7000000000000001,42.6899948,-84.4888151,261.02,0.04539823904633522,172.4053497314453,-0.6130000352859497,0.0,1
1682371507.19875097,391668330,0,3,163525199,2259,16,0.7000000000000001,42.6899948,-84.4888151,261.14,0.031112700700759888,135.0,-0.6200000047683716,0.0,1
1682371507.39894795,391868527,0,3,163525399,2259,16,0.7000000000000001,42.6899946,-84.4888151,261.27,0.14863714575767517,188.51171875,-0.6430000066757202,0.0,1
1682371507.59889507,392068474,0,3,163525599,2259,16,0.7000000000000001,42.6899945,-84.4888151,261.39,0.0590762235224247,213.9590606689453,-0.7740000486373901,0.0,1
1682371507.79893303,392268512,0,3,163525799,2259,16,0.7000000000000001,42.689994399999996,-84.48881519999999,261.53000000000003,0.04373785853385925,280.5391845703125,-0.6020000576972961,0.0,1
1682371507.99900794,392468587,0,3,163525999,2259,16,0.7000000000000001,42.689994399999996,-84.4888151,261.62,0.12688972055912018,96.7889633178711,-0.6760000586509705,0.0,1
1682371508.19902992,392668609,0,3,163526199,2259,16,0.7000000000000001,42.689994399999996,-84.488815,261.75,0.04248529300093651,243.43496704101562,-0.7720000147819519,0.0,1
1682371508.39861298,392868192,0,3,163526399,2259,16,0.7000000000000001,42.6899945,-84.4888151,261.89,0.14590750634670258,325.3296813964844,-0.687000036239624,0.0,1
1682371508.59868407,393068263,0,3,163526599,2259,16,0.7000000000000001,42.6899945,-84.48881519999999,261.96,0.08302409946918488,178.61964416503906,-0.4790000319480896,0.0,1
1682371508.79876208,393268341,0,3,163526799,2259,16,0.7000000000000001,42.689994399999996,-84.48881519999999,262.08,0.017000000923871994,61.927513122558594,-0.51500004529953,0.0,1
1682371508.99876714,393468346,0,3,163526999,2259,16,0.7000000000000001,42.6899945,-84.48881519999999,262.15,0.09800510853528976,0.5846304893493652,-0.5040000081062317,0.0,1
1682371509.19859505,393668174,0,3,163527199,2259,16,0.7000000000000001,42.6899946,-84.48881519999999,262.25,0.06171710044145584,229.60009765625,-0.5920000076293945,0.0,1
1682371509.39864802,393868227,0,3,163527399,2259,16,0.7000000000000001,42.6899945,-84.4888153,262.4,0.07184009999036789,231.21563720703125,-0.64000004529953,0.0,1
1682371509.57921600,394048795,0,3,163527599,2259,16,0.7000000000000001,42.689994399999996,-84.4888154,262.47,0.06661081314086914,305.837646484375,-0.659000039100647,0.0,1
1682371509.79875493,394268334,0,3,163527799,2259,16,0.7000000000000001,42.6899946,-84.4888154,262.61,0.14712239801883698,39.20719909667969,-0.6150000095367432,0.0,1
1682371509.99866700,394468246,0,3,163527999,2259,16,0.7000000000000001,42.6899948,-84.4888154,262.71,0.1947331577539444,325.2490234375,-0.5720000267028809,0.0,1
1682371510.19855809,394668137,0,3,163528199,2259,16,0.7000000000000001,42.689994899999995,-84.4888155,262.84000000000003,0.0846463218331337,165.63540649414062,-0.6540000438690186,0.0,1
1682371510.39865708,394868236,0,3,163528399,2259,16,0.7000000000000001,42.6899948,-84.4888154,262.92,0.05060632899403572,60.39554977416992,-0.4910000264644623,0.0,1
1682371510.59875607,395068335,0,3,163528599,2259,16,0.7000000000000001,42.689994899999995,-84.4888153,263.06,0.03354102000594139,26.56505012512207,-0.6710000038146973,0.0,1
1682371510.79908013,395268659,0,3,163528799,2259,16,0.7000000000000001,42.689994899999995,-84.4888153,263.13,0.07217340916395187,3.9724957942962646,-0.5470000505447388,0.0,1
1682371510.97876310,395448342,0,3,163528999,2259,16,0.7000000000000001,42.689994899999995,-84.48881519999999,263.26,0.10198039561510086,131.82015991210938,-0.527999997138977,0.0,1
1682371511.19888401,395668463,0,3,163529199,2259,16,0.7000000000000001,42.6899948,-84.488815,263.35,0.06512296944856644,86.47854614257812,-0.6920000314712524,0.0,1
1682371511.39902806,395868607,0,3,163529399,2259,16,0.7000000000000001,42.6899948,-84.48881469999999,263.45,0.13718600571155548,44.40933609008789,-0.5700000524520874,0.0,1
1682371511.59898710,396068566,0,3,163529599,2259,16,0.7000000000000001,42.689994899999995,-84.48881469999999,263.55,0.0671788677573204,225.6031036376953,-0.4090000092983246,0.0,1
1682371511.79909110,396268670,0,3,163529799,2259,16,0.7000000000000001,42.6899947,-84.48881469999999,263.62,0.07951100915670395,186.49935913085938,-0.33000001311302185,0.0,1
1682371512.01888990,396488469,0,3,163529999,2259,16,0.7000000000000001,42.6899946,-84.48881469999999,263.66,0.046227701008319855,51.14662551879883,-0.2970000207424164,0.0,1
1682371512.19895697,396668536,0,3,163530199,2259,16,0.7000000000000001,42.6899946,-84.4888146,263.68,0.02941088192164898,215.31121826171875,-0.03500000014901161,0.0,1
1682371512.39901805,396868597,0,3,163530399,2259,16,0.7000000000000001,42.6899945,-84.4888146,263.68,0.0070710680447518826,315.0,0.029000001028180122,0.0,1
1682371512.59910893,397068688,0,3,163530599,2259,16,0.7000000000000001,42.6899945,-84.4888146,263.65,0.007810249924659729,129.80557250976562,-0.0430000014603138,0.0,1
1682371512.79893208,397268511,0,3,163530799,2259,16,0.7000000000000001,42.689994399999996,-84.48881449999999,263.62,0.05889822170138359,130.17922973632812,0.01600000075995922,0.0,1
1682371512.99896097,397468540,0,3,163530999,2259,16,0.7000000000000001,42.6899942,-84.4888143,263.6,0.16752313077449799,146.68936157226562,0.03200000151991844,0.0,1
1682371513.19893503,397668514,0,3,163531199,2259,16,0.7000000000000001,42.689993799999996,-84.48881399999999,263.58,0.2726188004016876,143.80264282226562,0.04700000211596489,0.0,1
1682371513.39902091,397868600,0,3,163531399,2259,16,0.7000000000000001,42.6899933,-84.48881349999999,263.56,0.36807745695114136,147.08706665039062,0.1300000101327896,0.0,1
1682371513.59900999,398068589,0,3,163531599,2259,16,0.7000000000000001,42.6899926,-84.4888129,263.53000000000003,0.5134832262992859,147.4860076904297,0.11000000685453415,0.0,1
1682371513.79885411,398268433,0,3,163531799,2259,16,0.7000000000000001,42.6899917,-84.48881209999999,263.49,0.6309714913368225,146.30992126464844,0.10500000417232513,0.0,1
1682371513.99895096,398468530,0,3,163531999,2259,16,0.7000000000000001,42.689990699999996,-84.4888113,263.47,0.6454843878746033,147.2700958251953,0.01100000087171793,0.0,1
1682371514.19900513,398668584,0,3,163532199,2259,16,0.7000000000000001,42.6899896,-84.4888105,263.44,0.7465903162956238,155.80374145507812,0.13199999928474426,0.0,1
1682371514.39909601,398868675,0,3,163532399,2259,16,0.7000000000000001,42.689988299999996,-84.48880969999999,263.42,0.7091861367225647,156.83322143554688,-0.005000000353902578,0.0,1
1682371514.59891891,399068498,0,3,163532599,2259,16,0.7000000000000001,42.689987099999996,-84.4888091,263.41,0.7404053211212158,163.52310180664062,0.1120000034570694,0.0,1
1682371514.79891109,399268490,0,3,163532799,2259,16,0.7000000000000001,42.689985899999996,-84.4888086,263.37,0.6669348478317261,163.3583526611328,0.07700000703334808,0.0,1
1682371514.99895000,399468529,0,3,163532999,2259,16,0.7000000000000001,42.6899847,-84.4888082,263.36,0.6466135382652283,169.12449645996094,-0.06200000271201134,0.0,1
1682371515.19899797,399668577,0,3,163533199,2259,16,0.7000000000000001,42.6899835,-84.48880779999999,263.35,0.7074921131134033,169.65892028808594,0.036000002175569534,0.0,1
1682371515.39903903,399868618,0,3,163533399,2259,16,0.7000000000000001,42.689982199999996,-84.4888075,263.32,0.6957162022590637,172.65025329589844,0.09300000220537186,0.0,1
1682371515.59894300,400068522,0,3,163533599,2259,16,0.7000000000000001,42.689980999999996,-84.48880729999999,263.27,0.6477561593055725,170.04324340820312,0.08500000089406967,0.0,1
1682371515.79896092,400268540,0,3,163533799,2259,16,0.7000000000000001,42.6899799,-84.488807,263.27,0.655464768409729,170.78196716308594,0.058000002056360245,0.0,1
1682371515.99894094,400468520,0,3,163533999,2259,16,0.7000000000000001,42.6899788,-84.4888067,263.26,0.5946242809295654,168.6522674560547,-0.01100000087171793,0.0,1
1682371516.19905996,400668639,0,3,163534199,2259,16,0.7000000000000001,42.6899777,-84.4888064,263.24,0.628179132938385,168.24285888671875,0.09300000220537186,0.0,1
1682371516.39882612,400868405,0,3,163534399,2259,16,0.7000000000000001,42.6899765,-84.488806,263.22,0.6177451014518738,166.2336883544922,-0.0690000057220459,0.0,1
1682371516.59889007,401068469,0,3,163534599,2259,16,0.7000000000000001,42.6899754,-84.4888055,263.22,0.6488335728645325,158.57574462890625,-0.01600000075995922,0.0,1
1682371516.79890203,401268481,0,3,163534799,2259,16,0.7000000000000001,42.689974299999996,-84.48880489999999,263.22,0.6979147791862488,161.53907775878906,0.014000000432133675,0.0,1
1682371516.99894214,401468521,0,3,163534999,2259,16,0.7000000000000001,42.689973099999996,-84.4888043,263.21,0.6687458753585815,156.6551513671875,0.08400000631809235,0.0,1
1682371517.19886708,401668446,0,3,163535199,2259,16,0.7000000000000001,42.689972,-84.48880369999999,263.2,0.6692421436309814,159.5341339111328,-0.06800000369548798,0.0,1
1682371517.39881301,401868392,0,3,163535399,2259,16,0.7000000000000001,42.6899708,-84.48880299999999,263.18,0.7605294585227966,161.4459228515625,0.04400000348687172,0.0,1
1682371517.59890890,402068488,0,3,163535599,2259,16,0.7000000000000001,42.6899695,-84.4888024,263.18,0.7069123387336731,160.41159057617188,0.15200001001358032,0.0,1
1682371517.79899096,402268570,0,3,163535799,2259,16,0.7000000000000001,42.6899683,-84.48880179999999,263.14,0.7295677065849304,161.0435028076172,0.12000000476837158,0.0,1
1682371518.01862097,402488200,0,3,163535999,2259,16,0.7000000000000001,42.689966999999996,-84.4888012,263.14,0.7884796261787415,164.55368041992188,0.06300000101327896,0.0,1
1682371518.19891810,402668497,0,3,163536199,2259,16,0.7000000000000001,42.689965699999995,-84.48880059999999,263.13,0.7450664639472961,156.25613403320312,0.09600000083446503,0.0,1
1682371518.39897013,402868549,0,3,163536399,2259,16,0.7000000000000001,42.6899644,-84.4887998,263.09000000000003,0.8518809080123901,160.0973358154297,0.006000000052154064,0.0,1
1682371518.59870696,403068286,0,3,163536599,2259,16,0.7000000000000001,42.689963,-84.4887991,263.1,0.7314711809158325,158.59130859375,-0.005000000353902578,0.0,1
1682371518.79875493,403268334,0,3,163536799,2259,16,0.7000000000000001,42.6899619,-84.4887984,263.13,0.6810411214828491,155.3541259765625,0.010000000707805157,0.0,1
1682371518.99867702,403468256,0,3,163536999,2259,16,0.7000000000000001,42.6899607,-84.48879769999999,263.13,0.798233687877655,159.77159118652344,0.012000000104308128,0.0,1
1682371519.19857311,403668152,0,3,163537199,2259,16,0.7000000000000001,42.6899594,-84.48879699999999,263.14,0.7234700918197632,160.0371856689453,-0.09300000220537186,0.0,1
1682371519.39869308,403868272,0,3,163537399,2259,16,0.7000000000000001,42.6899581,-84.4887964,263.16,0.7551966905593872,162.1888427734375,-0.02200000174343586,0.0,1
1682371519.59875202,404068331,0,3,163537599,2259,16,0.7000000000000001,42.6899569,-84.48879579999999,263.16,0.7075055241584778,158.43919372558594,-0.14400000870227814,0.0,1
1682371519.79874992,404268329,0,3,163537799,2259,16,0.7000000000000001,42.6899556,-84.4887952,263.18,0.726068913936615,161.86448669433594,-0.08500000089406967,0.0,1
1682371519.99862695,404468206,0,3,163537999,2259,16,0.7000000000000001,42.6899543,-84.48879459999999,263.17,0.8121145963668823,162.14511108398438,0.11300000548362732,0.0,1
1682371520.21905398,404688633,0,3,163538199,2259,16,0.7000000000000001,42.689952999999996,-84.48879389999999,263.18,0.7257720828056335,156.18980407714844,0.004000000189989805,0.0,1
1682371520.39871097,404868290,0,3,163538399,2259,16,0.7000000000000001,42.689951799999996,-84.48879319999999,263.18,0.7769530415534973,159.9790802001953,0.04500000178813934,0.0,1
1682371520.59875512,405068334,0,3,163538599,2259,16,0.7000000000000001,42.689950599999996,-84.4887925,263.2,0.6812239289283752,156.5584259033203,-0.005000000353902578,0.0,1
1682371520.79866910,405268248,0,3,163538799,2259,16,0.7000000000000001,42.689949299999995,-84.4887918,263.2,0.8520663380622864,159.67218017578125,-0.07900000363588333,0.0,1
1682371520.99885607,405468435,0,3,163538999,2259,16,0.7000000000000001,42.6899479,-84.4887911,263.18,0.7416266202926636,157.06515502929688,0.0560000017285347,0.0,1
1682371521.19896102,405668540,0,3,163539199,2259,16,0.7000000000000001,42.6899467,-84.4887904,263.22,0.8017637133598328,162.58201599121094,-0.05300000309944153,0.0,1
1682371521.39899611,405868575,0,3,163539399,2259,16,0.7000000000000001,42.6899453,-84.4887897,263.22,0.751511812210083,158.0428466796875,-0.04500000178813934,0.0,1
1682371521.59909391,406068673,0,3,163539599,2259,16,0.7000000000000001,42.689944,-84.48878909999999,263.22,0.7801878452301025,162.23854064941406,-0.021000001579523087,0.0,1
1682371521.79891992,406268499,0,3,163539799,2259,16,0.7000000000000001,42.689942699999996,-84.4887885,263.25,0.7111863493919373,163.24673461914062,-0.0430000014603138,0.0,1
1682371521.99869013,406468269,0,3,163539999,2259,16,0.7000000000000001,42.689941499999996,-84.48878789999999,263.26,0.7002578377723694,159.52056884765625,-0.05300000309944153,0.0,1
1682371522.19869614,406668275,0,3,163540199,2259,16,0.7000000000000001,42.689940299999996,-84.4887873,263.27,0.7450651526451111,162.1000518798828,-0.1290000081062317,0.0,1
1682371522.39874697,406868326,0,3,163540399,2259,16,0.7000000000000001,42.689938999999995,-84.48878669999999,263.27,0.7417230606079102,158.90147399902344,-0.030000001192092896,0.0,1
1682371522.59866595,407068245,0,3,163540599,2259,16,0.7000000000000001,42.6899377,-84.48878599999999,263.29,0.7223911881446838,157.62417602539062,-0.007000000216066837,0.0,1
1682371522.79858303,407268162,0,3,163540799,2259,16,0.7000000000000001,42.689936499999995,-84.4887852,263.28000000000003,0.731197714805603,153.2597198486328,0.058000002056360245,0.0,1
1682371522.99868011,407468259,0,3,163540999,2259,16,0.7000000000000001,42.689935299999995,-84.48878429999999,263.27,0.7751025557518005,151.31874084472656,0.13300000131130219,0.0,1
1682371523.19874907,407668328,0,3,163541199,2259,16,0.7000000000000001,42.689934,-84.4887834,263.24,0.7723535299301147,153.79986572265625,0.07500000298023224,0.0,1
1682371523.39874697,407868326,0,3,163541399,2259,16,0.7000000000000001,42.6899327,-84.4887826,263.24,0.7988617420196533,158.25186157226562,0.049000002443790436,0.0,1
1682371523.59860110,408068180,0,3,163541599,2259,16,0.7000000000000001,42.6899314,-84.48878189999999,263.25,0.7462178468704224,156.6300048828125,0.08900000154972076,0.0,1
1682371523.79868197,408268261,0,3,163541799,2259,16,0.7000000000000001,42.6899302,-84.4887811,263.24,0.739191472530365,151.56272888183594,-0.024000000208616257,0.0,1
1682371524.01894712,408488526,0,3,163541999,2259,16,0.7000000000000001,42.689929,-84.4887803,263.26,0.7975287437438965,161.42872619628906,0.12400000542402267,0.0,1
1682371524.19875407,408668333,0,3,163542199,2259,16,0.7000000000000001,42.6899277,-84.4887796,263.25,0.705207109451294,155.3610382080078,-0.03400000184774399,0.0,1
1682371524.39902306,408868602,0,3,163542399,2259,16,0.7000000000000001,42.6899265,-84.4887789,263.25,0.7297835946083069,158.2860565185547,0.04400000348687172,0.0,1
1682371524.59885502,409068434,0,3,163542599,2259,16,0.7000000000000001,42.6899252,-84.48877809999999,263.24,0.794493556022644,159.05567932128906,0.05700000375509262,0.0,1
1682371524.79892993,409268509,0,3,163542799,2259,16,0.7000000000000001,42.6899239,-84.4887775,263.26,0.7347843647003174,159.44393920898438,-0.007000000216066837,0.0,1
1682371524.99902606,409468605,0,3,163542999,2259,16,0.7000000000000001,42.6899227,-84.4887767,263.24,0.6906033754348755,154.436767578125,0.10900000482797623,0.0,1
1682371525.19915295,409668732,0,3,163543199,2259,16,0.7000000000000001,42.6899215,-84.488776,263.24,0.7385458946228027,157.63673400878906,0.029000001028180122,0.0,1
1682371525.39902401,409868603,0,3,163543399,2259,16,0.7000000000000001,42.6899203,-84.4887753,263.27,0.7366987466812134,158.83404541015625,-0.017000000923871994,0.0,1
1682371525.59886694,410068446,0,3,163543599,2259,16,0.7000000000000001,42.6899192,-84.4887746,263.29,0.6946057081222534,154.3203125,0.010000000707805157,0.0,1
1682371525.79893613,410268515,0,3,163543799,2259,16,0.7000000000000001,42.6899179,-84.48877379999999,263.26,0.7504772543907166,159.72988891601562,-0.02500000037252903,0.0,1
1682371525.99900508,410468584,0,3,163543999,2259,16,0.7000000000000001,42.6899167,-84.4887732,263.31,0.7470616102218628,158.48342895507812,-0.07400000095367432,0.0,1
1682371526.19904494,410668624,0,3,163544199,2259,16,0.7000000000000001,42.689915299999996,-84.4887724,263.32,0.8228001594543457,159.36244201660156,-0.07400000095367432,0.0,1
1682371526.39884996,410868429,0,3,163544399,2259,16,0.7000000000000001,42.689914099999996,-84.4887717,263.33,0.6851715445518494,156.42807006835938,-0.055000003427267075,0.0,1
1682371526.59896898,411068548,0,3,163544599,2259,16,0.7000000000000001,42.689912899999996,-84.488771,263.35,0.7425476312637329,157.09521484375,0.07400000095367432,0.0,1
1682371526.79900312,411268582,0,3,163544799,2259,16,0.7000000000000001,42.689911699999996,-84.48877019999999,263.34000000000003,0.7220471501350403,154.92556762695312,0.03500000014901161,0.0,1
1682371526.99912190,411468701,0,3,163544999,2259,16,0.7000000000000001,42.689910499999996,-84.48876949999999,263.32,0.7457037568092346,160.9818878173828,0.04800000041723251,0.0,1
1682371527.19893694,411668516,0,3,163545199,2259,16,0.7000000000000001,42.6899093,-84.4887688,263.35,0.759871780872345,156.91030883789062,0.024000000208616257,0.0,1
1682371527.39896011,411868539,0,3,163545399,2259,16,0.7000000000000001,42.689907999999996,-84.488768,263.34000000000003,0.7485359311103821,151.68885803222656,0.02500000037252903,0.0,1
1682371527.59893298,412068512,0,3,163545599,2259,16,0.7000000000000001,42.689906799999996,-84.48876729999999,263.35,0.6779506206512451,163.1955108642578,-0.01100000087171793,0.0,1
1682371527.79900408,412268583,0,3,163545799,2259,16,0.7000000000000001,42.6899057,-84.4887668,263.37,0.6906765699386597,160.98789978027344,-0.05100000277161598,0.0,1
1682371528.01860309,412488182,0,3,163545999,2259,16,0.7000000000000001,42.6899045,-84.4887662,263.41,0.6717216968536377,158.9747314453125,-0.020000001415610313,0.0,1
1682371528.19894004,412668519,0,3,163546199,2259,16,0.7000000000000001,42.6899034,-84.4887655,263.44,0.6921452283859253,155.13812255859375,-0.08000000566244125,0.0,1
1682371528.39895606,412868535,0,3,163546399,2259,16,0.7000000000000001,42.6899022,-84.4887648,263.44,0.6930577158927917,160.17933654785156,0.012000000104308128,0.0,1
1682371528.59900594,413068585,0,3,163546599,2259,16,0.7000000000000001,42.689901,-84.4887641,263.45,0.7317137718200684,154.24038696289062,-0.04500000178813934,0.0,1
1682371528.79914093,413268720,0,3,163546799,2259,16,0.7000000000000001,42.6898998,-84.4887633,263.46,0.7526865601539612,153.9115447998047,0.021000001579523087,0.0,1
1682371528.99882603,413468405,0,3,163546999,2259,16,0.7000000000000001,42.6898985,-84.48876249999999,263.45,0.8520663380622864,159.67218017578125,0.05700000375509262,0.0,1
1682371529.19883394,413668413,0,3,163547199,2259,16,0.7000000000000001,42.689897099999996,-84.48876179999999,263.43,0.765506386756897,160.144775390625,0.04000000283122063,0.0,1
1682371529.39888811,413868467,0,3,163547399,2259,16,0.7000000000000001,42.689895799999995,-84.4887612,263.44,0.7690839171409607,163.92156982421875,-0.012000000104308128,0.0,1
1682371529.59894300,414068522,0,3,163547599,2259,16,0.7000000000000001,42.689894599999995,-84.48876059999999,263.47,0.6636415123939514,156.37062072753906,-0.003000000026077032,0.0,1
1682371529.79888606,414268465,0,3,163547799,2259,16,0.7000000000000001,42.6898935,-84.48875989999999,263.47,0.6994926929473877,155.59671020507812,-0.030000001192092896,0.0,1
1682371529.99880791,414468387,0,3,163547999,2259,16,0.7000000000000001,42.689892199999996,-84.4887591,263.46,0.886386513710022,161.58547973632812,0.032999999821186066,0.0,1
1682371530.21876502,414688344,0,3,163548199,2259,16,0.7000000000000001,42.6898908,-84.4887585,263.47,0.7028805017471313,163.80825805664062,0.026000000536441803,0.0,1
1682371530.39900494,414868584,0,3,163548399,2259,16,0.7000000000000001,42.6898896,-84.48875799999999,263.48,0.6841089129447937,157.93418884277344,-0.00800000037997961,0.0,1
1682371530.59911609,415068695,0,3,163548599,2259,16,0.7000000000000001,42.689888499999995,-84.4887573,263.48,0.6726909279823303,156.5218048095703,-0.0010000000474974513,0.0,1
1682371530.79893112,415268510,0,3,163548799,2259,16,0.7000000000000001,42.689887399999996,-84.4887566,263.49,0.6960208415985107,154.64990234375,0.12200000882148743,0.0,1
1682371530.99890399,415468483,0,3,163548999,2259,16,0.7000000000000001,42.6898862,-84.4887559,263.49,0.7020256519317627,161.56504821777344,-0.08300000429153442,0.0,1
1682371531.19893599,415668515,0,3,163549199,2259,16,0.7000000000000001,42.6898851,-84.4887552,263.49,0.7023218870162964,157.74411010742188,0.06100000441074371,0.0,1
1682371531.39901209,415868591,0,3,163549399,2259,16,0.7000000000000001,42.6898838,-84.4887545,263.48,0.7374097108840942,157.852294921875,-0.04400000348687172,0.0,1
1682371531.59901810,416068597,0,3,163549599,2259,16,0.7000000000000001,42.689882499999996,-84.4887538,263.49,0.837769091129303,160.7648162841797,-0.007000000216066837,0.0,1
1682371531.79885101,416268430,0,3,163549799,2259,16,0.7000000000000001,42.689881199999995,-84.48875319999999,263.48,0.7072800397872925,159.38705444335938,0.024000000208616257,0.0,1
1682371531.99868512,416468264,0,3,163549999,2259,16,0.7000000000000001,42.689879999999995,-84.48875249999999,263.5,0.7779461145401001,161.0992431640625,0.04400000348687172,0.0,1
1682371532.19876409,416668343,0,3,163550199,2259,16,0.7000000000000001,42.6898786,-84.4887518,263.49,0.8335905075073242,158.01988220214844,-0.010000000707805157,0.0,1
1682371532.39877105,416868350,0,3,163550399,2259,16,0.7000000000000001,42.6898772,-84.4887511,263.51,0.7927830815315247,161.5421905517578,-0.06300000101327896,0.0,1
1682371532.59861207,417068191,0,3,163550599,2259,16,0.7000000000000001,42.6898759,-84.4887505,263.5,0.7403736114501953,164.08648681640625,-0.08300000429153442,0.0,1
1682371532.79867005,417268249,0,3,163550799,2259,16,0.7000000000000001,42.6898747,-84.4887499,263.5,0.6767016053199768,157.6797332763672,0.0690000057220459,0.0,1
1682371532.99871492,417468294,0,3,163550999,2259,16,0.7000000000000001,42.6898736,-84.4887493,263.5,0.7165989279747009,158.1243438720703,-0.01100000087171793,0.0,1
1682371533.19882703,417668406,0,3,163551199,2259,16,0.7000000000000001,42.689872199999996,-84.4887486,263.5,0.8373828530311584,161.2621307373047,0.0010000000474974513,0.0,1
1682371533.39868093,417868260,0,3,163551399,2259,16,0.7000000000000001,42.689870899999995,-84.48874789999999,263.49,0.7844743728637695,160.1791229248047,0.018000001087784767,0.0,1
1682371533.59863997,418068219,0,3,163551599,2259,16,0.7000000000000001,42.6898696,-84.4887473,263.49,0.7570660710334778,163.26449584960938,0.11900000274181366,0.0,1
1682371533.79890203,418268481,0,3,163551799,2259,16,0.7000000000000001,42.689868399999995,-84.4887467,263.49,0.7193692326545715,160.00328063964844,0.06400000303983688,0.0,1
1682371533.99900603,418468585,0,3,163551999,2259,16,0.7000000000000001,42.6898671,-84.4887461,263.48,0.7077584266662598,160.9506378173828,-0.032999999821186066,0.0,1
1682371534.19907212,418668651,0,3,163552199,2259,16,0.7000000000000001,42.6898659,-84.4887454,263.5,0.7977493405342102,158.06521606445312,-0.032999999821186066,0.0,1
1682371534.39893508,418868514,0,3,163552399,2259,16,0.7000000000000001,42.6898646,-84.4887447,263.52,0.7444602251052856,155.05284118652344,-0.05300000309944153,0.0,1
1682371534.59890103,419068480,0,3,163552599,2259,16,0.7000000000000001,42.6898634,-84.4887439,263.49,0.7421651482582092,154.88516235351562,-0.03200000151991844,0.0,1
1682371534.79893708,419268516,0,3,163552799,2259,16,0.7000000000000001,42.6898621,-84.4887431,263.49,0.7552801370620728,160.50946044921875,0.046000003814697266,0.0,1
1682371534.99900198,419468581,0,3,163552999,2259,16,0.7000000000000001,42.6898609,-84.4887425,263.5,0.7345972061157227,161.58970642089844,0.0010000000474974513,0.0,1
1682371535.19900107,419668580,0,3,163553199,2259,16,0.7000000000000001,42.6898596,-84.4887419,263.5,0.742526113986969,159.83229064941406,-0.08100000023841858,0.0,1
1682371535.39862895,419868208,0,3,163553399,2259,16,0.7000000000000001,42.6898584,-84.48874119999999,263.53000000000003,0.7497653365135193,156.5806427001953,0.009000000543892384,0.0,1
1682371535.59867501,420068254,0,3,163553599,2259,16,0.7000000000000001,42.6898572,-84.48874049999999,263.54,0.6792761087417603,158.0419464111328,-0.058000002056360245,0.0,1
1682371535.79874802,420268327,0,3,163553799,2259,16,0.7000000000000001,42.689856,-84.48873979999999,263.52,0.7725497484207153,161.3539581298828,-0.007000000216066837,0.0,1
1682371536.01882100,420488400,0,3,163553999,2259,16,0.7000000000000001,42.6898547,-84.4887392,263.56,0.7366967797279358,157.57754516601562,-0.039000000804662704,0.0,1
1682371536.19860005,420668179,0,3,163554199,2259,16,0.7000000000000001,42.6898535,-84.4887385,263.55,0.7376408576965332,162.89154052734375,-0.03700000047683716,0.0,1
1682371536.39869094,420868270,0,3,163554399,2259,16,0.7000000000000001,42.6898522,-84.48873789999999,263.54,0.750210702419281,158.0851287841797,0.07500000298023224,0.0,1
1682371536.59871697,421068296,0,3,163554599,2259,16,0.7000000000000001,42.689851,-84.4887372,263.53000000000003,0.7003956437110901,157.05918884277344,0.04100000113248825,0.0,1
1682371536.79874802,421268327,0,3,163554799,2259,16,0.7000000000000001,42.6898498,-84.4887365,263.54,0.7748470902442932,154.956298828125,0.10500000417232513,0.0,1
1682371536.99868107,421468260,0,3,163554999,2259,16,0.7000000000000001,42.6898485,-84.48873569999999,263.52,0.8087552189826965,160.42242431640625,-0.06200000271201134,0.0,1
1682371537.19888496,421668464,0,3,163555199,2259,16,0.7000000000000001,42.6898471,-84.48873499999999,263.52,0.8267823457717896,159.61427307128906,0.015000000596046448,0.0,1
1682371537.39897108,421868550,0,3,163555399,2259,16,0.7000000000000001,42.6898457,-84.48873429999999,263.53000000000003,0.8300603032112122,158.07040405273438,0.10100000351667404,0.0,1
1682371537.59899306,422068572,0,3,163555599,2259,16,0.7000000000000001,42.6898445,-84.48873359999999,263.53000000000003,0.7088449001312256,155.49583435058594,0.03100000135600567,0.0,1
1682371537.79907203,422268651,0,3,163555799,2259,16,0.7000000000000001,42.6898432,-84.4887329,263.56,0.8364700078964233,163.25482177734375,-0.01600000075995922,0.0,1
1682371537.99893212,422468511,0,3,163555999,2259,16,0.7000000000000001,42.689841799999996,-84.4887323,263.58,0.7526998519897461,159.7112274169922,-0.06300000101327896,0.0,1
1682371538.19897199,422668551,0,3,163556199,2259,16,0.7000000000000001,42.6898406,-84.4887317,263.6,0.7371763586997986,162.2286834716797,-0.0860000029206276,0.0,1
1682371538.39896607,422868545,0,3,163556399,2259,16,0.7000000000000001,42.689839299999996,-84.4887311,263.62,0.729087769985199,158.8552703857422,-0.06800000369548798,0.0,1
1682371538.59900713,423068586,0,3,163556599,2259,16,0.7000000000000001,42.689838099999996,-84.4887305,263.62,0.714434802532196,162.4019775390625,0.006000000052154064,0.0,1
1682371538.79911613,423268695,0,3,163556799,2259,16,0.7000000000000001,42.689837,-84.48872999999999,263.63,0.6429253816604614,162.1568603515625,-0.05300000309944153,0.0,1
1682371538.99886799,423468447,0,3,163556999,2259,16,0.7000000000000001,42.6898359,-84.48872949999999,263.65,0.6361894607543945,163.1885986328125,-0.018000001087784767,0.0,1
1682371539.19894910,423668528,0,3,163557199,2259,16,0.7000000000000001,42.6898349,-84.4887291,263.63,0.43607914447784424,165.931884765625,0.049000002443790436,0.0,1
1682371539.39900398,423868583,0,3,163557399,2259,16,0.7000000000000001,42.6898343,-84.4887289,263.65,0.2737882435321808,168.1975555419922,-0.005000000353902578,0.0,1
1682371539.59906697,424068646,0,3,163557599,2259,16,0.7000000000000001,42.689833899999996,-84.48872879999999,263.66,0.1550290435552597,189.28005981445312,0.006000000052154064,0.0,1
1682371539.79891610,424268495,0,3,163557799,2259,16,0.7000000000000001,42.6898337,-84.4887289,263.66,0.10400000214576721,202.619873046875,-0.020000001415610313,0.0,1
1682371539.99891806,424468497,0,3,163557999,2259,16,0.7000000000000001,42.6898336,-84.48872899999999,263.67,0.05939697474241257,225.0,0.010000000707805157,0.0,1
1682371540.21882606,424688405,0,3,163558199,2259,16,0.7000000000000001,42.6898335,-84.4887291,263.67,0.03551056236028671,237.65255737304688,-0.06700000166893005,0.0,1
1682371540.39900994,424868589,0,3,163558399,2259,16,0.7000000000000001,42.6898335,-84.4887291,263.68,0.044407207518815994,215.83766174316406,0.017000000923871994,0.0,1
1682371540.59900999,425068589,0,3,163558599,2259,16,0.7000000000000001,42.6898333,-84.4887292,263.68,0.18690373003482819,191.7307891845703,-0.05300000309944153,0.0,1
1682371540.79894805,425268527,0,3,163558799,2259,16,0.7000000000000001,42.6898329,-84.4887293,263.66,0.2789193391799927,198.82472229003906,0.3700000047683716,0.0,1
1682371540.99897408,425468553,0,3,163558999,2259,16,0.7000000000000001,42.6898323,-84.4887296,263.62,0.4399864077568054,193.40457153320312,0.3840000033378601,0.0,1
1682371541.19893694,425668516,0,3,163559199,2259,16,0.7000000000000001,42.6898315,-84.4887299,263.55,0.5282887816429138,195.93051147460938,0.46400001645088196,0.0,1
1682371541.39905500,425868634,0,3,163559399,2259,16,0.7000000000000001,42.6898306,-84.48873019999999,263.45,0.5211842060089111,190.1671905517578,0.28700000047683716,0.0,1
1682371541.59881091,426068390,0,3,163559599,2259,16,0.7000000000000001,42.689829599999996,-84.4887305,263.4,0.627761960029602,199.15652465820312,0.5110000371932983,0.0,1
1682371541.79888105,426268460,0,3,163559799,2259,16,0.7000000000000001,42.6898287,-84.4887309,263.3,0.4872627854347229,194.37847900390625,0.37800002098083496,0.0,1
1682371542.01882696,426488406,0,3,163559999,2259,16,0.7000000000000001,42.6898279,-84.48873119999999,263.21,0.37550634145736694,188.88539123535156,0.4310000240802765,0.0,1
1682371542.19893909,426668518,0,3,163560199,2259,16,0.7000000000000001,42.689827199999996,-84.48873139999999,263.1,0.40221887826919556,195.28012084960938,0.5870000123977661,0.0,1
1682371542.39887810,426868457,0,3,163560399,2259,16,0.7000000000000001,42.6898267,-84.4887316,263.02,0.2566729485988617,200.7650604248047,0.3140000104904175,0.0,1
1682371542.59877491,427068354,0,3,163560599,2259,16,0.7000000000000001,42.6898263,-84.4887318,262.97,0.21547390520572662,203.23350524902344,0.2980000078678131,0.0,1
1682371542.79885411,427268433,0,3,163560799,2259,16,0.7000000000000001,42.6898261,-84.48873189999999,262.87,0.07273238897323608,198.43495178222656,0.4700000286102295,0.0,1
1682371542.99893403,427468513,0,3,163560999,2259,16,0.7000000000000001,42.689826,-84.488732,262.83,0.1089770644903183,222.76882934570312,0.31700000166893005,0.0,1
1682371543.19904304,427668622,0,3,163561199,2259,16,0.7000000000000001,42.6898258,-84.4887321,262.77,0.13309019804000854,172.661376953125,0.42100003361701965,0.0,1
1682371543.39882302,427868402,0,3,163561399,2259,16,0.7000000000000001,42.6898257,-84.488732,262.69,0.0360138900578022,1.5911401510238647,0.3840000033378601,0.0,1
1682371543.59885097,428068430,0,3,163561599,2259,16,0.7000000000000001,42.6898257,-84.4887321,262.6,0.0573846697807312,228.5323028564453,0.4240000247955322,0.0,1
1682371543.79887700,428268456,0,3,163561799,2259,16,0.7000000000000001,42.6898257,-84.4887322,262.54,0.012041594833135605,221.633544921875,0.37400001287460327,0.0,1
1682371544.01867795,428488257,0,3,163561999,2259,16,0.7000000000000001,42.6898257,-84.4887321,262.51,0.004472136031836271,63.4349479675293,0.29500001668930054,0.0,1
1682371544.19901609,428668595,0,3,163562199,2259,16,0.7000000000000001,42.6898257,-84.4887321,262.42,0.008062257431447506,119.744873046875,0.4020000100135803,0.0,1
1682371544.39885592,428868435,0,3,163562399,2259,16,0.7000000000000001,42.6898257,-84.4887321,262.28000000000003,0.0298328697681427,13.570433616638184,0.4820000231266022,0.0,1
1682371544.59892297,429068502,0,3,163562599,2259,16,0.7000000000000001,42.6898258,-84.4887321,262.23,0.04002499207854271,167.00537109375,0.3960000276565552,0.0,1
1682371544.79898405,429268563,0,3,163562799,2259,16,0.7000000000000001,42.6898258,-84.4887321,262.21,0.05748913064599037,13.069316864013672,0.24900001287460327,0.0,1
1682371544.99909711,429468676,0,3,163562999,2259,16,0.7000000000000001,42.6898258,-84.488732,262.14,0.04940648004412651,144.05789184570312,0.328000009059906,0.0,1
1682371545.19892192,429668501,0,3,163563199,2259,15,0.7000000000000001,42.6898258,-84.488732,262.01,0.021840332075953484,344.0545959472656,0.445000022649765,0.0,1
1682371545.39890099,429868480,0,3,163563399,2259,16,0.7000000000000001,42.6898258,-84.48873189999999,261.94,0.0298328697681427,129.55966186523438,0.4580000340938568,0.0,1
1682371545.59868693,430068266,0,3,163563599,2259,16,0.7000000000000001,42.6898258,-84.48873189999999,261.85,0.04716990888118744,32.00537872314453,0.398000031709671,0.0,1
1682371545.79874706,430268326,0,3,163563799,2259,16,0.7000000000000001,42.6898258,-84.4887318,261.75,0.018027756363153458,303.6900634765625,0.4830000102519989,0.0,1
1682371545.99867797,430468257,0,3,163563999,2259,16,0.7000000000000001,42.6898258,-84.4887318,261.66,0.04810405150055885,136.68467712402344,0.28200000524520874,0.0,1
1682371546.19862700,430668206,0,3,163564199,2259,16,0.7000000000000001,42.6898258,-84.4887318,261.61,0.019313208758831024,338.74951171875,0.3700000047683716,0.0,1
1682371546.39869499,430868274,0,3,163564399,2259,16,0.7000000000000001,42.6898258,-84.4887317,261.57,0.0430464893579483,149.26449584960938,0.16900001466274261,0.0,1
1682371546.59875894,431068338,0,3,163564599,2259,16,0.7000000000000001,42.6898258,-84.4887317,261.52,0.015811389312148094,145.30484008789062,0.0990000069141388,0.0,1
1682371546.79874802,431268327,0,3,163564799,2259,16,0.7000000000000001,42.6898258,-84.4887317,261.51,0.012649111449718475,108.43494415283203,0.14000000059604645,0.0,1
1682371546.99863100,431468210,0,3,163564999,2259,16,0.7000000000000001,42.6898258,-84.4887316,261.48,0.004242640919983387,45.0,0.09300000220537186,0.0,1
1682371547.19864511,431668224,0,3,163565199,2259,16,0.7000000000000001,42.6898258,-84.4887316,261.46,0.014035669155418873,85.91437530517578,0.15700000524520874,0.0,1
1682371547.39894891,431868528,0,3,163565399,2259,16,0.7000000000000001,42.6898258,-84.4887316,261.43,0.036878179758787155,192.52880859375,0.24700000882148743,0.0,1
1682371547.59874010,432068319,0,3,163565599,2259,16,0.7000000000000001,42.6898258,-84.4887316,261.39,0.032649654895067215,310.0302734375,0.16700001060962677,0.0,1
1682371547.79867196,432268251,0,3,163565799,2259,16,0.7000000000000001,42.689825899999995,-84.4887316,261.37,0.04219004884362221,31.4295654296875,0.16600000858306885,0.0,1
1682371548.01893592,432488515,0,3,163565999,2259,16,0.7000000000000001,42.689825899999995,-84.4887315,261.34000000000003,0.03801315650343895,116.5650405883789,0.1680000126361847,0.0,1
1682371548.19868612,432668265,0,3,163566199,2259,16,0.7000000000000001,42.689825899999995,-84.4887315,261.32,0.0427551195025444,190.78431701660156,0.24500000476837158,0.0,1
1682371548.39875698,432868336,0,3,163566399,2259,16,0.7000000000000001,42.6898258,-84.4887315,261.28000000000003,0.03982461616396904,151.5043487548828,0.1080000028014183,0.0,1
1682371548.59874606,433068325,0,3,163566599,2259,16,0.7000000000000001,42.6898258,-84.48873139999999,261.26,0.022472206503152847,110.85444641113281,0.06000000238418579,0.0,1
1682371548.79860306,433268182,0,3,163566799,2259,16,0.7000000000000001,42.6898258,-84.4887313,261.24,0.011045361869037151,84.8055648803711,0.08500000089406967,0.0,1
1682371548.99866509,433468244,0,3,163566999,2259,16,0.7000000000000001,42.6898258,-84.4887313,261.21,0.019416488707065582,325.4914855957031,0.03700000047683716,0.0,1
1682371549.19870996,433668289,0,3,163567199,2259,16,0.7000000000000001,42.6898258,-84.4887313,261.19,0.019416488707065582,191.888671875,0.11000000685453415,0.0,1
1682371549.39873910,433868318,0,3,163567399,2259,16,0.7000000000000001,42.6898258,-84.4887313,261.16,0.01612451672554016,262.875,0.14900000393390656,0.0,1
1682371549.59868312,434068262,0,3,163567599,2259,16,0.7000000000000001,42.689825899999995,-84.4887313,261.12,0.019723083823919296,239.53445434570312,0.2070000171661377,0.0,1
1682371549.79863095,434268210,0,3,163567799,2259,16,0.7000000000000001,42.689825899999995,-84.4887313,261.08,0.012000000104308128,90.0,0.21700000762939453,0.0,1
1682371549.99867296,434468252,0,3,163567999,2259,16,0.7000000000000001,42.689825899999995,-84.4887313,261.04,0.012165524996817112,9.462321281433105,0.1380000114440918,0.0,1
1682371550.19876695,434668346,0,3,163568199,2259,16,0.7000000000000001,42.689825899999995,-84.48873119999999,261.0,0.007810249924659729,320.1944274902344,0.20200000703334808,0.0,1
1682371550.37876296,434848342,0,3,163568399,2259,16,0.7000000000000001,42.689826,-84.4887313,260.96,0.02607681043446064,274.3987121582031,0.14300000667572021,0.0,1
1682371550.59895110,435068530,0,3,163568599,2259,16,0.7000000000000001,42.689826,-84.4887313,260.93,0.011704700998961926,199.9831085205078,0.10600000619888306,0.0,1
1682371550.79889297,435268472,0,3,163568799,2259,16,0.7000000000000001,42.689825899999995,-84.4887313,260.87,0.02765863575041294,220.60130310058594,0.23900000751018524,0.0,1
1682371550.99894810,435468527,0,3,163568999,2259,16,0.7000000000000001,42.689825899999995,-84.4887313,260.85,0.03858756273984909,148.78158569335938,0.1380000114440918,0.0,1
1682371551.19899797,435668577,0,3,163569199,2259,16,0.7000000000000001,42.689825899999995,-84.4887313,260.82,0.021931713446974754,223.15240478515625,0.09000000357627869,0.0,1
1682371551.39907002,435868649,0,3,163569399,2259,16,0.7000000000000001,42.6898258,-84.4887313,260.75,0.02408318966627121,138.366455078125,0.20600001513957977,0.0,1
1682371551.59887195,436068451,0,3,163569599,2259,16,0.7000000000000001,42.689825899999995,-84.4887313,260.71,0.07306162267923355,357.6466979980469,0.13300000131130219,0.0,1
1682371551.77857709,436248156,0,3,163569799,2259,16,0.7000000000000001,42.689825899999995,-84.4887313,260.68,0.04022437334060669,235.12466430664062,0.16200000047683716,0.0,1
1682371551.99902010,436468599,0,3,163569999,2259,16,0.7000000000000001,42.689825899999995,-84.4887313,260.63,0.03178049996495247,192.724365234375,0.1900000125169754,0.0,1
1682371552.19918203,436668761,0,3,163570199,2259,16,0.7000000000000001,42.689825899999995,-84.4887313,260.59000000000003,0.05325411260128021,34.28687286376953,0.16500000655651093,0.0,1
1682371552.39899993,436868579,0,3,163570399,2259,16,0.7000000000000001,42.689825899999995,-84.4887313,260.56,0.010198039934039116,258.6900634765625,0.2290000170469284,0.0,1
1682371552.59892511,437068504,0,3,163570599,2259,16,0.7000000000000001,42.6898258,-84.4887313,260.5,0.08620905131101608,183.9909210205078,0.2590000033378601,0.0,1
1682371552.79894304,437268522,0,3,163570799,2259,16,0.7000000000000001,42.6898257,-84.4887313,260.46,0.014035669155418873,265.9143981933594,0.13300000131130219,0.0,1
1682371552.99901009,437468589,0,3,163570999,2259,16,0.7000000000000001,42.6898257,-84.4887313,260.43,0.03138471022248268,329.3493347167969,0.14000000059604645,0.0,1
1682371553.17992997,437649509,0,3,163571199,2259,16,0.7000000000000001,42.6898257,-84.48873139999999,260.39,0.032649654895067215,297.3498840332031,0.1810000091791153,0.0,1
1682371553.37982106,437849400,0,3,163571399,2259,16,0.7000000000000001,42.6898257,-84.48873139999999,260.35,0.021023796871304512,205.34617614746094,0.23600001633167267,0.0,1
1682371553.57980990,438049389,0,3,163571599,2259,16,0.7000000000000001,42.6898256,-84.48873139999999,260.31,0.011704700998961926,160.0168914794922,0.09600000083446503,0.0,1
1682371553.79901600,438268595,0,3,163571799,2259,16,0.7000000000000001,42.6898256,-84.48873139999999,260.29,0.03801315650343895,305.3624572753906,0.15400001406669617,0.0,1
1682371553.99916101,438468740,0,3,163571999,2259,16,0.7000000000000001,42.6898256,-84.4887315,260.26,0.019416488707065582,281.888671875,0.12600000202655792,0.0,1
1682371554.19892502,438668504,0,3,163572199,2259,16,0.7000000000000001,42.6898256,-84.4887315,260.24,0.013601471669971943,323.9726257324219,0.1770000010728836,0.0,1
1682371554.39890790,438868487,0,3,163572399,2259,16,0.7000000000000001,42.6898257,-84.4887315,260.2,0.033105891197919846,25.016891479492188,0.13900001347064972,0.0,1
1682371554.57867002,439048249,0,3,163572599,2259,16,0.7000000000000001,42.6898257,-84.4887315,260.16,0.0298328697681427,50.440330505371094,-0.032999999821186066,0.0,1
1682371554.79896998,439268549,0,3,163572799,2259,16,0.7000000000000001,42.6898256,-84.48873139999999,260.16,0.07038465887308121,157.4427490234375,0.15000000596046448,0.0,1
1682371554.99888492,439468464,0,3,163572999,2259,16,0.7000000000000001,42.6898255,-84.4887313,260.14,0.08868484199047089,97.12501525878906,-0.19200000166893005,0.0,1
1682371555.19878006,439668359,0,3,163573199,2259,16,0.7000000000000001,42.6898255,-84.4887311,260.15,0.04410215839743614,93.9004898071289,0.046000003814697266,0.0,1
1682371555.39886212,439868441,0,3,163573399,2259,16,0.7000000000000001,42.6898255,-84.4887311,260.12,0.04401136562228203,271.30194091796875,0.06000000238418579,0.0,1
1682371555.59892702,440068506,0,3,163573599,2259,16,0.7000000000000001,42.6898255,-84.48873119999999,260.09000000000003,0.022360682487487793,206.56504821777344,0.006000000052154064,0.0,1
1682371555.79904699,440268626,0,3,163573799,2259,16,0.7000000000000001,42.6898254,-84.48873119999999,260.08,0.02927456423640251,7.8533124923706055,-0.0430000014603138,0.0,1
1682371555.99880695,440468386,0,3,163573999,2259,16,0.7000000000000001,42.6898255,-84.48873119999999,260.09000000000003,0.02284732088446617,246.80142211914062,0.07800000160932541,0.0,1
1682371556.19885612,440668435,0,3,163574199,2259,16,0.7000000000000001,42.6898254,-84.4887313,260.06,0.017000000923871994,28.072486877441406,-0.058000002056360245,0.0,1
1682371556.39889598,440868475,0,3,163574399,2259,16,0.7000000000000001,42.6898254,-84.48873119999999,260.06,0.0022360680159181356,153.43495178222656,-0.03200000151991844,0.0,1
1682371556.59893608,441068515,0,3,163574599,2259,16,0.7000000000000001,42.6898255,-84.48873119999999,260.06,0.027018513530492783,38.99099349975586,0.013000000268220901,0.0,1
1682371556.79900599,441268585,0,3,163574799,2259,16,0.7000000000000001,42.6898255,-84.48873119999999,260.04,0.04669047147035599,46.73570251464844,-0.06200000271201134,0.0,1
1682371556.99880409,441468383,0,3,163574999,2259,16,0.7000000000000001,42.6898255,-84.4887311,260.04,0.014212671667337418,129.28941345214844,0.02200000174343586,0.0,1
1682371557.17914391,441648723,0,3,163575199,2259,16,0.7000000000000001,42.6898255,-84.4887311,260.03000000000003,0.01664331741631031,237.2647705078125,0.03800000250339508,0.0,1
1682371557.39872098,441868300,0,3,163575399,2259,16,0.7000000000000001,42.6898255,-84.48873119999999,260.01,0.034669872373342514,236.76828002929688,0.03200000151991844,0.0,1
1682371557.59866405,442068243,0,3,163575599,2259,16,0.7000000000000001,42.6898255,-84.48873119999999,260.0,0.03500000014901161,36.86989974975586,-0.012000000104308128,0.0,1
1682371557.79855800,442268137,0,3,163575799,2259,16,0.7000000000000001,42.6898255,-84.48873119999999,260.01,0.021000001579523087,180.0,-0.015000000596046448,0.0,1
1682371557.99861097,442468190,0,3,163575999,2259,16,0.7000000000000001,42.6898254,-84.4887313,260.01,0.024331049993634224,189.4623260498047,0.046000003814697266,0.0,1
1682371558.19865513,442668234,0,3,163576199,2259,16,0.7000000000000001,42.6898254,-84.4887313,260.0,0.030016662552952766,1.9091523885726929,0.08100000023841858,0.0,1
1682371558.39865899,442868238,0,3,163576399,2259,16,0.7000000000000001,42.6898254,-84.4887313,259.97,0.03036445379257202,287.241455078125,0.0020000000949949026,0.0,1
1682371558.57912493,443048704,0,3,163576599,2259,16,0.7000000000000001,42.6898254,-84.48873139999999,259.97,0.036400552839040756,127.18470001220703,0.03700000047683716,0.0,1
1682371558.79854512,443268124,0,3,163576799,2259,16,0.7000000000000001,42.689825299999995,-84.4887313,259.98,0.025495098903775215,138.17982482910156,0.018000001087784767,0.0,1
1682371558.99862313,443468202,0,3,163576999,2259,16,0.7000000000000001,42.689825299999995,-84.4887313,259.97,0.03939543291926384,156.03750610351562,0.08300000429153442,0.0,1
1682371559.19869995,443668279,0,3,163577199,2259,16,0.7000000000000001,42.6898252,-84.4887313,259.94,0.015811389312148094,34.695152282714844,0.023000001907348633,0.0,1
1682371559.39869905,443868278,0,3,163577399,2259,16,0.7000000000000001,42.6898252,-84.4887313,259.94,0.019924860447645187,17.52556610107422,-0.0990000069141388,0.0,1
1682371559.59856200,444068141,0,3,163577599,2259,16,0.7000000000000001,42.6898252,-84.4887313,259.94,0.03178049996495247,24.145540237426758,-0.026000000536441803,0.0,1
1682371559.79862595,444268205,0,3,163577799,2259,16,0.7000000000000001,42.6898252,-84.48873119999999,259.96,0.024186773225665092,97.12501525878906,-0.039000000804662704,0.0,1
1682371559.99867702,444468256,0,3,163577999,2259,16,0.7000000000000001,42.6898251,-84.48873119999999,259.96,0.014560219831764698,195.94540405273438,0.005000000353902578,0.0,1
1682371560.19865799,444668237,0,3,163578199,2259,16,0.7000000000000001,42.689825,-84.48873119999999,259.97,0.018681542947888374,195.5241241455078,-0.0430000014603138,0.0,1
1682371560.39863491,444868214,0,3,163578399,2259,16,0.7000000000000001,42.689825,-84.4887311,259.97,0.013601470738649368,342.89727783203125,0.05100000277161598,0.0,1
1682371560.59853792,445068117,0,3,163578599,2259,16,0.7000000000000001,42.6898249,-84.48873119999999,259.97,0.030000001192092896,216.86990356445312,0.05700000375509262,0.0,1
1682371560.79887700,445268456,0,3,163578799,2259,16,0.7000000000000001,42.6898249,-84.4887311,259.97,0.031906113028526306,122.19572448730469,0.020000001415610313,0.0,1
1682371560.99894309,445468522,0,3,163578999,2259,16,0.7000000000000001,42.6898248,-84.4887311,259.98,0.0213775597512722,190.78431701660156,0.06599999964237213,0.0,1
1682371561.19870090,445668280,0,3,163579199,2259,16,0.7000000000000001,42.6898248,-84.488731,259.98,0.0382099486887455,353.9909973144531,-0.00800000037997961,0.0,1
1682371561.39855909,445868138,0,3,163579399,2259,16,0.7000000000000001,42.6898248,-84.488731,259.99,0.013341664336621761,102.9946060180664,0.010000000707805157,0.0,1
1682371561.59863591,446068215,0,3,163579599,2259,16,0.7000000000000001,42.689824699999996,-84.4887309,259.98,0.024738634005188942,14.036242485046387,-0.09300000220537186,0.0,1
1682371561.79868293,446268262,0,3,163579799,2259,16,0.7000000000000001,42.689824699999996,-84.4887309,260.0,0.02370654046535492,207.64598083496094,-0.006000000052154064,0.0,1
1682371561.99864912,446468228,0,3,163579999,2259,16,0.7000000000000001,42.689824699999996,-84.4887309,260.02,0.014422205276787281,236.3099365234375,0.07200000435113907,0.0,1
1682371562.19860291,446668182,0,3,163580199,2259,16,0.7000000000000001,42.6898246,-84.4887309,260.01,0.010630146600306034,221.18592834472656,0.01900000125169754,0.0,1
1682371562.39853406,446868113,0,3,163580399,2259,16,0.7000000000000001,42.6898246,-84.4887308,260.02,0.014142136089503765,188.13011169433594,0.046000003814697266,0.0,1
1682371562.59858203,447068161,0,3,163580599,2259,16,0.7000000000000001,42.6898245,-84.4887308,260.02,0.03176476061344147,151.8214111328125,0.046000003814697266,0.0,1
1682371562.79869509,447268274,0,3,163580799,2259,16,0.7000000000000001,42.6898245,-84.48873069999999,260.03000000000003,0.018000001087784767,180.0,-0.01100000087171793,0.0,1
1682371562.99868512,447468264,0,3,163580999,2259,16,0.7000000000000001,42.6898245,-84.4887306,260.05,0.02080865204334259,215.21759033203125,0.021000001579523087,0.0,1
1682371563.19854903,447668128,0,3,163581199,2259,16,0.7000000000000001,42.6898245,-84.4887306,260.07,0.03014962747693062,5.710592269897461,0.036000002175569534,0.0,1
1682371563.39863300,447868212,0,3,163581399,2259,16,0.7000000000000001,42.6898245,-84.4887305,260.07,0.022671569138765335,221.4236602783203,0.08000000566244125,0.0,1
1682371563.59866691,448068246,0,3,163581599,2259,16,0.7000000000000001,42.6898245,-84.4887305,260.08,0.013416407629847527,153.43495178222656,0.014000000432133675,0.0,1
1682371563.79864812,448268227,0,3,163581799,2259,16,0.7000000000000001,42.6898245,-84.4887304,260.1,0.0455411933362484,199.23068237304688,-0.02200000174343586,0.0,1
1682371563.97866201,448448241,0,3,163581999,2259,16,0.7000000000000001,42.6898244,-84.4887304,260.12,0.013928388245403767,291.0375061035156,-0.02500000037252903,0.0,1
1682371564.19882393,448668403,0,3,163582199,2259,16,0.7000000000000001,42.6898244,-84.4887303,260.13,0.018027756363153458,109.44002532958984,-0.0650000050663948,0.0,1
1682371564.39858294,448868162,0,3,163582399,2259,16,0.7000000000000001,42.6898244,-84.48873019999999,260.14,0.00800000037997961,90.0,-0.018000001087784767,0.0,1
1682371564.59893894,449068518,0,3,163582599,2259,16,0.7000000000000001,42.6898245,-84.4887301,260.17,0.01969771645963192,203.96249389648438,0.024000000208616257,0.0,1
1682371564.79904795,449268627,0,3,163582799,2259,16,0.7000000000000001,42.6898244,-84.48872999999999,260.19,0.015556350350379944,135.0,-0.005000000353902578,0.0,1
1682371564.99882793,449468407,0,3,163582999,2259,16,0.7000000000000001,42.6898244,-84.4887299,260.21,0.012649111449718475,251.5650634765625,0.046000003814697266,0.0,1
1682371565.19887304,449668452,0,3,163583199,2259,16,0.7000000000000001,42.6898245,-84.4887298,260.22,0.023021729663014412,325.6196594238281,0.023000001907348633,0.0,1
1682371565.37861109,449848190,0,3,163583399,2259,16,0.7000000000000001,42.6898245,-84.4887297,260.25,0.006403124891221523,141.34017944335938,0.01900000125169754,0.0,1
1682371565.59895396,450068533,0,3,163583599,2259,16,0.7000000000000001,42.6898245,-84.4887296,260.26,0.02416609413921833,155.5560302734375,-0.04100000113248825,0.0,1
1682371565.79887700,450268456,0,3,163583799,2259,16,0.7000000000000001,42.6898245,-84.48872949999999,260.28000000000003,0.019209373742341995,51.34019088745117,-0.07900000363588333,0.0,1
1682371566.01863098,450488210,0,3,163583999,2259,16,0.7000000000000001,42.6898245,-84.4887293,260.31,0.027802878990769386,142.30575561523438,0.018000001087784767,0.0,1
1682371566.19889212,450668471,0,3,163584199,2259,16,0.7000000000000001,42.6898244,-84.4887292,260.33,0.03668787330389023,197.44720458984375,0.0,0.0,1
1682371566.39896798,450868547,0,3,163584399,2259,16,0.7000000000000001,42.6898244,-84.4887292,260.33,0.01345362514257431,318.0127868652344,-0.010000000707805157,0.0,1
1682371566.59902406,451068603,0,3,163584599,2259,16,0.7000000000000001,42.6898244,-84.4887291,260.34000000000003,0.03330165147781372,138.6522216796875,-0.11800000816583633,0.0,1
1682371566.77918506,451248764,0,3,163584799,2259,16,0.7000000000000001,42.6898244,-84.48872899999999,260.37,0.01303840521723032,184.39871215820312,-0.026000000536441803,0.0,1
1682371566.99885201,451468431,0,3,163584999,2259,16,0.7000000000000001,42.6898244,-84.48872899999999,260.38,0.033955853432416916,346.3730163574219,-0.02200000174343586,0.0,1
1682371567.19889092,451668470,0,3,163585199,2259,16,0.7000000000000001,42.6898244,-84.4887289,260.39,0.016401220113039017,52.43140411376953,0.04400000348687172,0.0,1
1682371567.39896798,451868547,0,3,163585399,2259,16,0.7000000000000001,42.6898244,-84.48872879999999,260.4,0.017117243260145187,83.29015350341797,-0.0560000017285347,0.0,1
1682371567.59919190,452068771,0,3,163585599,2259,16,0.7000000000000001,42.6898245,-84.4887287,260.42,0.009055386297404766,353.6598205566406,0.07100000232458115,0.0,1
1682371567.79853201,452268111,0,3,163585799,2259,16,0.7000000000000001,42.6898245,-84.4887286,260.44,0.007615773007273674,66.80140686035156,-0.0020000000949949026,0.0,1
1682371567.99883509,452468414,0,3,163585999,2259,16,0.7000000000000001,42.6898245,-84.4887285,260.45,0.026870058849453926,135.0,0.06000000238418579,0.0,1
1682371568.19890308,452668482,0,3,163586199,2259,16,0.7000000000000001,42.6898245,-84.4887285,260.46,0.015811389312148094,214.69515991210938,-0.05900000408291817,0.0,1
1682371568.39898992,452868569,0,3,163586399,2259,16,0.7000000000000001,42.6898245,-84.4887284,260.49,0.015811389312148094,34.695152282714844,0.00800000037997961,0.0,1
1682371568.59876895,453068348,0,3,163586599,2259,16,0.7000000000000001,42.6898245,-84.48872829999999,260.5,0.0070710680447518826,45.0,0.02200000174343586,0.0,1
1682371568.79882598,453268405,0,3,163586799,2259,16,0.7000000000000001,42.6898245,-84.48872829999999,260.5,0.03106445074081421,326.82147216796875,0.04200000315904617,0.0,1
1682371568.99885201,453468431,0,3,163586999,2259,16,0.7000000000000001,42.6898245,-84.4887282,260.52,0.016401220113039017,142.431396484375,0.003000000026077032,0.0,1
1682371569.19889498,453668474,0,3,163587199,2259,16,0.7000000000000001,42.6898245,-84.4887281,260.54,0.015811389312148094,198.43495178222656,0.01600000075995922,0.0,1
1682371569.39884591,453868425,0,3,163587399,2259,16,0.7000000000000001,42.6898245,-84.4887281,260.54,0.028425343334674835,219.28941345214844,0.08300000429153442,0.0,1
1682371569.59870291,454068282,0,3,163587599,2259,16,0.7000000000000001,42.6898245,-84.4887281,260.56,0.007280109915882349,254.0546112060547,-0.03500000014901161,0.0,1
1682371569.79882503,454268404,0,3,163587799,2259,16,0.7000000000000001,42.6898245,-84.4887281,260.57,0.03780211880803108,322.5238037109375,-0.06800000369548798,0.0,1
1682371569.99890304,454468482,0,3,163587999,2259,16,0.7000000000000001,42.6898246,-84.4887281,260.59000000000003,0.013601471669971943,126.0273666381836,0.05100000277161598,0.0,1
1682371570.19900107,454668580,0,3,163588199,2259,16,0.7000000000000001,42.6898246,-84.488728,260.6,0.016278820112347603,42.51044464111328,-0.023000001907348633,0.0,1
1682371570.39914107,454868720,0,3,163588399,2259,16,0.7000000000000001,42.6898246,-84.4887279,260.62,0.02385372295975685,146.97613525390625,-0.003000000026077032,0.0,1
1682371570.59857702,455068156,0,3,163588599,2259,16,0.7000000000000001,42.6898246,-84.4887279,260.63,0.015811389312148094,235.30484008789062,-0.03200000151991844,0.0,1
1682371570.77906990,455248649,0,3,163588799,2259,16,0.7000000000000001,42.6898246,-84.4887279,260.65,0.008944272063672543,26.56505012512207,-0.02800000086426735,0.0,1
1682371570.99868011,455468259,0,3,163588999,2259,16,0.7000000000000001,42.689824699999996,-84.48872779999999,260.65,0.019416488707065582,11.888657569885254,-0.01600000075995922,0.0,1
1682371571.19863892,455668218,0,3,163589199,2259,16,0.7000000000000001,42.689824699999996,-84.48872779999999,260.65,0.006324555724859238,288.4349365234375,-0.04700000211596489,0.0,1
1682371571.39857793,455868157,0,3,163589399,2259,16,0.7000000000000001,42.689824699999996,-84.48872779999999,260.68,0.009219544008374214,229.39871215820312,0.03800000250339508,0.0,1
1682371571.57910609,456048685,0,3,163589599,2259,16,0.7000000000000001,42.6898248,-84.48872779999999,260.68,0.014317820779979229,294.775146484375,-0.03200000151991844,0.0,1
1682371571.79872608,456268305,0,3,163589799,2259,16,0.7000000000000001,42.6898248,-84.48872779999999,260.7,0.013000000268220901,180.0,-0.032999999821186066,0.0,1
1682371571.99870992,456468289,0,3,163589999,2259,16,0.7000000000000001,42.689824699999996,-84.48872779999999,260.71,0.03298484534025192,165.9637451171875,-0.06599999964237213,0.0,1
