timestamp,TimeUS,C,Roll,Pitch,Yaw,VN,VE,VD,dPD,PN,PE,PD,GX,GY,GZ,OH
1682371501.83833408,386307913,2,-0.04,-0.14,191.47,0.007678482681512833,-0.007571358699351549,-0.024098511785268784,0.01400460209697485,17.039451599121094,-5.449509143829346,0.04353107511997223,-0.02,0.03,0.0,260.89
1682371501.93831396,386407893,2,-0.04,-0.14,191.47,0.00677822669968009,-0.006438747979700565,-0.025076348334550858,0.003985223360359669,17.04037094116211,-5.4491376876831055,0.043122485280036926,-0.02,0.03,0.0,260.89
1682371502.03832912,386507908,2,-0.04,-0.13,191.47,0.0074198259972035885,-0.0064238072372972965,-0.025092611089348793,-0.004819591995328665,17.041458129882812,-5.449230670928955,0.04252143204212189,-0.02,0.03,0.0,260.89
1682371502.13834310,386607922,2,-0.04,-0.14,191.47,0.008187824860215187,-0.007022867910563946,-0.024726033210754395,-0.008712675422430038,17.042865753173828,-5.449898719787598,0.041603341698646545,-0.02,0.03,0.0,260.89
1682371502.23835111,386707930,2,-0.04,-0.14,191.47,0.00880403071641922,-0.005769683048129082,-0.024220379069447517,-0.006346816197037697,17.04437828063965,-5.450084686279297,0.041564926505088806,-0.02,0.03,0.0,260.89
1682371502.33832812,386807907,2,-0.04,-0.13,191.47,0.008946382440626621,-0.003949818201363087,-0.022840993478894234,0.012391038239002228,17.04604721069336,-5.449475288391113,0.04274053871631622,-0.02,0.03,0.0,260.89
1682371502.43829894,386907878,2,-0.04,-0.13,191.47,0.009697665460407734,-0.002138125477358699,-0.021036941558122635,0.005959170404821634,17.047739028930664,-5.448741436004639,0.04215501248836517,-0.02,0.03,0.0,260.89
1682371502.53830194,387007881,2,-0.04,-0.13,191.47,0.010413718409836292,-0.0010041173081845045,-0.02125091478228569,-0.017245693132281303,17.04966926574707,-5.447819232940674,0.04054094851016998,-0.02,0.03,0.0,260.89
1682371502.63830400,387107883,2,-0.05,-0.13,191.47,0.011037783697247505,-0.0005423631519079208,-0.02187344990670681,-0.022605350241065025,17.051671981811523,-5.447398662567139,0.03844718635082245,-0.02,0.03,0.0,260.89
1682371502.73833203,387207911,2,-0.05,-0.13,191.47,0.011712015606462955,-0.0008134377421811223,-0.022507769986987114,-0.03795124962925911,17.05392837524414,-5.447720527648926,0.034997209906578064,-0.02,0.03,0.0,260.89
1682371502.83831000,387307889,2,-0.05,-0.13,191.47,0.011775613762438297,-0.0014787784311920404,-0.024293940514326096,-0.05022614449262619,17.056114196777344,-5.448060989379883,0.030339883640408516,-0.02,0.03,0.0,260.89
1682371502.93834496,387407924,2,-0.05,-0.12,191.46,0.01223968155682087,-0.0022066268138587475,-0.02502821758389473,-0.05714790150523186,17.058074951171875,-5.448453426361084,0.025435375049710274,-0.02,0.03,0.0,260.89
1682371503.03831005,387507889,2,-0.05,-0.12,191.47,0.01305228378623724,-0.0026243312750011683,-0.02516721561551094,-0.047520410269498825,17.059696197509766,-5.449029445648193,0.021188782528042793,-0.02,0.03,0.0,260.89
1682371503.13834310,387607922,2,-0.05,-0.12,191.48000000000002,0.012150738388299942,-0.0033616586588323116,-0.02479778416454792,-0.04339989274740219,17.06073760986328,-5.449795722961426,0.017076926305890083,-0.02,0.03,0.0,260.89
1682371503.23833203,387707911,2,-0.05,-0.13,191.48000000000002,0.011076304130256176,-0.002972861984744668,-0.025001810863614082,-0.029600871726870537,17.061748504638672,-5.450144290924072,0.014666484668850899,-0.02,0.03,0.0,260.89
1682371503.33830214,387807881,2,-0.05,-0.12,191.48000000000002,0.011334718205034733,-0.0015832788776606321,-0.025596756488084793,-0.010517369955778122,17.062938690185547,-5.449800491333008,0.01325114257633686,-0.02,0.03,0.0,260.89
1682371503.43830013,387907879,2,-0.05,-0.12,191.48000000000002,0.011346658691763878,-0.0003423395100980997,-0.024740731343626976,0.0002868975861929357,17.064237594604492,-5.449122428894043,0.012901948764920235,-0.02,0.03,0.0,260.89
1682371503.53832006,388007899,2,-0.05,-0.11,191.47,0.011431526392698288,0.001961933448910713,-0.02434246987104416,0.008648356422781944,17.065736770629883,-5.447897434234619,0.013059364631772041,-0.02,0.03,0.0,260.89
1682371503.63834500,388107924,2,-0.05,-0.11,191.47,0.008601444773375988,0.003324777353554964,-0.023151665925979614,0.005481437314301729,17.06563377380371,-5.446994781494141,0.012793974950909615,-0.02,0.03,0.0,260.89
1682371503.73830795,388207887,2,-0.05,-0.1,191.48000000000002,0.0036829132586717606,0.0031210414599627256,-0.022257152944803238,0.0007066672551445663,17.06307029724121,-5.446686744689941,0.0126792062073946,-0.02,0.03,0.0,260.89
1682371503.83833504,388307914,2,-0.05,-0.1,191.48000000000002,0.0005486207082867622,0.0026302083861082792,-0.0217952448874712,-0.004934471566230059,17.06122589111328,-5.4467244148254395,0.011525200679898262,-0.02,0.03,0.0,260.89
1682371503.93831897,388407898,2,-0.05,-0.1,191.48000000000002,-3.918519723811187e-05,0.0008382908999919891,-0.021338045597076416,-0.023743990808725357,17.060564041137695,-5.447360515594482,0.009306924417614937,-0.02,0.03,0.0,260.89
1682371504.03835106,388507930,2,-0.05,-0.1,191.48000000000002,-0.0005180345033295453,0.00044531672028824687,-0.02097601443529129,-0.022193729877471924,17.059934616088867,-5.447758674621582,0.007530497387051582,-0.02,0.03,0.0,260.89
1682371504.13833094,388607910,2,-0.05,-0.09,191.48000000000002,-0.0010419494938105345,0.0012369467876851559,-0.021817484870553017,-0.021745305508375168,17.059396743774414,-5.447720050811768,0.005743520334362984,-0.02,0.03,0.0,260.89
1682371504.23830795,388707887,2,-0.05,-0.09,191.48000000000002,-0.002994364593178034,0.0014002106618136168,-0.02169463224709034,-0.01318452786654234,17.05853271484375,-5.447532653808594,0.004901038482785225,-0.02,0.03,0.0,260.89
1682371504.33830500,388807884,2,-0.05,-0.09,191.48000000000002,-0.0036087119951844215,0.0011250099632889032,-0.02094176784157753,0.00014795895549468696,17.0573673248291,-5.447268009185791,0.004741357639431953,-0.02,0.03,0.0,260.89
1682371504.43831992,388907899,2,-0.05,-0.09,191.48000000000002,-0.001379032852128148,0.00046595200547017157,-0.01961894892156124,-0.008598302491009235,17.058547973632812,-5.447210311889648,0.0027761925011873245,-0.02,0.03,0.0,260.89
1682371504.53833890,389007918,2,-0.05,-0.1,191.48000000000002,0.002682797610759735,-0.0005864851991645992,-0.018914615735411644,-0.02321355789899826,17.061738967895508,-5.447364807128906,0.0007918048650026321,-0.02,0.03,0.0,260.89
1682371504.63830590,389107885,2,-0.05,-0.1,191.48000000000002,0.00828587543219328,-0.001972925616428256,-0.01870785839855671,-0.018329521641135216,17.065448760986328,-5.447251796722412,-0.0006411205977201462,-0.02,0.03,0.0,260.89
1682371504.73833394,389207913,2,-0.05,-0.1,191.49,0.009162927977740765,0.00038843200309202075,-0.018697556108236313,-0.006727080326527357,17.069595336914062,-5.446929931640625,-0.0009602140635251999,-0.02,0.03,0.0,260.89
1682371504.83836913,389307948,2,-0.05,-0.1,191.48000000000002,0.015361098572611809,-0.0007253829971887171,-0.0173000730574131,0.0039710490964353085,17.072669982910156,-5.446419715881348,-0.0009068679064512253,-0.02,0.03,0.0,260.89
1682371504.93835211,389407931,2,-0.07,-0.1,191.46,0.011200112290680408,-0.0003433835518080741,-0.01726623997092247,0.0025280932895839214,17.074745178222656,-5.446040630340576,-0.0012140106409788132,-0.02,0.03,0.0,260.89
1682371505.03834105,389507920,2,-0.06,-0.1,191.49,0.014056921936571598,-0.00025123474188148975,-0.017094476148486137,0.003080588998273015,17.076374053955078,-5.445248603820801,-0.0007847379893064499,-0.02,0.03,0.0,260.89
1682371505.13831091,389607890,2,-0.08,-0.11,191.49,0.008809632621705532,0.007370047736912966,-0.014576145447790623,0.011393768712878227,17.077747344970703,-5.444536209106445,8.7786465883255e-06,-0.02,0.03,0.0,260.89
1682371505.23831010,389707889,2,-0.05,-0.13,191.44,0.006529071368277073,0.02338664047420025,-0.011640935204923153,0.013670277781784534,17.07973861694336,-5.443126678466797,0.0006784964352846146,-0.02,0.03,0.0,260.89
1682371505.33833814,389807917,2,-0.17,-0.2,191.51,-0.002446466591209173,0.014524092897772789,-0.033114831894636154,-0.009649942629039288,17.081668853759766,-5.441378116607666,0.0007209945470094681,-0.02,0.03,0.0,260.89
1682371505.43835807,389907937,2,0.07,-0.26,191.43,-0.03046516142785549,0.012108338065445423,-0.109072245657444,-0.09016173332929611,17.080469131469727,-5.437861919403076,-0.005164695903658867,-0.02,0.03,0.0,260.89
1682371505.53831792,390007897,2,0.35000000000000003,0.58,191.3,0.0018221283098682761,0.004497405607253313,-0.21073223650455475,-0.2230764627456665,17.079662322998047,-5.434706687927246,-0.023702098056674004,-0.02,0.03,0.0,260.89
1682371505.63835096,390107930,2,0.37,0.7000000000000001,191.19,-0.011439293622970581,-0.0044660381972789764,-0.2763479948043823,-0.324601411819458,17.07907485961914,-5.432868480682373,-0.05319391191005707,-0.02,0.03,0.0,260.89
1682371505.73830700,390207886,2,0.34,0.4,191.0,-0.007258958648890257,-0.014232196845114231,-0.34035274386405945,-0.421523779630661,17.07845115661621,-5.432915210723877,-0.09081612527370453,-0.02,0.03,0.0,260.89
1682371505.83834910,390307928,2,0.09,0.45,190.82,-0.004879639949649572,0.007492702919989824,-0.43764013051986694,-0.5356165170669556,17.07798194885254,-5.432284355163574,-0.1400485783815384,-0.02,0.03,0.0,260.89
1682371505.93834305,390407922,2,-0.02,0.24,190.64000000000001,-0.011566240340471268,-0.008294974453747272,-0.48456376791000366,-0.6147511005401611,17.07672119140625,-5.431591510772705,-0.1976376473903656,-0.02,0.03,0.0,260.89
1682371506.03832293,390507902,2,-0.13,0.14,190.46,-0.014801583252847195,-0.0062446570955216885,-0.5496365427970886,-0.6477017998695374,17.075529098510742,-5.431454658508301,-0.2579539120197296,-0.02,0.03,0.0,260.89
1682371506.13830495,390607884,2,-0.45,0.18,190.29,-0.028844913467764854,0.004761478863656521,-0.6045156121253967,-0.7021800875663757,17.07483673095703,-5.431448459625244,-0.32493025064468384,-0.02,0.03,0.0,260.89
1682371506.23831296,390707892,2,-0.31,0.28,190.12,-0.029819941148161888,0.004008767195045948,-0.6496003866195679,-0.7126765847206116,17.071731567382812,-5.429676532745361,-0.3925180435180664,-0.02,0.03,0.0,260.89
1682371506.33836913,390807948,2,0.17,0.65,189.99,-0.03533843532204628,0.01719997264444828,-0.653449535369873,-0.6818108558654785,17.067350387573242,-5.426497936248779,-0.4605010151863098,-0.02,0.03,0.0,260.89
1682371506.43830991,390907889,2,0.39,1.0,189.88,-0.037278708070516586,0.020673323422670364,-0.650769054889679,-0.6616213917732239,17.064373016357422,-5.42367696762085,-0.5284220576286316,-0.02,0.03,0.0,260.89
1682371506.53834605,391007925,2,0.72,1.18,189.8,-0.025545969605445862,0.02800925262272358,-0.6791151165962219,-0.7175347208976746,17.062864303588867,-5.422084808349609,-0.6021121144294739,-0.02,0.03,0.0,260.89
1682371506.63838196,391107961,2,0.68,1.11,189.77,-0.022657714784145355,0.016661014407873154,-0.6735801696777344,-0.7539381384849548,17.065610885620117,-5.419913291931152,-0.678588330745697,-0.02,0.02,0.0,260.89
1682371506.73835111,391207930,2,0.68,0.97,189.77,-0.012982912361621857,0.027581920847296715,-0.6766741275787354,-0.7625420689582825,17.071828842163086,-5.4177680015563965,-0.7528485059738159,-0.02,0.02,0.0,260.89
1682371506.83833814,391307917,2,0.54,0.6900000000000001,189.82,-0.010640796273946762,0.02151247300207615,-0.6801748871803284,-0.6847100853919983,17.07268714904785,-5.4123663902282715,-0.8171823024749756,-0.02,0.03,0.0,260.89
1682371506.93831396,391407893,2,0.5,0.45,189.91,-0.015044180676341057,0.029620539397001266,-0.6534545421600342,-0.5600717663764954,17.069372177124023,-5.404649257659912,-0.8778541684150696,-0.02,0.03,0.0,260.89
1682371507.03830600,391507885,2,0.78,0.62,190.05,-0.0237000472843647,0.036821331828832626,-0.6733407378196716,-0.5434890985488892,17.065624237060547,-5.3988118171691895,-0.9344908595085144,-0.02,0.03,0.0,260.89
1682371507.13835502,391607934,2,0.7000000000000001,0.75,190.18,-0.018541211262345314,0.01964634470641613,-0.6631413102149963,-0.5013362765312195,17.061302185058594,-5.394468784332275,-0.9889635443687439,-0.02,0.03,0.0,260.89
1682371507.23835111,391707930,2,0.75,1.01,190.34,-0.016246946528553963,0.027451708912849426,-0.6680414080619812,-0.49015095829963684,17.057462692260742,-5.390578746795654,-1.0394673347473145,-0.02,0.03,0.0,260.89
1682371507.33830905,391807888,2,0.73,1.09,190.47,-0.02249869704246521,0.03475954011082649,-0.6658437252044678,-0.49109315872192383,17.0543212890625,-5.387176513671875,-1.09127938747406,-0.02,0.03,0.0,260.89
1682371507.43833804,391907917,2,0.8300000000000001,1.05,190.62,-0.01897328346967697,0.015329715795814991,-0.6819581985473633,-0.56132572889328,17.04904556274414,-5.38514518737793,-1.148451566696167,-0.02,0.03,0.0,260.89
1682371507.53837013,392007949,2,0.92,1.04,190.76,-0.0099177910014987,0.005473201163113117,-0.6959130167961121,-0.6363139152526855,17.041027069091797,-5.3852643966674805,-1.210687518119812,-0.02,0.03,0.0,260.89
1682371507.63835406,392107933,2,0.93,1.26,190.89000000000001,-0.005946601741015911,0.007793942000716925,-0.6850149035453796,-0.6943457722663879,17.034732818603516,-5.386674404144287,-1.279747486114502,-0.02,0.03,0.0,260.89
1682371507.73833609,392207915,2,0.79,1.27,191.01,-0.007681382354348898,0.000611029623541981,-0.6946604251861572,-0.7783170342445374,17.029525756835938,-5.38946533203125,-1.3553403615951538,-0.02,0.03,0.0,260.89
1682371507.83830690,392307886,2,0.58,1.33,191.09,-0.00234173028729856,0.008175619877874851,-0.7022526264190674,-0.7880363464355469,17.027023315429688,-5.393247127532959,-1.4309520721435547,-0.02,0.03,0.0,260.89
1682371507.93831205,392407891,2,0.39,1.3,191.17000000000002,0.006719733588397503,-0.000706318998709321,-0.715803325176239,-0.795831561088562,17.027055740356445,-5.397886276245117,-1.5086039304733276,-0.02,0.03,0.0,260.89
1682371508.03830695,392507886,2,0.4,1.27,191.27,0.010829165577888489,0.007746288087219,-0.7124053239822388,-0.8029806017875671,17.02790069580078,-5.398431301116943,-1.5863789319992065,-0.02,0.03,0.0,260.89
1682371508.13835001,392607929,2,0.68,1.35,191.33,0.017687827348709106,0.005681952461600304,-0.6951417922973633,-0.778240978717804,17.029441833496094,-5.3937883377075195,-1.6624979972839355,-0.02,0.03,0.0,260.89
1682371508.23831892,392707898,2,1.05,1.21,191.4,0.02265593595802784,0.023312561213970184,-0.6801994442939758,-0.7654190063476562,17.030744552612305,-5.39030647277832,-1.7391083240509033,-0.02,0.03,0.0,260.89
1682371508.33833599,392807915,2,1.2,1.23,191.45000000000002,0.02714313007891178,0.013506787829101086,-0.682145357131958,-0.7691295146942139,17.03208351135254,-5.388209819793701,-1.8152574300765991,-0.02,0.03,0.0,260.89
1682371508.43834209,392907921,2,1.28,1.24,191.46,0.02351095713675022,0.02287476509809494,-0.6517400741577148,-0.7085576057434082,17.036100387573242,-5.387827396392822,-1.8864636421203613,-0.02,0.03,0.0,260.89
1682371508.53835702,393007936,2,1.36,1.19,191.43,0.029768280684947968,0.01879633590579033,-0.6307420134544373,-0.6663262248039246,17.043228149414062,-5.389870643615723,-1.9547468423843384,-0.02,0.03,0.0,260.89
1682371508.63833809,393107917,2,1.11,1.09,191.36,0.031238039955496788,0.0071669998578727245,-0.6363410949707031,-0.6529489159584045,17.04736328125,-5.391311168670654,-2.0192952156066895,-0.02,0.03,0.0,260.89
1682371508.73831391,393207893,2,0.91,0.99,191.29,0.03460993990302086,0.01451091468334198,-0.6240708231925964,-0.6020282506942749,17.047937393188477,-5.392618179321289,-2.080397605895996,-0.02,0.03,0.0,260.89
1682371508.83832002,393307899,2,0.77,1.1500000000000001,191.18,0.02770826406776905,0.01302662305533886,-0.6348246932029724,-0.5942615270614624,17.048866271972656,-5.393117427825928,-2.1393206119537354,-0.02,0.03,0.0,260.89
1682371508.93833303,393407912,2,0.76,1.17,191.07,0.02667435258626938,0.019419807940721512,-0.6184007525444031,-0.5634793639183044,17.04939079284668,-5.392514705657959,-2.1970927715301514,-0.02,0.03,0.0,260.89
1682371509.03833699,393507916,2,0.84,1.26,190.93,0.02664930932223797,0.032700225710868835,-0.6157684326171875,-0.5971726775169373,17.052125930786133,-5.391515731811523,-2.2589633464813232,-0.02,0.03,0.0,260.89
1682371509.13830400,393607883,2,0.89,1.28,190.78,0.03710263594985008,0.02320975996553898,-0.6499473452568054,-0.619056224822998,17.057266235351562,-5.38967752456665,-2.317415714263916,-0.02,0.03,0.01,260.89
1682371509.23833513,393707914,2,1.03,1.1,190.62,0.03662605956196785,0.02305571176111698,-0.6433547139167786,-0.6094156503677368,17.060890197753906,-5.388682842254639,-2.3783013820648193,-0.02,0.03,0.01,260.89
1682371509.33831096,393807890,2,1.17,1.06,190.45000000000002,0.0275567714124918,0.04867403581738472,-0.6359907388687134,-0.6242868900299072,17.062875747680664,-5.389030456542969,-2.4417383670806885,-0.02,0.03,0.01,260.89
1682371509.43834805,393907927,2,1.19,1.12,190.26,0.02688034623861313,0.025758611038327217,-0.662118673324585,-0.6621642708778381,17.063589096069336,-5.389660358428955,-2.506174087524414,-0.02,0.03,0.01,260.89
1682371509.53833890,394007918,2,1.21,1.17,190.11,0.03587217256426811,0.01667010970413685,-0.6706253886222839,-0.6718365550041199,17.06247901916504,-5.391970157623291,-2.57151198387146,-0.02,0.03,0.01,260.89
1682371509.63831711,394107896,2,1.06,1.33,187.62,0.028310708701610565,0.02346242405474186,-0.6662995219230652,-0.6825315356254578,17.062509536743164,-5.394895553588867,-2.6395387649536133,-0.02,0.03,0.01,260.89
1682371509.73831010,394207889,2,0.88,1.47,187.49,0.034094519913196564,0.023428339511156082,-0.6720048189163208,-0.7050259113311768,17.063518524169922,-5.398239612579346,-2.7092878818511963,-0.02,0.03,0.01,260.89
1682371509.83832598,394307905,2,0.78,1.43,187.36,0.03402828052639961,0.033475156873464584,-0.6823875904083252,-0.7173067927360535,17.066965103149414,-5.3980607986450195,-2.779024839401245,-0.02,0.03,0.01,260.89
1682371509.93835998,394407939,2,0.78,1.41,187.31,0.04267652705311775,0.019419768825173378,-0.6562040448188782,-0.6870886087417603,17.0734806060791,-5.39390230178833,-2.8483076095581055,-0.02,0.03,0.01,260.89
1682371510.03831291,394507892,2,0.93,1.19,187.29,0.05033541098237038,0.027319682762026787,-0.658983051776886,-0.6852153539657593,17.08197593688965,-5.392133712768555,-2.9166955947875977,-0.02,0.03,0.01,260.89
1682371510.13834596,394607925,2,1.04,1.02,187.3,0.04765399172902107,0.04800053685903549,-0.6391279101371765,-0.6473370790481567,17.09343910217285,-5.393546104431152,-2.9838085174560547,-0.02,0.03,0.01,260.89
1682371510.23838711,394707966,2,0.9500000000000001,0.75,187.35,0.0499911904335022,0.0447341725230217,-0.6429867148399353,-0.6703670024871826,17.100858688354492,-5.393736362457275,-3.0526492595672607,-0.02,0.03,0.01,260.89
1682371510.33835697,394807936,2,0.92,0.66,187.48,0.03616728633642197,0.03726580739021301,-0.641093909740448,-0.6892393827438354,17.103038787841797,-5.3935675621032715,-3.1222589015960693,-0.02,0.03,0.01,260.89
1682371510.43833995,394907919,2,0.88,0.92,187.65,0.033982887864112854,0.026485001668334007,-0.6679685115814209,-0.707255482673645,17.104270935058594,-5.392122268676758,-3.189558506011963,-0.02,0.03,0.01,260.89
1682371510.53831100,395007890,2,0.9,1.06,187.8,0.030193079262971878,0.035514913499355316,-0.6328432559967041,-0.6215527653694153,17.104026794433594,-5.389291763305664,-3.251884937286377,-0.02,0.03,0.01,260.89
1682371510.63830709,395107886,2,1.02,1.19,187.93,0.02086969092488289,0.05335810035467148,-0.6318429112434387,-0.60905522108078,17.104032516479492,-5.386277198791504,-3.3140833377838135,-0.02,0.03,0.01,260.89
1682371510.73830509,395207884,2,1.09,1.2,188.01,0.017916901037096977,0.05058591440320015,-0.6206979751586914,-0.6173123121261597,17.10439109802246,-5.383550643920898,-3.3775711059570312,-0.02,0.03,0.01,260.89
1682371510.83835411,395307933,2,1.2,1.09,188.09,0.024536341428756714,0.04290015995502472,-0.633592963218689,-0.6398617625236511,17.105770111083984,-5.381025314331055,-3.4403419494628906,-0.02,0.03,0.01,260.89
1682371510.93830800,395407887,2,1.35,1.03,188.13,0.013858873397111893,0.04969435930252075,-0.6192887425422668,-0.6229029297828674,17.108976364135742,-5.379415512084961,-3.503756523132324,-0.02,0.03,0.01,260.89
1682371511.03834510,395507924,2,1.33,0.81,188.20000000000002,0.009738235734403133,0.02383488602936268,-0.6287767291069031,-0.6384543180465698,17.108844757080078,-5.376863956451416,-3.567383050918579,-0.02,0.03,0.01,260.89
1682371511.13837099,395607950,2,1.41,0.8,188.31,0.005106606055051088,0.032278575003147125,-0.6323996186256409,-0.6508867740631104,17.10597801208496,-5.373133659362793,-3.632578134536743,-0.02,0.03,0.01,260.89
1682371511.23835707,395707936,2,1.53,1.03,188.46,-0.006058228202164173,0.040589191019535065,-0.5833932757377625,-0.616446852684021,17.102882385253906,-5.369237422943115,-3.6976065635681152,-0.02,0.03,0.01,260.89
1682371511.33834100,395807920,2,1.55,1.16,188.64000000000001,-0.003780574072152376,0.02966502122581005,-0.5724847316741943,-0.6186225414276123,17.099205017089844,-5.365024089813232,-3.7602052688598633,-0.02,0.03,0.01,260.89
1682371511.43831611,395907895,2,1.6400000000000001,1.28,188.78,-0.009019434452056885,0.03230975940823555,-0.5175563097000122,-0.5605868697166443,17.098159790039062,-5.3598151206970215,-3.8185338973999023,-0.02,0.03,0.01,260.89
1682371511.53830910,396007888,2,1.72,1.2,188.85,-0.0013034493895247579,0.034496162086725235,-0.46254783868789673,-0.49003639817237854,17.101099014282227,-5.353132724761963,-3.8700053691864014,-0.02,0.03,0.01,260.89
1682371511.63833594,396107915,2,1.84,0.84,188.93,-0.001491266069933772,0.009909989312291145,-0.39113715291023254,-0.3913422226905823,17.102310180664062,-5.3497114181518555,-3.913408041000366,-0.02,0.03,0.01,260.89
1682371511.73834491,396207924,2,1.8900000000000001,0.56,189.13,0.0050686197355389595,0.008964067324995995,-0.33469948172569275,-0.3169235587120056,17.101402282714844,-5.351150989532471,-3.949354887008667,-0.02,0.03,0.01,260.89
1682371511.83831811,396307897,2,1.69,0.63,189.38,-0.013775503262877464,-0.0015340727986767888,-0.26966625452041626,-0.25982925295829773,17.09846305847168,-5.3536529541015625,-3.978854179382324,-0.02,0.03,0.01,260.89
1682371511.93834209,396407921,2,1.44,0.76,189.68,-0.010231888853013515,-0.009884254075586796,-0.1820598840713501,-0.16474923491477966,17.09206771850586,-5.357528209686279,-3.9994211196899414,-0.02,0.03,0.01,260.89
1682371512.03831100,396507890,2,1.28,1.07,189.95000000000002,-0.016549957916140556,-0.020699720829725266,-0.10993035137653351,-0.0903608575463295,17.08664321899414,-5.36074161529541,-4.012243270874023,-0.02,0.03,0.01,260.89
1682371512.13835001,396607929,2,1.17,1.21,190.14000000000001,-0.018264763057231903,-0.014892815612256527,-0.054920777678489685,-0.050297342240810394,17.082794189453125,-5.361507892608643,-4.019853115081787,-0.02,0.03,0.01,260.89
1682371512.23834610,396707925,2,1.19,1.19,190.32,-0.015404468402266502,-0.01779540814459324,-0.0026541450060904026,-0.010341736488044262,17.079242706298828,-5.362020015716553,-4.021488189697266,-0.02,0.03,0.01,260.89
1682371512.33830595,396807885,2,1.23,1.26,190.46,-0.010982643812894821,-0.019517740234732628,0.037722062319517136,0.03915058821439743,17.07638168334961,-5.361918926239014,-4.019791603088379,-0.02,0.03,0.01,260.89
1682371512.43831110,396907890,2,1.18,0.96,190.57,-0.020197629928588867,-0.00471799261868,0.06033031642436981,0.03893890976905823,17.074016571044922,-5.361428737640381,-4.017070770263672,-0.02,0.03,0.01,260.89
1682371512.53831506,397007894,2,0.9500000000000001,0.45,190.66,-0.020954636856913567,0.007146175019443035,0.07558843493461609,0.05486816540360451,17.072086334228516,-5.360384464263916,-4.011980056762695,-0.02,0.03,0.01,260.89
1682371512.63836098,397107940,2,0.58,-0.26,190.74,-0.044620007276535034,0.006051376927644014,0.047784652560949326,0.01688261888921261,17.068571090698242,-5.358541965484619,-4.008734703063965,-0.02,0.03,0.01,260.89
1682371512.73832202,397207901,2,0.18,-1.0,190.72,-0.07094024121761322,0.018082475289702415,0.07946457713842392,0.015417100861668587,17.062280654907227,-5.355901718139648,-4.008306980133057,-0.02,0.03,0.01,260.89
1682371512.83833694,397307916,2,-0.16,-1.59,190.44,-0.11855404078960419,0.03834153339266777,0.03806988149881363,-0.03192843496799469,17.051790237426758,-5.3510565757751465,-4.009593963623047,-0.02,0.03,0.01,260.89
1682371512.93831706,397407896,2,-0.37,-2.14,189.79,-0.1742473542690277,0.04560135677456856,0.004218249581754208,-0.06266409158706665,17.03559112548828,-5.343245983123779,-4.011866569519043,-0.02,0.03,0.01,260.89
1682371513.03836107,397507940,2,-0.41000000000000003,-2.5500000000000003,188.66,-0.23302190005779266,0.07433152198791504,0.010734708048403263,-0.03958774358034134,17.01280403137207,-5.332378387451172,-4.014099597930908,-0.02,0.03,0.01,260.89
1682371513.13833404,397607913,2,-0.33,-2.91,186.98,-0.30202144384384155,0.10124919563531876,0.017297308892011642,-0.022116458043456078,16.982135772705078,-5.317506313323975,-4.015233039855957,-0.02,0.03,0.01,260.89
1682371513.23831391,397707893,2,-0.27,-2.96,184.71,-0.3617192506790161,0.1246149092912674,0.027491500601172447,0.018069127574563026,16.94512176513672,-5.299274444580078,-4.013154029846191,-0.02,0.03,0.01,260.89
1682371513.33830810,397807887,2,-0.1,-2.89,181.97,-0.42933493852615356,0.14551137387752533,0.020720096305012703,0.03320645913481712,16.901578903198242,-5.276575565338135,-4.009634494781494,-0.02,0.03,0.01,260.89
1682371513.43831301,397907892,2,0.21,-2.68,178.98,-0.49684494733810425,0.1572832465171814,0.05125155299901962,0.05482785403728485,16.853342056274414,-5.251099586486816,-4.005061626434326,-0.02,0.03,0.01,260.89
1682371513.53835392,398007933,2,0.63,-2.27,175.87,-0.550005316734314,0.18196293711662292,0.07368491590023041,0.09226910769939423,16.800695419311523,-5.221489429473877,-3.9969265460968018,-0.02,0.03,0.01,260.89
1682371513.63831210,398107891,2,1.23,-1.6600000000000001,172.65,-0.5971488952636719,0.2106970250606537,0.06391032040119171,0.0965631827712059,16.74355125427246,-5.189061164855957,-3.9879939556121826,-0.02,0.03,0.01,260.89
1682371513.73833394,398207913,2,1.72,-0.92,169.29,-0.6357314586639404,0.221279114484787,0.045573484152555466,0.07301934063434601,16.683597564697266,-5.152119159698486,-3.9797587394714355,-0.02,0.03,0.01,260.89
1682371513.83836913,398307948,2,2.19,-0.19,165.96,-0.657532274723053,0.22710967063903809,0.04355815798044205,0.05831955000758171,16.62158203125,-5.113740921020508,-3.9731600284576416,-0.02,0.03,0.01,260.89
1682371513.93836308,398407942,2,2.48,0.61,162.52,-0.6746922135353088,0.2228202521800995,0.036784518510103226,0.04300713166594505,16.558969497680664,-5.072461128234863,-3.968024492263794,-0.02,0.03,0.01,260.89
1682371514.03834009,398507919,2,2.77,1.3900000000000001,159.18,-0.6816752552986145,0.21040493249893188,0.009530721232295036,0.011900926940143108,16.496877670288086,-5.031948089599609,-3.964564561843872,-0.02,0.03,0.01,260.89
1682371514.13830495,398607884,2,2.84,2.08,155.96,-0.6710866689682007,0.22364698350429535,0.013248263858258724,0.0008197916322387755,16.436954498291016,-4.991102695465088,-3.96435546875,-0.02,0.03,0.01,260.89
1682371514.23831105,398707890,2,2.71,2.5300000000000002,153.13,-0.6649412512779236,0.1890416443347931,-0.030891556292772293,-0.05346813425421715,16.375837326049805,-4.953708171844482,-3.9668233394622803,-0.02,0.03,0.01,260.89
1682371514.33832192,398807901,2,2.58,2.74,150.69,-0.6685261726379395,0.1597394347190857,-0.028952771797776222,-0.0426345020532608,16.31382942199707,-4.919135093688965,-3.9697744846343994,-0.02,0.03,0.01,260.89
1682371514.43834305,398907922,2,2.41,2.7600000000000002,148.69,-0.6500632166862488,0.14680762588977814,-0.011045083403587341,-0.03267044201493263,16.252368927001953,-4.888294696807861,-3.9749767780303955,-0.02,0.03,0.01,260.89
1682371514.53831005,399007889,2,2.32,2.6,147.03,-0.6508012413978577,0.11828209459781647,-0.042886119335889816,-0.07698889076709747,16.190608978271484,-4.859681129455566,-3.979194402694702,-0.02,0.03,0.01,260.89
1682371514.63833809,399107917,2,2.08,2.4,145.68,-0.6413819193840027,0.1037861555814743,-0.02309359610080719,-0.014842360280454159,16.12750244140625,-4.834562301635742,-3.9790115356445312,-0.02,0.03,0.01,260.89
1682371514.73831201,399207891,2,1.93,2.29,144.65,-0.6478729844093323,0.0800304114818573,-0.03670230135321617,0.022641858085989952,16.06245994567871,-4.8118577003479,-3.9752442836761475,-0.02,0.03,0.01,260.89
1682371514.83835006,399307929,2,1.6300000000000001,2.24,143.94,-0.637360155582428,0.0711846798658371,-0.011035595089197159,0.0631374791264534,15.997416496276855,-4.791900157928467,-3.9703822135925293,-0.02,0.03,0.01,260.89
1682371514.93833899,399407918,2,1.28,2.19,143.52,-0.640015184879303,0.053625546395778656,-0.034165747463703156,0.04427735507488251,15.932522773742676,-4.77323055267334,-3.96516489982605,-0.02,0.03,0.01,260.89
1682371515.03831100,399507890,2,1.1400000000000001,2.12,143.37,-0.6279497146606445,0.06488308310508728,0.01460336521267891,0.0754815936088562,15.86800765991211,-4.757613658905029,-3.960923433303833,-0.02,0.03,0.01,260.89
1682371515.13830495,399607884,2,0.9500000000000001,2.0300000000000002,143.48,-0.624183177947998,0.06667026877403259,0.013951387256383896,0.07727649062871933,15.80405330657959,-4.743245601654053,-3.9555768966674805,-0.02,0.03,0.01,260.89
1682371515.23832512,399707904,2,0.96,1.78,143.74,-0.628868043422699,0.043262697756290436,-0.01071158703416586,0.06277459114789963,15.739581108093262,-4.729913711547852,-3.9491190910339355,-0.02,0.03,0.01,260.89
1682371515.33835506,399807934,2,0.8300000000000001,1.56,144.19,-0.624092698097229,0.05687984824180603,-0.02114841341972351,0.052431631833314896,15.67377758026123,-4.715842247009277,-3.943347930908203,-0.02,0.03,0.01,260.89
1682371515.43831301,399907892,2,0.74,1.5,144.81,-0.6197484135627747,0.05935748293995857,-0.021152831614017487,0.0254715196788311,15.606623649597168,-4.703566551208496,-3.9399092197418213,-0.02,0.03,0.01,260.89
1682371515.53833890,400007918,2,0.6,1.4000000000000001,145.57,-0.6244886517524719,0.04953787848353386,-0.026012903079390526,0.012523830868303776,15.537881851196289,-4.692056179046631,-3.93652081489563,-0.02,0.03,0.01,260.89
1682371515.63832593,400107905,2,0.36,1.36,146.47,-0.6129826307296753,0.06967103481292725,-0.022142337635159492,0.02233755961060524,15.470108985900879,-4.680752277374268,-3.9325692653656006,-0.02,0.03,0.01,260.89
1682371515.73835492,400207934,2,0.24,1.34,147.5,-0.6086587309837341,0.09328855574131012,-0.021832693368196487,0.03796347975730896,15.402839660644531,-4.668273448944092,-3.9275412559509277,-0.02,0.03,0.01,260.89
1682371515.83834004,400307919,2,0.17,1.26,148.62,-0.5991101861000061,0.100994773209095,-0.004784458316862583,0.05745922401547432,15.336545944213867,-4.655418395996094,-3.9229631423950195,-0.02,0.03,0.01,260.89
1682371515.93831611,400407895,2,0.12,1.22,149.81,-0.6098710298538208,0.09739163517951965,-0.055107612162828445,0.011654670350253582,15.27051067352295,-4.641754150390625,-3.918473720550537,-0.02,0.03,0.01,260.89
1682371516.03830504,400507884,2,0.26,1.1,151.03,-0.6043327450752258,0.11606807261705399,-0.021926267072558403,0.04274442791938782,15.206262588500977,-4.627498626708984,-3.9147939682006836,-0.02,0.03,0.01,260.89
1682371516.13831496,400607894,2,0.31,0.96,152.27,-0.597862184047699,0.14111822843551636,-0.0393650159239769,0.007392254192382097,15.14373779296875,-4.611558437347412,-3.9138758182525635,-0.02,0.03,0.01,260.89
1682371516.23836493,400707944,2,0.54,0.77,153.5,-0.6021655797958374,0.14741288125514984,-0.031104745343327522,0.0014294595457613468,15.081682205200195,-4.59541130065918,-3.9133353233337402,-0.02,0.03,0.01,260.89
1682371516.33831000,400807889,2,0.65,0.5700000000000001,154.72,-0.5951339602470398,0.1712619513273239,-0.045990414917469025,0.014967959374189377,15.018698692321777,-4.578274726867676,-3.910444736480713,-0.02,0.03,0.01,260.89
1682371516.43835211,400907931,2,0.68,0.53,155.9,-0.6031968593597412,0.18343393504619598,-0.02652602270245552,0.03348627686500549,14.955323219299316,-4.560776710510254,-3.909656047821045,-0.02,0.03,0.01,260.89
1682371516.53835511,401007934,2,0.66,0.44,156.98,-0.6170558929443359,0.19230923056602478,-0.04072033613920212,-0.017864352092146873,14.89066219329834,-4.542637348175049,-3.9121203422546387,-0.02,0.03,0.01,260.89
1682371516.63835597,401107935,2,0.62,0.41000000000000003,157.94,-0.6265103816986084,0.19292694330215454,-0.048031266778707504,-0.0529511384665966,14.825786590576172,-4.521982669830322,-3.9166579246520996,-0.01,0.03,0.01,260.89
1682371516.73833895,401207918,2,0.66,0.39,158.78,-0.6236171126365662,0.23012036085128784,-0.04628016799688339,-0.04678809270262718,14.760051727294922,-4.498665809631348,-3.9198904037475586,-0.01,0.03,0.01,260.89
1682371516.83831406,401307893,2,0.67,0.38,159.48,-0.6409551501274109,0.231046661734581,-0.03305667266249657,-0.019570279866456985,14.693092346191406,-4.474100589752197,-3.9218592643737793,-0.01,0.03,0.01,260.89
1682371516.93832207,401407901,2,0.75,0.44,160.03,-0.6473462581634521,0.24612028896808624,-0.016713818535208702,0.015871690586209297,14.624434471130371,-4.448032855987549,-3.9219515323638916,-0.01,0.03,0.01,260.89
1682371517.03831911,401507898,2,0.85,0.5700000000000001,160.43,-0.6584270596504211,0.2552734315395355,-0.03645079582929611,-0.005759155377745628,14.55673599243164,-4.420958518981934,-3.9217476844787598,-0.01,0.03,0.01,260.89
1682371517.13835001,401607929,2,1.0,0.6900000000000001,160.67000000000002,-0.6659207940101624,0.26298439502716064,-0.012519155628979206,0.028406018391251564,14.489249229431152,-4.392455577850342,-3.9205322265625,-0.01,0.03,0.01,260.89
1682371517.23832512,401707904,2,1.2,0.67,160.8,-0.6741474270820618,0.26607272028923035,-0.013999974355101585,0.008381648920476437,14.421490669250488,-4.364249229431152,-3.921259641647339,-0.01,0.03,0.01,260.89
1682371517.33834100,401807920,2,1.29,0.63,160.8,-0.6742615699768066,0.27601003646850586,-0.025409433990716934,-0.02630079723894596,14.354187965393066,-4.336421966552734,-3.923166275024414,-0.01,0.03,0.01,260.89
1682371517.43837905,401907958,2,1.3,0.52,160.71,-0.6785702109336853,0.2691604495048523,-0.02465367689728737,-0.03239612281322479,14.28512191772461,-4.308903694152832,-3.9252970218658447,-0.01,0.03,0.01,260.89
1682371517.53835797,402007937,2,1.21,0.5700000000000001,160.54,-0.6867091059684753,0.2767428755760193,-0.015273729339241982,-0.029382454231381416,14.213851928710938,-4.281569957733154,-3.9289095401763916,-0.01,0.03,0.01,260.89
1682371517.63835001,402107929,2,1.05,0.68,160.31,-0.7007957100868225,0.2695622742176056,-0.030234096571803093,-0.024542352184653282,14.142330169677734,-4.255030155181885,-3.9278557300567627,-0.01,0.03,0.01,260.89
1682371517.73831010,402207889,2,0.9500000000000001,0.78,160.03,-0.7054700255393982,0.2839272916316986,-0.0077012451365590096,0.04987158253788948,14.070513725280762,-4.229057312011719,-3.924266815185547,-0.01,0.03,0.01,260.89
1682371517.83831096,402307890,2,0.88,0.81,159.71,-0.7133489847183228,0.28054919838905334,-0.01430926937609911,0.05999259650707245,13.99852180480957,-4.202759742736816,-3.9183199405670166,-0.01,0.03,0.01,260.89
1682371517.93832207,402407901,2,0.87,0.81,159.35,-0.7118663191795349,0.2810562551021576,-0.01434596348553896,0.07106568664312363,13.926445960998535,-4.1762237548828125,-3.9131553173065186,-0.01,0.03,0.01,260.89
1682371518.03834605,402507925,2,0.9,0.8,158.99,-0.7176185846328735,0.28598731756210327,-0.023371640592813492,0.03627712279558182,13.854358673095703,-4.150028705596924,-3.9098594188690186,-0.01,0.03,0.01,260.89
1682371518.13831997,402607899,2,0.93,0.8300000000000001,158.63,-0.7174322009086609,0.2942940592765808,-0.041928358376026154,0.0007490884163416922,13.779840469360352,-4.124327659606934,-3.908446788787842,-0.01,0.03,0.01,260.89
1682371518.23834801,402707927,2,0.8300000000000001,0.91,158.28,-0.7217744588851929,0.29114407300949097,-0.0456954725086689,-0.009631562046706676,13.706506729125977,-4.096230983734131,-3.9069979190826416,-0.01,0.03,0.01,260.89
1682371518.33831692,402807896,2,0.81,0.99,157.92000000000002,-0.7169525027275085,0.29891690611839294,-0.02806994877755642,0.011536044999957085,13.634164810180664,-4.066644191741943,-3.9073739051818848,-0.01,0.03,0.01,260.89
1682371518.43834996,402907929,2,0.89,0.99,157.6,-0.7172962427139282,0.2937774062156677,-0.058352820575237274,-0.037793923169374466,13.559779167175293,-4.036046504974365,-3.9097282886505127,-0.01,0.03,0.01,260.89
1682371518.53835011,403007929,2,0.9400000000000001,1.06,157.32,-0.7162371277809143,0.30766788125038147,-0.03450195491313934,-0.021233107894659042,13.484067916870117,-4.005002498626709,-3.9129507541656494,-0.01,0.03,0.01,260.89
1682371518.63831496,403107894,2,1.03,1.16,157.06,-0.7176821827888489,0.29457560181617737,-0.062416352331638336,-0.04353976622223854,13.410351753234863,-3.974569320678711,-3.915914535522461,-0.01,0.03,0.01,260.89
1682371518.73831105,403207890,2,1.05,1.26,156.84,-0.7140913009643555,0.29375219345092773,-0.05200289934873581,-0.019360974431037903,13.33823299407959,-3.944514274597168,-3.9181437492370605,-0.01,0.03,0.01,260.89
1682371518.83832502,403307904,2,1.04,1.23,156.65,-0.7075037360191345,0.29815658926963806,-0.04210403189063072,-0.0031033542472869158,13.269640922546387,-3.914782762527466,-3.9198405742645264,-0.01,0.03,0.01,260.89
1682371518.93837214,403407951,2,1.04,1.1500000000000001,156.51,-0.7008910179138184,0.29713010787963867,-0.056053128093481064,-0.006316663231700659,13.203166961669922,-3.885528326034546,-3.920222520828247,-0.01,0.03,0.01,260.89
1682371519.03830791,403507887,2,1.08,0.99,156.41,-0.6966560482978821,0.29168900847435,-0.07806459069252014,-0.03002912923693657,13.134449005126953,-3.8566555976867676,-3.9205660820007324,-0.01,0.03,0.01,260.89
1682371519.13833499,403607914,2,1.08,0.92,156.37,-0.6928255558013916,0.2949352264404297,-0.05536502227187157,-0.011369600892066956,13.06467342376709,-3.828071117401123,-3.920968532562256,-0.01,0.03,0.01,260.89
1682371519.23836994,403707949,2,1.02,0.93,156.36,-0.6958565711975098,0.29376736283302307,-0.04344731941819191,-0.017813004553318024,12.995323181152344,-3.8003642559051514,-3.923452377319336,-0.01,0.03,0.01,260.89
1682371519.33835411,403807933,2,0.97,0.9500000000000001,156.4,-0.6947212815284729,0.2910289466381073,-0.04489262402057648,-0.041670385748147964,12.92628002166748,-3.773181200027466,-3.9272944927215576,-0.01,0.03,0.01,260.89
1682371519.43833613,403907915,2,0.9500000000000001,0.9500000000000001,156.5,-0.6944513320922852,0.2937147915363312,-0.03115033358335495,-0.031214233487844467,12.856340408325195,-3.7466118335723877,-3.9307167530059814,-0.02,0.03,0.01,260.89
1682371519.53830910,404007888,2,0.88,0.9500000000000001,156.6,-0.6936427354812622,0.2949449121952057,-0.020054738968610764,-0.017203956842422485,12.78591251373291,-3.7204833030700684,-3.9342663288116455,-0.02,0.03,0.01,260.89
1682371519.63831210,404107891,2,0.77,0.9,156.72,-0.6960631608963013,0.2808420658111572,-0.052604444324970245,-0.05570390820503235,12.716621398925781,-3.6937618255615234,-3.939213991165161,-0.02,0.03,0.01,260.89
1682371519.73830509,404207884,2,0.76,0.86,156.85,-0.6930856704711914,0.2901284992694855,-0.03815671429038048,-0.04914842173457146,12.6480712890625,-3.6666131019592285,-3.943718910217285,-0.02,0.03,0.01,260.89
1682371519.83834791,404307927,2,0.79,0.8200000000000001,156.96,-0.6891199350357056,0.3021858334541321,-0.028085345402359962,-0.03840380534529686,12.579923629760742,-3.640117883682251,-3.948765516281128,-0.02,0.03,0.01,260.89
1682371519.93837214,404407951,2,0.8200000000000001,0.73,157.05,-0.6873753666877747,0.3047489523887634,-0.031736068427562714,-0.04773583635687828,12.510843276977539,-3.6135895252227783,-3.9534285068511963,-0.02,0.03,0.01,260.89
1682371520.03833699,404507916,2,0.87,0.67,157.18,-0.6914980411529541,0.29199790954589844,-0.026009058579802513,-0.011510342359542847,12.439224243164062,-3.587137460708618,-3.9537296295166016,-0.02,0.03,0.01,260.89
1682371520.13830996,404607889,2,0.84,0.67,157.3,-0.6940419673919678,0.307256281375885,-0.016444560140371323,0.03775540739297867,12.365718841552734,-3.560318946838379,-3.9526357650756836,-0.02,0.03,0.01,260.89
1682371520.23836398,404707943,2,0.76,0.77,157.42000000000002,-0.696277379989624,0.3062828779220581,-0.04408072307705879,0.014517494477331638,12.293334007263184,-3.5322072505950928,-3.9502506256103516,-0.02,0.03,0.01,260.89
1682371520.33833814,404807917,2,0.74,0.84,157.56,-0.7014025449752808,0.32736220955848694,-0.025000212714076042,0.04050704091787338,12.2221040725708,-3.5027050971984863,-3.947394847869873,-0.02,0.03,0.01,260.89
1682371520.43830705,404907886,2,0.74,0.87,157.69,-0.705157995223999,0.3114853799343109,-0.03563151881098747,0.02378227934241295,12.150193214416504,-3.473081111907959,-3.944739580154419,-0.02,0.03,0.01,260.89
1682371520.53831291,405007892,2,0.8200000000000001,0.91,157.82,-0.7061610221862793,0.3144436180591583,-0.02041722647845745,0.0400034599006176,12.078073501586914,-3.4430270195007324,-3.9424386024475098,-0.02,0.03,0.01,260.89
1682371520.63831997,405107899,2,0.87,0.98,157.89000000000001,-0.697908341884613,0.323392391204834,-0.03589385002851486,0.011486397124826908,12.007987976074219,-3.41255259513855,-3.9418647289276123,-0.02,0.03,0.01,260.89
1682371520.73835301,405207932,2,0.91,1.06,157.98,-0.7036798000335693,0.3221352696418762,-0.02902761846780777,0.015185288153588772,11.940369606018066,-3.382993221282959,-3.94055438041687,-0.02,0.03,0.01,260.89
1682371520.83831692,405307896,2,0.9400000000000001,0.9400000000000001,158.05,-0.6928586363792419,0.31704849004745483,-0.043482426553964615,-0.0026643327437341213,11.86986255645752,-3.3528637886047363,-3.9401988983154297,-0.02,0.03,0.01,260.89
1682371520.93834591,405407925,2,0.99,0.96,158.09,-0.7003249526023865,0.33323776721954346,-0.04075867310166359,-0.007769319694489241,11.79668140411377,-3.3227365016937256,-3.9411559104919434,-0.02,0.03,0.01,260.89
1682371521.03832197,405507901,2,0.97,1.07,158.11,-0.6953251957893372,0.32526060938835144,-0.04411283880472183,-0.012491121888160706,11.724424362182617,-3.292928695678711,-3.9426088333129883,-0.02,0.03,0.01,260.89
1682371521.13836002,405607939,2,0.9400000000000001,1.08,158.09,-0.7028773427009583,0.30397891998291016,-0.05860332027077675,-0.023502010852098465,11.653315544128418,-3.2644007205963135,-3.944403886795044,-0.02,0.03,0.01,260.89
1682371521.23834395,405707923,2,0.91,1.1,158.04,-0.6990112066268921,0.3163771331310272,-0.05462685972452164,-0.032674357295036316,11.580649375915527,-3.236746311187744,-3.948275566101074,-0.02,0.03,0.01,260.89
1682371521.33831310,405807892,2,0.8300000000000001,1.06,157.97,-0.7072291374206543,0.3024219274520874,-0.06696654111146927,-0.059153731912374496,11.506550788879395,-3.2104716300964355,-3.9536402225494385,-0.02,0.03,0.01,260.89
1682371521.43830991,405907889,2,0.6900000000000001,1.12,157.92000000000002,-0.7054085731506348,0.3066701292991638,-0.06592641770839691,-0.07020840048789978,11.433362007141113,-3.1837191581726074,-3.960519790649414,-0.02,0.03,0.01,260.89
1682371521.53833604,406007915,2,0.64,1.12,157.89000000000001,-0.6981205344200134,0.3001982271671295,-0.0716361477971077,-0.08902500569820404,11.360889434814453,-3.1567912101745605,-3.9680721759796143,-0.02,0.03,0.01,260.89
1682371521.63835311,406107932,2,0.55,1.1300000000000001,157.87,-0.7071823477745056,0.3000103831291199,-0.05130172148346901,-0.07125499099493027,11.28918743133545,-3.1300594806671143,-3.9751834869384766,-0.02,0.03,0.01,260.89
1682371521.73831105,406207890,2,0.5,1.1300000000000001,157.87,-0.6909655332565308,0.3133239150047302,-0.06520827859640121,-0.08334939181804657,11.216644287109375,-3.1036324501037598,-3.982268810272217,-0.02,0.03,0.01,260.89
1682371521.83834100,406307920,2,0.36,1.1300000000000001,157.92000000000002,-0.6948124766349792,0.31272265315055847,-0.044326718896627426,-0.07085496187210083,11.145353317260742,-3.077476978302002,-3.9905056953430176,-0.02,0.03,0.01,260.89
1682371521.93837094,406407950,2,0.31,1.1,158.0,-0.6921334266662598,0.29940730333328247,-0.07078387588262558,-0.10793048143386841,11.075189590454102,-3.0525591373443604,-3.9990649223327637,-0.02,0.03,0.01,260.89
1682371522.03836012,406507939,2,0.26,1.02,158.11,-0.6873217821121216,0.3128279149532318,-0.033387426286935806,-0.060993801802396774,11.006133079528809,-3.0271034240722656,-4.0056633949279785,-0.02,0.02,0.01,260.89
1682371522.13834000,406607919,2,0.27,1.03,158.26,-0.6842151880264282,0.3131396472454071,-0.040395643562078476,-0.04796864837408066,10.938720703125,-3.001826047897339,-4.010881423950195,-0.02,0.02,0.01,260.89
1682371522.23832202,406707901,2,0.36,0.96,158.44,-0.6723613142967224,0.31868964433670044,-0.032194480299949646,-0.042622338980436325,10.870661735534668,-2.9763505458831787,-4.016303062438965,-0.02,0.02,0.01,260.89
1682371522.33831000,406807889,2,0.41000000000000003,0.87,158.65,-0.6749602556228638,0.3228195309638977,-0.024580983445048332,-0.05244565010070801,10.801944732666016,-2.9508988857269287,-4.022615909576416,-0.02,0.02,0.01,260.89
1682371522.43831396,406907893,2,0.37,0.87,158.88,-0.6737366318702698,0.32012978196144104,-0.021455977112054825,-0.06221235170960426,10.73353385925293,-2.9245033264160156,-4.028580188751221,-0.02,0.02,0.01,260.89
1682371522.53837395,407007953,2,0.36,0.79,159.13,-0.6723122596740723,0.32678309082984924,-0.001490378868766129,-0.03610502555966377,10.665691375732422,-2.8977878093719482,-4.032804489135742,-0.02,0.02,0.01,260.89
1682371522.63831401,407107893,2,0.41000000000000003,0.78,159.41,-0.6660906076431274,0.3317321538925171,0.0059671164490282536,-0.013454475440084934,10.597593307495117,-2.8697292804718018,-4.034869194030762,-0.02,0.02,0.01,260.89
1682371522.73834395,407207923,2,0.48,0.75,159.70000000000002,-0.669428825378418,0.333050012588501,0.00764010613784194,0.000985558028332889,10.529594421386719,-2.8410186767578125,-4.035445690155029,-0.02,0.02,0.01,260.89
1682371522.83832598,407307905,2,0.55,0.71,159.95000000000002,-0.6690105199813843,0.33851152658462524,0.019629275426268578,0.010557467117905617,10.461894989013672,-2.8105483055114746,-4.0355305671691895,-0.02,0.02,0.01,260.89
1682371522.93835902,407407938,2,0.66,0.67,160.17000000000002,-0.6710959672927856,0.3382164239883423,0.013500913046300411,0.009410656057298183,10.394340515136719,-2.7788877487182617,-4.034279823303223,-0.02,0.02,0.01,260.89
1682371523.03834200,407507921,2,0.76,0.65,160.35,-0.6717898845672607,0.34611204266548157,0.0378694087266922,0.03830863907933235,10.326537132263184,-2.7453434467315674,-4.032105445861816,-0.02,0.02,0.01,260.89
1682371523.13831902,407607898,2,0.84,0.65,160.48,-0.6743326187133789,0.3466203212738037,0.00897685345262289,0.014533266425132751,10.258133888244629,-2.710040330886841,-4.029403209686279,-0.02,0.02,0.01,260.89
1682371523.23831201,407707891,2,1.0,0.75,160.55,-0.6675097942352295,0.3624819219112396,0.023702256381511688,0.03561198711395264,10.189157485961914,-2.674835205078125,-4.0257391929626465,-0.02,0.02,0.01,260.89
1682371523.33835006,407807929,2,1.1,0.8200000000000001,160.56,-0.6736807823181152,0.3563138246536255,0.028256092220544815,0.05768861994147301,10.11972713470459,-2.6401255130767822,-4.020810604095459,-0.02,0.02,0.01,260.89
1682371523.43835306,407907932,2,1.17,0.86,160.51,-0.6767113208770752,0.3465682864189148,0.015092426910996437,0.03452213108539581,10.049066543579102,-2.6064043045043945,-4.017883777618408,-0.02,0.03,0.01,260.89
1682371523.53837490,408007954,2,1.21,0.9500000000000001,160.41,-0.6825251579284668,0.3386014699935913,0.02013332210481167,0.017805347219109535,9.976161003112793,-2.5737602710723877,-4.016676425933838,-0.02,0.03,0.01,260.89
1682371523.63834095,408107920,2,1.03,0.98,160.25,-0.6818999648094177,0.33859965205192566,0.005509752314537764,-0.00585353747010231,9.903907775878906,-2.541719436645508,-4.0162835121154785,-0.02,0.02,0.01,260.89
1682371523.73837209,408207951,2,0.99,0.99,160.08,-0.6795003414154053,0.33356040716171265,0.007319715805351734,0.00823986902832985,9.831952095031738,-2.510978937149048,-4.015310764312744,-0.02,0.02,0.01,260.89
1682371523.83834696,408307926,2,1.0,0.97,159.87,-0.6754787564277649,0.3233875334262848,-0.007387152872979641,-0.009110698476433754,9.761512756347656,-2.4795455932617188,-4.016241073608398,-0.02,0.02,0.01,260.89
1682371523.93834805,408407927,2,1.01,0.93,159.65,-0.6812323927879333,0.32193800806999207,-0.035206571221351624,-0.0609855018556118,9.692549705505371,-2.4472172260284424,-4.019773960113525,-0.02,0.02,0.01,260.89
1682371524.03830910,408507888,2,1.1300000000000001,0.9,159.42000000000002,-0.6826778054237366,0.31670066714286804,-0.03445440158247948,-0.06833751499652863,9.623581886291504,-2.415656328201294,-4.023234844207764,-0.03,0.02,0.01,260.89
1682371524.13830900,408607888,2,1.18,0.89,159.21,-0.6748026609420776,0.3204598128795624,-0.017518239095807076,-0.013903902843594551,9.551633834838867,-2.387106418609619,-4.023491859436035,-0.03,0.02,0.01,260.89
1682371524.23831296,408707892,2,1.17,0.97,159.02,-0.6781129837036133,0.29849785566329956,-0.014834441244602203,-0.003874950110912323,9.481364250183105,-2.358651876449585,-4.024675369262695,-0.03,0.02,0.01,260.89
1682371524.33836699,408807946,2,1.1300000000000001,0.97,158.84,-0.6744723320007324,0.30097517371177673,-0.013326192274689674,0.0012616747990250587,9.413211822509766,-2.3305752277374268,-4.024313449859619,-0.03,0.02,0.01,260.89
1682371524.43838000,408907959,2,1.1300000000000001,0.9,158.68,-0.6787822246551514,0.2934779226779938,-0.01701398938894272,0.02161761187016964,9.344769477844238,-2.302619457244873,-4.021381378173828,-0.03,0.02,0.01,260.89
1682371524.53834105,409007920,2,1.1300000000000001,0.86,158.54,-0.671782910823822,0.3027592599391937,-0.012255542911589146,0.03863593563437462,9.276605606079102,-2.27535080909729,-4.0175676345825195,-0.03,0.02,0.01,260.89
1682371524.63837314,409107952,2,1.1400000000000001,0.78,158.42000000000002,-0.6757676601409912,0.29345983266830444,0.011394787579774857,0.06166347116231918,9.207256317138672,-2.247734308242798,-4.013556003570557,-0.03,0.02,0.01,260.89
1682371524.73835111,409207930,2,1.11,0.77,158.33,-0.6736007332801819,0.2935382127761841,-0.010407288558781147,0.030815234407782555,9.136112213134766,-2.2198827266693115,-4.010667324066162,-0.03,0.02,0.01,260.89
1682371524.83834100,409307920,2,1.0,0.87,158.25,-0.6687934994697571,0.2928968667984009,0.023076312616467476,0.04543057084083557,9.065543174743652,-2.1922993659973145,-4.00908899307251,-0.03,0.02,0.01,260.89
1682371524.93831396,409407893,2,0.97,0.9,158.18,-0.6801701188087463,0.27722570300102234,-0.021196145564317703,-0.007339400704950094,8.995070457458496,-2.1651666164398193,-4.008607864379883,-0.03,0.02,0.01,260.89
1682371525.03831410,409507893,2,0.99,0.96,158.12,-0.6712341904640198,0.290633887052536,-0.019231297075748444,-0.0007409995887428522,8.926555633544922,-2.137406587600708,-4.00708532333374,-0.03,0.02,0.01,260.89
1682371525.13832712,409607906,2,1.03,0.89,158.07,-0.6679608821868896,0.29161760210990906,-0.003847182262688875,0.04476339370012283,8.86058521270752,-2.1089327335357666,-4.0034050941467285,-0.03,0.02,0.01,260.89
1682371525.23836899,409707948,2,1.17,0.77,158.03,-0.6704362034797668,0.2784925401210785,-0.03546832129359245,0.023614509031176567,8.794292449951172,-2.0803418159484863,-3.999525547027588,-0.03,0.02,0.01,260.89
1682371525.33831596,409807895,2,1.21,0.7000000000000001,158.0,-0.6625111103057861,0.28219640254974365,-0.01451832428574562,0.04091624915599823,8.726761817932129,-2.051412343978882,-3.9967191219329834,-0.03,0.02,0.01,260.89
1682371525.43834305,409907922,2,1.21,0.71,157.96,-0.6720277070999146,0.2752106785774231,-0.021440118551254272,0.008427162654697895,8.65898609161377,-2.0226926803588867,-3.996117353439331,-0.03,0.02,0.01,260.89
1682371525.53836894,410007948,2,1.21,0.72,157.95000000000002,-0.6691536903381348,0.28560346364974976,-0.02843082696199417,-0.022421257570385933,8.590211868286133,-1.994635820388794,-3.997999429702759,-0.03,0.02,0.01,260.89
1682371525.63835502,410107934,2,1.1300000000000001,0.72,157.96,-0.6653000712394714,0.2810356318950653,-0.030851105228066444,-0.046462640166282654,8.522379875183105,-1.9662193059921265,-4.001708507537842,-0.03,0.02,0.01,260.89
1682371525.73833704,410207916,2,1.11,0.7000000000000001,157.97,-0.6736260056495667,0.2715427279472351,-0.04116981849074364,-0.06116228178143501,8.455621719360352,-1.9371482133865356,-4.0057172775268555,-0.03,0.02,0.01,260.89
1682371525.83831096,410307890,2,1.18,0.63,157.97,-0.6791091561317444,0.279660165309906,-0.043623343110084534,-0.061349060386419296,8.387980461120605,-1.9080597162246704,-4.009624004364014,-0.03,0.02,0.01,260.89
1682371525.93831992,410407899,2,1.17,0.61,157.96,-0.6742393970489502,0.28549161553382874,-0.028838271275162697,-0.0442647859454155,8.31906509399414,-1.8790839910507202,-4.013692855834961,-0.03,0.02,0.01,260.89
1682371526.03832793,410507907,2,1.2,0.68,157.96,-0.6777037978172302,0.27781274914741516,-0.024190256372094154,-0.038024842739105225,8.249773025512695,-1.8505460023880005,-4.017731666564941,-0.03,0.02,0.01,260.89
1682371526.13834000,410607919,2,1.18,0.7000000000000001,157.96,-0.6833152174949646,0.2810218930244446,-0.03152250498533249,-0.04614117741584778,8.180323600769043,-1.8226956129074097,-4.021653652191162,-0.03,0.02,0.01,260.89
1682371526.23830795,410707887,2,1.1400000000000001,0.76,157.96,-0.6800620555877686,0.27112460136413574,-0.01585867814719677,-0.026754379272460938,8.108685493469238,-1.7944471836090088,-4.025095462799072,-0.03,0.03,0.01,260.89
1682371526.33833814,410807917,2,1.09,0.8200000000000001,157.96,-0.6859132647514343,0.27395543456077576,-0.02000252902507782,-0.03171711042523384,8.034809112548828,-1.7658236026763916,-4.028883934020996,-0.03,0.03,0.01,260.89
1682371526.43831205,410907891,2,1.05,0.9,157.96,-0.6829502582550049,0.26559504866600037,-0.026110634207725525,-0.038103800266981125,7.963196754455566,-1.7375866174697876,-4.032505512237549,-0.03,0.02,0.01,260.89
1682371526.53835297,411007932,2,1.02,0.97,157.97,-0.6870360970497131,0.2714008688926697,-0.02268468588590622,-0.019962916150689125,7.893932819366455,-1.709433913230896,-4.033689975738525,-0.03,0.03,0.01,260.89
1682371526.63833904,411107918,2,1.07,0.92,157.96,-0.682201623916626,0.27049967646598816,-0.01149581279605627,0.03247576951980591,7.8250837326049805,-1.6807479858398438,-4.031041145324707,-0.03,0.03,0.01,260.89
1682371526.73831105,411207890,2,1.09,0.89,157.94,-0.6797342896461487,0.2838675379753113,-0.004651348106563091,0.06712959706783295,7.756622314453125,-1.6515296697616577,-4.026924133300781,-0.03,0.03,0.01,260.89
1682371526.83830500,411307884,2,1.11,0.85,157.97,-0.6839807033538818,0.26438990235328674,-0.020517366006970406,0.04678325355052948,7.6888275146484375,-1.6221659183502197,-4.022763252258301,-0.03,0.02,0.01,260.89
1682371526.93831491,411407894,2,1.11,0.8300000000000001,158.01,-0.6799545288085938,0.2665507197380066,-0.02396344020962715,0.03167051076889038,7.621683597564697,-1.5925462245941162,-4.019637584686279,-0.03,0.02,0.01,260.89
1682371527.03837204,411507951,2,1.1,0.79,158.06,-0.6702070832252502,0.2707827687263489,0.011272513307631016,0.045387059450149536,7.554525852203369,-1.564109444618225,-4.01741361618042,-0.03,0.03,0.01,260.89
1682371527.13830495,411607884,2,1.05,0.79,158.1,-0.6800192594528198,0.2649269998073578,-0.019888300448656082,0.011279018595814705,7.486673355102539,-1.536460518836975,-4.015377044677734,-0.03,0.03,0.01,260.89
1682371527.23833704,411707916,2,1.0,0.8,158.13,-0.6736347079277039,0.26988887786865234,-0.020189208909869194,0.01234043575823307,7.417936325073242,-1.5079560279846191,-4.012710094451904,-0.03,0.03,0.01,260.89
1682371527.33836913,411807948,2,1.0,0.8300000000000001,158.16,-0.6867678761482239,0.2682630121707916,-0.012837594375014305,0.0321817621588707,7.348620891571045,-1.4782841205596924,-4.009832859039307,-0.03,0.03,0.01,260.89
1682371527.43836403,411907943,2,1.06,0.84,158.21,-0.6783767938613892,0.27120575308799744,-0.011301861144602299,0.026583664119243622,7.279917240142822,-1.4471657276153564,-4.007495880126953,-0.03,0.03,0.01,260.89
1682371527.53833795,412007917,2,1.1,0.86,158.25,-0.6706403493881226,0.28446611762046814,-0.020834630355238914,0.019508225843310356,7.212027072906494,-1.4140585660934448,-4.005540370941162,-0.03,0.03,0.01,260.89
1682371527.63831496,412107894,2,1.26,0.84,158.3,-0.6810362935066223,0.273065447807312,-0.026148786768317223,-0.002349319402128458,7.144440650939941,-1.38405442237854,-4.0058393478393555,-0.03,0.02,0.01,260.89
1682371527.73830605,412207885,2,1.25,0.77,158.36,-0.6787906289100647,0.2739904522895813,-0.02393881231546402,-0.021176213398575783,7.077511310577393,-1.3571758270263672,-4.008320331573486,-0.03,0.02,0.01,260.89
1682371527.83835196,412307931,2,1.19,0.62,158.42000000000002,-0.6818148493766785,0.2625158131122589,-0.0337485708296299,-0.050885602831840515,7.010578632354736,-1.3316556215286255,-4.012795448303223,-0.03,0.02,0.01,260.89
1682371527.93835807,412407937,2,1.19,0.49,158.51,-0.6811744570732117,0.258598655462265,-0.03733215853571892,-0.06471534073352814,6.944300651550293,-1.3075530529022217,-4.018106460571289,-0.03,0.02,0.01,260.89
1682371528.03831196,412507891,2,1.1,0.49,158.59,-0.6917297840118408,0.24509289860725403,-0.03621046245098114,-0.0550665408372879,6.8774518966674805,-1.2832225561141968,-4.022696495056152,-0.03,0.02,0.01,260.89
1682371528.13833499,412607914,2,1.03,0.54,158.65,-0.6951039433479309,0.2584243416786194,-0.031854018568992615,-0.03068174421787262,6.811625957489014,-1.2586472034454346,-4.025422096252441,-0.03,0.02,0.01,260.89
1682371528.23835397,412707933,2,0.9500000000000001,0.59,158.71,-0.694786012172699,0.2557142376899719,-0.02404468134045601,-0.013355055823922157,6.745754241943359,-1.2328784465789795,-4.02831506729126,-0.03,0.02,0.01,260.89
1682371528.33834910,412807928,2,0.92,0.63,158.74,-0.6940115690231323,0.2591627836227417,-0.018372034654021263,-0.020934835076332092,6.680291652679443,-1.2052918672561646,-4.031200408935547,-0.03,0.02,0.01,260.89
1682371528.43833494,412907914,2,1.08,0.68,158.74,-0.7018192410469055,0.2497011125087738,-0.016311943531036377,-0.014917165972292423,6.614283084869385,-1.1781362295150757,-4.032816410064697,-0.03,0.02,0.01,260.89
1682371528.53830910,413007888,2,1.21,0.7000000000000001,158.71,-0.7049767374992371,0.25993481278419495,-0.0009077495778910816,0.0047565060667693615,6.548107147216797,-1.1510848999023438,-4.032998561859131,-0.03,0.02,0.01,260.89
1682371528.63831496,413107894,2,1.29,0.67,158.65,-0.7068057656288147,0.26378142833709717,0.004994528368115425,0.011926785111427307,6.481256008148193,-1.1229931116104126,-4.0327067375183105,-0.02,0.02,0.01,260.89
1682371528.73832893,413207908,2,1.33,0.63,158.58,-0.7070100903511047,0.2802264094352722,0.028686733916401863,0.023292042315006256,6.414818286895752,-1.0936686992645264,-4.032602310180664,-0.02,0.02,0.01,260.89
1682371528.83834910,413307928,2,1.34,0.64,158.47,-0.712024986743927,0.26603448390960693,0.017752643674612045,0.010698067024350166,6.347506999969482,-1.0636358261108398,-4.0317864418029785,-0.02,0.02,0.01,260.89
1682371528.93830991,413407889,2,1.36,0.63,158.35,-0.7232303619384766,0.2621263563632965,0.00914386473596096,0.0023476979695260525,6.278871536254883,-1.032372236251831,-4.031130790710449,-0.02,0.02,0.01,260.89
1682371529.03834009,413507919,2,1.43,0.72,158.24,-0.7289155721664429,0.2610137164592743,0.0004470721469260752,-0.002692746464163065,6.207180023193359,-1.0018178224563599,-4.0297393798828125,-0.02,0.02,0.01,260.89
1682371529.13832092,413607900,2,1.45,0.9,158.12,-0.7398198843002319,0.2428031712770462,0.002651651157066226,0.01820128783583641,6.1321258544921875,-0.9715191125869751,-4.027078151702881,-0.02,0.02,0.01,260.89
1682371529.23836803,413707947,2,1.3800000000000001,1.16,158.03,-0.737107515335083,0.2476709932088852,0.00037435756530612707,0.018437130376696587,6.057129383087158,-0.9426000118255615,-4.024909496307373,-0.02,0.02,0.01,260.89
1682371529.33834696,413807926,2,1.31,1.33,157.95000000000002,-0.7352219223976135,0.24985741078853607,0.016850829124450684,0.03961608558893204,5.982213020324707,-0.9150776863098145,-4.021932601928711,-0.02,0.02,0.01,260.89
