timestamp,TimeUS,C,Q1,Q2,Q3,Q4
1682371501.83833408,386307913,2,-0.09996117651462555,0.0012693575117737055,-0.0002528297482058406,0.9949904680252075
1682371501.93831396,386407893,2,-0.10000498592853546,0.0012745162239298224,-0.0002711268898565322,0.9949860572814941
1682371502.03832912,386507908,2,-0.09999201446771622,0.001248262356966734,-0.0002526948519516736,0.994987428188324
1682371502.13834310,386607922,2,-0.09994333237409592,0.0012865716125816107,-0.0002620735322125256,0.9949922561645508
1682371502.23835111,386707930,2,-0.10000668466091156,0.001279000542126596,-0.0002908427268266678,0.9949858784675598
1682371502.33832812,386807907,2,-0.10001356899738312,0.0012462224112823606,-0.0002751077408902347,0.9949852824211121
1682371502.43829894,386907878,2,-0.10000861436128616,0.0012307345168665051,-0.0003092563711106777,0.9949857592582703
1682371502.53830194,387007881,2,-0.09999597072601318,0.0012577465968206525,-0.00030193154816515744,0.9949870109558105
1682371502.63830400,387107883,2,-0.09998190402984619,0.0012525338679552078,-0.0003460799343883991,0.9949883818626404
1682371502.73833203,387207911,2,-0.09994421154260635,0.001221410115249455,-0.00034487448283471167,0.9949922561645508
1682371502.83831000,387307889,2,-0.09993568807840347,0.0012462326558306813,-0.0003624365199357271,0.9949930310249329
1682371502.93834496,387407924,2,-0.09991152584552765,0.0011679786257445812,-0.0003747559676412493,0.9949955940246582
1682371503.03831005,387507889,2,-0.09996560961008072,0.0011479150271043181,-0.0003931586688850075,0.9949901700019836
1682371503.13834310,387607922,2,-0.1000213772058487,0.0011772996513172984,-0.0003837522817775607,0.99498450756073
1682371503.23833203,387707911,2,-0.10003256797790527,0.0012090773088857532,-0.0003531893016770482,0.9949833750724792
1682371503.33830214,387807881,2,-0.10003023594617844,0.0011538102990016341,-0.0003620747884269804,0.9949836730957031
1682371503.43830013,387907879,2,-0.10008445382118225,0.0011299923062324524,-0.0003528791421558708,0.9949782490730286
1682371503.53832006,388007899,2,-0.10000185668468475,0.001084732124581933,-0.00037629224243573844,0.9949865937232971
1682371503.63834500,388107924,2,-0.10001026839017868,0.001076164422556758,-0.00039258640026673675,0.9949857592582703
1682371503.73830795,388207887,2,-0.10004688799381256,0.0009885909967124462,-0.00041977790533564985,0.994982123374939
1682371503.83833504,388307914,2,-0.10005255788564682,0.0009674273896962404,-0.0003763355198316276,0.994981586933136
1682371503.93831897,388407898,2,-0.10003425180912018,0.0009552619303576648,-0.00037804656312800944,0.994983434677124
1682371504.03835106,388507930,2,-0.10004299134016037,0.0009194655576720834,-0.00037617614725604653,0.9949826002120972
1682371504.13833094,388607910,2,-0.10004541277885437,0.0008791210129857063,-0.000419234944274649,0.9949824213981628
1682371504.23830795,388707887,2,-0.10007510334253311,0.0008897961233742535,-0.00039662595372647047,0.9949793815612793
1682371504.33830500,388807884,2,-0.1000899225473404,0.0008743513026274741,-0.00035141679109074175,0.9949779510498047
1682371504.43831992,388907899,2,-0.1000594049692154,0.0009121813345700502,-0.0003557094605639577,0.9949809908866882
1682371504.53833890,389007918,2,-0.10006282478570938,0.0009267039713449776,-0.0004090442671440542,0.9949806332588196
1682371504.63830590,389107885,2,-0.10002204775810242,0.0009641170618124306,-0.0004277880070731044,0.9949846863746643
1682371504.73833394,389207913,2,-0.1001422181725502,0.0009893025271594524,-0.0003721976827364415,0.9949725866317749
1682371504.83836913,389307948,2,-0.10003390908241272,0.0009837435791268945,-0.00038353304262273014,0.9949834942817688
1682371504.93835211,389407931,2,-0.09989678859710693,0.0009982878109440207,-0.0005550163332372904,0.9949971437454224
1682371505.03834105,389507920,2,-0.10015472024679184,0.0010023703798651695,-0.0004315774713177234,0.9949712753295898
1682371505.13831091,389607890,2,-0.10015302896499634,0.001104013528674841,-0.0005927850143052638,0.9949712753295898
1682371505.23831010,389707889,2,-0.09967366605997086,0.0012182763312011957,-0.0003823742736130953,0.9950193762779236
1682371505.33833814,389807917,2,-0.10031180083751678,0.0019301550928503275,-0.0013629280729219317,0.9949532747268677
1682371505.43835807,389907937,2,-0.09963452816009521,0.0022067385725677013,0.0009143150527961552,0.9950212240219116
1682371505.53831792,390007897,2,-0.09845223277807236,-0.005345406476408243,0.0026165086310356855,0.9951239824295044
1682371505.63835096,390107930,2,-0.0974821150302887,-0.006460299715399742,0.002663108054548502,0.995212733745575
1682371505.73830700,390207886,2,-0.09585864841938019,-0.0038330289535224438,0.0026858842466026545,0.9953839778900146
1682371505.83834910,390307928,2,-0.09435569494962692,-0.0040321554988622665,0.0004531560989562422,0.9955303072929382
1682371505.93834305,390407922,2,-0.09275195747613907,-0.002080358564853668,-0.00039356810157187283,0.9956870079040527
1682371506.03832293,390507902,2,-0.09124165773391724,-0.0011508418247103691,-0.0012791212648153305,0.995827317237854
1682371506.13830495,390607884,2,-0.08968612551689148,-0.001242720172740519,-0.004083759617060423,0.9959609508514404
1682371506.23831296,390707892,2,-0.08821329474449158,-0.002212818246334791,-0.002946264576166868,0.996094822883606
1682371506.33836913,390807948,2,-0.087067149579525,-0.005856081377714872,0.0010510128922760487,0.9961847066879272
1682371506.43830991,390907889,2,-0.08609186857938766,-0.009065479040145874,0.0026574060320854187,0.9962424039840698
1682371506.53834605,391007925,2,-0.08539742976427078,-0.0108211450278759,0.005445667076855898,0.9962733387947083
1682371506.63838196,391107961,2,-0.0851682722568512,-0.010173941031098366,0.005100072827190161,0.9963015913963318
1682371506.73835111,391207930,2,-0.08512704074382782,-0.008990390226244926,0.005237081088125706,0.9963157773017883
1682371506.83833814,391307917,2,-0.08556659519672394,-0.006479213479906321,0.0042275008745491505,0.9963024258613586
1682371506.93831396,391407893,2,-0.08640257269144058,-0.004330984782427549,0.004061442334204912,0.9962425827980042
1682371507.03830600,391507885,2,-0.08757255971431732,-0.006051631178706884,0.0063554514199495316,0.996119499206543
1682371507.13835502,391607934,2,-0.08874091506004333,-0.007146038580685854,0.0055603445507586,0.9960135817527771
1682371507.23835111,391707930,2,-0.09005144238471985,-0.009373978711664677,0.00575095834210515,0.9958763718605042
1682371507.33830905,391807888,2,-0.09122593700885773,-0.010086467489600182,0.00552613427862525,0.9957637786865234
1682371507.43833804,391907917,2,-0.092522032558918,-0.009867114946246147,0.006369092036038637,0.9956413507461548
1682371507.53837013,392007949,2,-0.09374120086431503,-0.009877157397568226,0.007156087085604668,0.9955219030380249
1682371507.63835406,392107933,2,-0.0948437750339508,-0.011732282117009163,0.007096513640135527,0.9953977465629578
1682371507.73833609,392207915,2,-0.09586010128259659,-0.011722308583557606,0.005876798648387194,0.9953084588050842
1682371507.83830690,392307886,2,-0.09659141302108765,-0.01209263876080513,0.0039135306142270565,0.9952429533004761
1682371507.93831205,392407891,2,-0.0973551794886589,-0.01165186520665884,0.0022869687527418137,0.9951788783073425
1682371508.03830695,392507886,2,-0.09814737737178802,-0.011447833850979805,0.002443158533424139,0.9951030611991882
1682371508.13835001,392607929,2,-0.0987125039100647,-0.012333054095506668,0.004792485386133194,0.995028018951416
1682371508.23831892,392707898,2,-0.09924396127462387,-0.011481770314276218,0.008084394969046116,0.994964063167572
1682371508.33833599,392807915,2,-0.09970277547836304,-0.011739819310605526,0.009363592602312565,0.9949039220809937
1682371508.43834209,392907921,2,-0.09971524775028229,-0.01190404687076807,0.010090631432831287,0.9948936104774475
1682371508.53835702,393007936,2,-0.09946419298648834,-0.011599874123930931,0.010780644603073597,0.9949151277542114
1682371508.63833809,393107917,2,-0.09893501549959183,-0.010425322689116001,0.008697308599948883,0.9950012564659119
1682371508.73831391,393207893,2,-0.09829168021678925,-0.009409244172275066,0.007117592729628086,0.9950876832008362
1682371508.83832002,393307899,2,-0.09734181314706802,-0.01072289515286684,0.00573828537017107,0.9951766729354858
1682371508.93833303,393407912,2,-0.09638463705778122,-0.01083238422870636,0.005698697175830603,0.9952688813209534
1682371509.03833699,393507916,2,-0.09516576677560806,-0.011693325825035572,0.006279472261667252,0.9953729510307312
1682371509.13830400,393607883,2,-0.09387190639972687,-0.011870178394019604,0.006692641880363226,0.9954910278320312
1682371509.23833513,393707914,2,-0.09250232577323914,-0.010429160669445992,0.008063431829214096,0.9956251978874207
1682371509.33831096,393807890,2,-0.09103455394506454,-0.010205471888184547,0.009322656318545341,0.9957517981529236
1682371509.43834805,393907927,2,-0.08937879651784897,-0.010674845427274704,0.009472180157899857,0.9958954453468323
1682371509.53833890,394007918,2,-0.08801613748073578,-0.011173345148563385,0.009647996164858341,0.9960096478462219
1682371509.63831711,394107896,2,-0.06636113673448563,-0.012259995564818382,0.008482929319143295,0.9976842999458313
1682371509.73831010,394207889,2,-0.06523512303829193,-0.013351283967494965,0.006849211174994707,0.997757077217102
1682371509.83832598,394307905,2,-0.06410554051399231,-0.01295760739594698,0.006053675431758165,0.9978406429290771
1682371509.93835998,394407939,2,-0.06367237120866776,-0.012794803828001022,0.006027265451848507,0.9978706240653992
1682371510.03831291,394507892,2,-0.06348495185375214,-0.010905521921813488,0.007487915921956301,0.9978951215744019
1682371510.13834596,394607925,2,-0.06359560787677765,-0.009467395022511482,0.008529155515134335,0.9978944063186646
1682371510.23838711,394707966,2,-0.06409045308828354,-0.007142655551433563,0.007884224876761436,0.997887372970581
1682371510.33835697,394807936,2,-0.065223328769207,-0.006330953445285559,0.007665062788873911,0.9978211522102356
1682371510.43833995,394907919,2,-0.06666089594364166,-0.00861391145735979,0.007191590964794159,0.9977126121520996
1682371510.53831100,395007890,2,-0.06801655888557434,-0.00980767048895359,0.007208684924989939,0.9976099133491516
1682371510.63830709,395107886,2,-0.06906869262456894,-0.011007414199411869,0.008231284096837044,0.9975172281265259
1682371510.73830509,395207884,2,-0.06977884471416473,-0.011156600899994373,0.00881356280297041,0.9974611401557922
1682371510.83835411,395307933,2,-0.07044695317745209,-0.010276981629431248,0.00980506744235754,0.9974144101142883
1682371510.93830800,395407887,2,-0.07078354805707932,-0.0098531199619174,0.011110985651612282,0.9973811507225037
1682371511.03834510,395507924,2,-0.07145979255437851,-0.007941891439259052,0.011104016564786434,0.9973500370979309
1682371511.13837099,395607950,2,-0.07244206219911575,-0.007884297519922256,0.011770087294280529,0.9972720146179199
1682371511.23835707,395707936,2,-0.07365132868289948,-0.009967977181077003,0.012689354829490185,0.9971535205841064
1682371511.33834100,395807920,2,-0.0752125233411789,-0.011184909380972385,0.012771550565958023,0.9970229864120483
1682371511.43831611,395907895,2,-0.07638304680585861,-0.012274262495338917,0.013480964116752148,0.9969118237495422
1682371511.53830910,396007888,2,-0.07706283032894135,-0.011645525693893433,0.014235409907996655,0.9968565702438354
1682371511.63833594,396107915,2,-0.07774799317121506,-0.008647659793496132,0.015515303239226341,0.9968147873878479
1682371511.73834491,396207924,2,-0.07957996428012848,-0.006259980611503124,0.016129393130540848,0.996678352355957
1682371511.83831811,396307897,2,-0.08170264959335327,-0.006735233124345541,0.014251908287405968,0.9965320825576782
1682371511.93834209,396407921,2,-0.08433827757835388,-0.007727799471467733,0.011996177025139332,0.996334969997406
1682371512.03831100,396507890,2,-0.08667472004890442,-0.010286115109920502,0.010332375764846802,0.9961299896240234
1682371512.13835001,396607929,2,-0.0883399024605751,-0.011437084525823593,0.009301433339715004,0.9959812760353088
1682371512.23834610,396707925,2,-0.08986268192529678,-0.011298470199108124,0.009433425031602383,0.995845377445221
1682371512.33830595,396807885,2,-0.09110203385353088,-0.011968957260251045,0.009704507887363434,0.9957223534584045
1682371512.43831110,396907890,2,-0.092087022960186,-0.009353484958410263,0.009528682567179203,0.9956614375114441
1682371512.53831506,397007894,2,-0.09292114526033401,-0.004707243759185076,0.007899554446339607,0.9956309795379639
1682371512.63836098,397107940,2,-0.0935996025800705,0.001799331046640873,0.005296142306178808,0.9955942034721375
1682371512.73832202,397207901,2,-0.09347637742757797,0.008583428338170052,0.0024595451541244984,0.9955814480781555
1682371512.83833694,397307916,2,-0.09099724888801575,0.014024554751813412,-0.00020409766875673085,0.9957523345947266
1682371512.93831706,397407896,2,-0.08530733734369278,0.018907692283391953,-0.0016728187911212444,0.9961738586425781
1682371513.03836107,397507940,2,-0.07540211081504822,0.022482872009277344,-0.0019518897170200944,0.99689781665802
1682371513.13833404,397607913,2,-0.060861729085445404,0.025570997968316078,-0.0013770232908427715,0.9978176355361938
1682371513.23831391,397707893,2,-0.04106302931904793,0.025975946336984634,-0.0013024836080148816,0.9988179802894592
1682371513.33830810,397807887,2,-0.017180196940898895,0.02529863454401493,-0.0004928595153614879,0.999532163143158
1682371513.43831301,397907892,2,0.008830477483570576,0.02348444052040577,0.0016285056481137872,0.9996838569641113
1682371513.53835392,398007933,2,0.03588317334651947,0.020020870491862297,0.004835001192986965,0.9991437196731567
1682371513.63831210,398107891,2,0.06388130784034729,0.015208735130727291,0.009840321727097034,0.9977930784225464
1682371513.73833394,398207913,2,0.0931423157453537,0.00945767667144537,0.01420027669519186,0.9955065846443176
1682371513.83836913,398307948,2,0.12214406579732895,0.003990009892731905,0.01883397251367569,0.9923256635665894
1682371513.93836308,398407942,2,0.1520029604434967,-0.002031153067946434,0.02225230261683464,0.9881274104118347
1682371514.03834009,398507919,2,0.1808789074420929,-0.007598654367029667,0.025998461991548538,0.9831323027610779
1682371514.13830495,398607884,2,0.20859281718730927,-0.01265188492834568,0.02807464636862278,0.9775176644325256
1682371514.23831105,398707890,2,0.23267067968845367,-0.01599765755236149,0.028149303048849106,0.972016453742981
1682371514.33832192,398807901,2,0.25333431363105774,-0.017500631511211395,0.027841804549098015,0.966819703578949
1682371514.43834305,398907922,2,0.270190954208374,-0.01752656139433384,0.026774197816848755,0.9622747898101807
1682371514.53831005,399007889,2,0.28405505418777466,-0.016032086685299873,0.02585565857589245,0.958325207233429
1682371514.63833809,399107917,2,0.2952885925769806,-0.014718529768288136,0.02358810417354107,0.9550034403800964
1682371514.73831201,399207891,2,0.3037966191768646,-0.013940377160906792,0.0221794992685318,0.952376663684845
1682371514.83835006,399307929,2,0.30968374013900757,-0.014240922406315804,0.0196571983397007,0.9505297541618347
1682371514.93833899,399407918,2,0.31308606266975403,-0.01470352802425623,0.01660441979765892,0.9494657516479492
1682371515.03831100,399507890,2,0.31430336833000183,-0.014472509734332561,0.015317619778215885,0.9490886926651001
1682371515.13830495,399607884,2,0.31339335441589355,-0.014207489788532257,0.013476847670972347,0.9494214653968811
1682371515.23832512,399707904,2,0.3111770749092102,-0.012198257260024548,0.012863223440945148,0.9501866102218628
1682371515.33835506,399807934,2,0.3074865937232971,-0.010773906484246254,0.011138624511659145,0.9514262080192566
1682371515.43831301,399907892,2,0.30228760838508606,-0.010567241348326206,0.010206371545791626,0.9531035423278809
1682371515.53833890,400007918,2,0.29593876004219055,-0.010129188187420368,0.008640189655125141,0.9551141262054443
1682371515.63832593,400107905,2,0.28843504190444946,-0.010458238422870636,0.006439723074436188,0.9574207067489624
1682371515.73835492,400207934,2,0.27977415919303894,-0.010692456737160683,0.00534032192081213,0.959991455078125
1682371515.83834004,400307919,2,0.270381361246109,-0.010223719291388988,0.004425813909620047,0.9626888632774353
1682371515.93831611,400407895,2,0.26040148735046387,-0.010017266497015953,0.0038236863911151886,0.9654408693313599
1682371516.03830504,400507884,2,0.25012242794036865,-0.008715320378541946,0.004645531997084618,0.9681638479232788
1682371516.13831496,400607894,2,0.23960839211940765,-0.0074835363775491714,0.00471047917380929,0.9708293676376343
1682371516.23836493,400707944,2,0.22916889190673828,-0.0055330474860966206,0.006160664837807417,0.9733514785766602
1682371516.33831000,400807889,2,0.21883520483970642,-0.0036224103532731533,0.00669699115678668,0.975732147693634
1682371516.43835211,400907931,2,0.20877353847026825,-0.0032925019040703773,0.006786484736949205,0.9779348969459534
1682371516.53835511,401007934,2,0.19954480230808258,-0.002686426742002368,0.006473884452134371,0.9798636436462402
1682371516.63835597,401107935,2,0.19128623604774475,-0.00247988011687994,0.006041893269866705,0.9815125465393066
1682371516.73833895,401207918,2,0.18413116037845612,-0.0023233797401189804,0.006318983156234026,0.9828786253929138
1682371516.83831406,401307893,2,0.17813007533550262,-0.0022449339739978313,0.006382910069078207,0.9839836955070496
1682371516.93832207,401407901,2,0.1733328402042389,-0.0026472958270460367,0.007167474366724491,0.9848336577415466
1682371517.03831911,401507898,2,0.16992096602916718,-0.0037016510032117367,0.008179291151463985,0.9854167699813843
1682371517.13835001,401607929,2,0.1678965538740158,-0.004497356712818146,0.00961984507739544,0.9857473969459534
1682371517.23832512,401707904,2,0.16681082546710968,-0.004016106482595205,0.011346809566020966,0.9859154224395752
1682371517.33834100,401807920,2,0.16677714884281158,-0.0035678367130458355,0.012075252830982208,0.9859142303466797
1682371517.43837905,401907958,2,0.16753917932510376,-0.002599852392449975,0.011961730197072029,0.98578941822052
1682371517.53835797,402007937,2,0.16898365318775177,-0.0031892722472548485,0.01130898017436266,0.9855487942695618
1682371517.63835001,402107929,2,0.1709553450345993,-0.004273455124348402,0.010110663250088692,0.9852176308631897
1682371517.73831010,402207889,2,0.17339518666267395,-0.00526804942637682,0.009432605467736721,0.9847930669784546
1682371517.83831096,402307890,2,0.17616043984889984,-0.005602715071290731,0.008885168470442295,0.9843054413795471
1682371517.93832207,402407901,2,0.179226815700531,-0.0056394231505692005,0.008799496106803417,0.9837522506713867
1682371518.03834605,402507925,2,0.18233321607112885,-0.005462076980620623,0.009057915769517422,0.9831799268722534
1682371518.13831997,402607899,2,0.1854487955570221,-0.005659289192408323,0.009373879060149193,0.9825929403305054
1682371518.23834801,402707927,2,0.1884515881538391,-0.006442672573029995,0.008625304326415062,0.9820234775543213
1682371518.33831692,402807896,2,0.1914592683315277,-0.007176792249083519,0.008681703358888626,0.9814358949661255
1682371518.43834996,402907929,2,0.1942470520734787,-0.006962703075259924,0.009320279583334923,0.9808836579322815
1682371518.53835011,403007929,2,0.19666388630867004,-0.007494252175092697,0.009908486157655716,0.9803922772407532
1682371518.63831496,403107894,2,0.1989254504442215,-0.008190194144845009,0.010884037241339684,0.979919970035553
1682371518.73831105,403207890,2,0.20076358318328857,-0.008920596912503242,0.011264273896813393,0.9795343279838562
1682371518.83832502,403307904,2,0.20235811173915863,-0.008731887675821781,0.011141270399093628,0.979209303855896
1682371518.93837214,403407951,2,0.20357389748096466,-0.008035901933908463,0.010985024273395538,0.9789649844169617
1682371519.03830791,403507887,2,0.20447291433811188,-0.006603121757507324,0.011051415465772152,0.9787875413894653
1682371519.13833499,403607914,2,0.2047968953847885,-0.005924176890403032,0.010895627550780773,0.9787259101867676
1682371519.23836994,403707949,2,0.20486295223236084,-0.0061263712123036385,0.010416136123239994,0.9787160754203796
1682371519.33835411,403807933,2,0.2044670730829239,-0.006445873063057661,0.010081897489726543,0.9788002967834473
1682371519.43833613,403907915,2,0.20368653535842896,-0.006433474365621805,0.009830338880419731,0.9789656400680542
1682371519.53830910,404007888,2,0.20276927947998047,-0.00657561095431447,0.009275753051042557,0.9791605472564697
1682371519.63831210,404107891,2,0.2017921656370163,-0.00639902101829648,0.00818072073161602,0.9793732762336731
1682371519.73830509,404207884,2,0.20063376426696777,-0.006087683141231537,0.008033535443246365,0.9796144366264343
1682371519.83834791,404307927,2,0.19971372187137604,-0.005708306096494198,0.008255681954324245,0.9798029065132141
1682371519.93837214,404407951,2,0.19889722764492035,-0.004881741479039192,0.008293082006275654,0.9799730777740479
1682371520.03833699,404507916,2,0.19784700870513916,-0.0042426553554832935,0.008644776418805122,0.9801856279373169
1682371520.13830996,404607889,2,0.19676406681537628,-0.004324689507484436,0.008370565250515938,0.9804055690765381
1682371520.23836398,404707943,2,0.19574613869190216,-0.005291669629514217,0.007851867005228996,0.9806088805198669
1682371520.33833814,404807917,2,0.1946028769016266,-0.005933921784162521,0.007826140150427818,0.9808329343795776
1682371520.43830705,404907886,2,0.19344861805438995,-0.006234664935618639,0.007894261740148067,0.9810588359832764
1682371520.53831291,405007892,2,0.19236434996128082,-0.0064757042564451694,0.008592006750404835,0.981264591217041
1682371520.63831997,405107899,2,0.19172491133213043,-0.006979590747505426,0.009101101197302341,0.9813817143440247
1682371520.73835301,405207932,2,0.19098395109176636,-0.007585517130792141,0.009616492316126823,0.9815167188644409
1682371520.83831692,405307896,2,0.19042621552944183,-0.0065649463795125484,0.00968264788389206,0.9816318154335022
1682371520.93834591,405407925,2,0.1900390237569809,-0.006625095382332802,0.010084966197609901,0.9817023873329163
1682371521.03832197,405507901,2,0.18991394340991974,-0.00758335879072547,0.010091226547956467,0.9817196130752563
1682371521.13836002,405607939,2,0.19007208943367004,-0.007707419339567423,0.009923834353685379,0.9816897511482239
1682371521.23834395,405707923,2,0.19052258133888245,-0.007908700965344906,0.009710274636745453,0.9816029071807861
1682371521.33831310,405807892,2,0.191034197807312,-0.007729950360953808,0.008964442647993565,0.9815120100975037
1682371521.43830991,405907889,2,0.1915220469236374,-0.008448800072073936,0.007798581849783659,0.9814209342002869
1682371521.53833604,406007915,2,0.19178523123264313,-0.008556694723665714,0.007408640813082457,0.9813716411590576
1682371521.63835311,406107932,2,0.19190798699855804,-0.00880638137459755,0.006698808632791042,0.9813505411148071
1682371521.73831105,406207890,2,0.19192129373550415,-0.008843361400067806,0.006236989051103592,0.9813506603240967
1682371521.83834100,406307920,2,0.1914663016796112,-0.009076535701751709,0.005054418463259935,0.9814441800117493
1682371521.93837094,406407950,2,0.19079458713531494,-0.00890944804996252,0.004506972152739763,0.9815791845321655
1682371522.03836012,406507939,2,0.1898031085729599,-0.008359420113265514,0.003995909821242094,0.9817784428596497
1682371522.13834000,406607919,2,0.18851202726364136,-0.008411837741732597,0.004083686042577028,0.9820263385772705
1682371522.23832202,406707901,2,0.1870088130235672,-0.007636481896042824,0.004706186708062887,0.9823172688484192
1682371522.33831000,406807889,2,0.1852184683084488,-0.00679960660636425,0.004953643772751093,0.9826613664627075
1682371522.43831396,406907893,2,0.1832381784915924,-0.006931672338396311,0.004616218619048595,0.983033299446106
1682371522.53837395,407007953,2,0.18105120956897736,-0.0062397499568760395,0.004349482245743275,0.9834442734718323
1682371522.63831401,407107893,2,0.1786545366048813,-0.006064245011657476,0.004804377909749746,0.9838814735412598
1682371522.73834395,407207923,2,0.17621617019176483,-0.005736018065363169,0.005349256098270416,0.9843202233314514
1682371522.83832598,407307905,2,0.1740644872188568,-0.00530996872112155,0.005900943651795387,0.9847022294998169
1682371522.93835902,407407938,2,0.1722073256969452,-0.004768121987581253,0.006684266962110996,0.9850265383720398
1682371523.03834200,407507921,2,0.17065618932247162,-0.004473775625228882,0.007558533456176519,0.9852914810180664
1682371523.13831902,407607898,2,0.16948427259922028,-0.004382687620818615,0.008211814798414707,0.9854889512062073
1682371523.23831201,407707891,2,0.16889186203479767,-0.004970730282366276,0.009745486080646515,0.9855738878250122
1682371523.33835006,407807929,2,0.16881941258907318,-0.00543893501162529,0.010673003271222115,0.9855741858482361
1682371523.43835306,407907932,2,0.16929584741592407,-0.005717061925679445,0.011401225812733173,0.9854827523231506
1682371523.53837490,408007954,2,0.17019063234329224,-0.006387613248080015,0.01182425208389759,0.9853194952011108
1682371523.63834095,408107920,2,0.17150327563285828,-0.006909892428666353,0.010353174060583115,0.9851049184799194
1682371523.73837209,408207951,2,0.1729642003774643,-0.007083165924996138,0.010015331208705902,0.9848517179489136
1682371523.83834696,408307926,2,0.17476139962673187,-0.006834894884377718,0.01010541245341301,0.9845352172851562
1682371523.93834805,408407927,2,0.17668047547340393,-0.006474692840129137,0.0101836072281003,0.984194278717041
1682371524.03830910,408507888,2,0.17864054441452026,-0.005994726438075304,0.011186563409864902,0.9838325381278992
1682371524.13830900,408607888,2,0.18049409985542297,-0.005800715181976557,0.011550631374120712,0.9834911227226257
1682371524.23831296,408707892,2,0.18210512399673462,-0.0065384600311517715,0.011624269187450409,0.9831886291503906
1682371524.33836699,408807946,2,0.18364164233207703,-0.006566748488694429,0.011317444033920765,0.9829061627388
1682371524.43838000,408907959,2,0.18502388894557953,-0.00593560142442584,0.011155583895742893,0.9826527833938599
1682371524.53834105,409007920,2,0.1862260103225708,-0.005578576121479273,0.01110898144543171,0.9824283123016357
1682371524.63837314,409107952,2,0.18719090521335602,-0.004905447829514742,0.011083889752626419,0.9822487831115723
1682371524.73835111,409207930,2,0.18799614906311035,-0.004821300972253084,0.010788848623633385,0.9820986986160278
1682371524.83834100,409307920,2,0.1887013167142868,-0.0058050937950611115,0.010054554790258408,0.9819658994674683
1682371524.93831396,409407893,2,0.18925172090530396,-0.006158752832561731,0.00980724673718214,0.981860339641571
1682371525.03831410,409507893,2,0.18981090188026428,-0.006583718117326498,0.010158130899071693,0.9817460179328918
1682371525.13832712,409607906,2,0.19023363292217255,-0.0059119840152561665,0.01036145631223917,0.9816663861274719
1682371525.23836899,409707948,2,0.190531387925148,-0.004691132344305515,0.011311575770378113,0.9816046953201294
1682371525.33831596,409807895,2,0.19085226953029633,-0.004008952062577009,0.011591748334467411,0.98154217004776
1682371525.43834305,409907922,2,0.1911667436361313,-0.004074862226843834,0.01156026404350996,0.9814810156822205
1682371525.53836894,410007948,2,0.19124121963977814,-0.004144178703427315,0.011598294600844383,0.9814658164978027
1682371525.63835502,410107934,2,0.19115234911441803,-0.004278507549315691,0.010953867807984352,0.9814899563789368
1682371525.73833704,410207916,2,0.19108127057552338,-0.0041574593633413315,0.010735097341239452,0.9815067052841187
1682371525.83831096,410307890,2,0.19108332693576813,-0.0034584582317620516,0.011187924072146416,0.981503963470459
1682371525.93831992,410407899,2,0.19119051098823547,-0.003335528774186969,0.01108525414019823,0.9814847111701965
1682371526.03832793,410507907,2,0.1911351978778839,-0.0038364126812666655,0.011448563076555729,0.9814894795417786
1682371526.13834000,410607919,2,0.19111573696136475,-0.004023127723485231,0.011318923905491829,0.9814940094947815
1682371526.23830795,410707887,2,0.1911543756723404,-0.004632813390344381,0.011045604012906551,0.9814869165420532
1682371526.33833814,410807917,2,0.1911851018667221,-0.005263436585664749,0.010789742693305016,0.981480598449707
1682371526.43831205,410907891,2,0.19116364419460297,-0.005962132941931486,0.01055514719337225,0.9814833402633667
1682371526.53835297,411007932,2,0.19110015034675598,-0.006624799687415361,0.010433287359774113,0.9814927577972412
1682371526.63833904,411107918,2,0.19116255640983582,-0.006142765283584595,0.010730138048529625,0.9814805388450623
1682371526.73831105,411207890,2,0.19134235382080078,-0.005865230690687895,0.010849217884242535,0.981445848941803
1682371526.83830500,411307884,2,0.1911042183637619,-0.005462169647216797,0.010998898185789585,0.9814929366111755
1682371526.93831491,411407894,2,0.1907019317150116,-0.005303374491631985,0.010984283871948719,0.9815722107887268
1682371527.03837204,411507951,2,0.19033199548721313,-0.004975026473402977,0.010801071301102638,0.9816477298736572
1682371527.13830495,411607884,2,0.18999552726745605,-0.005085801240056753,0.01034525316208601,0.9817172884941101
1682371527.23833704,411707916,2,0.1897350698709488,-0.005215334706008434,0.009896713308990002,0.9817715883255005
1682371527.33836913,411807948,2,0.1894090622663498,-0.0054580653086304665,0.010001997463405132,0.9818321466445923
1682371527.43836403,411907943,2,0.18904484808444977,-0.005507821217179298,0.010538998991250992,0.9818964600563049
1682371527.53833795,412007917,2,0.18869082629680634,-0.005581631790846586,0.010912113822996616,0.9819600582122803
1682371527.63831496,412107894,2,0.18824590742588043,-0.0051555996760725975,0.012218103744089603,0.9820324182510376
1682371527.73830605,412207885,2,0.18776308000087738,-0.004549273289740086,0.012009079568088055,0.9821304082870483
1682371527.83835196,412307931,2,0.18716725707054138,-0.0033874744549393654,0.011276870034635067,0.9822574853897095
1682371527.93835807,412407937,2,0.1864674687385559,-0.0023310761898756027,0.011073264293372631,0.9823959469795227
1682371528.03831196,412507891,2,0.1857801377773285,-0.0024125855416059494,0.010292029939591885,0.9825344681739807
1682371528.13833499,412607914,2,0.18521322309970856,-0.003013388253748417,0.009765834547579288,0.9826452136039734
1682371528.23835397,412707933,2,0.18475593626499176,-0.0035553197376430035,0.009157754480838776,0.9827353358268738
1682371528.33834910,412807928,2,0.18449534475803375,-0.003929520025849342,0.008958272635936737,0.9827846884727478
1682371528.43833494,412907914,2,0.1844981461763382,-0.004161530639976263,0.01040563639253378,0.9827689528465271
1682371528.53830910,413007888,2,0.18471141159534454,-0.004086706787347794,0.011546454392373562,0.9827165007591248
1682371528.63831496,413107894,2,0.18521921336650848,-0.0036714915186166763,0.012185826897621155,0.9826148152351379
1682371528.73832893,413207908,2,0.1858844757080078,-0.0032599298283457756,0.012481048703193665,0.98248690366745
1682371528.83834910,413307928,2,0.18678587675094604,-0.003314789617434144,0.012557984329760075,0.9823147654533386
1682371528.93830991,413407889,2,0.18777407705783844,-0.0032353990245610476,0.012708185240626335,0.9821246862411499
1682371529.03834009,413507919,2,0.18880707025527954,-0.003828070592135191,0.013494816608726978,0.9819139838218689
1682371529.13832092,413607900,2,0.18980705738067627,-0.0053465948440134525,0.013986795209348202,0.9817072153091431
1682371529.23836803,413707947,2,0.19057300686836243,-0.0076893907971680164,0.013769757933914661,0.9815463423728943
1682371529.33834696,413807926,2,0.1912931203842163,-0.009273459203541279,0.013453497551381588,0.9813969135284424
1682371529.43831205,413907891,2,0.19190935790538788,-0.010127944871783257,0.011749904602766037,0.9812900424003601
1682371529.53831911,414007898,2,0.19238878786563873,-0.010493174195289612,0.010720436461269855,0.981204092502594
1682371529.63831592,414107895,2,0.19280220568180084,-0.00992672424763441,0.009286767803132534,0.9811434745788574
1682371529.73835611,414207935,2,0.19312144815921783,-0.009258696809411049,0.008477852679789066,0.9810945391654968
1682371529.83832502,414307904,2,0.19349054992198944,-0.006866507697850466,0.00883039366453886,0.9810383915901184
1682371529.93834901,414407928,2,0.19361694157123566,-0.005739279557019472,0.008939442224800587,0.9810196757316589
1682371530.03836894,414507948,2,0.193655863404274,-0.004894876386970282,0.00987362489104271,0.9810076355934143
1682371530.13835502,414607934,2,0.19390326738357544,-0.00498349079862237,0.009321784600615501,0.9809637069702148
1682371530.23834991,414707929,2,0.19397293031215668,-0.007456113584339619,0.008972566574811935,0.9809374809265137
1682371530.33830595,414807885,2,0.19381320476531982,-0.007805726025253534,0.008046339266002178,0.9809743762016296
1682371530.43831205,414907891,2,0.19368776679039001,-0.008307317271828651,0.00738934613764286,0.9810002446174622
1682371530.53832698,415007906,2,0.19357731938362122,-0.007850533351302147,0.007137708365917206,0.9810276627540588
1682371530.63834500,415107924,2,0.19329771399497986,-0.00614934042096138,0.007418845780193806,0.9810928106307983
1682371530.73831105,415207890,2,0.1930593103170395,-0.0053929672576487064,0.008479529991745949,0.9811356067657471
1682371530.83835006,415307929,2,0.19293080270290375,-0.0035718618892133236,0.009440692141652107,0.9811604619026184
1682371530.93837690,415407956,2,0.19261816143989563,-0.0027939374558627605,0.00919897947460413,0.9812266826629639
1682371531.03836799,415507947,2,0.19238850474357605,-0.002365838037803769,0.009659179486334324,0.9812684655189514
1682371531.13834310,415607922,2,0.1921273022890091,-0.002459784271195531,0.008821487426757812,0.9813272953033447
1682371531.23831296,415707892,2,0.19177812337875366,-0.0032269414514303207,0.008011706173419952,0.9814003109931946
1682371531.33831692,415807896,2,0.1914500594139099,-0.0034909413661807775,0.007753769401460886,0.9814655184745789
1682371531.43833303,415907912,2,0.1911003589630127,-0.003311190288513899,0.0076842112466692924,0.9815348386764526
1682371531.53834391,416007923,2,0.1907634288072586,-0.002978507662191987,0.007505645509809256,0.9816028475761414
1682371531.63831806,416107897,2,0.19055739045143127,-0.002923233201727271,0.007737696170806885,0.9816412329673767
1682371531.73834109,416207920,2,0.1902809739112854,-0.0035159445833414793,0.008007390424609184,0.9816907048225403
1682371531.83831692,416307896,2,0.1900920569896698,-0.005178428720682859,0.007693382445722818,0.9817224740982056
1682371531.93835592,416407935,2,0.1898503601551056,-0.006012696772813797,0.0073269810527563095,0.9817672967910767
1682371532.03833508,416507914,2,0.1897520124912262,-0.005529169924557209,0.007055561989545822,0.9817911386489868
1682371532.13831091,416607890,2,0.18977686762809753,-0.005171640310436487,0.007147638127207756,0.9817876219749451
1682371532.23832107,416707900,2,0.18978966772556305,-0.004595241043716669,0.007726601790636778,0.9817836284637451
1682371532.33830595,416807885,2,0.1898750215768814,-0.0046984669752418995,0.008355360478162766,0.9817614555358887
1682371532.43833899,416907918,2,0.19009281694889069,-0.006018976680934429,0.00878019630908966,0.9817084074020386
1682371532.53831196,417007891,2,0.1903906762599945,-0.006834136322140694,0.008725699968636036,0.9816458225250244
1682371532.63833809,417107917,2,0.19086836278438568,-0.0076534328982234,0.008442110382020473,0.9815495014190674
1682371532.73837495,417207954,2,0.19128234684467316,-0.007601501885801554,0.007715809158980846,0.981475293636322
1682371532.83834791,417307927,2,0.19190926849842072,-0.006861099041998386,0.006544041913002729,0.9813668727874756
1682371532.93833995,417407919,2,0.19248531758785248,-0.006055200472474098,0.006264884956181049,0.9812611937522888
1682371533.03831410,417507893,2,0.1931350827217102,-0.004324645735323429,0.006759628653526306,0.9811393618583679
1682371533.13831091,417607890,2,0.193960040807724,-0.0037392443045973778,0.007386461831629276,0.9809744954109192
1682371533.23833609,417707915,2,0.19459527730941772,-0.0031158991623669863,0.008412709459662437,0.9808425903320312
1682371533.33835292,417807932,2,0.19523462653160095,-0.0037857219576835632,0.00915825180709362,0.980706512928009
1682371533.43830705,417907886,2,0.19585558772087097,-0.005620456300675869,0.00865968968719244,0.9805784225463867
1682371533.53833890,418007918,2,0.19621840119361877,-0.006671759765595198,0.00788593478500843,0.9805058240890503
1682371533.63838100,418107960,2,0.19646257162094116,-0.007796252612024546,0.007751157972961664,0.9804496765136719
1682371533.73837304,418207952,2,0.19681978225708008,-0.007758670020848513,0.007503496948629618,0.9803802967071533
1682371533.83834291,418307922,2,0.196833536028862,-0.007307313848286867,0.007216623052954674,0.9803831577301025
1682371533.93831706,418407896,2,0.19693149626255035,-0.00739416666328907,0.006994330789893866,0.9803644418716431
1682371534.03831601,418507895,2,0.19692054390907288,-0.006208519451320171,0.007510230876505375,0.9803709983825684
1682371534.13831091,418607890,2,0.19686511158943176,-0.005900177638977766,0.007716496009379625,0.9803824424743652
1682371534.23835611,418707935,2,0.19686318933963776,-0.005046746227890253,0.0072030615992844105,0.9803915023803711
1682371534.33831406,418807893,2,0.1965903341770172,-0.005325138568878174,0.007438852451741695,0.9804430603981018
1682371534.43834591,418907925,2,0.19617103040218353,-0.005923601798713207,0.007954137399792671,0.9805195331573486
1682371534.53832293,419007902,2,0.19585612416267395,-0.006369506474584341,0.007977335713803768,0.9805794954299927
1682371534.63835692,419107936,2,0.19538864493370056,-0.0068833064287900925,0.008773197419941425,0.98066246509552
1682371534.73840094,419207980,2,0.19480569660663605,-0.006595987360924482,0.009379963390529156,0.9807748198509216
1682371534.83831000,419307889,2,0.19420993328094482,-0.0061839185655117035,0.010477440431714058,0.9808845520019531
1682371534.93831491,419407894,2,0.1934838443994522,-0.006023581605404615,0.010853001847863197,0.9810249209403992
1682371535.03831911,419507898,2,0.19277575612068176,-0.006311535835266113,0.009987466968595982,0.981171727180481
1682371535.13836408,419607943,2,0.19203141331672668,-0.0064681037329137325,0.00958824623376131,0.9813206195831299
1682371535.23831391,419707893,2,0.19113419950008392,-0.005561833269894123,0.007983196526765823,0.9815157055854797
1682371535.33835101,419807930,2,0.19016200304031372,-0.005198618862777948,0.007734797429293394,0.9817084670066833
1682371535.43832803,419907907,2,0.1892157346010208,-0.004557945299893618,0.007373567204922438,0.9818972945213318
1682371535.53836107,420007940,2,0.18830254673957825,-0.004741744138300419,0.007702616509050131,0.9820694327354431
1682371535.63835096,420107930,2,0.18736708164215088,-0.005121577996760607,0.0088023217394948,0.9822371602058411
1682371535.73831296,420207892,2,0.18652348220348358,-0.005021099932491779,0.00858480203896761,0.9824001789093018
1682371535.83831000,420307889,2,0.18569491803646088,-0.004373030737042427,0.008312836289405823,0.9825625419616699
1682371535.93832898,420407908,2,0.18494801223278046,-0.003999574109911919,0.007737710140645504,0.9827097058296204
1682371536.03836799,420507947,2,0.18414923548698425,-0.004112311638891697,0.006829145364463329,0.9828659892082214
1682371536.13831711,420607896,2,0.18346023559570312,-0.004543148912489414,0.006484071724116802,0.9829952716827393
1682371536.23833704,420707916,2,0.18286973237991333,-0.005060809664428234,0.006744666490703821,0.9831010103225708
1682371536.33838296,420807962,2,0.18239177763462067,-0.005199973005801439,0.007285567931830883,0.9831851720809937
1682371536.43835402,420907933,2,0.1820012927055359,-0.00483551574870944,0.006754379719495773,0.9832631945610046
1682371536.53835011,421007929,2,0.1817210167646408,-0.004759972915053368,0.007032053545117378,0.9833134412765503
1682371536.63831496,421107894,2,0.18149080872535706,-0.004277901258319616,0.006489007733762264,0.9833618998527527
1682371536.73831391,421207893,2,0.1813151240348816,-0.004159934353083372,0.006689441855996847,0.9833934903144836
1682371536.83832312,421307902,2,0.181118443608284,-0.004169875755906105,0.007675516419112682,0.9834225177764893
1682371536.93835711,421407936,2,0.1809968203306198,-0.004068032838404179,0.00792165007442236,0.9834433794021606
1682371537.03836298,421507942,2,0.1810196191072464,-0.004988686181604862,0.008763534016907215,0.9834277629852295
1682371537.13833499,421607914,2,0.18101002275943756,-0.005552906077355146,0.008430328220129013,0.9834294319152832
1682371537.23833013,421707909,2,0.18101371824741364,-0.00649900920689106,0.008102822117507458,0.9834257364273071
1682371537.33835506,421807934,2,0.18104398250579834,-0.007120310794562101,0.00775220338255167,0.9834186434745789
1682371537.43834209,421907921,2,0.18114322423934937,-0.007453098427504301,0.007681592833250761,0.9833984971046448
1682371537.53830910,422007888,2,0.18127946555614471,-0.0076027303002774715,0.0077801975421607494,0.9833714365959167
1682371537.63831711,422107896,2,0.18133223056793213,-0.007480273023247719,0.00815021526068449,0.983359694480896
1682371537.73830891,422207888,2,0.1814006268978119,-0.007313985377550125,0.008569416590034962,0.9833447337150574
1682371537.83835101,422307930,2,0.1815100759267807,-0.0062941922806203365,0.009333555586636066,0.9833246469497681
1682371537.93831897,422407898,2,0.18169492483139038,-0.006060590036213398,0.009640510194003582,0.9832890033721924
1682371538.03834510,422507924,2,0.18184785544872284,-0.006822910159826279,0.00884990394115448,0.9832631945610046
1682371538.13831210,422607891,2,0.18205426633358002,-0.006898185238242149,0.007982910610735416,0.9832319021224976
1682371538.23836899,422707948,2,0.18217960000038147,-0.007221817038953304,0.007365454453974962,0.9832111597061157
1682371538.33833694,422807916,2,0.18232353031635284,-0.008278602734208107,0.007334317080676556,0.9831764101982117
1682371538.43831205,422907891,2,0.18229319155216217,-0.011513951234519482,0.007489284500479698,0.9831482768058777
1682371538.53830695,423007886,2,0.18223533034324646,-0.017037607729434967,0.008282297290861607,0.9830724596977234
1682371538.63833308,423107912,2,0.18208621442317963,-0.02341279946267605,0.009607143700122833,0.9829568266868591
1682371538.73837209,423207951,2,0.18190136551856995,-0.029899120330810547,0.0109969237819314,0.9828006029129028
1682371538.83831000,423307889,2,0.18182922899723053,-0.03587586060166359,0.011884443461894989,0.9826036095619202
1682371538.93834496,423407924,2,0.1818513423204422,-0.041316695511341095,0.012745893560349941,0.9823749661445618
1682371539.03838110,423507960,2,0.18192538619041443,-0.04554333910346031,0.012864992022514343,0.9821728467941284
1682371539.13835001,423607929,2,0.18217551708221436,-0.047609224915504456,0.013042401522397995,0.9820261597633362
1682371539.23834896,423707928,2,0.18262319266796112,-0.048168081790208817,0.013134989887475967,0.9819145202636719
1682371539.33831811,423807897,2,0.18326719105243683,-0.046611446887254715,0.013119935058057308,0.9818698167800903
1682371539.43832493,423907904,2,0.1840076744556427,-0.04251057282090187,0.011736098676919937,0.9819349646568298
1682371539.53831792,424007897,2,0.18493735790252686,-0.03636690229177475,0.01094681303948164,0.9820162057876587
1682371539.63835812,424107937,2,0.18589943647384644,-0.0289828572422266,0.00992206484079361,0.9820911288261414
1682371539.73832297,424207902,2,0.18709298968315125,-0.022328639402985573,0.00843739788979292,0.9820521473884583
1682371539.83834410,424307923,2,0.188194140791893,-0.015962526202201843,0.006428214721381664,0.981981098651886
1682371539.93838811,424407967,2,0.18937906622886658,-0.010665176436305046,0.00513963820412755,0.9818326830863953
1682371540.03835702,424507936,2,0.19028149545192719,-0.00691297696903348,0.003470598254352808,0.9816991090774536
1682371540.13834500,424607924,2,0.191023051738739,-0.004093495663255453,0.003268720582127571,0.9815715551376343
1682371540.23831511,424707894,2,0.1918458491563797,-0.0037751926574856043,0.003616761416196823,0.9814111590385437
1682371540.33831000,424807889,2,0.19408704340457916,-0.0029041050001978874,0.007046808023005724,0.9809547066688538
1682371540.43831301,424907892,2,0.19706527888774872,0.010590975172817707,0.0214418713003397,0.9800986647605896
1682371540.53834605,425007925,2,0.19965122640132904,0.03478707745671272,0.042361948639154434,0.9783326387405396
1682371540.63837194,425107951,2,0.20126859843730927,0.0481356643140316,0.056070126593112946,0.9767445921897888
1682371540.73833895,425207918,2,0.20311085879802704,0.04234189912676811,0.052494458854198456,0.9768303036689758
1682371540.83831811,425307897,2,0.20506522059440613,0.02996961586177349,0.041420869529247284,0.9774121046066284
1682371540.93835998,425407939,2,0.206271693110466,0.01560101006180048,0.03136449679732323,0.9778674840927124
1682371541.03834796,425507927,2,0.20706064999103546,0.0034298754762858152,0.02285478450357914,0.9780551195144653
1682371541.13830495,425607884,2,0.2076893299818039,-0.0015989653766155243,0.017799874767661095,0.978031575679779
1682371541.23832202,425707901,2,0.20791789889335632,-0.005612528882920742,0.014199947007000446,0.9780271053314209
1682371541.33832908,425807908,2,0.20799410343170166,-0.009313002228736877,0.009041141718626022,0.9780439734458923
1682371541.43836904,425907948,2,0.2078092098236084,-0.012552140280604362,0.0060305483639240265,0.9780702590942383
1682371541.53830910,426007888,2,0.20748665928840637,-0.016768621280789375,0.003169935429468751,0.9780889749526978
1682371541.63834190,426107921,2,0.20699326694011688,-0.02080271579325199,0.001146499183960259,0.9781205058097839
1682371541.73837805,426207957,2,0.20655135810375214,-0.02337993122637272,-0.00030288140987977386,0.978156328201294
1682371541.83835602,426307935,2,0.20592544972896576,-0.02560335397720337,-0.0019523896044120193,0.9782307147979736
1682371541.93834710,426407926,2,0.20510807633399963,-0.026186680421233177,-0.002188529586419463,0.9783865213394165
1682371542.03831100,426507890,2,0.20421169698238373,-0.025584707036614418,-0.002484000287950039,0.9785891771316528
1682371542.13831210,426607891,2,0.20339134335517883,-0.024812275543808937,-0.0023617036640644073,0.978780210018158
1682371542.23831606,426707895,2,0.2024037390947342,-0.022919263690710068,-0.0007020761258900166,0.9790336489677429
1682371542.33835196,426807931,2,0.20144100487232208,-0.021837618201971054,0.00038210657658055425,0.9792571067810059
1682371542.43831301,426907892,2,0.20046240091323853,-0.021641375496983528,0.0013018642785027623,0.9794614911079407
1682371542.53834605,427007925,2,0.1995750367641449,-0.02052191086113453,0.002084246603772044,0.9796653985977173
1682371542.63832211,427107901,2,0.1987975835800171,-0.02006600797176361,0.0026891741435974836,0.9798314571380615
1682371542.73836708,427207946,2,0.1982695311307907,-0.018389595672488213,0.0022625718265771866,0.9799724221229553
1682371542.83834291,427307922,2,0.1979655623435974,-0.017274703830480576,0.002201154362410307,0.9800542593002319
1682371542.93831491,427407894,2,0.1980115920305252,-0.015967728570103645,0.0024108197540044785,0.9800666570663452
1682371543.03831601,427507895,2,0.19818705320358276,-0.01400071196258068,0.003951482009142637,0.9800562262535095
1682371543.13831091,427607890,2,0.19864800572395325,-0.013606979511678219,0.006260968279093504,0.9799564480781555
1682371543.23834896,427707928,2,0.19919486343860626,-0.012327787466347218,0.006852328777313232,0.9798583984375
1682371543.33837891,427807958,2,0.1998075544834137,-0.011514941230416298,0.007251514587551355,0.9797406792640686
1682371543.43834400,427907923,2,0.20051506161689758,-0.011300759389996529,0.007810684852302074,0.9795942902565002
1682371543.53832102,428007900,2,0.2013687640428543,-0.010965824127197266,0.008508983068168163,0.9794171452522278
1682371543.63836098,428107940,2,0.20232334733009338,-0.010044335387647152,0.00877850130200386,0.9792279005050659
1682371543.73834109,428207920,2,0.20302416384220123,-0.009492413140833378,0.008299953304231167,0.979092538356781
1682371543.83830690,428307886,2,0.20383945107460022,-0.008859324268996716,0.007847975939512253,0.978932797908783
1682371543.93831897,428407898,2,0.20470549166202545,-0.008457534946501255,0.0075161573477089405,0.9787582159042358
1682371544.03832912,428507908,2,0.2055685967206955,-0.007948796264827251,0.006995418108999729,0.978585422039032
1682371544.13836694,428607946,2,0.20631013810634613,-0.008079081773757935,0.00721286004409194,0.9784266948699951
1682371544.23831511,428707894,2,0.20695339143276215,-0.00812896341085434,0.007553807459771633,0.9782878756523132
1682371544.33834291,428807922,2,0.20723757147789001,-0.008271618746221066,0.008432996459305286,0.9782193303108215
1682371544.43838000,428907959,2,0.2076077163219452,-0.008686072193086147,0.009461892768740654,0.9781278371810913
1682371544.53835797,429007937,2,0.2078964114189148,-0.00795042049139738,0.009515133686363697,0.9780722260475159
1682371544.63834310,429107922,2,0.207964226603508,-0.007715147919952869,0.010047328658401966,0.978054404258728
1682371544.73831391,429207893,2,0.20805145800113678,-0.007777503225952387,0.00907113030552864,0.978044867515564
1682371544.83831191,429307891,2,0.20799772441387177,-0.00834234245121479,0.0086731081828475,0.9780552983283997
1682371544.93834090,429407920,2,0.208110511302948,-0.00895601138472557,0.0076942467130720615,0.9780340790748596
1682371545.03835797,429507937,2,0.2080702781677246,-0.008830667473375797,0.006729357875883579,0.9780508875846863
1682371545.13831210,429607891,2,0.20814479887485504,-0.00934663973748684,0.006814111955463886,0.9780296087265015
1682371545.23834395,429707923,2,0.2080729454755783,-0.00978565402328968,0.0064862691797316074,0.9780428409576416
1682371545.33839202,429807971,2,0.20802204310894012,-0.009638276882469654,0.007961610332131386,0.9780442714691162
1682371545.43835711,429907936,2,0.20803040266036987,-0.008935041725635529,0.008210084401071072,0.9780470728874207
1682371545.53834200,430007921,2,0.20789256691932678,-0.00868451688438654,0.008077460341155529,0.9780797362327576
1682371545.63831711,430107896,2,0.2079704999923706,-0.008244646713137627,0.007856934331357479,0.9780687689781189
1682371545.73830700,430207886,2,0.2078334242105484,-0.008005221374332905,0.007103992160409689,0.9781056642532349
1682371545.83830595,430307885,2,0.20770587027072906,-0.007341581396758556,0.0064585390500724316,0.9781424403190613
1682371545.93834805,430407927,2,0.20778429508209229,-0.006659095175564289,0.005411715712398291,0.9781370162963867
1682371546.03830695,430507886,2,0.20770175755023956,-0.007198522333055735,0.0046589490957558155,0.9781545996665955
1682371546.13833594,430607915,2,0.20767931640148163,-0.007133692502975464,0.005316372960805893,0.9781565070152283
1682371546.23831391,430707893,2,0.20754098892211914,-0.007696925196796656,0.005467711947858334,0.9781807661056519
1682371546.33835506,430807934,2,0.20746169984340668,-0.008642839267849922,0.006515377201139927,0.9781832695007324
1682371546.43834496,430907924,2,0.20758500695228577,-0.009085609577596188,0.005857971962541342,0.9781572222709656
1682371546.53830695,431007886,2,0.2078961580991745,-0.008372803218662739,0.005196862388402224,0.9781012535095215
1682371546.63831210,431107891,2,0.2079736590385437,-0.007890956476330757,0.004129408858716488,0.9780938625335693
1682371546.73834205,431207921,2,0.20784500241279602,-0.008736453019082546,0.0032291673123836517,0.9781174063682556
1682371546.83837295,431307952,2,0.20760846138000488,-0.0085130725055933,0.0040869987569749355,0.978166401386261
1682371546.93830895,431407888,2,0.20736511051654816,-0.007727650459855795,0.0038517825305461884,0.9782255291938782
1682371547.03834391,431507923,2,0.20712918043136597,-0.008055516518652439,0.0036413874477148056,0.9782736301422119
1682371547.13837099,431607950,2,0.2068319022655487,-0.007402999792248011,0.003512277267873287,0.9783421754837036
1682371547.23835993,431707939,2,0.20650120079517365,-0.006890175864100456,0.004212809260934591,0.9784130454063416
1682371547.33834100,431807920,2,0.2058016061782837,-0.005940826144069433,0.004394801799207926,0.9785658121109009
1682371547.43831301,431907892,2,0.20487640798091888,-0.005523293279111385,0.004411882720887661,0.9787623286247253
1682371547.53831196,432007891,2,0.20399349927902222,-0.00498694134876132,0.005445425398647785,0.9789444208145142
1682371547.63832998,432107909,2,0.2029111534357071,-0.004926637746393681,0.0051939417608082294,0.9791709780693054
1682371547.73836899,432207948,2,0.20200060307979584,-0.0052261208184063435,0.004977780394256115,0.9793587923049927
1682371547.83831310,432307892,2,0.20125055313110352,-0.00495314272120595,0.0041964673437178135,0.9795182943344116
1682371547.93835092,432407930,2,0.20059064030647278,-0.006153362337499857,0.002827385440468788,0.9796517491340637
1682371548.03831911,432507898,2,0.20016887784004211,-0.006410782225430012,0.0032099175732582808,0.9797351956367493
1682371548.13835502,432607934,2,0.20002423226833344,-0.006492681801319122,0.0033087742049247026,0.9797638654708862
1682371548.23834705,432707926,2,0.20015011727809906,-0.005679258611053228,0.004609962459653616,0.9797379374504089
1682371548.33831692,432807896,2,0.2004607915878296,-0.00589945912361145,0.005407237913459539,0.9796690344810486
1682371548.43831205,432907891,2,0.2008625715970993,-0.006497131660580635,0.005207767244428396,0.9795840382575989
1682371548.53831291,433007892,2,0.2013709992170334,-0.006058163475245237,0.004639769438654184,0.9794853329658508
1682371548.63834500,433107924,2,0.20183566212654114,-0.007521368563175201,0.00411694822832942,0.9793818593025208
1682371548.73831606,433207895,2,0.20219473540782928,-0.007496153470128775,0.004182338248938322,0.9793077111244202
1682371548.83833599,433307915,2,0.20254859328269958,-0.006866326555609703,0.004119160119444132,0.9792394638061523
1682371548.93836808,433407947,2,0.20286068320274353,-0.007272055372595787,0.004939427133649588,0.9791681170463562
1682371549.03835607,433507935,2,0.2031800001859665,-0.006267729215323925,0.00519099785014987,0.9791075587272644
1682371549.13834095,433607920,2,0.20354120433330536,-0.006228708196431398,0.005526925437152386,0.979030966758728
1682371549.23831797,433707897,2,0.20383605360984802,-0.0049426741898059845,0.00536324642598629,0.9789778590202332
1682371549.33831692,433807896,2,0.20437784492969513,-0.004429828841239214,0.00410034554079175,0.9788734912872314
1682371549.43831897,433907898,2,0.20474496483802795,-0.005598196294158697,0.003287306986749172,0.9787937998771667
1682371549.53834701,434007926,2,0.204886794090271,-0.00583037082105875,0.0034518931061029434,0.9787622094154358
1682371549.63831306,434107892,2,0.20490671694278717,-0.007133452221751213,0.002336582401767373,0.9787527322769165
1682371549.73834300,434207922,2,0.20459400117397308,-0.007664181292057037,0.0025731357745826244,0.9788135290145874
1682371549.83838105,434307960,2,0.20398539304733276,-0.0075664580799639225,0.003480747574940324,0.9789385199546814
1682371549.93837404,434407953,2,0.2033006101846695,-0.00732783367857337,0.0032451616134494543,0.9790835380554199
1682371550.03834009,434507919,2,0.20261912047863007,-0.006242548115551472,0.004167277831584215,0.9792288541793823
1682371550.13831997,434607899,2,0.20192672312259674,-0.005565163679420948,0.0034556386526674032,0.9793787002563477
1682371550.23832607,434707905,2,0.2012982815504074,-0.0057818531058728695,0.0033375597558915615,0.9795072674751282
1682371550.33833694,434807916,2,0.2008608728647232,-0.005423340480774641,0.004124453291296959,0.9795960783958435
1682371550.43838811,434907967,2,0.20049934089183807,-0.004563664086163044,0.004510348197072744,0.9796728491783142
1682371550.53831196,435007891,2,0.20004405081272125,-0.002823412185534835,0.004902415443211794,0.9797706007957458
1682371550.63834310,435107922,2,0.1996537446975708,-0.0035211395006626844,0.004607807379215956,0.9798493385314941
1682371550.73838806,435207967,2,0.1993609070777893,-0.0035050464794039726,0.003105716546997428,0.9799149632453918
1682371550.83835912,435307938,2,0.19936878979206085,-0.0034617253113538027,0.0027584326453506947,0.9799145460128784
1682371550.93834496,435407924,2,0.19933126866817474,-0.004490149673074484,0.0020248705986887217,0.9799197912216187
1682371551.03831697,435507896,2,0.1993693858385086,-0.0056214164942502975,0.0020252950489521027,0.9799062013626099
1682371551.13830495,435607884,2,0.19946007430553436,-0.006842112634330988,0.004455460701137781,0.979871928691864
1682371551.23831606,435707895,2,0.19958169758319855,-0.00748709449544549,0.004498813301324844,0.9798422455787659
1682371551.33833694,435807916,2,0.19979913532733917,-0.00848097912967205,0.003251908114179969,0.9797948002815247
1682371551.43831491,435907894,2,0.19998817145824432,-0.008993994444608688,0.0038288969080895185,0.9797495603561401
1682371551.53835011,436007929,2,0.20005254447460175,-0.008262078277766705,0.002788072219118476,0.9797463417053223
1682371551.63832307,436107902,2,0.20022015273571014,-0.0076052225194871426,0.0033206429798156023,0.9797157645225525
1682371551.73836207,436207941,2,0.20053225755691528,-0.005564336199313402,0.003591650864109397,0.9796647429466248
1682371551.83835006,436307929,2,0.20076534152030945,-0.003978217951953411,0.003484875662252307,0.9796251058578491
1682371551.93831491,436407894,2,0.2011646032333374,-0.0025673042982816696,0.004226010292768478,0.979544997215271
1682371552.03831291,436507892,2,0.20145583152770996,-0.0029503798577934504,0.004152425564825535,0.9794843792915344
1682371552.13831711,436607896,2,0.2016664743423462,-0.0032030739821493626,0.0043949224054813385,0.9794391393661499
1682371552.23835707,436707936,2,0.2018974870443344,-0.0038680967409163713,0.00429422315210104,0.9793896079063416
1682371552.33832002,436807899,2,0.20179159939289093,-0.005792438983917236,0.0032628444023430347,0.97940593957901
1682371552.43834591,436907925,2,0.2016080617904663,-0.004915948491543531,0.0019025661749765277,0.9794520735740662
1682371552.53837395,437007953,2,0.20146432518959045,-0.0037358677946031094,0.004051986616104841,0.9794803261756897
1682371552.63835597,437107935,2,0.2012777179479599,-0.002569829812273383,0.004671010654419661,0.9795197248458862
1682371552.73833990,437207919,2,0.20107121765613556,-0.002729094587266445,0.004930846858769655,0.9795604348182678
1682371552.83830690,437307886,2,0.20095157623291016,-0.00610572611913085,0.004499442875385284,0.9795718193054199
1682371552.93831706,437407896,2,0.20089414715766907,-0.006531286519020796,0.0017691998509690166,0.979589581489563
1682371553.03833294,437507912,2,0.2006770372390747,-0.0039756763726472855,-0.00020238413708284497,0.9796493649482727
1682371553.13835001,437607929,2,0.2003677934408188,-0.004871389362961054,-0.00015320187958423048,0.9797086119651794
1682371553.23830891,437707888,2,0.20015639066696167,-0.005386577919125557,0.0011289125541225076,0.9797484874725342
1682371553.33834195,437807921,2,0.19969913363456726,-0.006412815302610397,0.003037211950868368,0.9798315763473511
1682371553.43837595,437907955,2,0.1989154815673828,-0.00567510724067688,0.0033817868679761887,0.9799943566322327
1682371553.53835011,438007929,2,0.19831117987632751,-0.0035939784720540047,0.005001169629395008,0.9801197648048401
1682371553.63834190,438107921,2,0.19769977033138275,-0.0037863345351070166,0.005840693134814501,0.9802379012107849
1682371553.73830605,438207885,2,0.1971493810415268,-0.0031658781226724386,0.005293647293001413,0.9803540706634521
1682371553.83830500,438307884,2,0.19674567878246307,-0.0039057102985680103,0.0038198353722691536,0.9804393649101257
1682371553.93831396,438407893,2,0.19611267745494843,-0.004535051994025707,0.0026776790618896484,0.980567216873169
1682371554.03835702,438507936,2,0.19539760053157806,-0.004741736687719822,0.004619217477738857,0.980701744556427
1682371554.13831806,438607897,2,0.1950235515832901,-0.004711761139333248,0.004939492326229811,0.9807748198509216
1682371554.23833799,438707917,2,0.19473673403263092,-0.0037483328487724066,0.004680507816374302,0.9808372259140015
1682371554.33835411,438807933,2,0.19429504871368408,-0.0039054183289408684,0.005541434045881033,0.9809197187423706
