timestamp,TimeUS,DesRoll,Roll,DesPitch,Pitch,DesYaw,Yaw,ErrRP,ErrYaw,AEKF
1682451313.18058610,10496424,0.0,-0.16,0.0,-0.08,359.99,0.0,1.0,1.0,0
1682451313.28043008,10596268,0.0,-0.15,0.0,-0.08,211.64000000000001,211.65,1.0,0.8,0
1682451313.38046718,10696305,0.0,-0.16,0.0,-0.08,211.06,211.07,1.0,0.66,0
1682451313.48029113,10796129,0.0,-0.16,0.0,-0.08,210.41,210.42000000000002,0.8,0.55,0
1682451313.58023405,10896072,0.0,-0.17,0.0,-0.06,209.91,209.92000000000002,0.8,0.46,0
1682451313.68023205,10996070,0.0,-0.18,0.0,-0.03,209.61,209.62,0.64,0.38,0
1682451313.78023720,11096075,0.0,-0.2,0.0,0.02,209.17000000000002,209.18,0.64,0.32,0
1682451313.88026524,11196103,0.0,-0.21,0.0,0.06,208.79,208.8,0.51,0.27,0
1682451313.98033619,11296174,0.0,-0.22,0.0,0.11,208.5,208.51,0.51,0.23,0
1682451314.08046722,11396305,0.0,-0.23,0.0,0.14,208.16,208.17000000000002,0.41000000000000003,0.2,0
1682451314.18056417,11496402,0.0,-0.24,0.0,0.15,207.78,207.79,0.41000000000000003,0.17,0
1682451314.28063107,11596469,0.0,-0.26,0.0,0.16,207.51,207.52,0.32,0.15,0
1682451314.38053608,11696374,0.0,-0.25,0.0,0.17,207.24,207.25,0.32,0.13,0
1682451314.48039412,11796232,0.0,-0.27,0.0,0.18,206.96,206.97,0.26,0.11,0
1682451314.58035207,11896190,0.0,-0.25,0.0,0.19,206.75,206.76,0.26,0.1,0
1682451314.68032312,11996161,0.0,-0.26,0.0,0.2,206.56,206.57,0.21,0.09,0
1682451314.78035116,12096189,0.0,-0.24,0.0,0.21,206.45000000000002,206.46,0.21,0.07,0
1682451314.88043714,12196275,0.0,-0.25,0.0,0.22,206.37,206.38,0.16,0.06,0
1682451314.98048615,12296324,0.0,-0.24,0.0,0.23,206.22,206.23000000000002,0.16,0.05,0
1682451315.08064508,12396483,0.0,-0.25,0.0,0.24,206.08,206.09,0.13,0.05,0
1682451315.18054414,12496382,-0.07,-0.38,0.0,0.25,359.99,0.0,0.13,0.04,3
1682451315.28053904,12596377,-0.03,-0.37,0.0,0.24,359.99,0.0,0.1,0.03,3
1682451315.38052917,12696367,-0.01,-0.37,0.0,0.25,359.99,0.0,0.1,0.03,3
1682451315.48054814,12796386,0.0,-0.36,0.0,0.24,359.99,0.0,0.08,0.03,3
1682451315.58043814,12896276,0.0,-0.37,0.0,0.24,359.99,0.0,0.08,0.03,3
1682451315.68038511,12996223,0.0,-0.36,0.0,0.24,0.0,0.0,0.06,0.02,3
1682451315.78047419,13096312,0.0,-0.37,0.0,0.25,0.0,0.0,0.06,0.02,3
1682451315.88054419,13196382,0.0,-0.36,0.0,0.25,0.0,0.0,0.05,0.02,3
1682451315.98082018,13296658,0.0,-0.37,0.0,0.26,0.0,0.0,0.05,0.02,3
1682451316.08075523,13396593,0.0,-0.36,0.0,0.26,359.99,0.0,0.04,0.02,3
1682451316.18072820,13496566,0.0,-0.36,0.0,0.26,359.99,0.0,0.04,0.01,3
1682451316.28054214,13596380,0.0,-0.35000000000000003,0.0,0.26,359.99,0.0,0.03,0.01,3
1682451316.38043809,13696276,0.0,-0.35000000000000003,0.0,0.27,359.99,0.0,0.03,0.01,3
1682451316.48036408,13796202,0.0,-0.35000000000000003,0.0,0.27,359.99,0.0,0.02,0.01,3
1682451316.58038211,13896220,0.0,-0.33,0.0,0.28,0.0,0.0,0.02,0.01,3
1682451316.68045807,13996296,0.0,-0.33,0.0,0.28,359.99,0.0,0.02,0.01,3
1682451316.78053021,14096368,0.0,-0.32,0.0,0.28,0.0,0.0,0.02,0.01,3
1682451316.88079524,14196633,0.0,-0.32,0.0,0.28,0.0,0.0,0.01,0.01,3
1682451316.98071408,14296552,0.0,-0.3,0.0,0.3,203.91,203.92000000000002,0.01,0.01,3
1682451317.08076525,14396603,0.0,-0.31,0.0,0.3,203.92000000000002,203.93,0.01,0.01,3
1682451317.18053818,14496376,0.0,-0.3,0.0,0.3,203.97,203.98000000000002,0.01,0.01,3
1682451317.28043604,14596274,0.0,-0.3,0.0,0.3,204.05,204.06,0.01,0.01,3
1682451317.38037419,14696212,0.0,-0.3,0.0,0.3,204.22,204.23000000000002,0.01,0.01,3
1682451317.48040819,14796246,0.0,-0.29,0.0,0.31,204.4,204.41,0.0,0.01,3
1682451317.58054709,14896385,0.0,-0.3,0.0,0.32,204.53,204.54,0.0,0.01,3
1682451317.68053913,14996377,0.0,-0.29,0.0,0.32,204.62,204.63,0.0,0.01,3
1682451317.78062916,15096467,0.0,-0.3,0.0,0.33,204.67000000000002,204.68,0.0,0.01,3
1682451317.88058209,15196420,0.0,-0.29,0.0,0.31,204.70000000000002,204.71,0.0,0.01,3
1682451317.98072410,15296562,0.0,-0.29,0.0,0.33,204.69,204.70000000000002,0.0,0.01,3
1682451318.08059120,15396429,0.0,-0.29,0.0,0.32,204.68,204.69,0.0,0.0,3
1682451318.18044209,15496280,0.0,-0.29,0.0,0.35000000000000003,204.67000000000002,204.68,0.0,0.0,3
1682451318.28037310,15596211,0.0,-0.29,0.0,0.32,204.66,204.67000000000002,0.0,0.0,3
1682451318.38044715,15696285,0.0,-0.28,0.0,0.31,204.69,204.70000000000002,0.0,0.0,3
1682451318.48046112,15796299,0.0,-0.28,0.0,0.31,204.71,204.72,0.0,0.0,3
1682451318.58053517,15896373,0.0,-0.28,0.0,0.3,204.72,204.73000000000002,0.0,0.01,3
1682451318.68063211,15996470,0.0,-0.28,0.0,0.31,204.78,204.79,0.0,0.0,3
1682451318.78073215,16096570,0.0,-0.27,0.0,0.3,204.81,204.82,0.0,0.0,3
1682451318.88073707,16196575,0.0,-0.26,0.0,0.31,204.84,204.85,0.0,0.0,3
1682451318.98053908,16296377,0.0,-0.27,0.0,0.3,204.89000000000001,204.9,0.0,0.01,3
1682451319.08055305,16396391,0.0,-0.26,0.0,0.32,204.91,204.92000000000002,0.0,0.01,3
1682451319.18037820,16496216,0.0,-0.26,0.0,0.31,204.92000000000002,204.93,0.0,0.01,3
1682451319.28038120,16596219,0.0,-0.26,0.0,0.3,204.98000000000002,204.99,0.0,0.0,3
1682451319.38047218,16696310,0.0,-0.26,0.0,0.32,205.0,205.01,0.0,0.0,3
1682451319.48053622,16796374,0.0,-0.26,0.0,0.3,204.99,205.0,0.0,0.01,3
1682451319.58063507,16896473,0.0,-0.26,0.0,0.32,205.03,205.04,0.0,0.01,3
1682451319.68078423,16996622,0.0,-0.26,0.0,0.29,205.02,205.03,0.0,0.01,3
1682451319.78073025,17096568,0.0,-0.26,0.0,0.3,205.01,205.02,0.0,0.01,3
1682451319.88054419,17196382,0.0,-0.25,0.0,0.3,205.04,205.05,0.0,0.01,3
1682451319.98050022,17296338,0.0,-0.25,0.0,0.29,205.01,205.02,0.0,0.0,3
1682451320.08047509,17396313,0.0,-0.25,0.0,0.3,205.0,205.01,0.0,0.01,3
1682451320.18037820,17496216,0.0,-0.26,0.0,0.29,205.01,205.02,0.0,0.0,3
1682451320.28047705,17596315,0.0,-0.26,0.0,0.29,204.96,204.97,0.0,0.01,3
1682451320.38053322,17696371,0.0,-0.26,0.0,0.29,204.94,204.95000000000002,0.0,0.0,3
1682451320.48063612,17796474,0.0,-0.26,0.0,0.28,204.93,204.94,0.0,0.01,3
1682451320.58059406,17896432,0.0,-0.26,0.0,0.28,204.89000000000001,204.9,0.0,0.01,3
1682451320.68057823,17996416,0.0,-0.27,0.0,0.26,204.89000000000001,204.9,0.0,0.01,3
1682451320.78054214,18096380,0.0,-0.27,0.0,0.27,204.93,204.94,0.0,0.01,3
1682451320.88074803,18196586,0.0,-0.28,0.0,0.26,204.92000000000002,204.93,0.0,0.01,3
1682451320.98037410,18296212,0.0,-0.28,0.0,0.26,204.95000000000002,204.96,0.0,0.01,3
1682451321.08045220,18396290,0.0,-0.28,0.0,0.26,204.97,204.98000000000002,0.0,0.01,3
1682451321.18047523,18496313,0.0,-0.29,0.0,0.25,204.93,204.94,0.0,0.01,3
1682451321.28054214,18596380,0.0,-0.29,0.0,0.25,204.94,204.95000000000002,0.0,0.01,3
1682451321.38078022,18696618,0.0,-0.29,0.0,0.24,204.95000000000002,204.96,0.0,0.0,3
1682451321.48068905,18796527,0.0,-0.33,0.0,0.27,204.89000000000001,204.9,0.0,0.01,3
1682451321.58073807,18896576,0.0,-0.32,0.0,0.26,204.85,204.86,0.0,0.0,3
1682451321.68071103,18996549,0.0,-0.3,0.0,0.25,204.95000000000002,204.96,0.0,0.0,3
1682451321.78075218,19096590,0.0,-0.3,0.0,0.26,204.95000000000002,204.96,0.0,0.0,3
1682451321.88064122,19196479,0.0,-0.34,0.0,0.24,204.89000000000001,204.9,0.0,0.0,3
1682451321.98059106,19296429,0.0,-0.29,0.0,0.26,204.98000000000002,204.99,0.0,0.0,3
1682451322.08071923,19396557,0.0,-0.29,0.0,0.24,205.0,205.01,0.0,0.0,3
1682451322.18093824,19496776,0.0,-0.31,0.0,0.26,204.94,204.95000000000002,0.0,0.0,3
1682451322.28082609,19596664,0.0,-0.31,0.0,0.27,204.99,205.0,0.0,0.0,3
1682451322.38057423,19696412,0.0,-0.33,0.0,0.24,205.02,205.03,0.0,0.0,3
1682451322.48074603,19796584,0.0,-0.33,0.0,0.26,205.0,205.01,0.0,0.0,3
1682451322.58073521,19896573,0.0,-0.33,0.0,0.27,204.99,205.0,0.0,0.01,3
1682451322.68074322,19996581,0.0,-0.29,0.0,0.24,205.1,205.11,0.0,0.01,3
1682451322.78067923,20096517,0.0,-0.32,0.0,0.29,205.04,205.05,0.0,0.01,3
1682451322.88060617,20196444,0.0,-0.29,0.0,0.24,204.95000000000002,204.96,0.0,0.0,3
1682451322.98070908,20296547,0.0,-0.32,0.0,0.28,205.04,205.05,0.0,0.0,3
1682451323.08106518,20396903,0.0,-0.3,0.0,0.25,204.97,204.98000000000002,0.0,0.0,3
1682451323.18081522,20496653,0.0,-0.32,0.0,0.26,204.92000000000002,204.93,0.0,0.01,3
1682451323.28057909,20596417,0.0,-0.29,0.0,0.26,205.0,205.01,0.0,0.0,3
1682451323.38055420,20696392,0.0,-0.31,0.0,0.25,204.93,204.94,0.0,0.01,3
1682451323.48054504,20796383,0.0,-0.31,0.0,0.27,204.89000000000001,204.9,0.0,0.01,3
1682451323.58044815,20896286,0.0,-0.3,0.0,0.25,204.98000000000002,204.99,0.0,0.01,3
1682451323.68037915,20996217,0.0,-0.31,0.0,0.29,204.96,204.97,0.0,0.01,3
1682451323.78040814,21096246,0.0,-0.28,0.0,0.23,204.93,204.94,0.0,0.01,3
1682451323.88053918,21196377,0.0,-0.3,0.0,0.22,205.03,205.04,0.0,0.01,3
1682451323.98057008,21296408,0.0,-0.3,0.0,0.27,205.03,205.04,0.0,0.01,3
1682451324.08070707,21396545,0.0,-0.32,0.0,0.25,205.0,205.01,0.0,0.01,3
1682451324.18056011,21496398,0.0,-0.3,0.0,0.27,205.07,205.08,0.0,0.01,3
1682451324.28073525,21596573,0.0,-0.3,0.0,0.25,205.04,205.05,0.0,0.0,3
1682451324.38054705,21696385,0.0,-0.27,0.0,0.24,205.0,205.01,0.0,0.0,3
1682451324.48044324,21796281,0.0,-0.27,0.0,0.25,205.06,205.07,0.0,0.0,3
1682451324.58038521,21896223,0.0,-0.23,0.0,0.26,205.04,205.05,0.0,0.0,3
1682451324.68040109,21996239,0.0,-0.24,0.0,0.28,205.03,205.04,0.0,0.01,3
1682451324.78048515,22096323,0.0,-0.28,0.0,0.26,205.07,205.08,0.0,0.0,3
1682451324.88055205,22196390,0.0,-0.25,0.0,0.28,205.08,205.09,0.0,0.0,3
1682451324.98064804,22296486,0.0,-0.23,0.0,0.29,205.09,205.1,0.0,0.0,3
1682451325.08065009,22396488,0.0,-0.19,0.0,0.28,205.11,205.12,0.0,0.0,3
1682451325.18053412,22496372,0.0,-0.34,0.0,0.25,205.07,205.08,0.0,0.0,3
1682451325.28053808,22596376,0.0,-0.26,0.0,0.24,205.04,205.05,0.0,0.0,3
1682451325.38044810,22696286,0.0,-0.35000000000000003,0.0,0.26,205.1,205.11,0.0,0.0,3
1682451325.48038006,22796218,0.0,-0.25,0.0,0.23,205.06,205.07,0.0,0.0,3
1682451325.58063126,22896469,0.0,-0.36,0.0,0.25,205.04,205.05,0.0,0.0,3
1682451325.68069816,22996536,0.0,-0.26,0.0,0.23,205.07,205.08,0.0,0.0,3
1682451325.78056812,23096406,0.0,-0.35000000000000003,0.0,0.25,205.04,205.05,0.0,0.0,3
1682451325.88067102,23196509,0.0,-0.27,0.0,0.25,205.01,205.02,0.0,0.0,3
1682451325.98062706,23296465,0.0,-0.34,0.0,0.24,205.04,205.05,0.0,0.0,3
1682451326.08072424,23396562,0.0,-0.28,0.0,0.26,205.01,205.02,0.0,0.0,3
1682451326.18070722,23496545,0.0,-0.32,0.0,0.23,204.99,205.0,0.0,0.0,3
1682451326.28069305,23596531,0.0,-0.3,0.0,0.25,205.04,205.05,0.0,0.0,3
1682451326.38064814,23696486,0.0,-0.3,0.0,0.23,205.02,205.03,0.0,0.0,3
1682451326.48061919,23796457,0.0,-0.32,0.0,0.25,205.02,205.03,0.0,0.0,3
1682451326.58073211,23896570,0.0,-0.28,0.0,0.24,205.06,205.07,0.0,0.0,3
1682451326.68056226,23996400,0.0,-0.33,0.0,0.24,205.04,205.05,0.0,0.0,3
1682451326.78065610,24096494,0.0,-0.28,0.0,0.25,205.04,205.05,0.0,0.01,3
1682451326.88054109,24196379,0.0,-0.33,0.0,0.24,205.09,205.1,0.0,0.01,3
1682451326.98055816,24296396,0.0,-0.27,0.0,0.25,205.08,205.09,0.0,0.01,3
1682451327.08059621,24396434,0.0,-0.33,0.0,0.24,205.08,205.09,0.0,0.0,3
1682451327.18045020,24496288,0.0,-0.27,0.0,0.26,205.12,205.13,0.0,0.01,3
1682451327.28038120,24596219,0.0,-0.32,0.0,0.25,205.1,205.11,0.0,0.0,3
1682451327.38044810,24696286,0.0,-0.29,0.0,0.25,205.11,205.12,0.0,0.01,3
1682451327.48048210,24796320,0.0,-0.31,0.0,0.25,205.13,205.14000000000001,0.0,0.01,3
1682451327.58056021,24896398,0.0,-0.3,0.0,0.25,205.1,205.11,0.0,0.0,3
1682451327.68083215,24996670,0.0,-0.3,0.0,0.25,205.09,205.1,0.0,0.01,3
1682451327.78053308,25096371,0.0,-0.31,0.0,0.24,205.1,205.11,0.0,0.01,3
1682451327.88054609,25196384,0.0,-0.29,0.0,0.25,205.09,205.1,0.0,0.01,3
1682451327.98053908,25296377,0.0,-0.32,0.0,0.24,205.08,205.09,0.0,0.01,3
1682451328.08060122,25396439,0.0,-0.28,0.0,0.24,205.11,205.12,0.0,0.01,3
1682451328.18037224,25496210,0.0,-0.33,0.0,0.25,205.08,205.09,0.0,0.0,3
1682451328.28039622,25596234,0.0,-0.28,0.0,0.24,205.07,205.08,0.0,0.01,3
1682451328.38048720,25696325,0.0,-0.31,0.0,0.26,205.1,205.11,0.0,0.01,3
1682451328.48054004,25796378,0.0,-0.29,0.0,0.24,205.09,205.1,0.0,0.01,3
1682451328.58082509,25896663,0.0,-0.31,0.0,0.26,205.13,205.14000000000001,0.0,0.01,3
1682451328.68056226,25996400,0.0,-0.29,0.0,0.25,205.17000000000002,205.18,0.0,0.01,3
1682451328.78054404,26096382,0.0,-0.3,0.0,0.26,205.19,205.20000000000002,0.0,0.01,3
1682451328.88054204,26196380,0.0,-0.29,0.0,0.25,205.23000000000002,205.24,0.0,0.01,3
1682451328.98045015,26296288,0.0,-0.28,0.0,0.25,205.27,205.28,0.0,0.0,3
1682451329.08046103,26396299,0.0,-0.29,0.0,0.26,205.27,205.28,0.0,0.01,3
1682451329.18041420,26496252,0.0,-0.27,0.0,0.25,205.3,205.31,0.0,0.01,3
1682451329.28047919,26596317,0.0,-0.29,0.0,0.26,205.34,205.35,0.0,0.01,3
1682451329.38055420,26696392,0.0,-0.27,0.0,0.24,205.33,205.34,0.0,0.01,3
1682451329.48082519,26796663,0.0,-0.29,0.0,0.25,205.35,205.36,0.0,0.0,3
1682451329.58072424,26896562,0.0,-0.27,0.0,0.25,205.36,205.37,0.0,0.0,3
1682451329.68072724,26996565,0.0,-0.28,0.0,0.25,205.35,205.36,0.0,0.0,3
1682451329.78072405,27096562,0.0,-0.27,0.0,0.25,205.36,205.37,0.0,0.01,3
1682451329.88073921,27196577,0.0,-0.28,0.0,0.25,205.38,205.39000000000001,0.0,0.0,3
1682451329.98037124,27296209,0.0,-0.28,0.0,0.25,205.38,205.39000000000001,0.0,0.0,3
1682451330.08043909,27396277,0.0,-0.28,0.0,0.25,205.41,205.42000000000002,0.0,0.0,3
1682451330.18052912,27496367,0.0,-0.29,0.0,0.26,205.42000000000002,205.43,0.0,0.01,3
1682451330.28053308,27596371,0.0,-0.28,0.0,0.25,205.41,205.42000000000002,0.0,0.01,3
1682451330.38064218,27696480,0.0,-0.29,0.0,0.25,205.42000000000002,205.43,0.0,0.01,3
1682451330.48057008,27796408,0.0,-0.27,0.0,0.25,205.4,205.41,0.0,0.01,3
1682451330.58059216,27896430,0.0,-0.28,0.0,0.25,205.38,205.39000000000001,0.0,0.01,3
1682451330.68053603,27996374,0.0,-0.27,0.0,0.25,205.38,205.39000000000001,0.0,0.01,3
1682451330.78044820,28096286,0.0,-0.28,0.0,0.25,205.37,205.38,0.0,0.01,3
1682451330.88038325,28196221,0.0,-0.27,0.0,0.25,205.37,205.38,0.0,0.01,3
1682451330.98062420,28296462,0.0,-0.28,0.0,0.25,205.39000000000001,205.4,0.0,0.01,3
1682451331.08072925,28396567,0.0,-0.28,0.0,0.25,205.39000000000001,205.4,0.0,0.01,3
1682451331.18053508,28496373,0.0,-0.28,0.0,0.25,205.4,205.41,0.0,0.01,3
1682451331.28062224,28596460,0.0,-0.28,0.0,0.24,205.43,205.44,0.0,0.01,3
1682451331.38055515,28696393,0.0,-0.27,0.0,0.24,205.43,205.44,0.0,0.01,3
1682451331.48056221,28796400,0.0,-0.28,0.0,0.24,205.43,205.44,0.0,0.01,3
1682451331.58056617,28896404,0.0,-0.27,0.0,0.24,205.45000000000002,205.46,0.0,0.0,3
1682451331.68044806,28996286,0.0,-0.28,0.0,0.24,205.44,205.45000000000002,0.0,0.01,3
1682451331.78038216,29096220,0.0,-0.27,0.0,0.24,205.44,205.45000000000002,0.0,0.01,3
1682451331.88062215,29196460,0.0,-0.28,0.0,0.24,205.45000000000002,205.46,0.0,0.01,3
1682451331.98047614,29296314,0.0,-0.27,0.0,0.24,205.44,205.45000000000002,0.0,0.01,3
1682451332.08058119,29396419,0.0,-0.28,0.0,0.24,205.42000000000002,205.43,0.0,0.01,3
1682451332.18064308,29496481,0.0,-0.28,0.0,0.24,205.41,205.42000000000002,0.0,0.01,3
1682451332.28070402,29596542,0.0,-0.28,0.0,0.24,205.39000000000001,205.4,0.0,0.0,3
1682451332.38069820,29696536,0.0,-0.28,0.0,0.24,205.37,205.38,0.0,0.0,3
1682451332.48071003,29796548,0.0,-0.27,0.0,0.24,205.36,205.37,0.0,0.01,3
1682451332.58068919,29896527,0.0,-0.28,0.0,0.24,205.33,205.34,0.0,0.0,3
1682451332.68063521,29996473,0.0,-0.27,0.0,0.24,205.32,205.33,0.0,0.01,3
1682451332.78084016,30096678,0.0,-0.28,0.0,0.23,205.31,205.32,0.0,0.0,3
1682451332.88063025,30196468,0.0,-0.31,0.0,0.23,205.26,205.27,0.0,0.0,3
1682451332.98071623,30296554,0.0,-0.24,0.0,0.23,205.26,205.27,0.0,0.0,3
1682451333.08084011,30396678,0.0,-0.3,0.0,0.23,205.26,205.27,0.0,0.0,3
1682451333.18070722,30496545,0.0,-0.25,0.0,0.23,205.22,205.23000000000002,0.0,0.0,3
1682451333.28071308,30596551,0.0,-0.29,0.0,0.24,205.23000000000002,205.24,0.0,0.0,3
1682451333.38053513,30696373,0.0,-0.27,0.0,0.24,205.23000000000002,205.24,0.0,0.0,3
1682451333.48043704,30796275,0.0,-0.28,0.0,0.23,205.20000000000002,205.21,0.0,0.0,3
1682451333.58035803,30896196,0.0,-0.28,0.0,0.24,205.21,205.22,0.0,0.0,3
1682451333.68039823,30996236,0.0,-0.27,0.0,0.23,205.21,205.22,0.0,0.0,3
1682451333.78048325,31096321,0.0,-0.3,0.0,0.23,205.18,205.19,0.0,0.0,3
1682451333.88053513,31196373,0.0,-0.26,0.0,0.23,205.19,205.20000000000002,0.0,0.0,3
1682451333.98063016,31296468,0.0,-0.3,0.0,0.23,205.19,205.20000000000002,0.0,0.01,3
1682451334.08058619,31396424,0.0,-0.26,0.0,0.23,205.16,205.17000000000002,0.0,0.01,3
1682451334.18055511,31496393,0.0,-0.3,0.0,0.23,205.18,205.19,0.0,0.0,3
1682451334.28052616,31596364,0.0,-0.26,0.0,0.23,205.17000000000002,205.18,0.0,0.0,3
1682451334.38082504,31696663,0.0,-0.29,0.0,0.23,205.15,205.16,0.0,0.0,3
1682451334.48036623,31796204,0.0,-0.26,0.0,0.23,205.17000000000002,205.18,0.0,0.01,3
1682451334.58038807,31896226,0.0,-0.28,0.0,0.23,205.16,205.17000000000002,0.0,0.0,3
1682451334.68045902,31996297,0.0,-0.28,0.0,0.23,205.15,205.16,0.0,0.01,3
1682451334.78052807,32096366,0.0,-0.27,0.0,0.23,205.17000000000002,205.18,0.0,0.01,3
1682451334.88061810,32196456,0.0,-0.28,0.0,0.23,205.18,205.19,0.0,0.01,3
1682451334.98053908,32296377,0.0,-0.26,0.0,0.23,205.18,205.19,0.0,0.0,3
1682451335.08057809,32396416,0.0,-0.29,0.0,0.23,205.21,205.22,0.0,0.01,3
1682451335.18047905,32496317,0.0,-0.26,0.0,0.24,205.20000000000002,205.21,0.0,0.01,3
1682451335.28071904,32596557,0.0,-0.3,0.0,0.24,205.20000000000002,205.21,0.0,0.01,3
1682451335.38065910,32696497,0.0,-0.26,0.0,0.24,205.22,205.23000000000002,0.0,0.0,3
1682451335.48061609,32796454,0.0,-0.3,0.0,0.24,205.21,205.22,0.0,0.01,3
1682451335.58070111,32896539,0.0,-0.27,0.0,0.24,205.21,205.22,0.0,0.01,3
1682451335.68071103,32996549,0.0,-0.3,0.0,0.25,205.23000000000002,205.24,0.0,0.01,3
1682451335.78080916,33096647,0.0,-0.28,0.0,0.25,205.22,205.23000000000002,0.0,0.01,3
1682451335.88074803,33196586,0.0,-0.29,0.0,0.25,205.21,205.22,0.0,0.01,3
1682451335.98072124,33296559,0.0,-0.3,0.0,0.25,205.22,205.23000000000002,0.0,0.0,3
1682451336.08077502,33396613,0.0,-0.28,0.0,0.25,205.20000000000002,205.21,0.0,0.01,3
1682451336.18094420,33496782,0.0,-0.3,0.0,0.25,205.19,205.20000000000002,0.0,0.0,3
1682451336.28069210,33596530,0.0,-0.28,0.0,0.25,205.20000000000002,205.21,0.0,0.0,3
1682451336.38060617,33696444,0.0,-0.3,0.0,0.24,205.18,205.19,0.0,0.0,3
1682451336.48072624,33796564,0.0,-0.28,0.0,0.24,205.19,205.20000000000002,0.0,0.0,3
1682451336.58070207,33896540,0.0,-0.3,0.0,0.24,205.20000000000002,205.21,0.0,0.01,3
1682451336.68080306,33996641,0.0,-0.28,0.0,0.25,205.19,205.20000000000002,0.0,0.0,3
1682451336.78071523,34096553,0.0,-0.3,0.0,0.25,205.18,205.19,0.0,0.0,3
1682451336.88068819,34196526,0.0,-0.28,0.0,0.25,205.19,205.20000000000002,0.0,0.0,3
1682451336.98072124,34296559,0.0,-0.29,0.0,0.25,205.17000000000002,205.18,0.0,0.01,3
1682451337.08098722,34396825,0.0,-0.28,0.0,0.24,205.17000000000002,205.18,0.0,0.01,3
1682451337.18065405,34496492,0.0,-0.28,0.0,0.24,205.17000000000002,205.18,0.0,0.01,3
1682451337.28063011,34596468,0.0,-0.29,0.0,0.24,205.15,205.16,0.0,0.01,3
1682451337.38063908,34696477,0.0,-0.28,0.0,0.24,205.16,205.17000000000002,0.0,0.01,3
1682451337.48054314,34796381,0.0,-0.3,0.0,0.24,205.15,205.16,0.0,0.01,3
1682451337.58062816,34896466,0.0,-0.28,0.0,0.24,205.12,205.13,0.0,0.01,3
1682451337.68054414,34996382,0.0,-0.3,0.0,0.24,205.1,205.11,0.0,0.01,3
1682451337.78053212,35096370,0.0,-0.29,0.0,0.24,205.09,205.1,0.0,0.0,3
1682451337.88047004,35196308,0.0,-0.3,0.0,0.24,205.07,205.08,0.0,0.0,3
1682451337.98044324,35296281,0.0,-0.29,0.0,0.24,205.07,205.08,0.0,0.0,3
1682451338.08044910,35396287,0.0,-0.3,0.0,0.24,205.07,205.08,0.0,0.0,3
1682451338.18060803,35496446,0.0,-0.3,0.0,0.24,205.05,205.06,0.0,0.0,3
1682451338.28063226,35596470,0.0,-0.3,0.0,0.23,205.05,205.06,0.0,0.0,3
1682451338.38054204,35696380,0.0,-0.3,0.0,0.23,205.05,205.06,0.0,0.0,3
1682451338.48063207,35796470,0.0,-0.29,0.0,0.23,205.04,205.05,0.0,0.0,3
1682451338.58058810,35896426,0.0,-0.3,0.0,0.23,205.05,205.06,0.0,0.0,3
1682451338.68053222,35996370,0.0,-0.29,0.0,0.23,205.04,205.05,0.0,0.0,3
1682451338.78052521,36096363,0.0,-0.31,0.0,0.24,205.03,205.04,0.0,0.0,3
1682451338.88043404,36196272,0.0,-0.29,0.0,0.24,205.04,205.05,0.0,0.0,3
1682451338.98037410,36296212,0.0,-0.3,0.0,0.24,205.03,205.04,0.0,0.0,3
1682451339.08070016,36396538,0.0,-0.29,0.0,0.23,205.02,205.03,0.0,0.0,3
1682451339.18063807,36496476,0.0,-0.3,0.0,0.23,205.02,205.03,0.0,0.0,3
1682451339.28055024,36596388,0.0,-0.3,0.0,0.23,205.02,205.03,0.0,0.0,3
1682451339.38062119,36696459,0.0,-0.3,0.0,0.23,205.01,205.02,0.0,0.0,3
1682451339.48053002,36796368,0.0,-0.3,0.0,0.23,205.02,205.03,0.0,0.0,3
1682451339.58071303,36896551,0.0,-0.3,0.0,0.23,205.0,205.01,0.0,0.01,3
1682451339.68068624,36996524,0.0,-0.31,0.0,0.23,205.0,205.01,0.0,0.01,3
1682451339.78069115,37096529,0.0,-0.3,0.0,0.23,205.02,205.03,0.0,0.01,3
1682451339.88062406,37196462,0.0,-0.31,0.0,0.23,205.02,205.03,0.0,0.01,3
1682451339.98061919,37296457,0.0,-0.3,0.0,0.23,205.04,205.05,0.0,0.01,3
1682451340.08071709,37396555,0.0,-0.3,0.0,0.23,205.06,205.07,0.0,0.01,3
1682451340.18053222,37496370,0.0,-0.29,0.0,0.23,205.05,205.06,0.0,0.01,3
1682451340.28065014,37596488,0.0,-0.3,0.0,0.24,205.05,205.06,0.0,0.01,3
1682451340.38057017,37696408,0.0,-0.3,0.0,0.24,205.05,205.06,0.0,0.01,3
1682451340.48057318,37796411,0.0,-0.3,0.0,0.24,205.04,205.05,0.0,0.01,3
1682451340.58047414,37896312,0.0,-0.3,0.0,0.24,205.04,205.05,0.0,0.0,3
1682451340.68054605,37996384,0.0,-0.3,0.0,0.25,205.04,205.05,0.0,0.0,3
1682451340.78035808,38096196,0.0,-0.31,0.0,0.25,205.03,205.04,0.0,0.0,3
1682451340.88038206,38196220,0.0,-0.3,0.0,0.25,205.03,205.04,0.0,0.0,3
1682451340.98045802,38296296,0.0,-0.3,0.0,0.25,205.03,205.04,0.0,0.0,3
1682451341.08067822,38396516,0.0,-0.3,0.0,0.25,205.02,205.03,0.0,0.0,3
1682451341.18079019,38496628,0.0,-0.3,0.0,0.26,205.02,205.03,0.0,0.0,3
1682451341.28054714,38596385,0.0,-0.3,0.0,0.26,205.02,205.03,0.0,0.01,3
1682451341.38054323,38696381,0.0,-0.3,0.0,0.26,205.02,205.03,0.0,0.0,3
1682451341.48053503,38796373,0.0,-0.3,0.0,0.26,205.02,205.03,0.0,0.0,3
1682451341.58043408,38896272,0.0,-0.3,0.0,0.27,205.03,205.04,0.0,0.01,3
1682451341.68035913,38996197,0.0,-0.3,0.0,0.27,205.02,205.03,0.0,0.0,3
1682451341.78039002,39096228,0.0,-0.3,0.0,0.27,205.03,205.04,0.0,0.01,3
1682451341.88047910,39196317,0.0,-0.3,0.0,0.28,205.02,205.03,0.0,0.0,3
1682451341.98054004,39296378,0.0,-0.29,0.0,0.28,205.01,205.02,0.0,0.0,3
1682451342.08070922,39396547,0.0,-0.3,0.0,0.28,205.0,205.01,0.0,0.0,3
1682451342.18058610,39496424,0.0,-0.29,0.0,0.28,204.99,205.0,0.0,0.0,3
1682451342.28057408,39596412,0.0,-0.3,0.0,0.28,204.97,204.98000000000002,0.0,0.0,3
1682451342.38053203,39696370,0.0,-0.29,0.0,0.28,204.96,204.97,0.0,0.0,3
1682451342.48043609,39796274,0.0,-0.29,0.0,0.28,204.95000000000002,204.96,0.0,0.0,3
1682451342.58044219,39896280,0.0,-0.29,0.0,0.28,204.94,204.95000000000002,0.0,0.0,3
1682451342.68038821,39996226,0.0,-0.29,0.0,0.28,204.94,204.95000000000002,0.0,0.0,3
1682451342.78051424,40096352,0.0,-0.29,0.0,0.28,204.94,204.95000000000002,0.0,0.01,3
1682451342.88052320,40196361,0.0,-0.28,0.0,0.28,204.94,204.95000000000002,0.0,0.01,3
1682451342.98083711,40296675,0.0,-0.29,0.0,0.28,204.95000000000002,204.96,0.0,0.01,3
1682451343.08077812,40396616,0.0,-0.28,0.0,0.29,204.95000000000002,204.96,0.0,0.01,3
1682451343.18072724,40496565,0.0,-0.29,0.0,0.29,204.96,204.97,0.0,0.01,3
1682451343.28074217,40596580,0.0,-0.28,0.0,0.29,204.97,204.98000000000002,0.0,0.01,3
1682451343.38071108,40696549,0.0,-0.28,0.0,0.29,204.98000000000002,204.99,0.0,0.0,3
1682451343.48066425,40796502,0.0,-0.28,0.0,0.29,204.98000000000002,204.99,0.0,0.0,3
1682451343.58061624,40896454,0.0,-0.28,0.0,0.29,204.99,205.0,0.0,0.0,3
1682451343.68070316,40996541,0.0,-0.28,0.0,0.3,204.98000000000002,204.99,0.0,0.0,3
1682451343.78071404,41096552,0.0,-0.28,0.0,0.3,204.98000000000002,204.99,0.0,0.01,3
1682451343.88081622,41196654,0.0,-0.28,0.0,0.3,204.98000000000002,204.99,0.0,0.0,3
1682451343.98076010,41296598,0.0,-0.27,0.0,0.3,204.97,204.98000000000002,0.0,0.01,3
1682451344.08080006,41396638,0.0,-0.27,0.0,0.3,204.98000000000002,204.99,0.0,0.01,3
1682451344.18063521,41496473,0.0,-0.27,0.0,0.31,204.99,205.0,0.0,0.01,3
1682451344.28043604,41596274,0.0,-0.28,0.0,0.31,204.99,205.0,0.0,0.01,3
1682451344.38036323,41696201,0.0,-0.27,0.0,0.31,205.0,205.01,0.0,0.01,3
1682451344.48042417,41796262,0.0,-0.28,0.0,0.31,205.01,205.02,0.0,0.01,3
1682451344.58045411,41896292,0.0,-0.27,0.0,0.31,205.0,205.01,0.0,0.01,3
1682451344.68055010,41996388,0.0,-0.27,0.0,0.31,205.0,205.01,0.0,0.01,3
1682451344.78064322,42096481,0.0,-0.26,0.0,0.31,204.98000000000002,204.99,0.0,0.01,3
1682451344.88062119,42196459,0.0,-0.26,0.0,0.31,204.97,204.98000000000002,0.0,0.01,3
1682451344.98055506,42296393,0.0,-0.26,0.0,0.32,204.96,204.97,0.0,0.01,3
1682451345.08060217,42396440,0.0,-0.26,0.0,0.32,204.95000000000002,204.96,0.0,0.01,3
1682451345.18043518,42496273,0.0,-0.26,0.0,0.32,204.94,204.95000000000002,0.0,0.01,3
1682451345.28036404,42596202,0.0,-0.25,0.0,0.32,204.93,204.94,0.0,0.0,3
1682451345.38060808,42696446,0.0,-0.25,0.0,0.32,204.93,204.94,0.0,0.01,3
1682451345.48049212,42796330,0.0,-0.25,0.0,0.32,204.92000000000002,204.93,0.0,0.01,3
1682451345.58059025,42896428,0.0,-0.25,0.0,0.32,204.92000000000002,204.93,0.0,0.01,3
1682451345.68065906,42996497,0.0,-0.25,0.0,0.32,204.91,204.92000000000002,0.0,0.0,3
1682451345.78057313,43096411,0.0,-0.25,0.0,0.33,204.9,204.91,0.0,0.0,3
1682451345.88054824,43196386,0.0,-0.25,0.0,0.33,204.9,204.91,0.0,0.01,3
1682451345.98048425,43296322,0.0,-0.25,0.0,0.33,204.89000000000001,204.9,0.0,0.0,3
1682451346.08054614,43396384,0.0,-0.24,0.0,0.33,204.89000000000001,204.9,0.0,0.0,3
1682451346.18036914,43496207,0.0,-0.24,0.0,0.33,204.89000000000001,204.9,0.0,0.0,3
1682451346.28060222,43596440,0.0,-0.24,0.0,0.34,204.89000000000001,204.9,0.0,0.0,3
1682451346.38045621,43696294,0.0,-0.24,0.0,0.34,204.88,204.89000000000001,0.0,0.0,3
1682451346.48055315,43796391,0.0,-0.24,0.0,0.34,204.88,204.89000000000001,0.0,0.0,3
1682451346.58062911,43896467,0.0,-0.24,0.0,0.34,204.87,204.88,0.0,0.0,3
1682451346.68054914,43996387,0.0,-0.24,0.0,0.34,204.86,204.87,0.0,0.0,3
1682451346.78051209,44096350,0.0,-0.24,0.0,0.34,204.86,204.87,0.0,0.0,3
1682451346.88051605,44196354,0.0,-0.24,0.0,0.34,204.85,204.86,0.0,0.0,3
1682451346.98055410,44296392,0.0,-0.23,0.0,0.34,204.84,204.85,0.0,0.01,3
1682451347.08045721,44396295,0.0,-0.23,0.0,0.34,204.84,204.85,0.0,0.0,3
1682451347.18060923,44496447,0.0,-0.23,0.0,0.34,204.83,204.84,0.0,0.01,3
1682451347.28070116,44596539,0.0,-0.23,0.0,0.34,204.82,204.83,0.0,0.01,3
1682451347.38072419,44696562,0.0,-0.24,0.0,0.34,204.81,204.82,0.0,0.01,3
1682451347.48085022,44796688,0.0,-0.24,0.0,0.34,204.79,204.8,0.0,0.01,3
1682451347.58058405,44896422,0.0,-0.24,0.0,0.34,204.79,204.8,0.0,0.01,3
1682451347.68070221,44996540,0.0,-0.24,0.0,0.35000000000000003,204.79,204.8,0.0,0.01,3
1682451347.78067613,45096514,0.0,-0.24,0.0,0.35000000000000003,204.79,204.8,0.0,0.01,3
1682451347.88068414,45196522,0.0,-0.23,0.0,0.34,204.79,204.8,0.0,0.01,3
1682451347.98062420,45296462,0.0,-0.24,0.0,0.35000000000000003,204.79,204.8,0.0,0.01,3
1682451348.08098722,45396825,0.0,-0.24,0.0,0.35000000000000003,204.79,204.8,0.0,0.01,3
1682451348.18066120,45496499,0.0,-0.24,0.0,0.35000000000000003,204.79,204.8,0.0,0.0,3
1682451348.28072023,45596558,0.0,-0.24,0.0,0.35000000000000003,204.8,204.81,0.0,0.0,3
1682451348.38081408,45696652,0.0,-0.24,0.0,0.35000000000000003,204.79,204.8,0.0,0.0,3
1682451348.48054123,45796379,0.0,-0.24,0.0,0.35000000000000003,204.8,204.81,0.0,0.0,3
1682451348.58054519,45896383,0.0,-0.24,0.0,0.35000000000000003,204.8,204.81,0.0,0.01,3
1682451348.68053317,45996371,0.0,-0.24,0.0,0.35000000000000003,204.79,204.8,0.0,0.01,3
1682451348.78040314,46096241,0.0,-0.23,0.0,0.35000000000000003,204.8,204.81,0.0,0.01,3
1682451348.88036704,46196205,0.0,-0.23,0.0,0.35000000000000003,204.81,204.82,0.0,0.01,3
1682451348.98039603,46296234,0.0,-0.23,0.0,0.35000000000000003,204.81,204.82,0.0,0.01,3
1682451349.08061218,46396450,0.0,-0.24,0.0,0.35000000000000003,204.82,204.83,0.0,0.01,3
1682451349.18054104,46496379,0.0,-0.23,0.0,0.35000000000000003,204.82,204.83,0.0,0.01,3
1682451349.28080726,46596645,0.0,-0.23,0.0,0.35000000000000003,204.82,204.83,0.0,0.01,3
1682451349.38055110,46696389,0.0,-0.23,0.0,0.35000000000000003,204.83,204.84,0.0,0.01,3
1682451349.48055506,46796393,0.0,-0.23,0.0,0.35000000000000003,204.83,204.84,0.0,0.01,3
1682451349.58053303,46896371,0.0,-0.23,0.0,0.35000000000000003,204.83,204.84,0.0,0.01,3
1682451349.68044209,46996280,0.0,-0.23,0.0,0.35000000000000003,204.83,204.84,0.0,0.01,3
1682451349.78036404,47096202,0.0,-0.23,0.0,0.35000000000000003,204.83,204.84,0.0,0.0,3
1682451349.88038802,47196226,0.0,-0.23,0.0,0.35000000000000003,204.82,204.83,0.0,0.0,3
1682451349.98049617,47296334,0.0,-0.23,0.0,0.35000000000000003,204.82,204.83,0.0,0.0,3
1682451350.08081412,47396652,0.0,-0.23,0.0,0.35000000000000003,204.81,204.82,0.0,0.0,3
1682451350.18081522,47496653,0.0,-0.23,0.0,0.35000000000000003,204.81,204.82,0.0,0.0,3
1682451350.28055310,47596391,0.0,-0.22,0.0,0.35000000000000003,204.81,204.82,0.0,0.01,3
1682451350.38068318,47696521,0.0,-0.23,0.0,0.35000000000000003,204.81,204.82,0.0,0.0,3
1682451350.48070717,47796545,0.0,-0.22,0.0,0.34,204.8,204.81,0.0,0.0,3
1682451350.58075213,47896590,0.0,-0.22,0.0,0.34,204.8,204.81,0.0,0.0,3
1682451350.68063617,47996474,0.0,-0.22,0.0,0.34,204.8,204.81,0.0,0.0,3
1682451350.78057122,48096409,0.0,-0.22,0.0,0.34,204.8,204.81,0.0,0.0,3
1682451350.88063812,48196476,0.0,-0.22,0.0,0.34,204.8,204.81,0.0,0.01,3
1682451350.98071909,48296557,0.0,-0.22,0.0,0.34,204.8,204.81,0.0,0.01,3
1682451351.08084226,48396680,0.0,-0.23,0.0,0.34,204.81,204.82,0.0,0.01,3
1682451351.18074012,48496578,0.0,-0.22,0.0,0.33,204.81,204.82,0.0,0.0,3
1682451351.28071618,48596554,0.0,-0.23,0.0,0.34,204.82,204.83,0.0,0.0,3
1682451351.38047409,48696312,0.0,-0.23,0.0,0.33,204.82,204.83,0.0,0.0,3
1682451351.48043418,48796272,0.0,-0.23,0.0,0.33,204.82,204.83,0.0,0.01,3
1682451351.58043718,48896275,0.0,-0.23,0.0,0.33,204.82,204.83,0.0,0.0,3
1682451351.68040109,48996239,0.0,-0.22,0.0,0.33,204.82,204.83,0.0,0.0,3
1682451351.78048706,49096325,0.0,-0.22,0.0,0.33,204.82,204.83,0.0,0.01,3
1682451351.88054919,49196387,0.0,-0.22,0.0,0.33,204.82,204.83,0.0,0.01,3
1682451351.98065114,49296489,0.0,-0.23,0.0,0.33,204.82,204.83,0.0,0.01,3
1682451352.08060122,49396439,0.0,-0.23,0.0,0.32,204.83,204.84,0.0,0.0,3
1682451352.18054724,49496385,0.0,-0.23,0.0,0.32,204.83,204.84,0.0,0.0,3
1682451352.28053808,49596376,0.0,-0.23,0.0,0.32,204.83,204.84,0.0,0.01,3
1682451352.38042617,49696264,0.0,-0.23,0.0,0.32,204.83,204.84,0.0,0.0,3
1682451352.48036718,49796205,0.0,-0.23,0.0,0.32,204.82,204.83,0.0,0.01,3
1682451352.58039212,49896230,0.0,-0.22,0.0,0.32,204.82,204.83,0.0,0.0,3
1682451352.68046522,49996303,0.0,-0.23,0.0,0.32,204.81,204.82,0.0,0.0,3
1682451352.78053713,50096375,0.0,-0.23,0.0,0.32,204.8,204.81,0.0,0.01,3
1682451352.88061905,50196457,0.0,-0.23,0.0,0.31,204.8,204.81,0.0,0.01,3
1682451352.98054409,50296382,0.0,-0.23,0.0,0.32,204.79,204.8,0.0,0.01,3
1682451353.08058619,50396424,0.0,-0.23,0.0,0.32,204.79,204.8,0.0,0.01,3
1682451353.18054318,50496381,0.0,-0.22,0.0,0.32,204.79,204.8,0.0,0.02,3
1682451353.28074408,50596582,0.0,-0.22,0.0,0.32,204.79,204.81,0.0,0.01,3
1682451353.38061404,50696452,0.0,-0.22,0.0,0.32,204.79,204.82,0.0,0.01,3
1682451353.48058605,50796424,0.0,-0.22,0.0,0.32,204.79,204.83,0.0,0.01,3
1682451353.58068705,50896525,0.0,-0.22,0.0,0.32,204.79,204.84,0.0,0.01,3
1682451353.68070722,50996545,0.0,-0.22,0.0,0.31,204.79,204.83,0.0,0.01,3
1682451353.78079510,51096633,0.0,-0.22,0.0,0.32,204.79,204.83,0.0,0.01,3
1682451353.88071322,51196551,0.0,-0.22,0.0,0.32,204.79,204.83,0.01,0.01,3
1682451353.98088503,51296723,0.0,-0.22,0.0,0.32,204.79,204.82,0.01,0.01,3
1682451354.08080506,51396643,0.0,-0.22,0.0,0.32,204.79,204.81,0.01,0.01,3
1682451354.18076611,51496604,0.0,-0.22,0.0,0.32,204.79,204.81,0.01,0.01,3
1682451354.28037810,51596216,0.0,-0.22,0.0,0.32,204.79,204.8,0.01,0.01,3
1682451354.38040304,51696241,0.0,-0.22,0.0,0.32,204.79,204.8,0.01,0.01,3
1682451354.48047113,51796309,0.0,-0.22,0.0,0.32,204.79,204.8,0.01,0.01,3
1682451354.58055019,51896388,0.0,-0.22,0.0,0.32,204.79,204.79,0.01,0.01,3
1682451354.68062806,51996466,0.0,-0.23,0.0,0.32,204.78,204.79,0.0,0.01,3
1682451354.78055024,52096388,0.0,-0.23,0.0,0.32,204.8,204.8,0.0,0.01,3
1682451354.88052821,52196366,0.0,-0.23,0.0,0.32,204.8,204.8,0.0,0.01,3
1682451354.98054123,52296379,0.0,-0.23,0.0,0.32,204.8,204.8,0.0,0.0,3
1682451355.08055615,52396394,0.0,-0.23,0.0,0.32,204.8,204.8,0.0,0.01,3
1682451355.18038726,52496225,0.0,-0.23,0.0,0.32,204.8,204.79,0.0,0.01,3
1682451355.28040504,52596243,0.0,-0.23,0.0,0.32,204.8,204.8,0.0,0.01,3
1682451355.38055205,52696390,0.0,-0.23,0.0,0.32,204.8,204.8,0.0,0.0,3
1682451355.48053813,52796376,0.0,-0.23,0.0,0.32,204.8,204.8,0.0,0.01,3
1682451355.58065605,52896494,0.0,-0.23,0.0,0.32,204.8,204.8,0.0,0.01,3
1682451355.68075514,52996593,0.0,-0.23,0.0,0.31,204.8,204.8,0.0,0.01,3
1682451355.78073406,53096572,0.0,-0.23,0.0,0.31,204.8,204.79,0.0,0.01,3
1682451355.88073206,53196570,0.0,-0.24,0.0,0.31,204.81,204.8,0.0,0.0,3
1682451355.98075414,53296592,0.0,-0.24,0.0,0.31,204.81,204.79,0.0,0.0,3
1682451356.08081222,53396650,0.0,-0.24,0.0,0.31,204.82,204.8,0.0,0.0,3
1682451356.18063211,53496470,0.0,-0.24,0.0,0.31,204.82,204.8,0.0,0.0,3
1682451356.28069520,53596533,0.0,-0.24,0.0,0.31,204.81,204.8,0.0,0.0,3
1682451356.38072205,53696560,0.0,-0.24,0.0,0.31,204.81,204.8,0.0,0.0,3
1682451356.48086619,53796704,0.0,-0.24,0.0,0.31,204.81,204.8,0.0,0.0,3
1682451356.58055425,53896392,0.0,-0.25,0.0,0.3,204.81,204.79,0.0,0.0,3
1682451356.68054914,53996387,0.0,-0.25,0.0,0.3,204.8,204.78,0.0,0.0,3
1682451356.78054023,54096378,0.0,-0.25,0.0,0.3,204.8,204.78,0.0,0.0,3
1682451356.88043809,54196276,0.0,-0.25,0.0,0.3,204.79,204.77,0.0,0.0,3
1682451356.98038411,54296222,0.0,-0.24,0.0,0.31,204.78,204.77,0.0,0.0,3
1682451357.08045912,54396297,0.0,-0.24,0.0,0.31,204.78,204.76,0.0,0.0,3
1682451357.18048406,54496322,0.0,-0.25,0.0,0.31,204.78,204.76,0.0,0.0,3
1682451357.28053808,54596376,0.0,-0.25,0.0,0.3,204.77,204.76,0.0,0.0,3
1682451357.38083720,54696675,0.0,-0.25,0.0,0.3,204.77,204.75,0.0,0.0,3
1682451357.48085022,54796688,0.0,-0.26,0.0,0.3,204.77,204.75,0.0,0.0,3
1682451357.58075118,54896589,0.0,-0.26,0.0,0.3,204.77,204.75,0.0,0.0,3
1682451357.68055320,54996391,0.0,-0.26,0.0,0.29,204.77,204.75,0.0,0.0,3
1682451357.78043509,55096273,0.0,-0.27,0.0,0.29,204.77,204.76,0.0,0.0,3
1682451357.88037705,55196215,0.0,-0.26,0.0,0.29,204.77,204.76,0.0,0.0,3
1682451357.98043323,55296271,0.0,-0.26,0.0,0.29,204.76,204.76,0.0,0.0,3
1682451358.08051419,55396352,0.0,-0.26,0.0,0.28,204.75,204.76,0.0,0.0,3
1682451358.18053412,55496372,0.0,-0.26,0.0,0.28,204.75,204.76,0.0,0.0,3
1682451358.28063822,55596476,0.0,-0.26,0.0,0.28,204.75,204.76,0.0,0.0,3
1682451358.38055110,55696389,0.0,-0.26,0.0,0.27,204.74,204.75,0.0,0.0,3
1682451358.48055816,55796396,0.0,-0.26,0.0,0.27,204.74,204.75,0.0,0.0,3
1682451358.58053207,55896370,0.0,-0.27,0.0,0.26,204.74,204.75,0.0,0.0,3
1682451358.68044424,55996282,0.0,-0.27,0.0,0.26,204.74,204.75,0.0,0.01,3
1682451358.78037310,56096211,0.0,-0.27,0.0,0.26,204.75,204.76,0.0,0.0,3
1682451358.88062119,56196459,0.0,-0.28,0.0,0.26,204.76,204.77,0.0,0.01,3
1682451358.98047113,56296309,0.0,-0.28,0.0,0.26,204.76,204.77,0.0,0.01,3
1682451359.08073616,56396574,0.0,-0.28,0.0,0.26,204.77,204.78,0.0,0.01,3
1682451359.18077707,56496615,0.0,-0.28,0.0,0.26,204.78,204.79,0.0,0.01,3
1682451359.28071618,56596554,0.0,-0.28,0.0,0.26,204.79,204.8,0.0,0.01,3
1682451359.38068223,56696520,0.0,-0.28,0.0,0.26,204.79,204.8,0.0,0.0,3
1682451359.48070121,56796539,0.0,-0.28,0.0,0.26,204.8,204.81,0.0,0.0,3
1682451359.58079505,56896633,0.0,-0.28,0.0,0.26,204.8,204.81,0.0,0.0,3
1682451359.68064308,56996481,0.0,-0.28,0.0,0.26,204.81,204.82,0.0,0.01,3
1682451359.78096008,57096798,0.0,-0.29,0.0,0.27,204.81,204.82,0.0,0.01,3
1682451359.88043904,57196277,0.0,-0.29,0.0,0.27,204.81,204.82,0.0,0.01,3
1682451359.98053312,57296371,0.0,-0.29,0.0,0.27,204.81,204.82,0.0,0.01,3
1682451360.08068705,57396525,0.0,-0.29,0.0,0.27,204.81,204.82,0.0,0.0,3
1682451360.18055010,57496388,0.0,-0.29,0.0,0.27,204.81,204.82,0.0,0.0,3
1682451360.28055811,57596396,0.0,-0.29,0.0,0.27,204.81,204.82,0.0,0.0,3
1682451360.38047409,57696312,0.0,-0.29,0.0,0.28,204.81,204.82,0.0,0.01,3
1682451360.48044419,57796282,0.0,-0.29,0.0,0.28,204.81,204.82,0.0,0.01,3
1682451360.58038616,57896224,0.0,-0.29,0.0,0.28,204.81,204.82,0.0,0.0,3
1682451360.68062425,57996462,0.0,-0.3,0.0,0.28,204.8,204.81,0.0,0.01,3
1682451360.78070116,58096539,0.0,-0.3,0.0,0.28,204.79,204.8,0.0,0.01,3
1682451360.88072324,58196561,0.0,-0.29,0.0,0.27,204.79,204.8,0.0,0.01,3
1682451360.98082709,58296665,0.0,-0.3,0.0,0.27,204.78,204.79,0.0,0.01,3
1682451361.08082414,58396662,0.0,-0.3,0.0,0.27,204.77,204.78,0.0,0.01,3
1682451361.18074012,58496578,0.0,-0.3,0.0,0.27,204.76,204.77,0.0,0.01,3
1682451361.28074813,58596586,0.0,-0.3,0.0,0.27,204.75,204.76,0.0,0.01,3
1682451361.38076210,58696600,0.0,-0.3,0.0,0.27,204.75,204.76,0.0,0.0,3
1682451361.48070812,58796546,0.0,-0.3,0.0,0.27,204.75,204.76,0.0,0.0,3
1682451361.58068109,58896519,0.0,-0.3,0.0,0.28,204.75,204.76,0.0,0.0,3
1682451361.68087912,58996717,0.0,-0.31,0.0,0.28,204.75,204.76,0.0,0.0,3
1682451361.78073025,59096568,0.0,-0.31,0.0,0.28,204.75,204.76,0.0,0.01,3
1682451361.88083220,59196670,0.0,-0.31,0.0,0.28,204.75,204.76,0.0,0.01,3
1682451361.98075318,59296591,0.0,-0.3,0.0,0.28,204.75,204.76,0.0,0.0,3
1682451362.08080912,59396647,0.0,-0.3,0.0,0.28,204.75,204.76,0.0,0.0,3
1682451362.18074703,59496585,0.0,-0.31,0.0,0.28,204.75,204.76,0.0,0.0,3
1682451362.28100514,59596843,0.0,-0.3,0.0,0.28,204.75,204.76,0.0,0.0,3
1682451362.38070512,59696543,0.0,-0.3,0.0,0.28,204.74,204.75,0.0,0.0,3
1682451362.48063016,59796468,0.0,-0.3,0.0,0.28,204.74,204.75,0.0,0.0,3
1682451362.58072305,59896561,0.0,-0.3,0.0,0.28,204.74,204.75,0.0,0.0,3
1682451362.68073821,59996576,0.0,-0.3,0.0,0.29,204.74,204.75,0.0,0.0,3
1682451362.78082204,60096660,0.0,-0.3,0.0,0.28,204.73000000000002,204.74,0.0,0.0,3
1682451362.88073611,60196574,0.0,-0.3,0.0,0.28,204.73000000000002,204.74,0.0,0.0,3
1682451362.98074818,60296586,0.0,-0.3,0.0,0.28,204.72,204.73000000000002,0.0,0.0,3
1682451363.08080411,60396642,0.0,-0.3,0.0,0.28,204.72,204.73000000000002,0.0,0.0,3
1682451363.18099117,60496829,0.0,-0.3,0.0,0.27,204.71,204.72,0.0,0.0,3
1682451363.28037119,60596209,0.0,-0.31,0.0,0.28,204.71,204.72,0.0,0.0,3
1682451363.38040924,60696247,0.0,-0.3,0.0,0.28,204.71,204.72,0.0,0.0,3
1682451363.48047924,60796317,0.0,-0.3,0.0,0.28,204.71,204.72,0.0,0.0,3
1682451363.58054924,60896387,0.0,-0.3,0.0,0.28,204.71,204.72,0.0,0.0,3
1682451363.68063021,60996468,0.0,-0.3,0.0,0.28,204.72,204.73000000000002,0.0,0.0,3
1682451363.78059721,61096435,0.0,-0.29,0.0,0.28,204.72,204.73000000000002,0.0,0.0,3
1682451363.88055015,61196388,0.0,-0.29,0.0,0.28,204.72,204.73000000000002,0.0,0.0,3
1682451363.98055506,61296393,0.0,-0.29,0.0,0.29,204.72,204.73000000000002,0.0,0.0,3
1682451364.08081603,61396654,0.0,-0.29,0.0,0.29,204.72,204.73000000000002,0.0,0.0,3
1682451364.18070722,61496545,0.0,-0.28,0.0,0.29,204.72,204.73000000000002,0.0,0.0,3
1682451364.28063607,61596474,0.0,-0.28,0.0,0.29,204.72,204.73000000000002,0.0,0.0,3
1682451364.38069224,61696530,0.0,-0.28,0.0,0.29,204.72,204.73000000000002,0.0,0.0,3
1682451364.48068213,61796520,0.0,-0.28,0.0,0.3,204.72,204.73000000000002,0.0,0.0,3
1682451364.58114910,61896987,0.0,-0.27,0.0,0.3,204.73000000000002,204.74,0.0,0.0,3
1682451364.68069816,61996536,0.0,-0.27,0.0,0.3,204.73000000000002,204.74,0.0,0.0,3
1682451364.78068209,62096520,0.0,-0.27,0.0,0.3,204.73000000000002,204.74,0.0,0.0,3
1682451364.88069510,62196533,0.0,-0.27,0.0,0.3,204.73000000000002,204.74,0.0,0.0,3
1682451364.98070121,62296539,0.0,-0.26,0.0,0.29,204.73000000000002,204.74,0.0,0.0,3
1682451365.08070612,62396544,0.0,-0.26,0.0,0.3,204.73000000000002,204.74,0.0,0.0,3
1682451365.18058419,62496422,0.0,-0.27,0.0,0.29,204.72,204.73000000000002,0.0,0.0,3
1682451365.28062320,62596461,0.0,-0.27,0.0,0.29,204.72,204.73000000000002,0.0,0.0,3
1682451365.38068104,62696519,0.0,-0.27,0.0,0.29,204.72,204.73000000000002,0.0,0.0,3
1682451365.48078513,62796623,0.0,-0.27,0.0,0.29,204.72,204.73000000000002,0.0,0.0,3
1682451365.58098006,62896818,0.0,-0.27,0.0,0.29,204.71,204.72,0.0,0.01,3
1682451365.68075514,62996593,0.0,-0.27,0.0,0.29,204.70000000000002,204.71,0.0,0.01,3
1682451365.78055120,63096389,0.0,-0.27,0.0,0.29,204.70000000000002,204.71,0.0,0.01,3
1682451365.88054514,63196383,0.0,-0.28,0.0,0.29,204.70000000000002,204.71,0.0,0.0,3
1682451365.98039412,63296232,0.0,-0.28,0.0,0.29,204.70000000000002,204.71,0.0,0.01,3
1682451366.08045506,63396293,0.0,-0.27,0.0,0.29,204.70000000000002,204.71,0.0,0.01,3
1682451366.18046308,63496301,0.0,-0.28,0.0,0.29,204.70000000000002,204.71,0.0,0.01,3
1682451366.28055406,63596392,0.0,-0.28,0.0,0.29,204.70000000000002,204.72,0.0,0.01,3
1682451366.38063312,63696471,0.0,-0.28,0.0,0.29,204.70000000000002,204.73000000000002,0.0,0.01,3
1682451366.48057508,63796413,0.0,-0.28,0.0,0.3,204.70000000000002,204.73000000000002,0.01,0.0,3
1682451366.58103919,63896877,0.0,-0.28,0.0,0.29,204.70000000000002,204.73000000000002,0.01,0.01,3
1682451366.68055606,63996394,0.0,-0.28,0.0,0.29,204.70000000000002,204.73000000000002,0.01,0.01,3
1682451366.78043604,64096274,0.0,-0.27,0.0,0.29,204.70000000000002,204.73000000000002,0.01,0.01,3
1682451366.88037205,64196210,0.0,-0.27,0.0,0.29,204.70000000000002,204.74,0.01,0.0,3
1682451366.98039913,64296237,0.0,-0.28,0.0,0.29,204.70000000000002,204.74,0.01,0.0,3
1682451367.08053923,64396377,0.0,-0.28,0.0,0.28,204.70000000000002,204.74,0.01,0.0,3
1682451367.18055415,64496392,0.0,-0.28,0.0,0.28,204.70000000000002,204.74,0.01,0.0,3
1682451367.28066015,64596498,0.0,-0.28,0.0,0.28,204.70000000000002,204.74,0.01,0.0,3
1682451367.38056207,64696400,0.0,-0.28,0.0,0.29,204.70000000000002,204.74,0.01,0.0,3
1682451367.48074818,64796586,0.0,-0.27,0.0,0.29,204.70000000000002,204.74,0.01,0.0,3
1682451367.58088303,64896721,0.0,-0.27,0.0,0.29,204.70000000000002,204.74,0.01,0.0,3
1682451367.68077326,64996611,0.0,-0.27,0.0,0.29,204.73000000000002,204.74,0.01,0.01,3
1682451367.78038025,65096218,0.0,-0.28,0.0,0.29,204.73000000000002,204.74,0.01,0.01,3
1682451367.88068223,65196520,0.0,-0.28,0.0,0.29,204.73000000000002,204.74,0.01,0.01,3
1682451367.98088717,65296725,0.0,-0.27,0.0,0.29,204.74,204.75,0.01,0.01,3
1682451368.08085108,65396689,0.0,-0.28,0.0,0.29,204.74,204.75,0.01,0.0,3
1682451368.18087626,65496714,0.0,-0.28,0.0,0.29,204.74,204.75,0.01,0.01,3
1682451368.28076410,65596602,0.0,-0.28,0.0,0.29,204.74,204.75,0.01,0.01,3
1682451368.38076115,65696599,0.0,-0.27,0.0,0.29,204.74,204.75,0.01,0.01,3
1682451368.48077226,65796610,0.0,-0.27,0.0,0.29,204.74,204.75,0.01,0.01,3
1682451368.58087420,65896712,0.0,-0.27,0.0,0.29,204.74,204.75,0.01,0.01,3
1682451368.68071222,65996550,0.0,-0.27,0.0,0.29,204.74,204.74,0.01,0.01,3
1682451368.78063107,66096469,0.0,-0.27,0.0,0.29,204.74,204.73000000000002,0.01,0.0,3
1682451368.88071322,66196551,0.0,-0.28,0.0,0.29,204.74,204.74,0.01,0.0,3
1682451368.98076916,66296607,0.0,-0.26,0.0,0.27,204.74,204.73000000000002,0.01,0.01,3
1682451369.08072019,66396558,0.0,-0.23,0.0,0.28,204.74,204.73000000000002,0.02,0.01,3
1682451369.18058109,66496419,0.0,-0.27,0.0,0.29,204.74,204.74,0.02,0.01,3
1682451369.28071523,66596553,0.0,-0.24,0.0,0.27,204.74,204.74,0.02,0.01,3
1682451369.38070226,66696540,0.0,-0.22,0.0,0.28,204.74,204.75,0.02,0.01,3
1682451369.48069525,66796533,0.0,-0.25,0.0,0.27,204.74,204.75,0.02,0.01,3
1682451369.58065319,66896491,0.0,-0.21,0.0,0.27,204.74,204.74,0.02,0.01,3
1682451369.68060422,66996442,0.0,-0.24,0.0,0.28,204.74,204.76,0.02,0.01,3
1682451369.78062224,67096460,0.0,-0.22,0.0,0.28,204.74,204.75,0.02,0.01,3
1682451369.88070607,67196544,0.0,-0.26,0.0,0.28,204.74,204.74,0.02,0.01,3
1682451369.98082924,67296667,0.0,-0.25,0.0,0.28,204.74,204.77,0.02,0.01,3
1682451370.08086324,67396701,0.0,-0.23,0.0,0.28,204.74,204.76,0.02,0.01,3
1682451370.18072319,67496561,0.0,-0.25,0.0,0.28,204.74,204.76,0.02,0.01,3
1682451370.28070521,67596543,0.0,-0.22,0.0,0.27,204.74,204.78,0.02,0.0,3
1682451370.38071823,67696556,0.0,-0.26,0.0,0.27,204.74,204.75,0.02,0.01,3
1682451370.48064303,67796481,0.0,-0.23,0.0,0.28,204.74,204.75,0.02,0.0,3
1682451370.58057714,67896415,0.0,-0.23,0.0,0.28,204.74,204.77,0.02,0.0,3
1682451370.68064117,67996479,0.0,-0.22,0.0,0.29,204.74,204.74,0.02,0.0,3
1682451370.78070021,68096538,0.0,-0.22,0.0,0.29,204.74,204.76,0.02,0.0,3
1682451370.88085508,68196693,0.0,-0.24,0.0,0.3,204.74,204.74,0.02,0.0,3
1682451370.98078918,68296627,0.0,-0.22,0.0,0.3,204.74,204.75,0.02,0.0,3
1682451371.08081722,68396655,0.0,-0.2,0.0,0.28,204.74,204.76,0.02,0.0,3
1682451371.18056321,68496401,0.0,-0.2,0.0,0.29,204.74,204.73000000000002,0.02,0.0,3
1682451371.28050423,68596342,0.0,-0.23,0.0,0.29,204.74,204.75,0.01,0.0,3
1682451371.38038611,68696224,0.0,-0.22,0.0,0.23,204.74,204.75,0.01,0.0,3
1682451371.48043108,68796269,0.0,-0.04,0.0,0.23,204.74,204.65,0.01,0.01,3
1682451371.58053613,68896374,0.0,0.09,0.09,0.21,204.74,204.51,0.01,0.01,3
1682451371.68060017,68996438,-0.02,0.41000000000000003,0.18,0.2,204.74,204.35,0.01,0.02,3
1682451371.78067517,69096513,-0.1,0.37,0.25,0.4,204.74,204.20000000000002,0.01,0.03,3
1682451371.88057423,69196412,-0.27,0.17,0.27,0.68,204.74,204.04,0.02,0.03,3
1682451371.98058510,69296423,-0.39,-0.17,0.34,0.46,204.74,203.92000000000002,0.02,0.03,3
1682451372.08062410,69396462,-0.46,-0.64,0.29,0.64,204.74,203.82,0.01,0.02,3
1682451372.18057203,69496410,-0.59,-0.62,0.28,0.44,204.74,203.67000000000002,0.01,0.02,3
1682451372.28041220,69596250,-0.63,-0.7000000000000001,0.27,0.06,204.74,203.55,0.02,0.02,3
1682451372.38063622,69696474,-0.52,-0.65,0.22,0.02,204.74,203.43,0.02,0.02,3
1682451372.48052216,69796360,-0.41000000000000003,-0.39,0.23,-0.14,204.74,203.3,0.02,0.02,3
1682451372.58060718,69896445,-0.3,-0.36,0.25,0.05,204.74,203.19,0.02,0.02,3
1682451372.68067408,69996512,-0.19,0.08,0.29,0.15,204.74,203.03,0.02,0.02,3
1682451372.78059006,70096428,-0.13,0.51,0.31,0.29,204.74,202.94,0.02,0.02,3
1682451372.88057923,70196417,-0.15,0.44,0.29,0.43,204.74,202.85,0.02,0.02,3
1682451372.98055220,70296390,-0.31,0.02,0.28,0.32,204.74,202.76,0.02,0.02,3
1682451373.08057523,70396413,-0.42,-0.25,0.22,0.59,204.61,202.72,0.02,0.02,3
1682451373.18039513,70496233,-0.44,-0.63,0.15,0.45,204.49,202.68,0.02,0.01,3
1682451373.28069019,70596528,-0.45,-0.61,0.06,0.34,204.48000000000002,202.67000000000002,0.02,0.01,3
1682451373.38054514,70696383,-0.41000000000000003,-0.47000000000000003,-0.04,0.24,204.02,202.67000000000002,0.02,0.01,3
1682451373.48076916,70796607,-0.3,-0.37,-0.1,-0.04,203.05,202.61,0.02,0.02,3
1682451373.58085918,70896697,-0.22,-0.07,-0.16,-0.14,201.33,202.37,0.02,0.02,3
1682451373.68076420,70996602,-0.19,0.01,-0.18,-0.14,199.37,201.86,0.02,0.01,3
1682451373.78074908,71096587,-0.27,0.03,-0.13,-0.17,197.36,201.09,0.02,0.02,3
1682451373.88076615,71196604,-0.34,-0.23,-0.09,-0.12,195.19,200.02,0.02,0.02,3
1682451373.98078513,71296623,-0.36,-0.52,0.0,-0.13,193.03,198.74,0.02,0.01,3
1682451374.08080816,71396646,-0.36,-0.56,0.11,-0.02,191.34,197.21,0.02,0.01,3
1682451374.18101215,71496850,-0.37,-0.47000000000000003,0.23,0.16,190.13,195.57,0.02,0.02,3
1682451374.28090405,71596742,-0.48,-0.5,0.34,0.35000000000000003,189.39000000000001,193.93,0.02,0.02,3
1682451374.38075805,71696596,-0.58,-0.6,0.4,0.5,189.1,192.3,0.02,0.02,3
1682451374.48085809,71796696,-0.78,-0.64,0.44,0.51,189.1,190.74,0.02,0.03,3
1682451374.58058405,71896422,-1.28,-1.0,0.45,0.47000000000000003,189.1,189.3,0.02,0.03,3
1682451374.68071508,71996553,-1.55,-1.51,0.46,0.42,189.1,188.01,0.02,0.04,3
1682451374.78071308,72096551,-1.68,-1.79,0.48,0.37,189.05,186.89000000000001,0.02,0.04,3
1682451374.88071513,72196553,-1.71,-1.67,0.51,0.39,189.01,185.93,0.03,0.04,3
1682451374.98065519,72296493,-1.71,-1.58,0.53,0.41000000000000003,188.71,185.13,0.03,0.04,3
1682451375.08067703,72396515,-1.69,-1.41,0.55,0.42,188.37,184.46,0.02,0.04,3
1682451375.18064022,72496478,-1.7,-1.3800000000000001,0.56,0.41000000000000003,188.05,183.89000000000001,0.02,0.05,3
1682451375.28070116,72596539,-1.67,-1.46,0.53,0.38,187.72,183.41,0.03,0.05,3
1682451375.38079715,72696635,-1.57,-1.6,0.44,0.29,187.33,183.0,0.03,0.05,3
1682451375.48071122,72796549,-1.3800000000000001,-1.3,0.3,0.18,186.77,182.66,0.03,0.04,3
1682451375.58070922,72896547,-1.07,-0.96,0.07,0.01,186.14000000000001,182.35,0.03,0.05,3
1682451375.68071508,72996553,-0.56,-0.56,-0.28,-0.21,184.94,182.06,0.02,0.05,3
1682451375.78093219,73096770,0.11,0.15,-0.67,-0.58,182.88,181.66,0.02,0.05,3
1682451375.88065124,73196489,0.86,1.04,-0.59,-0.9,180.58,181.01,0.02,0.04,3
1682451375.98060417,73296442,1.6300000000000001,1.76,-0.09,-0.49,178.54,180.1,0.02,0.04,3
1682451376.08075118,73396589,2.33,2.56,0.49,0.32,176.82,179.0,0.02,0.05,3
1682451376.18070412,73496542,2.46,3.12,0.8200000000000001,0.98,175.67000000000002,177.78,0.02,0.05,3
1682451376.28078914,73596627,2.19,2.83,0.76,1.18,174.6,176.46,0.02,0.05,3
1682451376.38080311,73696641,1.71,2.13,0.26,0.79,174.06,175.07,0.02,0.07,3
1682451376.48071408,73796552,1.1300000000000001,1.33,-0.44,-0.03,174.05,173.72,0.02,0.07,3
1682451376.58073902,73896577,0.55,0.64,-1.37,-1.07,174.05,172.55,0.02,0.09,3
1682451376.68095303,73996791,0.21,-0.12,-2.13,-2.21,174.05,171.5,0.02,0.1,3
1682451376.78066015,74096498,0.01,-0.15,-2.64,-2.93,174.05,170.56,0.02,0.1,3
1682451376.88058710,74196425,-0.1,-0.16,-3.0500000000000003,-3.23,174.05,169.77,0.03,0.1,3
1682451376.98067617,74296514,-0.13,-0.06,-3.13,-3.5100000000000002,174.05,169.1,0.03,0.1,3
1682451377.08076310,74396601,-0.14,-0.05,-3.08,-3.2600000000000002,174.05,168.54,0.02,0.1,3
1682451377.18079305,74496631,-0.15,-0.01,-3.06,-2.92,174.05,168.06,0.02,0.1,3
1682451377.28069925,74596537,-0.15,0.03,-3.2,-2.95,174.02,167.69,0.02,0.1,3
1682451377.38070011,74696538,-0.15,0.23,-3.3000000000000003,-3.17,173.37,167.39000000000001,0.02,0.09,3
1682451377.48070908,74796547,-0.14,0.14,-3.38,-3.21,171.94,167.07,0.02,0.08,3
1682451377.58095717,74896795,-0.16,0.1,-3.62,-3.41,170.65,166.64000000000001,0.02,0.08,3
1682451377.68072915,74996567,-0.15,0.09,-3.68,-3.67,169.87,166.13,0.02,0.09,3
1682451377.78069615,75096534,-0.11,0.03,-3.72,-3.7,169.56,165.71,0.02,0.08,3
1682451377.88076019,75196598,-0.1,0.15,-3.83,-3.59,168.65,165.37,0.02,0.09,3
1682451377.98058224,75296420,-0.09,0.1,-3.64,-3.7,166.99,165.0,0.02,0.08,3
1682451378.08071923,75396557,-0.08,-0.01,-3.47,-3.25,164.57,164.38,0.03,0.08,3
1682451378.18057919,75496417,-0.1,-0.23,-3.35,-2.96,162.07,163.52,0.03,0.08,3
1682451378.28057814,75596416,-0.1,-0.43,-3.21,-2.98,159.70000000000002,162.36,0.02,0.09,3
1682451378.38056111,75696399,-0.12,-0.62,-3.17,-2.92,157.36,160.94,0.02,0.09,3
1682451378.48087120,75796709,-0.13,-0.61,-3.12,-2.94,155.28,159.37,0.02,0.09,3
1682451378.58072519,75896563,-0.12,-0.6900000000000001,-3.06,-2.99,153.51,157.63,0.02,0.09,3
1682451378.68068218,75996520,-0.12,-0.56,-2.81,-2.91,152.33,155.85,0.02,0.1,3
1682451378.78072309,76096561,-0.13,-0.31,-2.68,-2.54,151.41,154.07,0.02,0.1,3
1682451378.88074517,76196583,-0.47000000000000003,-0.58,-2.31,-2.39,151.21,152.33,0.02,0.1,3
1682451378.98084617,76296684,-1.12,-0.76,-1.83,-1.95,151.21,150.81,0.02,0.1,3
1682451379.08082509,76396663,-1.6300000000000001,-1.67,-1.76,-1.29,151.21,149.47,0.02,0.09,3
1682451379.18073010,76496568,-1.95,-2.39,-1.71,-1.51,151.21,148.42000000000002,0.02,0.09,3
1682451379.28077006,76596608,-2.11,-2.47,-1.6600000000000001,-1.6,151.21,147.57,0.03,0.08,3
1682451379.38077712,76696615,-2.19,-2.63,-2.2,-1.62,151.21,146.95000000000002,0.03,0.08,3
1682451379.48071504,76796553,-2.24,-2.49,-2.38,-2.48,151.21,146.52,0.02,0.08,3
1682451379.58106422,76896902,-2.2600000000000002,-2.47,-2.2,-2.75,151.21,146.34,0.02,0.07,3
1682451379.68071818,76996556,-2.27,-2.38,-1.72,-2.1,151.21,146.27,0.02,0.07,3
1682451379.78058124,77096419,-2.2800000000000002,-2.22,-1.34,-1.41,151.21,146.41,0.02,0.06,3
1682451379.88065219,77196490,-2.2800000000000002,-2.13,-1.04,-0.97,151.19,146.75,0.03,0.06,3
1682451379.98057914,77296417,-2.34,-2.18,-0.58,-0.62,150.92000000000002,147.3,0.03,0.05,3
1682451380.08061624,77396454,-2.39,-2.14,0.08,0.1,150.33,147.86,0.03,0.05,3
1682451380.18061209,77496450,-2.41,-2.17,0.81,1.06,149.70000000000002,148.4,0.03,0.04,3
1682451380.28051305,77596351,-2.35,-2.16,1.24,1.87,148.51,148.93,0.03,0.04,3
1682451380.38046408,77696302,-2.29,-2.05,1.26,2.25,146.81,149.29,0.03,0.03,3
1682451380.48068213,77796520,-2.25,-1.8800000000000001,1.06,2.21,145.08,149.43,0.03,0.04,3
1682451380.58092809,77896766,-2.24,-1.9000000000000001,0.64,1.74,143.39000000000001,149.28,0.03,0.05,3
1682451380.68058109,77996419,-2.23,-2.0300000000000002,-0.04,1.17,141.77,148.93,0.03,0.06,3
1682451380.78065825,78096496,-2.2600000000000002,-2.3000000000000003,-0.55,0.13,140.22,148.4,0.03,0.07,3
1682451380.88056517,78196403,-2.2600000000000002,-2.4,-0.5,-0.39,138.71,147.69,0.02,0.07,3
1682451380.98057508,78296413,-2.23,-2.39,-0.37,0.0,137.23,146.79,0.02,0.08,3
1682451381.08063412,78396472,-2.22,-2.36,-0.13,0.38,136.17000000000002,145.70000000000002,0.02,0.08,3
1682451381.18052316,78496361,-2.19,-2.29,0.38,0.74,135.81,144.54,0.02,0.07,3
1682451381.28039122,78596229,-2.14,-1.85,1.04,1.48,135.81,143.38,0.02,0.06,3
1682451381.38043618,78696274,-1.9000000000000001,-1.61,1.77,2.18,135.81,142.26,0.02,0.05,3
1682451381.48049212,78796330,-1.54,-1.01,2.5300000000000002,2.7600000000000002,135.81,141.11,0.03,0.04,3
1682451381.58058715,78896425,-1.29,-0.54,3.31,3.5,135.81,139.97,0.03,0.04,3
1682451381.68085003,78996688,-1.1300000000000001,-0.32,4.09,4.17,135.81,138.82,0.03,0.03,3
1682451381.78057718,79096415,-1.02,-0.29,4.2,4.66,135.81,137.70000000000002,0.03,0.04,3
1682451381.88070226,79196540,-0.97,-0.22,3.54,4.18,135.81,136.63,0.03,0.04,3
1682451381.98072720,79296565,-0.9400000000000001,-0.31,2.42,2.69,135.81,135.65,0.03,0.06,3
1682451382.08077621,79396614,-0.92,-0.51,1.1,0.97,135.81,134.75,0.02,0.06,3
1682451382.18065524,79496493,-0.92,-0.55,-0.17,-0.66,135.81,134.07,0.02,0.06,3
1682451382.28060508,79596443,-0.73,-0.24,-0.72,-1.92,135.86,133.42000000000002,0.03,0.05,3
1682451382.38068604,79696524,-0.18,-0.13,-0.6,-1.92,136.18,132.85,0.03,0.04,3
1682451382.48070502,79796543,0.48,0.6,-0.08,-1.05,136.18,132.43,0.02,0.03,3
1682451382.58083510,79896673,1.22,1.3,0.36,-0.03,136.18,132.15,0.02,0.04,3
1682451382.68079305,79996631,1.99,2.09,0.47000000000000003,0.5700000000000001,136.18,131.92000000000002,0.02,0.05,3
1682451382.78073215,80096570,2.77,2.79,0.42,0.47000000000000003,136.18,131.8,0.02,0.06,3
1682451382.88071823,80196556,3.56,3.5500000000000003,0.31,0.34,136.18,131.79,0.02,0.05,3
1682451382.98071408,80296552,4.36,4.18,0.2,0.28,136.18,131.82,0.02,0.04,3
1682451383.08078909,80396627,5.03,4.97,0.24,0.18,136.18,131.96,0.02,0.04,3
1682451383.18060303,80496441,4.76,5.54,0.65,0.32,136.18,132.19,0.02,0.04,3
1682451383.28063011,80596468,3.84,4.7700000000000005,1.25,0.97,136.05,132.49,0.02,0.03,3
1682451383.38070011,80696538,1.97,2.95,1.94,1.6500000000000001,135.17000000000002,132.75,0.02,0.02,3
1682451383.48087120,80796709,-0.31,0.22,2.69,2.44,134.0,132.87,0.02,0.02,3
1682451383.58058524,80896423,-1.61,-2.62,3.46,3.2600000000000002,133.61,132.76,0.02,0.03,3
1682451383.68076921,80996607,-1.77,-3.74,4.25,4.22,133.61,132.6,0.02,0.03,3
1682451383.78075624,81096594,-1.44,-3.04,4.92,4.98,133.61,132.53,0.02,0.04,3
1682451383.88077712,81196615,-0.85,-1.81,4.92,5.58,133.61,132.49,0.03,0.05,3
1682451383.98078108,81296619,-0.11,-0.9,4.45,5.0,133.61,132.41,0.03,0.05,3
1682451384.08078408,81396622,0.65,0.29,3.65,3.84,133.61,132.33,0.03,0.04,3
1682451384.18075013,81496588,1.43,1.21,2.48,2.63,133.61,132.2,0.03,0.04,3
1682451384.28076720,81596605,2.22,2.16,1.37,1.06,133.61,131.95,0.03,0.04,3
1682451384.38120818,81697046,3.02,3.11,1.08,-0.06,133.61,131.71,0.03,0.04,3
1682451384.48079610,81796634,3.8200000000000003,3.89,1.32,0.13,133.61,131.52,0.03,0.04,3
1682451384.58078814,81896626,4.62,4.47,1.83,1.06,133.61,131.42000000000002,0.03,0.04,3
1682451384.68056417,81996402,5.3500000000000005,5.33,2.49,2.1,133.61,131.34,0.03,0.04,3
1682451384.78060317,82096441,5.5,5.84,3.21,3.1,133.61,131.28,0.03,0.04,3
1682451384.88040924,82196247,5.21,5.54,3.46,3.97,133.61,131.22,0.03,0.04,3
1682451384.98042417,82296262,4.69,4.8,3.15,3.84,133.61,131.12,0.03,0.04,3
1682451385.08054423,82396382,3.94,3.84,2.58,2.99,133.61,130.98,0.03,0.03,3
1682451385.18056321,82496401,3.04,3.09,1.87,2.06,133.61,130.9,0.03,0.03,3
1682451385.28067112,82596509,2.07,1.73,1.09,1.0,133.61,130.86,0.04,0.03,3
1682451385.38057923,82696417,1.09,1.1,0.8,0.18,133.61,130.88,0.04,0.03,3
1682451385.48057604,82796414,0.06,-0.04,1.04,0.12,133.61,130.93,0.03,0.03,3
1682451385.58059621,82896434,-0.77,-1.02,1.55,0.77,133.61,131.04,0.03,0.02,3
1682451385.68053222,82996370,-1.1300000000000001,-1.92,2.21,1.56,133.61,131.14000000000001,0.03,0.02,3
1682451385.78039002,83096228,-0.9400000000000001,-1.98,2.93,2.44,133.61,131.3,0.03,0.02,3
1682451385.88069105,83196529,-0.4,-1.26,3.69,3.3000000000000003,133.61,131.48,0.03,0.03,3
1682451385.98053122,83296369,0.27,-0.42,4.46,4.16,133.61,131.7,0.03,0.05,3
1682451386.08061504,83396453,1.02,0.76,4.8,4.92,133.61,131.94,0.03,0.06,3
1682451386.18069410,83496532,1.72,1.73,4.72,5.07,133.61,132.14000000000001,0.03,0.06,3
1682451386.28060508,83596443,2.09,2.33,4.38,4.53,133.61,132.35,0.03,0.05,3
1682451386.38060308,83696441,2.11,2.54,3.86,3.93,133.61,132.53,0.03,0.04,3
1682451386.48057103,83796409,1.9100000000000001,2.41,3.3200000000000003,3.2600000000000002,133.61,132.67000000000002,0.03,0.04,3
1682451386.58051825,83896356,1.56,1.93,2.7600000000000002,2.61,133.61,132.82,0.03,0.03,3
1682451386.68043804,83996276,1.18,1.28,2.25,2.02,133.61,132.89000000000001,0.03,0.03,3
1682451386.78068113,84096519,0.8200000000000001,0.79,1.85,1.48,133.61,132.93,0.03,0.03,3
1682451386.88071609,84196554,0.58,0.56,1.54,1.2,133.61,132.93,0.03,0.02,3
1682451386.98071218,84296550,0.47000000000000003,0.12,1.35,0.99,133.61,132.9,0.03,0.02,3
1682451387.08085704,84396695,0.45,0.06,1.28,0.84,133.61,132.85,0.03,0.02,3
1682451387.18072724,84496565,0.46,0.38,1.31,0.9500000000000001,133.61,132.77,0.03,0.02,3
1682451387.28073311,84596571,0.5,0.4,1.32,1.04,133.61,132.7,0.02,0.02,3
1682451387.38072014,84696558,0.26,0.46,1.24,1.1400000000000001,133.61,132.59,0.02,0.03,3
1682451387.48074007,84796578,-0.19,-0.01,1.12,1.0,133.61,132.5,0.02,0.02,3
1682451387.58068109,84896519,-0.58,-0.54,0.93,0.89,133.61,132.42000000000002,0.02,0.02,3
1682451387.68099213,84996830,-1.06,-0.74,0.73,0.66,133.61,132.36,0.02,0.02,3
1682451387.78101707,85096855,-1.59,-1.42,0.54,0.37,133.61,132.31,0.02,0.02,3
1682451387.88077021,85196608,-1.6400000000000001,-2.0,0.31,0.22,133.61,132.29,0.02,0.01,3
1682451387.98086619,85296704,-1.27,-1.59,0.32,0.11,133.61,132.28,0.02,0.02,3
1682451388.08084607,85396684,-0.64,-0.97,0.6900000000000001,0.33,133.61,132.3,0.01,0.04,3
1682451388.18077421,85496612,0.09,-0.1,0.9500000000000001,1.01,133.61,132.36,0.01,0.04,3
1682451388.28077817,85596616,0.87,0.9,1.05,1.31,133.61,132.43,0.01,0.04,3
1682451388.38076806,85696606,1.6500000000000001,1.55,0.99,1.29,133.61,132.52,0.01,0.04,3
1682451388.48071623,85796554,2.43,2.36,0.84,1.16,133.61,132.61,0.02,0.05,3
1682451388.58068109,85896519,2.86,3.31,0.61,0.93,133.61,132.71,0.02,0.05,3
1682451388.68072724,85996565,2.87,3.66,0.45,0.6,133.61,132.86,0.01,0.04,3
1682451388.78075123,86096589,2.66,3.33,0.37,0.49,133.61,133.0,0.01,0.03,3
1682451388.88085318,86196691,2.19,2.77,0.44,0.44,133.61,133.2,0.01,0.03,3
1682451388.98087811,86296716,1.54,1.9000000000000001,0.55,0.58,133.61,133.39000000000001,0.01,0.03,3
1682451389.08082914,86396667,1.0,1.0,0.6900000000000001,0.68,133.61,133.59,0.01,0.03,3
1682451389.18079519,86496633,0.66,0.52,1.05,0.77,133.61,133.76,0.01,0.03,3
1682451389.28100419,86596842,0.42,0.4,1.3,1.24,133.61,133.89000000000001,0.01,0.03,3
1682451389.38072205,86696560,0.43,0.15,1.29,1.42,133.61,133.96,0.01,0.03,3
1682451389.48068213,86796520,0.8300000000000001,0.37,0.9500000000000001,1.16,133.61,133.99,0.01,0.03,3
1682451389.58081913,86896657,1.24,1.22,0.38,0.59,133.61,133.98,0.01,0.02,3
