timestamp,TimeUS,I,Status,GMS,GWk,NSats,HDop,Lat,Lng,Alt,Spd,GCrs,VZ,Yaw,U
1682451313.20000005,10515838,0,3,243331200,2259,17,1.2,42.707440999999996,-84.4780243,261.04,0.02607681229710579,327.52880859375,0.10500000417232513,0.0,1
1682451313.42000103,10735839,0,3,243331400,2259,17,0.64,42.707440999999996,-84.4780242,261.02,0.07310951501131058,176.86363220214844,0.04100000113248825,0.0,1
1682451313.62007308,10935911,0,3,243331600,2259,17,0.64,42.707440999999996,-84.4780241,261.0,0.017804494127631187,141.84275817871094,0.11000000685453415,0.0,1
1682451313.82002425,11135862,0,3,243331800,2259,17,0.64,42.7074411,-84.47802399999999,261.02,0.04531004652380943,22.036226272583008,0.01600000075995922,0.0,1
1682451314.01999021,11335828,0,3,243332000,2259,17,0.64,42.7074412,-84.4780239,261.03000000000003,0.03130495175719261,206.56504821777344,0.01600000075995922,0.0,1
1682451314.22015715,11535995,0,3,243332200,2259,17,0.64,42.7074413,-84.4780239,261.04,0.02376973070204258,337.7509765625,-0.024000000208616257,0.0,1
1682451314.42018414,11736022,0,3,243332400,2259,17,0.64,42.7074414,-84.4780238,261.05,0.027784887701272964,149.74356079101562,-0.015000000596046448,0.0,1
1682451314.60017109,11916009,0,3,243332600,2259,17,0.64,42.7074414,-84.4780238,261.06,0.018027756363153458,183.17984008789062,0.029000001028180122,0.0,1
1682451314.82027411,12136112,0,3,243332800,2259,17,0.64,42.707441599999996,-84.4780238,261.08,0.012041594833135605,311.633544921875,0.09200000762939453,0.0,1
1682451315.02014923,12335987,0,3,243333000,2259,17,0.64,42.707441599999996,-84.4780238,261.07,0.027000000700354576,0.0,-0.05000000074505806,0.0,1
1682451315.22056222,12536400,0,3,243333200,2259,17,0.64,42.7074417,-84.4780237,261.06,0.037854988127946854,192.2004852294922,0.08300000429153442,0.0,1
1682451315.42128611,12737124,0,3,243333400,2259,17,0.64,42.7074417,-84.4780237,261.07,0.046043459326028824,304.3803405761719,0.052000001072883606,0.0,1
1682451315.62082410,12936662,0,3,243333600,2259,17,0.64,42.7074419,-84.4780237,261.07,0.05400925874710083,91.06090545654297,-0.08100000023841858,0.0,1
1682451315.82119513,13137033,0,3,243333800,2259,17,0.64,42.7074421,-84.4780236,261.1,0.10456099361181259,12.707113265991211,0.03500000014901161,0.0,1
1682451316.02075005,13336588,0,3,243334000,2259,17,0.64,42.7074425,-84.47802349999999,261.14,0.006082762498408556,189.4623260498047,-0.017000000923871994,0.0,1
1682451316.22069907,13536537,0,3,243334200,2259,17,0.64,42.7074427,-84.4780236,261.17,0.03231098875403404,248.1986083984375,-0.04000000283122063,0.0,1
1682451316.42074513,13736583,0,3,243334400,2259,17,0.64,42.7074429,-84.4780236,261.19,0.01603122055530548,86.42366027832031,-0.021000001579523087,0.0,1
1682451316.62126017,13937098,0,3,243334600,2259,17,0.64,42.7074432,-84.4780237,261.22,0.04609772562980652,3.731396198272705,0.06800000369548798,0.0,1
1682451316.82074618,14136584,0,3,243334800,2259,17,0.64,42.7074433,-84.4780237,261.27,0.09317188709974289,192.39541625976562,-0.11500000208616257,0.0,1
1682451317.02082014,14336658,0,3,243335000,2259,17,0.64,42.7074433,-84.4780238,261.3,0.017888544127345085,333.4349365234375,-0.05000000074505806,0.0,1
1682451317.22082424,14536662,0,3,243335200,2259,17,0.64,42.7074435,-84.4780237,261.31,0.07710383087396622,33.89616394042969,-0.04700000211596489,0.0,1
1682451317.42092204,14736760,0,3,243335400,2259,17,0.64,42.7074438,-84.4780237,261.32,0.034885529428720474,332.700439453125,0.030000001192092896,0.0,1
1682451317.62082410,14936662,0,3,243335600,2259,17,0.64,42.7074439,-84.4780237,261.34000000000003,0.007615773472934961,23.198589324951172,0.014000000432133675,0.0,1
1682451317.82082915,15136667,0,3,243335800,2259,17,0.64,42.7074441,-84.4780237,261.36,0.0070710680447518826,81.8698959350586,-0.07000000029802322,0.0,1
1682451318.02022314,15336061,0,3,243336000,2259,17,0.64,42.7074443,-84.4780238,261.39,0.003162277862429619,288.4349365234375,-0.023000001907348633,0.0,1
1682451318.22036815,15536206,0,3,243336200,2259,17,0.64,42.7074445,-84.4780238,261.4,0.025612497702240944,51.34019088745117,0.007000000216066837,0.0,1
1682451318.42033219,15736170,0,3,243336400,2259,17,0.64,42.707444699999996,-84.4780239,261.43,0.009055386297404766,173.65980529785156,0.020000001415610313,0.0,1
1682451318.62020111,15936039,0,3,243336600,2259,17,0.64,42.7074449,-84.47802399999999,261.45,0.03026549331843853,352.4053649902344,-0.013000000268220901,0.0,1
1682451318.82018924,16136027,0,3,243336800,2259,17,0.64,42.7074451,-84.47802399999999,261.47,0.03162277862429619,34.695152282714844,0.039000000804662704,0.0,1
1682451319.02030611,16336144,0,3,243337000,2259,17,0.64,42.707445299999996,-84.4780241,261.48,0.012806248851120472,51.34019088745117,0.024000000208616257,0.0,1
1682451319.22035217,16536190,0,3,243337200,2259,17,0.64,42.7074454,-84.4780241,261.51,0.014560219831764698,15.945395469665527,0.16100001335144043,0.0,1
1682451319.42026114,16736099,0,3,243337400,2259,17,0.64,42.7074455,-84.4780242,261.51,0.0036055513191968203,56.309932708740234,-0.05400000140070915,0.0,1
1682451319.62083507,16936673,0,3,243337600,2259,17,0.64,42.7074456,-84.4780242,261.54,0.0382099486887455,186.00901794433594,0.024000000208616257,0.0,1
1682451319.82023025,17136068,0,3,243337800,2259,17,0.64,42.7074457,-84.4780243,261.57,0.02163330838084221,33.6900634765625,0.0820000022649765,0.0,1
1682451320.00040317,17316241,0,3,243338000,2259,17,0.64,42.707445799999995,-84.4780243,261.58,0.02009975165128708,95.71058654785156,-0.02200000174343586,0.0,1
1682451320.22030926,17536147,0,3,243338200,2259,17,0.64,42.707445899999996,-84.4780243,261.59000000000003,0.02846050076186657,251.5650634765625,0.017000000923871994,0.0,1
1682451320.42020106,17736039,0,3,243338400,2259,17,0.64,42.707446,-84.4780244,261.6,0.019416488707065582,235.49148559570312,0.03400000184774399,0.0,1
1682451320.62083125,17936669,0,3,243338600,2259,17,0.64,42.707446,-84.47802449999999,261.62,0.03832753747701645,195.1240234375,0.04500000178813934,0.0,1
1682451320.82082319,18136661,0,3,243338800,2259,17,0.64,42.707446,-84.47802449999999,261.63,0.02080865204334259,144.78240966796875,0.0860000029206276,0.0,1
1682451321.02035403,18336192,0,3,243339000,2259,17,0.64,42.7074461,-84.4780246,261.65,0.046840157359838486,286.1134033203125,-0.020000001415610313,0.0,1
1682451321.22025108,18536089,0,3,243339200,2259,17,0.64,42.7074462,-84.47802469999999,261.68,0.018027756363153458,356.8201599121094,0.04400000348687172,0.0,1
1682451321.40056014,18716398,0,3,243339400,2259,17,0.64,42.7074463,-84.47802469999999,261.69,0.008062257431447506,299.744873046875,-0.10200000554323196,0.0,1
1682451321.62020922,18936047,0,3,243339600,2259,17,0.64,42.707446399999995,-84.47802469999999,261.73,0.026248810812830925,72.25532531738281,0.10000000149011612,0.0,1
1682451321.82033420,19136172,0,3,243339800,2259,17,0.64,42.707446399999995,-84.47802469999999,261.73,0.029529647901654243,151.69923400878906,-0.003000000026077032,0.0,1
1682451322.02033305,19336171,0,3,243340000,2259,17,0.64,42.707446499999996,-84.4780248,261.75,0.028160257264971733,186.11550903320312,0.026000000536441803,0.0,1
1682451322.22068405,19536522,0,3,243340200,2259,17,0.64,42.707446499999996,-84.4780248,261.76,0.02280350960791111,15.255117416381836,0.003000000026077032,0.0,1
1682451322.42073512,19736573,0,3,243340400,2259,17,0.64,42.7074466,-84.4780249,261.78000000000003,0.0374833308160305,9.21102523803711,0.05400000140070915,0.0,1
1682451322.62093115,19936769,0,3,243340600,2259,17,0.64,42.7074467,-84.4780249,261.79,0.020024985074996948,2.8624048233032227,0.036000002175569534,0.0,1
1682451322.80046511,20116303,0,3,243340800,2259,17,0.64,42.7074468,-84.4780249,261.8,0.028861740604043007,14.036242485046387,0.07100000232458115,0.0,1
1682451323.02083015,20336668,0,3,243341000,2259,17,0.64,42.7074469,-84.4780249,261.8,0.012041594833135605,48.366458892822266,0.039000000804662704,0.0,1
1682451323.22074103,20536579,0,3,243341200,2259,17,0.64,42.707446999999995,-84.478025,261.82,0.036400552839040756,232.8153076171875,-0.029000001028180122,0.0,1
1682451323.42077804,20736616,0,3,243341400,2259,17,0.64,42.707446999999995,-84.4780251,261.83,0.02927456423640251,97.85330963134766,0.015000000596046448,0.0,1
1682451323.62085819,20936696,0,3,243341600,2259,17,0.64,42.707447099999996,-84.478025,261.86,0.009486833587288857,18.434947967529297,-0.029000001028180122,0.0,1
1682451323.82082605,21136664,0,3,243341800,2259,17,0.64,42.7074472,-84.4780251,261.87,0.038639359176158905,10.437474250793457,-0.020000001415610313,0.0,1
1682451324.02081418,21336652,0,3,243342000,2259,17,0.64,42.7074473,-84.478025,261.9,0.0434165894985199,38.45370864868164,-0.012000000104308128,0.0,1
1682451324.22018719,21536025,0,3,243342200,2259,17,0.64,42.7074475,-84.478025,261.94,0.0505964457988739,18.434947967529297,0.05300000309944153,0.0,1
1682451324.42029214,21736130,0,3,243342400,2259,17,0.64,42.707447599999995,-84.478025,261.93,0.021840332075953484,285.9454040527344,-0.027000000700354576,0.0,1
1682451324.62037706,21936215,0,3,243342600,2259,17,0.64,42.707447599999995,-84.478025,261.95,0.006082762498408556,80.53767395019531,0.01600000075995922,0.0,1
1682451324.82024503,22136083,0,3,243342800,2259,17,0.64,42.7074478,-84.4780251,261.97,0.012529964558780193,118.6104507446289,0.09000000357627869,0.0,1
1682451325.02019906,22336037,0,3,243343000,2259,17,0.64,42.7074479,-84.4780251,261.98,0.03106445074081421,93.6913833618164,0.09000000357627869,0.0,1
1682451325.22021413,22536052,0,3,243343200,2259,16,0.66,42.707448,-84.4780251,261.99,0.011401754803955555,164.744873046875,0.009000000543892384,0.0,1
1682451325.42034411,22736182,0,3,243343400,2259,17,0.66,42.7074481,-84.4780251,262.0,0.03551056236028671,57.652549743652344,0.05300000309944153,0.0,1
1682451325.62031221,22936150,0,3,243343600,2259,17,0.66,42.7074484,-84.478025,262.06,0.09660746157169342,25.76932716369629,-0.03100000135600567,0.0,1
1682451325.82020020,23136038,0,3,243343800,2259,17,0.66,42.7074484,-84.478025,262.03000000000003,0.06008328124880791,198.43495178222656,0.023000001907348633,0.0,1
1682451326.02018523,23336023,0,3,243344000,2259,17,0.66,42.7074484,-84.4780251,262.04,0.03606937825679779,133.87669372558594,0.020000001415610313,0.0,1
1682451326.22029424,23536132,0,3,243344200,2259,17,0.66,42.7074484,-84.4780251,262.03000000000003,0.006708203814923763,333.4349365234375,0.017000000923871994,0.0,1
1682451326.42080712,23736645,0,3,243344400,2259,17,0.66,42.7074484,-84.4780251,262.04,0.03640054911375046,200.92449951171875,0.06000000238418579,0.0,1
1682451326.62081122,23936649,0,3,243344600,2259,17,0.66,42.7074484,-84.4780251,262.04,0.013601470738649368,197.1027374267578,0.07800000160932541,0.0,1
1682451326.80053520,24116373,0,3,243344800,2259,17,0.66,42.7074484,-84.4780251,262.02,0.049091752618551254,56.633628845214844,0.052000001072883606,0.0,1
1682451327.02075720,24336595,0,3,243345000,2259,17,0.66,42.7074484,-84.4780251,262.0,0.10278619080781937,197.5535430908203,0.10600000619888306,0.0,1
1682451327.22082305,24536661,0,3,243345200,2259,17,0.64,42.707448299999996,-84.47802519999999,261.99,0.03505709767341614,183.2705078125,0.1680000126361847,0.0,1
1682451327.42082310,24736661,0,3,243345400,2259,17,0.64,42.707448199999995,-84.47802519999999,261.96,0.03214031830430031,174.6441650390625,0.00800000037997961,0.0,1
1682451327.62019515,24936033,0,3,243345600,2259,17,0.64,42.707448199999995,-84.47802519999999,261.96,0.017000000923871994,28.072486877441406,0.0860000029206276,0.0,1
1682451327.82020426,25136042,0,3,243345800,2259,17,0.64,42.707448199999995,-84.47802519999999,261.97,0.015132746659219265,97.59463500976562,0.09400000423192978,0.0,1
1682451328.02030611,25336144,0,3,243346000,2259,17,0.64,42.707448299999996,-84.4780253,261.97,0.03301514685153961,271.7357177734375,-0.030000001192092896,0.0,1
1682451328.20049214,25516330,0,3,243346200,2259,17,0.64,42.707448299999996,-84.4780253,261.99,0.011045361869037151,275.1944274902344,0.018000001087784767,0.0,1
1682451328.42082715,25736665,0,3,243346400,2259,17,0.64,42.707448299999996,-84.4780253,261.99,0.024041632190346718,135.0,-0.07100000232458115,0.0,1
1682451328.62019205,25936030,0,3,243346600,2259,16,0.64,42.707448299999996,-84.4780253,261.98,0.027658633887767792,12.528807640075684,-0.036000002175569534,0.0,1
1682451328.82022810,26136066,0,3,243346800,2259,16,0.64,42.7074484,-84.4780253,261.99,0.014422205276787281,123.6900634765625,-0.01600000075995922,0.0,1
1682451329.02035403,26336192,0,3,243347000,2259,16,0.64,42.707448299999996,-84.47802539999999,261.99,0.08523496985435486,202.0510711669922,0.09200000762939453,0.0,1
1682451329.22031903,26536157,0,3,243347200,2259,16,0.68,42.707448299999996,-84.47802539999999,261.98,0.08570298552513123,168.55894470214844,0.07500000298023224,0.0,1
1682451329.42019010,26736028,0,3,243347400,2259,16,0.68,42.707448299999996,-84.47802539999999,262.01,0.06700746715068817,0.8550973534584045,-0.02800000086426735,0.0,1
1682451329.60040021,26916238,0,3,243347600,2259,16,0.68,42.7074484,-84.47802539999999,261.99,0.02282542549073696,151.189208984375,-0.03800000250339508,0.0,1
1682451329.82028913,27136127,0,3,243347800,2259,16,0.68,42.707448299999996,-84.47802539999999,261.98,0.11638729274272919,162.49913024902344,0.05400000140070915,0.0,1
1682451330.02036524,27336203,0,3,243348000,2259,16,0.68,42.707448299999996,-84.47802539999999,261.97,0.03138471022248268,337.52056884765625,0.09800000488758087,0.0,1
1682451330.22025514,27536093,0,3,243348200,2259,16,0.68,42.7074485,-84.47802539999999,261.99,0.02607681229710579,212.47120666503906,0.03800000250339508,0.0,1
1682451330.42019916,27736037,0,3,243348400,2259,16,0.68,42.7074487,-84.47802539999999,261.99,0.033837851136922836,55.840301513671875,0.09000000357627869,0.0,1
1682451330.62078404,27936622,0,3,243348600,2259,16,0.68,42.707448899999996,-84.47802539999999,262.0,0.017464250326156616,23.629375457763672,0.1380000114440918,0.0,1
1682451330.82083511,28136673,0,3,243348800,2259,16,0.68,42.707449,-84.47802539999999,261.99,0.009433981962502003,302.00537109375,0.06000000238418579,0.0,1
1682451331.02031207,28336150,0,3,243349000,2259,16,0.68,42.7074492,-84.4780255,262.0,0.061131011694669724,164.8270721435547,0.07900000363588333,0.0,1
1682451331.22020411,28536042,0,3,243349200,2259,16,0.68,42.7074492,-84.47802539999999,262.0,0.009055386297404766,186.34019470214844,-0.006000000052154064,0.0,1
1682451331.42019105,28736029,0,3,243349400,2259,16,0.68,42.7074493,-84.4780255,262.01,0.03220248594880104,205.7693328857422,0.04500000178813934,0.0,1
1682451331.62080622,28936644,0,3,243349600,2259,16,0.68,42.7074493,-84.4780255,262.03000000000003,0.02640075795352459,322.696044921875,0.052000001072883606,0.0,1
1682451331.82089520,29136733,0,3,243349800,2259,16,0.68,42.707449499999996,-84.4780256,262.04,0.04501111060380936,358.7269592285156,0.04100000113248825,0.0,1
1682451332.02026010,29336098,0,3,243350000,2259,16,0.68,42.7074496,-84.4780256,262.05,0.010295630432665348,299.0545959472656,0.012000000104308128,0.0,1
1682451332.22019911,29536037,0,3,243350200,2259,17,0.64,42.7074496,-84.4780256,262.05,0.016763055697083473,72.6459732055664,0.04400000348687172,0.0,1
1682451332.42021418,29736052,0,3,243350400,2259,17,0.64,42.7074497,-84.4780256,262.06,0.006000000052154064,90.0,0.018000001087784767,0.0,1
1682451332.62032819,29936166,0,3,243350600,2259,17,0.64,42.7074498,-84.4780256,262.07,0.015811389312148094,18.434947967529297,0.09200000762939453,0.0,1
1682451332.82068610,30136524,0,3,243350800,2259,17,0.64,42.7074499,-84.47802569999999,262.08,0.026419691741466522,29.475887298583984,-0.007000000216066837,0.0,1
1682451333.02078509,30336623,0,3,243351000,2259,16,0.64,42.70745,-84.47802569999999,262.1,0.01910497434437275,312.87890625,0.07800000160932541,0.0,1
1682451333.22078514,30536623,0,3,243351200,2259,17,0.64,42.7074502,-84.4780258,262.1,0.02475883811712265,223.36341857910156,-0.004000000189989805,0.0,1
1682451333.42072821,30736566,0,3,243351400,2259,17,0.64,42.7074503,-84.47802589999999,262.12,0.00854400359094143,339.4439697265625,0.04800000041723251,0.0,1
1682451333.62085319,30936691,0,3,243351600,2259,17,0.64,42.7074504,-84.478026,262.13,0.014764823950827122,118.3007583618164,-0.07500000298023224,0.0,1
1682451333.82075906,31136597,0,3,243351800,2259,17,0.64,42.7074505,-84.478026,262.15,0.00800000037997961,180.0,0.027000000700354576,0.0,1
1682451334.04039025,31356228,0,3,243352000,2259,17,0.64,42.707450699999995,-84.4780261,262.19,0.04346263036131859,66.9745101928711,0.09800000488758087,0.0,1
1682451334.22078323,31536621,0,3,243352200,2259,17,0.64,42.7074508,-84.4780261,262.2,0.02121320366859436,315.0,-0.01600000075995922,0.0,1
1682451334.42033720,31736175,0,3,243352400,2259,17,0.64,42.707451,-84.4780262,262.24,0.06103278324007988,1.877877116203308,0.010000000707805157,0.0,1
1682451334.62029624,31936134,0,3,243352600,2259,17,0.64,42.7074511,-84.4780263,262.27,0.053150732070207596,184.3160400390625,-0.00800000037997961,0.0,1
1682451334.82018518,32136023,0,3,243352800,2259,17,0.64,42.707451299999995,-84.47802639999999,262.28000000000003,0.046324942260980606,13.736268997192383,-0.02500000037252903,0.0,1
1682451335.02081108,32336649,0,3,243353000,2259,17,0.64,42.7074515,-84.4780265,262.33,0.0442831814289093,25.407716751098633,0.004000000189989805,0.0,1
1682451335.22093606,32536774,0,3,243353200,2259,17,0.64,42.7074517,-84.4780265,262.33,0.07500000298023224,90.0,0.015000000596046448,0.0,1
1682451335.42033219,32736170,0,3,243353400,2259,17,0.64,42.7074518,-84.4780265,262.38,0.017000000923871994,270.0,0.09600000083446503,0.0,1
1682451335.62021303,32936051,0,3,243353600,2259,17,0.64,42.707451899999995,-84.47802659999999,262.38,0.032756682485342026,12.339086532592773,0.058000002056360245,0.0,1
1682451335.82017803,33136016,0,3,243353800,2259,17,0.64,42.707451999999996,-84.47802659999999,262.4,0.05131277069449425,33.070674896240234,-0.03200000151991844,0.0,1
1682451336.02077603,33336614,0,3,243354000,2259,17,0.64,42.707451999999996,-84.4780267,262.42,0.025495097041130066,191.3099365234375,0.039000000804662704,0.0,1
1682451336.22067618,33536514,0,3,243354200,2259,17,0.64,42.707451899999995,-84.4780268,262.44,0.0454532727599144,219.64418029785156,0.023000001907348633,0.0,1
1682451336.40034008,33716178,0,3,243354400,2259,17,0.64,42.707451899999995,-84.4780269,262.45,0.038832977414131165,214.50852966308594,-0.00800000037997961,0.0,1
1682451336.62078309,33936621,0,3,243354600,2259,17,0.64,42.707451899999995,-84.478027,262.47,0.026305893436074257,351.25384521484375,0.11400000751018524,0.0,1
1682451336.82072711,34136565,0,3,243354800,2259,17,0.64,42.707451899999995,-84.47802709999999,262.49,0.019026298075914383,93.01277923583984,-0.026000000536441803,0.0,1
1682451337.02142525,34337263,0,3,243355000,2259,17,0.64,42.707451899999995,-84.4780272,262.52,0.0382099486887455,276.0090026855469,-0.05000000074505806,0.0,1
1682451337.22079515,34536633,0,3,243355200,2259,17,0.64,42.707451899999995,-84.4780273,262.53000000000003,0.027202941477298737,72.89726257324219,0.020000001415610313,0.0,1
1682451337.42076802,34736606,0,3,243355400,2259,17,0.64,42.707451999999996,-84.4780274,262.56,0.03201562166213989,345.5296936035156,0.012000000104308128,0.0,1
1682451337.62080812,34936646,0,3,243355600,2259,17,0.64,42.7074521,-84.4780275,262.56,0.014035669155418873,4.085616588592529,-0.006000000052154064,0.0,1
1682451337.82077718,35136615,0,3,243355800,2259,17,0.64,42.7074521,-84.47802759999999,262.57,0.010816654190421104,303.6900634765625,0.06599999964237213,0.0,1
1682451338.02084517,35336683,0,3,243356000,2259,17,0.64,42.7074521,-84.4780277,262.59000000000003,0.01612451672554016,187.12503051757812,0.02200000174343586,0.0,1
1682451338.22028017,35536118,0,3,243356200,2259,17,0.64,42.707451999999996,-84.4780279,262.6,0.036000002175569534,270.0,0.06000000238418579,0.0,1
1682451338.42018509,35736023,0,3,243356400,2259,17,0.64,42.707451999999996,-84.478028,262.61,0.0014142136787995696,135.0,0.08000000566244125,0.0,1
1682451338.62019205,35936030,0,3,243356600,2259,17,0.64,42.707451999999996,-84.4780281,262.61,0.03577708825469017,206.56504821777344,0.04800000041723251,0.0,1
1682451338.82026911,36136107,0,3,243356800,2259,17,0.64,42.707451999999996,-84.4780282,262.62,0.019646884873509407,14.743561744689941,0.04100000113248825,0.0,1
1682451339.02093410,36336772,0,3,243357000,2259,17,0.64,42.707451999999996,-84.4780282,262.63,0.01486606989055872,137.72630310058594,0.029000001028180122,0.0,1
1682451339.22023606,36536074,0,3,243357200,2259,17,0.64,42.707451899999995,-84.47802829999999,262.64,0.04883646219968796,190.61965942382812,0.0560000017285347,0.0,1
1682451339.42019224,36736030,0,3,243357400,2259,17,0.64,42.7074518,-84.4780284,262.65,0.0070710680447518826,135.0,0.04800000041723251,0.0,1
1682451339.62020922,36936047,0,3,243357600,2259,17,0.64,42.7074518,-84.4780285,262.68,0.02009975165128708,354.2893981933594,0.03100000135600567,0.0,1
1682451339.82033014,37136168,0,3,243357800,2259,17,0.64,42.7074518,-84.4780285,262.7,0.01702938787639141,139.76364135742188,0.04100000113248825,0.0,1
1682451340.02067804,37336516,0,3,243358000,2259,17,0.64,42.7074517,-84.4780286,262.71,0.020615529268980026,219.09385681152344,0.017000000923871994,0.0,1
1682451340.22076416,37536602,0,3,243358200,2259,17,0.64,42.7074517,-84.4780287,262.73,0.026476405560970306,190.8855438232422,0.013000000268220901,0.0,1
1682451340.40046310,37716301,0,3,243358400,2259,17,0.64,42.7074516,-84.47802879999999,262.73,0.032572995871305466,72.12129974365234,-0.01900000125169754,0.0,1
1682451340.62074709,37936585,0,3,243358600,2259,17,0.64,42.7074516,-84.47802879999999,262.75,0.02332380972802639,210.96376037597656,0.04000000283122063,0.0,1
1682451340.82089424,38136732,0,3,243358800,2259,17,0.64,42.7074516,-84.4780289,262.77,0.013000000268220901,337.380126953125,0.03800000250339508,0.0,1
1682451341.02082109,38336659,0,3,243359000,2259,17,0.64,42.7074515,-84.47802899999999,262.78000000000003,0.029154760763049126,185.90615844726562,0.04200000315904617,0.0,1
1682451341.22017407,38536012,0,3,243359200,2259,17,0.64,42.7074515,-84.4780291,262.8,0.04104875400662422,357.2073059082031,0.029000001028180122,0.0,1
1682451341.42020226,38736040,0,3,243359400,2259,17,0.64,42.7074516,-84.4780291,262.82,0.005656854715198278,45.0,0.03200000151991844,0.0,1
1682451341.62035012,38936188,0,3,243359600,2259,17,0.64,42.7074516,-84.4780292,262.83,0.00824621133506298,75.96375274658203,0.06200000271201134,0.0,1
1682451341.80052710,39116365,0,3,243359800,2259,17,0.64,42.7074515,-84.4780293,262.84000000000003,0.00412310566753149,194.0362548828125,0.01100000087171793,0.0,1
1682451342.02017117,39336009,0,3,243360000,2259,17,0.64,42.7074515,-84.4780294,262.86,0.009219544939696789,347.47119140625,-0.02500000037252903,0.0,1
1682451342.22018313,39536021,0,3,243360200,2259,17,0.64,42.7074515,-84.47802949999999,262.88,0.03201562166213989,218.65982055664062,0.03700000047683716,0.0,1
1682451342.42029119,39736129,0,3,243360400,2259,17,0.64,42.7074516,-84.4780296,262.9,0.03538361191749573,317.2906188964844,0.09600000083446503,0.0,1
1682451342.62036705,39936205,0,3,243360600,2259,17,0.64,42.7074516,-84.4780297,262.91,0.014866068959236145,250.34619140625,0.06200000271201134,0.0,1
1682451342.82080817,40136646,0,3,243360800,2259,17,0.64,42.7074516,-84.4780298,262.93,0.029154758900403976,149.03623962402344,-0.024000000208616257,0.0,1
1682451343.04039216,40356230,0,3,243361000,2259,17,0.64,42.7074516,-84.4780299,262.96,0.014560219831764698,74.05460357666016,0.009000000543892384,0.0,1
1682451343.22019124,40536029,0,3,243361200,2259,17,0.64,42.7074516,-84.47802999999999,262.98,0.04477722942829132,336.29736328125,0.015000000596046448,0.0,1
1682451343.42028403,40736122,0,3,243361400,2259,17,0.64,42.7074517,-84.4780301,263.0,0.019209373742341995,218.65982055664062,0.05100000277161598,0.0,1
1682451343.62094617,40936784,0,3,243361600,2259,17,0.64,42.7074517,-84.47803019999999,263.01,0.01612451672554016,82.8749771118164,0.055000003427267075,0.0,1
1682451343.82070804,41136546,0,3,243361800,2259,17,0.64,42.7074517,-84.47803019999999,263.02,0.019416488707065582,281.888671875,0.0990000069141388,0.0,1
1682451344.02080822,41336646,0,3,243362000,2259,17,0.64,42.7074517,-84.4780304,263.04,0.02927456423640251,262.1466979980469,0.07000000029802322,0.0,1
1682451344.22080302,41536641,0,3,243362200,2259,17,0.64,42.7074517,-84.4780305,263.04,0.010816654190421104,213.69007873535156,0.036000002175569534,0.0,1
1682451344.42094016,41736778,0,3,243362400,2259,17,0.64,42.7074517,-84.4780306,263.07,0.018384777009487152,22.3801326751709,0.09100000560283661,0.0,1
1682451344.62083316,41936671,0,3,243362600,2259,17,0.64,42.7074517,-84.4780306,263.09000000000003,0.027202943339943886,216.02737426757812,0.030000001192092896,0.0,1
1682451344.82080507,42136643,0,3,243362800,2259,17,0.64,42.7074517,-84.47803069999999,263.11,0.020223749801516533,171.46922302246094,-0.026000000536441803,0.0,1
1682451345.02135825,42337196,0,3,243363000,2259,17,0.64,42.7074516,-84.4780308,263.14,0.008602325804531574,215.53768920898438,0.026000000536441803,0.0,1
1682451345.22082710,42536665,0,3,243363200,2259,17,0.64,42.7074516,-84.4780308,263.15,0.008602325804531574,125.53766632080078,0.003000000026077032,0.0,1
1682451345.42030525,42736143,0,3,243363400,2259,17,0.64,42.7074516,-84.4780309,263.16,0.006403124891221523,321.3402099609375,-0.004000000189989805,0.0,1
1682451345.62018919,42936027,0,3,243363600,2259,17,0.64,42.7074517,-84.478031,263.18,0.02692582458257675,21.801408767700195,0.04000000283122063,0.0,1
1682451345.82018018,43136018,0,3,243363800,2259,17,0.64,42.7074517,-84.478031,263.19,0.012649111449718475,251.5650634765625,0.04400000348687172,0.0,1
1682451346.02032304,43336161,0,3,243364000,2259,17,0.64,42.7074517,-84.4780311,263.2,0.010630146600306034,48.8140754699707,0.04100000113248825,0.0,1
1682451346.22095203,43536790,0,3,243364200,2259,17,0.64,42.7074517,-84.4780311,263.22,0.010198039934039116,281.3099365234375,0.06300000101327896,0.0,1
1682451346.42023420,43736072,0,3,243364400,2259,17,0.64,42.7074516,-84.47803119999999,263.24,0.026683328673243523,192.99462890625,0.052000001072883606,0.0,1
1682451346.62018919,43936027,0,3,243364600,2259,17,0.64,42.7074516,-84.4780313,263.26,0.012206556275486946,214.99203491210938,0.004000000189989805,0.0,1
1682451346.82019210,44136030,0,3,243364800,2259,17,0.64,42.7074516,-84.4780313,263.28000000000003,0.013152946718037128,98.74615478515625,0.012000000104308128,0.0,1
1682451347.02084708,44336685,0,3,243365000,2259,17,0.64,42.7074516,-84.47803139999999,263.31,0.0300665944814682,176.18592834472656,-0.014000000432133675,0.0,1
1682451347.22030520,44536143,0,3,243365200,2259,17,0.64,42.7074515,-84.47803139999999,263.35,0.010295630432665348,150.94540405273438,0.07300000637769699,0.0,1
1682451347.42016625,44736004,0,3,243365400,2259,17,0.64,42.7074515,-84.4780315,263.36,0.02140093594789505,142.5946502685547,-0.020000001415610313,0.0,1
1682451347.62018108,44936019,0,3,243365600,2259,17,0.64,42.7074515,-84.4780315,263.39,0.025495097041130066,191.3099365234375,0.024000000208616257,0.0,1
1682451347.82031918,45136157,0,3,243365800,2259,17,0.64,42.7074515,-84.4780316,263.42,0.0036055513191968203,236.3099365234375,0.013000000268220901,0.0,1
1682451348.04023623,45356074,0,3,243366000,2259,17,0.64,42.7074515,-84.4780316,263.44,0.03478505462408066,18.43494987487793,0.0560000017285347,0.0,1
1682451348.22066808,45536506,0,3,243366200,2259,17,0.64,42.7074516,-84.4780317,263.45,0.006082762498408556,99.46231842041016,0.006000000052154064,0.0,1
1682451348.42076802,45736606,0,3,243366400,2259,17,0.64,42.7074516,-84.4780317,263.45,0.0150332972407341,176.18592834472656,-0.04100000113248825,0.0,1
1682451348.62069702,45936535,0,3,243366600,2259,17,0.64,42.7074516,-84.4780317,263.48,0.019235385581851006,27.89727020263672,0.11700000613927841,0.0,1
1682451348.82078505,46136623,0,3,243366800,2259,17,0.64,42.7074516,-84.4780318,263.48,0.01077033020555973,338.1986083984375,0.06400000303983688,0.0,1
1682451349.02076912,46336607,0,3,243367000,2259,17,0.64,42.7074516,-84.4780318,263.49,0.015033296309411526,273.8140869140625,0.02200000174343586,0.0,1
1682451349.22017503,46536013,0,3,243367200,2259,17,0.64,42.7074517,-84.47803189999999,263.51,0.0020000000949949026,180.0,-0.01600000075995922,0.0,1
1682451349.42018914,46736027,0,3,243367400,2259,17,0.64,42.7074517,-84.47803189999999,263.53000000000003,0.019313208758831024,21.250503540039062,0.018000001087784767,0.0,1
1682451349.62031507,46936153,0,3,243367600,2259,17,0.64,42.7074517,-84.478032,263.55,0.02370654046535492,152.35401916503906,0.10100000351667404,0.0,1
1682451349.82034707,47136185,0,3,243367800,2259,17,0.64,42.7074516,-84.478032,263.56,0.013928388245403767,158.9624786376953,0.04000000283122063,0.0,1
1682451350.02019310,47336031,0,3,243368000,2259,17,0.64,42.7074516,-84.478032,263.58,0.015811389312148094,288.4349365234375,0.04200000315904617,0.0,1
1682451350.22016907,47536007,0,3,243368200,2259,17,0.64,42.7074517,-84.4780321,263.59000000000003,0.049648769199848175,9.272601127624512,0.03800000250339508,0.0,1
1682451350.42019415,47736032,0,3,243368400,2259,17,0.64,42.7074517,-84.4780321,263.59000000000003,0.020615529268980026,67.16634368896484,0.04700000211596489,0.0,1
1682451350.62036109,47936199,0,3,243368600,2259,17,0.64,42.7074517,-84.4780321,263.62,0.02080865204334259,324.78240966796875,0.0650000050663948,0.0,1
1682451350.82028413,48136122,0,3,243368800,2259,17,0.64,42.7074518,-84.4780321,263.63,0.042059484869241714,18.004159927368164,0.07200000435113907,0.0,1
1682451351.02081013,48336648,0,3,243369000,2259,17,0.64,42.7074518,-84.4780322,263.65,0.014142136089503765,315.0,-0.02800000086426735,0.0,1
1682451351.22055912,48536397,0,3,243369200,2259,17,0.64,42.7074518,-84.4780322,263.67,0.015264337882399559,301.6075134277344,0.0860000029206276,0.0,1
1682451351.42074013,48736578,0,3,243369400,2259,17,0.64,42.7074518,-84.4780323,263.68,0.013928388245403767,68.96248626708984,0.01900000125169754,0.0,1
1682451351.62089515,48936733,0,3,243369600,2259,17,0.64,42.7074518,-84.4780323,263.7,0.02607681043446064,265.601318359375,-0.014000000432133675,0.0,1
1682451351.82079124,49136629,0,3,243369800,2259,17,0.64,42.7074518,-84.47803239999999,263.72,0.009055386297404766,186.34019470214844,0.046000003814697266,0.0,1
1682451352.04019618,49356034,0,3,243370000,2259,17,0.64,42.7074518,-84.47803239999999,263.73,0.02376973070204258,14.620871543884277,-0.01900000125169754,0.0,1
1682451352.22020411,49536042,0,3,243370200,2259,17,0.64,42.7074518,-84.47803239999999,263.75,0.006403124425560236,308.6598205566406,0.004000000189989805,0.0,1
1682451352.42035604,49736194,0,3,243370400,2259,17,0.64,42.7074518,-84.4780325,263.76,0.0010000000474974513,90.0,0.04000000283122063,0.0,1
1682451352.62030005,49936138,0,3,243370600,2259,17,0.64,42.707451899999995,-84.4780325,263.78000000000003,0.0070710680447518826,351.8699035644531,-0.05400000140070915,0.0,1
1682451352.82018209,50136020,0,3,243370800,2259,17,0.64,42.707451899999995,-84.47803259999999,263.81,0.021954499185085297,239.93142700195312,0.026000000536441803,0.0,1
1682451353.02016807,50336006,0,3,243371000,2259,17,0.64,42.707451899999995,-84.47803259999999,263.83,0.01100000087171793,90.0,-0.02500000037252903,0.0,1
1682451353.22030711,50536145,0,3,243371200,2259,17,0.64,42.707451899999995,-84.47803259999999,263.84000000000003,0.031144823879003525,185.52755737304688,0.013000000268220901,0.0,1
1682451353.42034602,50736184,0,3,243371400,2259,17,0.64,42.7074518,-84.4780327,263.85,0.013038406148552895,212.47120666503906,0.0010000000474974513,0.0,1
1682451353.62025404,50936092,0,3,243371600,2259,17,0.64,42.707451899999995,-84.4780327,263.87,0.04257934167981148,350.5376892089844,0.004000000189989805,0.0,1
1682451353.82071209,51136550,0,3,243371800,2259,17,0.64,42.707451899999995,-84.4780328,263.88,0.023021729663014412,145.61965942382812,0.058000002056360245,0.0,1
1682451354.02022004,51336058,0,3,243372000,2259,17,0.64,42.707451899999995,-84.4780328,263.88,0.007280109915882349,285.9454040527344,-0.004000000189989805,0.0,1
1682451354.22066903,51536507,0,3,243372200,2259,17,0.64,42.707451899999995,-84.4780328,263.89,0.0058309524320065975,120.96373748779297,0.0950000062584877,0.0,1
1682451354.42066717,51736505,0,3,243372400,2259,17,0.64,42.707451899999995,-84.4780328,263.9,0.018027756363153458,326.3099365234375,-0.003000000026077032,0.0,1
1682451354.62068915,51936527,0,3,243372600,2259,17,0.64,42.707451899999995,-84.4780329,263.92,0.03417601436376572,200.55606079101562,0.01900000125169754,0.0,1
1682451354.82055807,52136396,0,3,243372800,2259,17,0.64,42.7074518,-84.4780329,263.94,0.013000000268220901,0.0,0.032999999821186066,0.0,1
1682451355.02058816,52336426,0,3,243373000,2259,17,0.64,42.7074518,-84.478033,263.94,0.01077033020555973,291.8014221191406,-0.007000000216066837,0.0,1
1682451355.22081423,52536652,0,3,243373200,2259,17,0.64,42.7074518,-84.478033,263.97,0.021840332075953484,344.0545959472656,0.09000000357627869,0.0,1
1682451355.40035224,52716190,0,3,243373400,2259,17,0.64,42.707451899999995,-84.478033,263.97,0.009055386297404766,96.34017944335938,0.01900000125169754,0.0,1
1682451355.62019205,52936030,0,3,243373600,2259,17,0.64,42.7074518,-84.478033,263.99,0.024698181077837944,201.37062072753906,0.02800000086426735,0.0,1
1682451355.82021523,53136053,0,3,243373800,2259,17,0.64,42.7074518,-84.478033,264.0,0.013892443850636482,210.25643920898438,-0.014000000432133675,0.0,1
1682451356.02033615,53336174,0,3,243374000,2259,17,0.64,42.7074518,-84.478033,264.01,0.0036055513191968203,303.6900634765625,0.015000000596046448,0.0,1
1682451356.22031617,53536154,0,3,243374200,2259,17,0.64,42.7074517,-84.47803309999999,264.01,0.025019992142915726,267.70941162109375,0.046000003814697266,0.0,1
1682451356.42017817,53736016,0,3,243374400,2259,17,0.64,42.7074517,-84.47803309999999,264.01,0.017117243260145187,173.2901611328125,0.005000000353902578,0.0,1
1682451356.62069011,53936528,0,3,243374600,2259,17,0.64,42.7074517,-84.4780332,264.03000000000003,0.032999999821186066,0.0,-0.014000000432133675,0.0,1
1682451356.82062221,54136460,0,3,243374800,2259,17,0.64,42.7074517,-84.4780332,264.04,0.03178049996495247,12.72435474395752,0.04500000178813934,0.0,1
1682451357.02081513,54336653,0,3,243375000,2259,17,0.64,42.7074517,-84.4780332,264.04,0.023086795583367348,175.03025817871094,-0.01900000125169754,0.0,1
1682451357.22116613,54537004,0,3,243375200,2259,17,0.64,42.7074517,-84.4780332,264.03000000000003,0.02385372295975685,146.97613525390625,0.030000001192092896,0.0,1
1682451357.42017102,54736009,0,3,243375400,2259,17,0.64,42.7074516,-84.4780332,264.04,0.013416407629847527,153.43495178222656,0.06700000166893005,0.0,1
1682451357.62020922,54936047,0,3,243375600,2259,17,0.64,42.7074516,-84.4780332,264.04,0.022671569138765335,311.4236755371094,0.04200000315904617,0.0,1
1682451357.82034421,55136182,0,3,243375800,2259,17,0.64,42.7074516,-84.47803329999999,264.04,0.01612451672554016,262.875,0.02800000086426735,0.0,1
1682451358.02029610,55336134,0,3,243376000,2259,17,0.64,42.7074515,-84.47803329999999,264.05,0.015652475878596306,206.56504821777344,-0.01600000075995922,0.0,1
1682451358.22018719,55536025,0,3,243376200,2259,17,0.64,42.7074515,-84.4780334,264.05,0.036674242466688156,191.00355529785156,-0.07500000298023224,0.0,1
1682451358.42019606,55736034,0,3,243376400,2259,17,0.64,42.7074515,-84.4780334,264.06,0.014035669155418873,274.08563232421875,-0.04000000283122063,0.0,1
1682451358.62063718,55936475,0,3,243376600,2259,17,0.64,42.7074514,-84.4780335,264.06,0.00806225836277008,172.87496948242188,-0.004000000189989805,0.0,1
1682451358.82078910,56136627,0,3,243376800,2259,17,0.64,42.7074514,-84.4780335,264.07,0.017117243260145187,173.2901611328125,-0.046000003814697266,0.0,1
1682451359.02023816,56336076,0,3,243377000,2259,17,0.64,42.7074514,-84.4780335,264.08,0.01004987582564354,174.28939819335938,0.0020000000949949026,0.0,1
1682451359.22019124,56536029,0,3,243377200,2259,17,0.64,42.7074514,-84.4780335,264.09000000000003,0.012649111449718475,288.4349365234375,-0.0010000000474974513,0.0,1
1682451359.42019725,56736035,0,3,243377400,2259,17,0.64,42.7074514,-84.47803359999999,264.09000000000003,0.01649242267012596,194.0362548828125,0.032999999821186066,0.0,1
1682451359.62034607,56936184,0,3,243377600,2259,17,0.64,42.7074514,-84.47803359999999,264.07,0.029068883508443832,93.94517517089844,-0.026000000536441803,0.0,1
1682451359.82028413,57136122,0,3,243377800,2259,17,0.64,42.707451299999995,-84.47803359999999,264.08,0.010198039934039116,281.3099365234375,0.12600000202655792,0.0,1
1682451360.04039025,57356228,0,3,243378000,2259,17,0.64,42.7074514,-84.47803359999999,264.07,0.02657066099345684,19.79887580871582,0.026000000536441803,0.0,1
1682451360.22055912,57536397,0,3,243378200,2259,17,0.64,42.7074514,-84.4780337,264.07,0.0058309524320065975,30.96375274658203,0.039000000804662704,0.0,1
1682451360.42063212,57736470,0,3,243378400,2259,17,0.64,42.7074514,-84.4780337,264.06,0.015231546945869923,336.8014221191406,0.005000000353902578,0.0,1
1682451360.62081504,57936653,0,3,243378600,2259,17,0.64,42.7074514,-84.47803379999999,264.07,0.022561030462384224,257.19573974609375,0.12700000405311584,0.0,1
1682451360.82020617,58136044,0,3,243378800,2259,17,0.64,42.7074514,-84.47803379999999,264.05,0.02420743741095066,141.7098388671875,-0.006000000052154064,0.0,1
1682451361.04069209,58356530,0,3,243379000,2259,17,0.64,42.7074514,-84.4780339,264.05,0.01600000075995922,0.0,0.015000000596046448,0.0,1
1682451361.22019315,58536031,0,3,243379200,2259,17,0.64,42.7074514,-84.4780339,264.04,0.024698181077837944,68.6293716430664,-0.020000001415610313,0.0,1
1682451361.42032909,58736167,0,3,243379400,2259,17,0.64,42.7074514,-84.4780339,264.05,0.03448187932372093,343.1416015625,0.02200000174343586,0.0,1
1682451361.62030721,58936145,0,3,243379600,2259,17,0.64,42.7074515,-84.478034,264.05,0.017000000923871994,180.0,-0.012000000104308128,0.0,1
1682451361.82017612,59136014,0,3,243379800,2259,17,0.64,42.7074514,-84.478034,264.07,0.015652475878596306,333.4349365234375,-0.026000000536441803,0.0,1
1682451362.02068305,59336521,0,3,243380000,2259,17,0.64,42.7074515,-84.4780341,264.05,0.015524175018072128,14.931417465209961,0.0020000000949949026,0.0,1
1682451362.20033622,59516174,0,3,243380200,2259,17,0.64,42.7074515,-84.4780341,264.04,0.00806225836277008,209.74488830566406,0.0010000000474974513,0.0,1
1682451362.42035913,59736197,0,3,243380400,2259,17,0.64,42.7074515,-84.4780342,264.04,0.00412310566753149,255.96377563476562,0.07200000435113907,0.0,1
1682451362.62023425,59936072,0,3,243380600,2259,17,0.64,42.7074515,-84.4780342,264.03000000000003,0.024351593106985092,160.82098388671875,-0.03800000250339508,0.0,1
1682451362.82017207,60136010,0,3,243380800,2259,17,0.64,42.7074515,-84.47803429999999,264.04,0.017117243260145187,96.70983123779297,0.032999999821186066,0.0,1
1682451363.02060723,60336445,0,3,243381000,2259,17,0.64,42.7074516,-84.47803429999999,264.03000000000003,0.006324555724859238,341.5650634765625,0.08100000023841858,0.0,1
1682451363.22027421,60536112,0,3,243381200,2259,17,0.64,42.7074516,-84.4780344,264.02,0.004242640919983387,135.0,0.0560000017285347,0.0,1
1682451363.42072105,60736559,0,3,243381400,2259,17,0.64,42.7074516,-84.4780344,264.01,0.013601471669971943,323.9726257324219,-0.005000000353902578,0.0,1
1682451363.60056210,60916400,0,3,243381600,2259,17,0.64,42.7074517,-84.47803449999999,264.02,0.02102379873394966,357.273681640625,0.08800000697374344,0.0,1
1682451363.82065511,61136493,0,3,243381800,2259,17,0.64,42.7074517,-84.4780346,264.01,0.010630146600306034,221.18592834472656,-0.027000000700354576,0.0,1
1682451364.02127218,61337110,0,3,243382000,2259,17,0.64,42.7074518,-84.4780347,264.01,0.03280244022607803,307.568603515625,-0.04200000315904617,0.0,1
1682451364.22035217,61536190,0,3,243382200,2259,17,0.64,42.7074518,-84.4780347,264.01,0.011401754803955555,127.87498474121094,0.04700000211596489,0.0,1
1682451364.42021203,61736050,0,3,243382400,2259,17,0.64,42.7074518,-84.4780348,264.0,0.0298328697681427,346.4295654296875,-0.08300000429153442,0.0,1
1682451364.62020802,61936046,0,3,243382600,2259,17,0.64,42.707451899999995,-84.4780349,264.02,0.019999999552965164,323.1300964355469,0.046000003814697266,0.0,1
1682451364.82019424,62136032,0,3,243382800,2259,17,0.64,42.707451899999995,-84.4780349,264.02,0.004999999888241291,126.8698959350586,-0.04000000283122063,0.0,1
1682451365.02034807,62336186,0,3,243383000,2259,17,0.64,42.707451899999995,-84.47803499999999,264.01,0.04123105853796005,202.8336639404297,-0.052000001072883606,0.0,1
1682451365.22030711,62536145,0,3,243383200,2259,17,0.64,42.707451899999995,-84.4780351,264.02,0.012206556275486946,55.00797653198242,-0.030000001192092896,0.0,1
1682451365.42071509,62736553,0,3,243383400,2259,17,0.64,42.707451999999996,-84.4780351,264.02,0.020518286153674126,133.02505493164062,-0.049000002443790436,0.0,1
1682451365.62041116,62936249,0,3,243383600,2259,17,0.64,42.707451999999996,-84.4780352,264.03000000000003,0.02080865204334259,305.21759033203125,0.010000000707805157,0.0,1
1682451365.82059026,63136428,0,3,243383800,2259,17,0.64,42.707451999999996,-84.4780352,264.04,0.02376973070204258,345.3791198730469,0.05100000277161598,0.0,1
1682451366.04024506,63356083,0,3,243384000,2259,17,0.64,42.7074521,-84.4780353,264.03000000000003,0.04104875400662422,2.7927024364471436,-0.014000000432133675,0.0,1
1682451366.22066617,63536504,0,3,243384200,2259,17,0.64,42.7074521,-84.4780353,264.03000000000003,0.021587034687399864,193.3925018310547,-0.0010000000474974513,0.0,1
1682451366.42105317,63736891,0,3,243384400,2259,17,0.64,42.7074521,-84.4780354,264.02,0.04244997352361679,164.98162841796875,0.0020000000949949026,0.0,1
1682451366.62021613,63936054,0,3,243384600,2259,17,0.64,42.707451999999996,-84.4780354,264.02,0.025612497702240944,128.65980529785156,0.023000001907348633,0.0,1
1682451366.82033420,64136172,0,3,243384800,2259,17,0.64,42.707451999999996,-84.4780354,264.01,0.015556350350379944,225.0,-0.058000002056360245,0.0,1
1682451367.02032018,64336158,0,3,243385000,2259,17,0.64,42.707451999999996,-84.47803549999999,264.02,0.006403124891221523,141.34017944335938,0.032999999821186066,0.0,1
1682451367.22021604,64536054,0,3,243385200,2259,17,0.64,42.707451999999996,-84.47803549999999,264.01,0.04327816888689995,40.3140983581543,0.01900000125169754,0.0,1
1682451367.42016721,64736005,0,3,243385400,2259,17,0.64,42.707451999999996,-84.4780354,264.01,0.013601470738649368,162.8972625732422,-0.023000001907348633,0.0,1
1682451367.62029123,64936129,0,3,243385600,2259,17,0.64,42.707451999999996,-84.47803549999999,264.01,0.009486833587288857,108.4349365234375,-0.06800000369548798,0.0,1
1682451367.82037020,65136208,0,3,243385800,2259,17,0.64,42.707451999999996,-84.47803549999999,264.01,0.018384777009487152,135.0,-0.013000000268220901,0.0,1
1682451368.02025414,65336092,0,3,243386000,2259,17,0.64,42.707451999999996,-84.47803549999999,264.0,0.037643060088157654,140.38931274414062,0.004000000189989805,0.0,1
1682451368.22018003,65536018,0,3,243386200,2259,17,0.64,42.7074521,-84.47803549999999,264.0,0.0510392040014267,2.2457425594329834,0.013000000268220901,0.0,1
1682451368.42020917,65736047,0,3,243386400,2259,17,0.64,42.7074521,-84.47803549999999,264.0,0.003162277862429619,341.5650634765625,-0.039000000804662704,0.0,1
1682451368.62031603,65936154,0,3,243386600,2259,17,0.64,42.7074521,-84.47803549999999,263.99,0.012369317002594471,104.0362319946289,-0.036000002175569534,0.0,1
1682451368.82081723,66136655,0,3,243386800,2259,17,0.64,42.7074522,-84.4780356,264.0,0.056080300360918045,338.0088806152344,0.004000000189989805,0.0,1
1682451369.00032425,66316162,0,3,243387000,2259,17,0.64,42.7074522,-84.47803569999999,263.99,0.048373546451330185,187.12503051757812,-0.0950000062584877,0.0,1
1682451369.22067714,66536515,0,3,243387200,2259,17,0.64,42.7074522,-84.47803569999999,263.99,0.018681542947888374,105.52410125732422,0.010000000707805157,0.0,1
1682451369.42069221,66736530,0,3,243387400,2259,17,0.64,42.7074522,-84.47803569999999,263.99,0.007810249924659729,320.1944274902344,-0.0010000000474974513,0.0,1
1682451369.62082911,66936667,0,3,243387600,2259,17,0.64,42.7074523,-84.47803569999999,263.99,0.04101219400763512,358.6028137207031,-0.0020000000949949026,0.0,1
1682451369.82117724,67137015,0,3,243387800,2259,17,0.64,42.7074523,-84.4780358,263.99,0.03337663784623146,188.61566162109375,0.023000001907348633,0.0,1
1682451370.04041910,67356257,0,3,243388000,2259,17,0.64,42.7074523,-84.4780358,263.98,0.009219544008374214,310.6012878417969,-0.03800000250339508,0.0,1
1682451370.22020817,67536046,0,3,243388200,2259,17,0.64,42.7074523,-84.4780359,263.99,0.013601470738649368,72.89726257324219,0.03100000135600567,0.0,1
1682451370.42036009,67736198,0,3,243388400,2259,17,0.64,42.7074524,-84.4780359,264.0,0.01702938787639141,273.366455078125,-0.02200000174343586,0.0,1
1682451370.62076020,67936598,0,3,243388600,2259,17,0.64,42.7074524,-84.4780359,264.0,0.03413209691643715,121.82743835449219,-0.04100000113248825,0.0,1
1682451370.82018805,68136026,0,3,243388800,2259,17,0.64,42.7074524,-84.4780359,264.01,0.03640054911375046,344.0545959472656,-0.02500000037252903,0.0,1
1682451371.02057624,68336414,0,3,243389000,2259,17,0.64,42.7074524,-84.478036,264.0,0.013152946718037128,171.2538299560547,-0.04000000283122063,0.0,1
1682451371.22064018,68536478,0,3,243389200,2259,17,0.64,42.7074524,-84.478036,264.01,0.026000000536441803,202.619873046875,-0.07700000703334808,0.0,1
1682451371.42076421,68736602,0,3,243389400,2259,17,0.64,42.7074524,-84.4780361,264.01,0.019209373742341995,231.34019470214844,-0.029000001028180122,0.0,1
1682451371.62071204,68936550,0,3,243389600,2259,17,0.64,42.7074524,-84.4780361,264.03000000000003,0.05119570344686508,167.5925750732422,-0.039000000804662704,0.0,1
1682451371.82066822,69136506,0,3,243389800,2259,17,0.64,42.7074523,-84.4780361,264.06,0.008485281839966774,135.0,-0.5160000324249268,0.0,1
1682451372.04038024,69356218,0,3,243390000,2259,17,0.64,42.7074523,-84.4780361,264.22,0.04219004884362221,211.4295654296875,-0.7100000381469727,0.0,1
1682451372.22075009,69536588,0,3,243390200,2259,17,0.64,42.7074523,-84.47803619999999,264.32,0.026248808950185776,342.2553405761719,-0.5300000309944153,0.0,1
1682451372.42031312,69736151,0,3,243390400,2259,17,0.64,42.7074522,-84.4780361,264.43,0.10470912605524063,118.52311706542969,-0.5070000290870667,0.0,1
1682451372.62021303,69936051,0,3,243390600,2259,17,0.64,42.7074522,-84.478036,264.53000000000003,0.036674246191978455,78.99645233154297,-0.49500003457069397,0.0,1
1682451372.82019925,70136037,0,3,243390800,2259,17,0.64,42.7074522,-84.4780358,264.65,0.13952061533927917,124.48737335205078,-0.5870000123977661,0.0,1
1682451373.02034712,70336185,0,3,243391000,2259,17,0.64,42.7074521,-84.4780356,264.74,0.09904545545578003,88.26428985595703,-0.4710000157356262,0.0,1
1682451373.22082806,70536666,0,3,243391200,2259,17,0.64,42.7074522,-84.4780354,264.83,0.0977189838886261,72.12129974365234,-0.5920000076293945,0.0,1
1682451373.42025208,70736090,0,3,243391400,2259,17,0.64,42.7074521,-84.4780351,264.93,0.1344618946313858,112.75096893310547,-0.37800002098083496,0.0,1
1682451373.62019610,70936034,0,3,243391600,2259,17,0.64,42.7074521,-84.4780348,265.03000000000003,0.17327724397182465,96.9609603881836,-0.3580000102519989,0.0,1
1682451373.82023311,71136071,0,3,243391800,2259,17,0.64,42.7074521,-84.4780344,265.09000000000003,0.12747548520565033,101.30992126464844,-0.49000000953674316,0.0,1
1682451374.02074909,71336587,0,3,243392000,2259,17,0.64,42.707451999999996,-84.478034,265.2,0.18821531534194946,103.5194091796875,-0.48500001430511475,0.0,1
1682451374.22031808,71536156,0,3,243392200,2259,17,0.64,42.707451899999995,-84.47803359999999,265.27,0.22500889003276825,97.66194915771484,-0.4010000228881836,0.0,1
1682451374.42072320,71736561,0,3,243392400,2259,17,0.64,42.707451899999995,-84.478033,265.34000000000003,0.2420743852853775,88.57972717285156,-0.3240000009536743,0.0,1
1682451374.62069702,71936535,0,3,243392600,2259,17,0.64,42.707451899999995,-84.4780325,265.41,0.22032704949378967,105.80250549316406,-0.3960000276565552,0.0,1
1682451374.82072115,72136559,0,3,243392800,2259,17,0.64,42.7074518,-84.4780318,265.48,0.33805328607559204,91.01697540283203,-0.28200000524520874,0.0,1
1682451375.02081013,72336648,0,3,243393000,2259,17,0.64,42.7074518,-84.478031,265.52,0.3510911762714386,91.30565643310547,-0.2330000102519989,0.0,1
1682451375.22073722,72536575,0,3,243393200,2259,17,0.64,42.7074518,-84.4780301,265.56,0.44784486293792725,79.96977996826172,-0.1210000067949295,0.0,1
1682451375.42118621,72737024,0,3,243393400,2259,17,0.64,42.707451899999995,-84.47802899999999,265.6,0.44516628980636597,83.16233825683594,-0.02200000174343586,0.0,1
1682451375.62067819,72936516,0,3,243393600,2259,17,0.64,42.707451999999996,-84.47802779999999,265.62,0.49467670917510986,80.57575988769531,-0.09300000220537186,0.0,1
1682451375.80020618,73116044,0,3,243393800,2259,17,0.64,42.7074521,-84.47802659999999,265.64,0.5252390503883362,81.90074920654297,-0.15800000727176666,0.0,1
1682451376.02032113,73336159,0,3,243394000,2259,17,0.64,42.7074522,-84.47802539999999,265.66,0.5334988832473755,83.43446350097656,-0.02500000037252903,0.0,1
1682451376.22020507,73536043,0,3,243394200,2259,17,0.64,42.7074522,-84.4780241,265.65,0.48674944043159485,93.17982482910156,-0.021000001579523087,0.0,1
1682451376.42018819,73736026,0,3,243394400,2259,17,0.64,42.7074522,-84.478023,265.66,0.41820210218429565,88.21864318847656,-0.07700000703334808,0.0,1
1682451376.62071824,73936556,0,3,243394600,2259,17,0.64,42.7074521,-84.47802209999999,265.7,0.35125064849853516,101.66181945800781,-0.05100000277161598,0.0,1
1682451376.82036519,74136203,0,3,243394800,2259,17,0.64,42.707451999999996,-84.4780212,265.71,0.4556237459182739,100.49604797363281,-0.22200001776218414,0.0,1
1682451377.02024722,74336085,0,3,243395000,2259,17,0.64,42.7074518,-84.47802,265.74,0.5458534955978394,107.70467376708984,-0.2290000170469284,0.0,1
1682451377.22023320,74536071,0,3,243395200,2259,17,0.64,42.7074514,-84.47801869999999,265.76,0.6357177495956421,115.03321838378906,-0.0860000029206276,0.0,1
1682451377.42061925,74736457,0,3,243395400,2259,17,0.64,42.7074508,-84.4780172,265.79,0.804015576839447,122.24710083007812,-0.15000000596046448,0.0,1
1682451377.62059212,74936430,0,3,243395600,2259,17,0.64,42.70745,-84.47801539999999,265.85,0.8932121992111206,122.65814208984375,-0.19200000166893005,0.0,1
1682451377.82067704,75136515,0,3,243395800,2259,17,0.64,42.707449,-84.4780135,265.89,1.0550076961517334,124.9252700805664,-0.15300001204013824,0.0,1
1682451378.04041505,75356253,0,3,243396000,2259,17,0.64,42.7074479,-84.47801129999999,265.92,1.0865036249160767,122.82711029052734,-0.2150000035762787,0.0,1
1682451378.22062206,75536460,0,3,243396200,2259,17,0.64,42.7074467,-84.478009,265.97,1.172829508781433,125.73644256591797,-0.09100000560283661,0.0,1
1682451378.42126322,75737101,0,3,243396400,2259,17,0.64,42.7074454,-84.4780066,266.0,1.323489785194397,125.31120300292969,-0.164000004529953,0.0,1
1682451378.62035823,75936196,0,3,243396600,2259,17,0.64,42.707443999999995,-84.4780038,266.02,1.4401284456253052,125.04742431640625,-0.23800000548362732,0.0,1
1682451378.82025313,76136091,0,3,243396800,2259,17,0.64,42.7074425,-84.4780009,266.07,1.514892816543579,123.85790252685547,-0.18400001525878906,0.0,1
1682451379.02020907,76336047,0,3,243397000,2259,17,0.64,42.707440899999995,-84.4779977,266.1,1.6424899101257324,125.2092056274414,-0.07800000160932541,0.0,1
1682451379.22023106,76536069,0,3,243397200,2259,17,0.64,42.7074393,-84.4779944,266.12,1.6037559509277344,120.41844177246094,-0.1469999998807907,0.0,1
1682451379.42035317,76736191,0,3,243397400,2259,17,0.64,42.7074378,-84.4779909,266.14,1.7137473821640015,118.85326385498047,0.012000000104308128,0.0,1
1682451379.62031722,76936155,0,3,243397600,2259,17,0.64,42.7074364,-84.477987,266.14,1.8558087348937988,115.50182342529297,-0.07800000160932541,0.0,1
1682451379.82073116,77136569,0,3,243397800,2259,17,0.64,42.707435,-84.4779829,266.14,1.8593380451202393,115.5865478515625,0.05300000309944153,0.0,1
1682451380.02070618,77336544,0,3,243398000,2259,17,0.64,42.707433599999995,-84.4779787,266.11,1.948884129524231,111.99793243408203,0.07200000435113907,0.0,1
1682451380.22072124,77536559,0,3,243398200,2259,17,0.64,42.707432499999996,-84.4779743,266.09000000000003,1.9454342126846313,108.4908218383789,0.14600001275539398,0.0,1
1682451380.42084622,77736684,0,3,243398400,2259,17,0.64,42.7074314,-84.4779698,266.07,1.9123203754425049,107.87592315673828,0.11500000208616257,0.0,1
1682451380.62075925,77936597,0,3,243398600,2259,17,0.64,42.7074304,-84.4779654,266.08,1.8357789516448975,106.51986694335938,0.0990000069141388,0.0,1
1682451380.82075214,78136590,0,3,243398800,2259,17,0.64,42.707429499999996,-84.4779611,266.08,1.8310350179672241,105.19747924804688,0.06700000166893005,0.0,1
1682451381.02062416,78336462,0,3,243399000,2259,17,0.64,42.7074287,-84.4779568,266.06,1.8039836883544922,103.92068481445312,0.06400000303983688,0.0,1
1682451381.22072005,78536558,0,3,243399200,2259,17,0.64,42.707428,-84.4779525,266.04,1.8270317316055298,103.8384780883789,0.049000002443790436,0.0,1
1682451381.42081404,78736652,0,3,243399400,2259,17,0.64,42.7074273,-84.4779483,266.02,1.7566802501678467,99.99852752685547,0.10000000149011612,0.0,1
1682451381.62019920,78936037,0,3,243399600,2259,17,0.64,42.7074268,-84.4779441,266.02,1.6950448751449585,100.05692291259766,0.09800000488758087,0.0,1
1682451381.82019424,79136032,0,3,243399800,2259,17,0.64,42.7074263,-84.4779401,265.99,1.6515744924545288,98.60108947753906,-0.046000003814697266,0.0,1
1682451382.02029705,79336135,0,3,243400000,2259,17,0.64,42.707426,-84.4779363,266.02,1.5126487016677856,93.98036193847656,-0.027000000700354576,0.0,1
1682451382.22083020,79536668,0,3,243400200,2259,17,0.64,42.707425799999996,-84.4779326,266.03000000000003,1.4826247692108154,95.41834259033203,-0.12300000339746475,0.0,1
1682451382.42072725,79736565,0,3,243400400,2259,17,0.64,42.7074256,-84.477929,266.07,1.4747411012649536,95.05724334716797,-0.1680000126361847,0.0,1
1682451382.62021518,79936053,0,3,243400600,2259,17,0.64,42.7074253,-84.47792539999999,266.09000000000003,1.4791200160980225,96.36585235595703,-0.13600000739097595,0.0,1
1682451382.82021022,80136048,0,3,243400800,2259,17,0.64,42.707425,-84.47792179999999,266.12,1.5214195251464844,97.32586669921875,-0.15600000321865082,0.0,1
1682451383.02031016,80336148,0,3,243401000,2259,17,0.64,42.707424499999995,-84.4779181,266.14,1.5082030296325684,101.86125183105469,-0.13199999928474426,0.0,1
1682451383.22031903,80536157,0,3,243401200,2259,17,0.64,42.707423899999995,-84.47791459999999,266.16,1.5117911100387573,105.89332580566406,-0.08700000494718552,0.0,1
1682451383.42019916,80736037,0,3,243401400,2259,17,0.64,42.7074231,-84.4779111,266.19,1.416926383972168,107.41191101074219,-0.08400000631809235,0.0,1
1682451383.62063718,80936475,0,3,243401600,2259,17,0.64,42.7074223,-84.47790789999999,266.19,1.3981435298919678,109.12178039550781,-0.07300000637769699,0.0,1
1682451383.82060218,81136440,0,3,243401800,2259,17,0.64,42.7074214,-84.47790479999999,266.21,1.2905828952789307,111.8343734741211,0.0020000000949949026,0.0,1
1682451384.02079105,81336629,0,3,243402000,2259,17,0.64,42.7074207,-84.477902,266.21,1.1462308168411255,104.2423324584961,-0.0430000014603138,0.0,1
1682451384.22113514,81536973,0,3,243402200,2259,17,0.64,42.7074202,-84.4778994,266.21,1.07374906539917,103.51856231689453,-0.08700000494718552,0.0,1
1682451384.42018819,81736026,0,3,243402400,2259,17,0.64,42.7074199,-84.47789689999999,266.2,1.0105726718902588,99.74193572998047,0.09400000423192978,0.0,1
1682451384.62067819,81936516,0,3,243402600,2259,17,0.64,42.7074195,-84.4778946,266.18,0.9486885666847229,108.24395751953125,0.17600001394748688,0.0,1
1682451384.82071614,82136554,0,3,243402800,2259,17,0.64,42.7074188,-84.4778925,266.15,0.9156337380409241,121.10326385498047,0.0860000029206276,0.0,1
1682451385.02076626,82336604,0,3,243403000,2259,17,0.64,42.707417899999996,-84.4778908,266.13,0.8034880757331848,123.88783264160156,0.1550000011920929,0.0,1
1682451385.22075105,82536589,0,3,243403200,2259,17,0.64,42.707417,-84.47788919999999,266.1,0.8563089966773987,134.85806274414062,0.04400000348687172,0.0,1
1682451385.42068505,82736523,0,3,243403400,2259,17,0.64,42.707415999999995,-84.47788779999999,266.1,0.7707581520080566,134.68460083007812,0.014000000432133675,0.0,1
1682451385.62141323,82937251,0,3,243403600,2259,17,0.64,42.707415,-84.47788659999999,266.09000000000003,0.7715569138526917,137.62640380859375,0.01600000075995922,0.0,1
1682451385.82080221,83136640,0,3,243403800,2259,17,0.64,42.707414,-84.4778853,266.1,0.6716107726097107,132.64669799804688,0.021000001579523087,0.0,1
1682451386.02026320,83336101,0,3,243404000,2259,17,0.64,42.7074133,-84.47788419999999,266.08,0.5710035562515259,126.6692123413086,0.015000000596046448,0.0,1
1682451386.22019625,83536034,0,3,243404200,2259,17,0.64,42.7074127,-84.4778832,266.07,0.5209731459617615,131.03073120117188,0.07400000095367432,0.0,1
1682451386.42023826,83736076,0,3,243404400,2259,17,0.64,42.7074121,-84.4778824,266.06,0.32192546129226685,139.2828826904297,0.020000001415610313,0.0,1
1682451386.62038708,83936225,0,3,243404600,2259,17,0.64,42.7074117,-84.477882,266.05,0.27835410833358765,149.5657501220703,-0.08500000089406967,0.0,1
1682451386.82031703,84136155,0,3,243404800,2259,17,0.64,42.7074113,-84.4778817,266.06,0.21498140692710876,147.34483337402344,0.03100000135600567,0.0,1
1682451387.02021122,84336049,0,3,243405000,2259,17,0.64,42.707411,-84.4778815,266.06,0.16168178617954254,163.470458984375,0.02800000086426735,0.0,1
1682451387.22022510,84536063,0,3,243405200,2259,17,0.64,42.7074107,-84.4778814,266.05,0.16063936054706573,155.3494110107422,-0.012000000104308128,0.0,1
1682451387.42027903,84736117,0,3,243405400,2259,17,0.64,42.707410499999995,-84.4778812,266.05,0.11067972332239151,161.56504821777344,0.039000000804662704,0.0,1
1682451387.62083626,84936674,0,3,243405600,2259,17,0.64,42.7074104,-84.47788109999999,266.04,0.08736704289913177,123.32628631591797,0.026000000536441803,0.0,1
1682451387.82026005,85136098,0,3,243405800,2259,17,0.64,42.7074103,-84.4778809,266.04,0.09204890578985214,72.94303131103516,0.07900000363588333,0.0,1
1682451388.04067707,85356515,0,3,243406000,2259,17,0.64,42.707410499999995,-84.47788059999999,266.03000000000003,0.16740968823432922,53.746158599853516,-0.03400000184774399,0.0,1
1682451388.22057724,85536415,0,3,243406200,2259,17,0.64,42.7074107,-84.4778803,266.02,0.23950783908367157,41.275936126708984,-0.017000000923871994,0.0,1
1682451388.42068720,85736525,0,3,243406400,2259,17,0.64,42.707411099999995,-84.47787989999999,266.02,0.23938463628292084,34.61946105957031,0.015000000596046448,0.0,1
1682451388.62073708,85936575,0,3,243406600,2259,17,0.64,42.7074115,-84.4778796,266.01,0.25625377893447876,26.665040969848633,0.018000001087784767,0.0,1
1682451388.82069612,86136534,0,3,243406800,2259,17,0.64,42.7074119,-84.4778793,266.02,0.26226896047592163,24.317392349243164,0.04700000211596489,0.0,1
1682451389.02113223,86336970,0,3,243407000,2259,17,0.64,42.7074123,-84.4778791,266.0,0.1663881093263626,22.249021530151367,-0.12200000882148743,0.0,1
1682451389.22068715,86536525,0,3,243407200,2259,17,0.64,42.7074126,-84.4778789,266.0,0.17681913077831268,17.10272789001465,-0.07300000637769699,0.0,1
1682451389.42037916,86736217,0,3,243407400,2259,17,0.64,42.7074129,-84.4778788,266.01,0.2057887464761734,5.017979145050049,0.020000001415610313,0.0,1
1682451389.62024903,86936087,0,3,243407600,2259,17,0.64,42.7074133,-84.47787869999999,266.02,0.19751709699630737,12.277097702026367,-0.14800000190734863,0.0,1
1682451389.82022405,87136062,0,3,243407800,2259,17,0.64,42.7074137,-84.4778785,266.03000000000003,0.25093626976013184,20.529321670532227,-0.06400000303983688,0.0,1
1682451390.04038906,87356227,0,3,243408000,2259,17,0.64,42.7074141,-84.4778783,266.05,0.24196076393127441,19.55824851989746,-0.0020000000949949026,0.0,1
